{"type":"Topology","objects":{"snowdepth_geo":{"type":"GeometryCollection","name":"snowdepth","crs":{"type":"name","properties":{"name":"urn:ogc:def:crs:OGC:1.3:CRS84"}},"geometries":[{"type":"Point","properties":{"Station_ID":"PRKM4","Station_Nam":"MUNISING EAST","Latitude":"46.42580","Longitude":"-86.62000","Snowdepth":"76.500","Units":"in","Rept_Date":"2020-02-16 06"},"coordinates":[2492,6193]},{"type":"Point","properties":{"Station_ID":"OGIQ6","Station_Nam":"OGOKI CAMP","Latitude":"50.76680","Longitude":"-87.85820","Snowdepth":"61.100","Units":"in","Rept_Date":"2020-02-16 06"},"coordinates":[2202,9310]},{"type":"Point","properties":{"Station_ID":"MMNV1","Station_Nam":"MT. MANSFIELD","Latitude":"44.52480","Longitude":"-72.81540","Snowdepth":"59.000","Units":"in","Rept_Date":"2020-02-15 21"},"coordinates":[5732,4828]},{"type":"Point","properties":{"Station_ID":"HTLN3","Station_Nam":"HERMIT LAKE SNOWPLOT","Latitude":"44.26130","Longitude":"-71.28330","Snowdepth":"57.000","Units":"in","Rept_Date":"2020-02-15 10"},"coordinates":[6092,4639]},{"type":"Point","properties":{"Station_ID":"PDLM4","Station_Nam":"PAINESDALE","Latitude":"47.04160","Longitude":"-88.67170","Snowdepth":"52.000","Units":"in","Rept_Date":"2020-02-15 13"},"coordinates":[2011,6635]},{"type":"Point","properties":{"Station_ID":"AUDQ6","Station_Nam":"AUDEN","Latitude":"48.52600","Longitude":"-82.57570","Snowdepth":"47.640","Units":"in","Rept_Date":"2020-02-16 06"},"coordinates":[3441,7701]},{"type":"Point","properties":{"Station_ID":"HVCN3","Station_Nam":"HARVARD CABIN SNOWPLOT","Latitude":"44.26630","Longitude":"-71.27790","Snowdepth":"45.000","Units":"in","Rept_Date":"2020-02-15 10"},"coordinates":[6093,4643]},{"type":"Point","properties":{"Station_ID":"DVLQ6","Station_Nam":"DEVIOUS LAKE","Latitude":"49.19890","Longitude":"-87.76440","Snowdepth":"43.460","Units":"in","Rept_Date":"2020-02-16 06"},"coordinates":[2224,8184]},{"type":"Point","properties":{"Station_ID":"CAN-NL-82","Station_Nam":"GANDER 2.7 NW, CAN","Latitude":"48.97737","Longitude":"-54.63396","Snowdepth":"41.300","Units":"in","Rept_Date":"2020-02-15 10"},"coordinates":[9999,8025]},{"type":"Point","properties":{"Station_ID":"WLFM5","Station_Nam":"WOLF RIDGE ENVIRON LEARNING CENTER","Latitude":"47.38240","Longitude":"-91.19730","Snowdepth":"41.000","Units":"in","Rept_Date":"2020-02-15 13"},"coordinates":[1418,6880]},{"type":"Point","properties":{"Station_ID":"ULDI3","Station_Nam":"UNIONTOWN LOCK AND DAM,IN","Latitude":"37.80000","Longitude":"-87.98330","Snowdepth":"40.000","Units":"in","Rept_Date":"2020-02-15 12"},"coordinates":[2172,0]},{"type":"Point","properties":{"Station_ID":"MI-KW-2","Station_Nam":"DELAWARE 5.2 SW, MI","Latitude":"47.36928","Longitude":"-88.17919","Snowdepth":"37.000","Units":"in","Rept_Date":"2020-02-15 09"},"coordinates":[2126,6870]},{"type":"Point","properties":{"Station_ID":"CAN-NS-39","Station_Nam":"ST. ANNS 2.8 NW, CA","Latitude":"46.25082","Longitude":"-60.64340","Snowdepth":"37.000","Units":"in","Rept_Date":"2020-02-15 13"},"coordinates":[8589,6067]},{"type":"Point","properties":{"Station_ID":"IBLM5","Station_Nam":"ISABELLA 14W","Latitude":"47.59360","Longitude":"-91.65140","Snowdepth":"36.000","Units":"in","Rept_Date":"2020-02-15 15"},"coordinates":[1311,7031]},{"type":"Point","properties":{"Station_ID":"MQT","Station_Nam":"MARQUETTE, MI","Latitude":"46.53140","Longitude":"-87.54920","Snowdepth":"35.000","Units":"in","Rept_Date":"2020-02-16 06"},"coordinates":[2274,6269]},{"type":"Point","properties":{"Station_ID":"QNCM4","Station_Nam":"QUINCY HILL","Latitude":"47.13640","Longitude":"-88.57950","Snowdepth":"34.000","Units":"in","Rept_Date":"2020-02-15 12"},"coordinates":[2032,6703]},{"type":"Point","properties":{"Station_ID":"CAN-NL-65","Station_Nam":"KIPPENS 0.7 NE, CA","Latitude":"48.55436","Longitude":"-58.61850","Snowdepth":"33.000","Units":"in","Rept_Date":"2020-02-15 12"},"coordinates":[9064,7721]},{"type":"Point","properties":{"Station_ID":"MI-BG-3","Station_Nam":"L'ANSE 17.8 SE, MI","Latitude":"46.55730","Longitude":"-88.20770","Snowdepth":"32.000","Units":"in","Rept_Date":"2020-02-15 13"},"coordinates":[2119,6287]},{"type":"Point","properties":{"Station_ID":"ME-AR-18","Station_Nam":"NEW SWEDEN 4.9 NNW, ME","Latitude":"47.01080","Longitude":"-68.14390","Snowdepth":"32.000","Units":"in","Rept_Date":"2020-02-15 12"},"coordinates":[6828,6613]},{"type":"Point","properties":{"Station_ID":"CAN-NB-11","Station_Nam":"MIRAMICHI 3.3 S, CAN","Latitude":"46.99343","Longitude":"-65.50690","Snowdepth":"31.000","Units":"in","Rept_Date":"2020-02-15 12"},"coordinates":[7447,6601]},{"type":"Point","properties":{"Station_ID":"CAN-QC-47","Station_Nam":"SAINTE-FOY 1.8 ENE, CAN","Latitude":"46.76934","Longitude":"-71.27124","Snowdepth":"30.700","Units":"in","Rept_Date":"2020-02-15 12"},"coordinates":[6094,6440]},{"type":"Point","properties":{"Station_ID":"PTLQ6","Station_Nam":"PORTAGE LAKE","Latitude":"49.06950","Longitude":"-86.65940","Snowdepth":"30.040","Units":"in","Rept_Date":"2020-02-16 06"},"coordinates":[2483,8091]},{"type":"Point","properties":{"Station_ID":"MNSM4","Station_Nam":"MUNISING","Latitude":"46.41210","Longitude":"-86.66250","Snowdepth":"30.000","Units":"in","Rept_Date":"2020-02-15 11"},"coordinates":[2482,6183]},{"type":"Point","properties":{"Station_ID":"LVDW3","Station_Nam":"LAC VIEUX DESERT","Latitude":"46.12110","Longitude":"-89.07580","Snowdepth":"30.000","Units":"in","Rept_Date":"2020-02-15 15"},"coordinates":[1916,5974]},{"type":"Point","properties":{"Station_ID":"HURW3","Station_Nam":"HURLEY","Latitude":"46.46250","Longitude":"-90.19550","Snowdepth":"30.000","Units":"in","Rept_Date":"2020-02-15 14"},"coordinates":[1653,6219]},{"type":"Point","properties":{"Station_ID":"VT-OL-1","Station_Nam":"WESTFIELD 0.7 WNW, VT","Latitude":"44.89160","Longitude":"-72.44350","Snowdepth":"28.500","Units":"in","Rept_Date":"2020-02-15 12"},"coordinates":[5819,5092]},{"type":"Point","properties":{"Station_ID":"WRPW3","Station_Nam":"WATER PURIFICATION PLANT","Latitude":"44.38800","Longitude":"-89.80550","Snowdepth":"28.000","Units":"in","Rept_Date":"2020-02-15 12"},"coordinates":[1744,4730]},{"type":"Point","properties":{"Station_ID":"WI-VL-10","Station_Nam":"LAND O LAKES 4.3 WNW, WI","Latitude":"46.17440","Longitude":"-89.30380","Snowdepth":"28.000","Units":"in","Rept_Date":"2020-02-15 13"},"coordinates":[1862,6013]},{"type":"Point","properties":{"Station_ID":"SUTV1","Station_Nam":"SUTTON","Latitude":"44.61220","Longitude":"-72.04810","Snowdepth":"28.000","Units":"in","Rept_Date":"2020-02-15 13"},"coordinates":[5912,4891]},{"type":"Point","properties":{"Station_ID":"PRDM4","Station_Nam":"PARADISE","Latitude":"46.60380","Longitude":"-85.03960","Snowdepth":"28.000","Units":"in","Rept_Date":"2020-02-15 11"},"coordinates":[2863,6321]},{"type":"Point","properties":{"Station_ID":"HERM4","Station_Nam":"HERMAN,MI","Latitude":"46.65000","Longitude":"-88.33330","Snowdepth":"28.000","Units":"in","Rept_Date":"2020-02-15 13"},"coordinates":[2090,6354]},{"type":"Point","properties":{"Station_ID":"CAN-NS-60","Station_Nam":"SYDNEY FORKS, CAN","Latitude":"46.05645","Longitude":"-60.31510","Snowdepth":"28.000","Units":"in","Rept_Date":"2020-02-15 14"},"coordinates":[8666,5928]},{"type":"Point","properties":{"Station_ID":"CAN-NS-163","Station_Nam":"SYDNEY MINES 2.2 WNW, CAN","Latitude":"46.24851","Longitude":"-60.25161","Snowdepth":"27.200","Units":"in","Rept_Date":"2020-02-15 12"},"coordinates":[8681,6066]},{"type":"Point","properties":{"Station_ID":"VANM1","Station_Nam":"VAN BUREN","Latitude":"47.16600","Longitude":"-67.93900","Snowdepth":"27.000","Units":"in","Rept_Date":"2020-02-15 12"},"coordinates":[6876,6724]},{"type":"Point","properties":{"Station_ID":"STGW3","Station_Nam":"ST GERMAIN","Latitude":"45.91550","Longitude":"-89.48940","Snowdepth":"27.000","Units":"in","Rept_Date":"2020-02-15 12"},"coordinates":[1819,5827]},{"type":"Point","properties":{"Station_ID":"PDGM4","Station_Nam":"PAULDING","Latitude":"46.39760","Longitude":"-89.17940","Snowdepth":"27.000","Units":"in","Rept_Date":"2020-02-15 15"},"coordinates":[1891,6173]},{"type":"Point","properties":{"Station_ID":"NH-CS-10","Station_Nam":"RANDOLPH 1.4 NE, NH","Latitude":"44.38824","Longitude":"-71.26950","Snowdepth":"27.000","Units":"in","Rept_Date":"2020-02-15 12"},"coordinates":[6095,4730]},{"type":"Point","properties":{"Station_ID":"LPLN6","Station_Nam":"LAKE PLACID 2 S","Latitude":"44.30420","Longitude":"-73.98390","Snowdepth":"27.000","Units":"in","Rept_Date":"2020-02-15 13"},"coordinates":[5458,4670]},{"type":"Point","properties":{"Station_ID":"LNOW3","Station_Nam":"LAND O LAKES","Latitude":"46.19000","Longitude":"-89.45700","Snowdepth":"27.000","Units":"in","Rept_Date":"2020-02-15 13"},"coordinates":[1826,6024]},{"type":"Point","properties":{"Station_ID":"GNLM4","Station_Nam":"GREENLAND 6N","Latitude":"46.87360","Longitude":"-89.10060","Snowdepth":"27.000","Units":"in","Rept_Date":"2020-02-15 13"},"coordinates":[1910,6515]},{"type":"Point","properties":{"Station_ID":"CRVW3","Station_Nam":"CRIVITZ HIGH FALLS","Latitude":"45.35750","Longitude":"-88.19190","Snowdepth":"27.000","Units":"in","Rept_Date":"2020-02-15 13"},"coordinates":[2123,5426]},{"type":"Point","properties":{"Station_ID":"WI-VL-9","Station_Nam":"LAND O' LAKES 11.7 W, WI","Latitude":"46.19023","Longitude":"-89.45790","Snowdepth":"26.500","Units":"in","Rept_Date":"2020-02-15 13"},"coordinates":[1826,6024]},{"type":"Point","properties":{"Station_ID":"TRIQ6","Station_Nam":"TRIO LAKE","Latitude":"49.22880","Longitude":"-87.22920","Snowdepth":"26.380","Units":"in","Rept_Date":"2020-02-16 06"},"coordinates":[2349,8205]},{"type":"Point","properties":{"Station_ID":"MAIW3","Station_Nam":"MADELINE ISLAND","Latitude":"46.78330","Longitude":"-90.76670","Snowdepth":"26.000","Units":"in","Rept_Date":"2020-02-15 14"},"coordinates":[1519,6450]},{"type":"Point","properties":{"Station_ID":"GLDM4","Station_Nam":"GLADSTONE NO. 2","Latitude":"45.84330","Longitude":"-87.03910","Snowdepth":"26.000","Units":"in","Rept_Date":"2020-02-15 12"},"coordinates":[2394,5775]},{"type":"Point","properties":{"Station_ID":"CARM1","Station_Nam":"CARIBOU WFO","Latitude":"46.86810","Longitude":"-68.01250","Snowdepth":"26.000","Units":"in","Rept_Date":"2020-02-16 05"},"coordinates":[6859,6511]},{"type":"Point","properties":{"Station_ID":"CAR","Station_Nam":"CARIBOU, ME","Latitude":"46.86830","Longitude":"-68.01360","Snowdepth":"26.000","Units":"in","Rept_Date":"2020-02-15 12"},"coordinates":[6859,6511]},{"type":"Point","properties":{"Station_ID":"AVLV1","Station_Nam":"AVERILL","Latitude":"45.00570","Longitude":"-71.69030","Snowdepth":"26.000","Units":"in","Rept_Date":"2020-02-15 13"},"coordinates":[5996,5173]},{"type":"Point","properties":{"Station_ID":"SVBQ6","Station_Nam":"SAVANT BASE","Latitude":"50.28730","Longitude":"-90.65670","Snowdepth":"25.510","Units":"in","Rept_Date":"2020-02-16 06"},"coordinates":[1545,8965]},{"type":"Point","properties":{"Station_ID":"WRSM5","Station_Nam":"WRENSHALL","Latitude":"46.61550","Longitude":"-92.38380","Snowdepth":"25.000","Units":"in","Rept_Date":"2020-02-15 14"},"coordinates":[1139,6329]},{"type":"Point","properties":{"Station_ID":"WI-IR-3","Station_Nam":"PENCE 0.1 E, WI","Latitude":"46.41555","Longitude":"-90.27013","Snowdepth":"25.000","Units":"in","Rept_Date":"2020-02-15 13"},"coordinates":[1635,6186]},{"type":"Point","properties":{"Station_ID":"SUAW3","Station_Nam":"SUAMICO","Latitude":"44.60190","Longitude":"-88.09780","Snowdepth":"25.000","Units":"in","Rept_Date":"2020-02-15 12"},"coordinates":[2145,4884]},{"type":"Point","properties":{"Station_ID":"NY-FK-7","Station_Nam":"SARANAC LAKE 6.2 N, NY","Latitude":"44.41359","Longitude":"-74.15211","Snowdepth":"25.000","Units":"in","Rept_Date":"2020-02-15 11"},"coordinates":[5418,4748]},{"type":"Point","properties":{"Station_ID":"NOHM5","Station_Nam":"NORTHOME","Latitude":"47.83590","Longitude":"-94.25550","Snowdepth":"25.000","Units":"in","Rept_Date":"2020-02-15 13"},"coordinates":[700,7205]},{"type":"Point","properties":{"Station_ID":"MN7TCHCK","Station_Nam":"COOK 0.2 ENE","Latitude":"47.85225","Longitude":"-92.68378","Snowdepth":"25.000","Units":"in","Rept_Date":"2020-02-15 12"},"coordinates":[1069,7217]},{"type":"Point","properties":{"Station_ID":"MN-CK-6","Station_Nam":"GRAND MARAIS 4.4 W, MN","Latitude":"47.74865","Longitude":"-90.43760","Snowdepth":"25.000","Units":"in","Rept_Date":"2020-02-15 13"},"coordinates":[1596,7143]},{"type":"Point","properties":{"Station_ID":"MI-HG-1","Station_Nam":"HOUGHTON 1.6 ESE, MI","Latitude":"47.10774","Longitude":"-88.52940","Snowdepth":"25.000","Units":"in","Rept_Date":"2020-02-15 13"},"coordinates":[2044,6683]},{"type":"Point","properties":{"Station_ID":"FISM1","Station_Nam":"FORT KENT COOP","Latitude":"47.23850","Longitude":"-68.61240","Snowdepth":"25.000","Units":"in","Rept_Date":"2020-02-15 11"},"coordinates":[6718,6776]},{"type":"Point","properties":{"Station_ID":"EAHV1","Station_Nam":"EAST HAVEN","Latitude":"44.64250","Longitude":"-71.89120","Snowdepth":"25.000","Units":"in","Rept_Date":"2020-02-15 12"},"coordinates":[5949,4913]},{"type":"Point","properties":{"Station_ID":"DLHM5","Station_Nam":"DULUTH NWS","Latitude":"46.83680","Longitude":"-92.21080","Snowdepth":"25.000","Units":"in","Rept_Date":"2020-02-16 06"},"coordinates":[1180,6488]},{"type":"Point","properties":{"Station_ID":"DLH","Station_Nam":"DULUTH, MN","Latitude":"46.83690","Longitude":"-92.21030","Snowdepth":"25.000","Units":"in","Rept_Date":"2020-02-16 00"},"coordinates":[1180,6488]},{"type":"Point","properties":{"Station_ID":"COKM5","Station_Nam":"COOK","Latitude":"47.85060","Longitude":"-92.69250","Snowdepth":"25.000","Units":"in","Rept_Date":"2020-02-15 12"},"coordinates":[1067,7216]},{"type":"Point","properties":{"Station_ID":"BNDM5","Station_Nam":"ELY 25E","Latitude":"47.97190","Longitude":"-91.44860","Snowdepth":"25.000","Units":"in","Rept_Date":"2020-02-15 13"},"coordinates":[1359,7303]},{"type":"Point","properties":{"Station_ID":"BGBM4","Station_Nam":"BIG BAY 1NW","Latitude":"46.83250","Longitude":"-87.75040","Snowdepth":"25.000","Units":"in","Rept_Date":"2020-02-15 13"},"coordinates":[2227,6485]},{"type":"Point","properties":{"Station_ID":"VT-OL-9","Station_Nam":"GREENSBORO 2.1 NNW, VT","Latitude":"44.60528","Longitude":"-72.30940","Snowdepth":"24.000","Units":"in","Rept_Date":"2020-02-15 12"},"coordinates":[5851,4886]},{"type":"Point","properties":{"Station_ID":"TOGM5","Station_Nam":"CELINA 2E","Latitude":"47.86630","Longitude":"-93.02660","Snowdepth":"24.000","Units":"in","Rept_Date":"2020-02-15 14"},"coordinates":[989,7227]},{"type":"Point","properties":{"Station_ID":"RDFN6","Station_Nam":"REDFIELD 8N","Latitude":"43.64130","Longitude":"-75.88400","Snowdepth":"24.000","Units":"in","Rept_Date":"2020-02-15 12"},"coordinates":[5012,4194]},{"type":"Point","properties":{"Station_ID":"MN-CK-18","Station_Nam":"GRAND MARAIS 4.4 WSW, MN","Latitude":"47.74462","Longitude":"-90.43796","Snowdepth":"24.000","Units":"in","Rept_Date":"2020-02-15 13"},"coordinates":[1596,7140]},{"type":"Point","properties":{"Station_ID":"LBKV1","Station_Nam":"LYE BROOK","Latitude":"43.05000","Longitude":"-73.03330","Snowdepth":"24.000","Units":"in","Rept_Date":"2020-02-16 06"},"coordinates":[5681,3769]},{"type":"Point","properties":{"Station_ID":"CAN-PE-19","Station_Nam":"CHARLOTTETOWN 6.5 NNW, CAN","Latitude":"46.29235","Longitude":"-63.17271","Snowdepth":"24.000","Units":"in","Rept_Date":"2020-02-15 12"},"coordinates":[7995,6097]},{"type":"Point","properties":{"Station_ID":"CAN-NS-103","Station_Nam":"TRAFALGAR 4.9 WSW, CAN","Latitude":"45.26217","Longitude":"-62.72285","Snowdepth":"24.000","Units":"in","Rept_Date":"2020-02-15 12"},"coordinates":[8101,5358]},{"type":"Point","properties":{"Station_ID":"CAN-NB-18","Station_Nam":"MCLEOD HILL 1.1 ENE, CA","Latitude":"46.02725","Longitude":"-66.67460","Snowdepth":"24.000","Units":"in","Rept_Date":"2020-02-15 12"},"coordinates":[7173,5907]},{"type":"Point","properties":{"Station_ID":"CAN-NB-13","Station_Nam":"BATHURST 3.8 NW, CAN","Latitude":"47.64212","Longitude":"-65.68756","Snowdepth":"24.000","Units":"in","Rept_Date":"2020-02-15 11"},"coordinates":[7405,7066]},{"type":"Point","properties":{"Station_ID":"WI-VL-14","Station_Nam":"BOULDER JUNCTION 1.4 NE, WI","Latitude":"46.12840","Longitude":"-89.62470","Snowdepth":"23.500","Units":"in","Rept_Date":"2020-02-15 13"},"coordinates":[1787,5979]},{"type":"Point","properties":{"Station_ID":"WI-BY-14","Station_Nam":"ASHLAND 9.8 W, WI","Latitude":"46.59742","Longitude":"-91.07856","Snowdepth":"23.500","Units":"in","Rept_Date":"2020-02-15 12"},"coordinates":[1446,6316]},{"type":"Point","properties":{"Station_ID":"MN-IT-23","Station_Nam":"BOVEY 13.4 N, MN","Latitude":"47.48855","Longitude":"-93.43497","Snowdepth":"23.500","Units":"in","Rept_Date":"2020-02-15 13"},"coordinates":[893,6956]},{"type":"Point","properties":{"Station_ID":"KABQ6","Station_Nam":"CAB LAKE","Latitude":"49.59950","Longitude":"-89.17990","Snowdepth":"23.500","Units":"in","Rept_Date":"2020-02-16 06"},"coordinates":[1891,8472]},{"type":"Point","properties":{"Station_ID":"WTRM4","Station_Nam":"WATERSMEET 12WSW","Latitude":"46.22310","Longitude":"-89.40850","Snowdepth":"23.000","Units":"in","Rept_Date":"2020-02-15 12"},"coordinates":[1838,6047]},{"type":"Point","properties":{"Station_ID":"WI-WB-2","Station_Nam":"STONE LAKE 2.0 NW, WI","Latitude":"45.85960","Longitude":"-91.57710","Snowdepth":"23.000","Units":"in","Rept_Date":"2020-02-15 13"},"coordinates":[1329,5787]},{"type":"Point","properties":{"Station_ID":"VT-ES-1","Station_Nam":"GRANBY 1.4 NW, VT","Latitude":"44.58330","Longitude":"-71.77870","Snowdepth":"23.000","Units":"in","Rept_Date":"2020-02-15 12"},"coordinates":[5975,4870]},{"type":"Point","properties":{"Station_ID":"VT-CL-18","Station_Nam":"WHEELOCK 1.6 S, VT","Latitude":"44.56491","Longitude":"-72.08830","Snowdepth":"23.000","Units":"in","Rept_Date":"2020-02-15 12"},"coordinates":[5903,4857]},{"type":"Point","properties":{"Station_ID":"VT-BN-12","Station_Nam":"STAMFORD 5.0 NNE, VT","Latitude":"42.82000","Longitude":"-73.02000","Snowdepth":"23.000","Units":"in","Rept_Date":"2020-02-15 21"},"coordinates":[5684,3604]},{"type":"Point","properties":{"Station_ID":"TOHM5","Station_Nam":"TWO HARBORS WWTP","Latitude":"47.01760","Longitude":"-91.66480","Snowdepth":"23.000","Units":"in","Rept_Date":"2020-02-15 13"},"coordinates":[1308,6618]},{"type":"Point","properties":{"Station_ID":"NY-HR-18","Station_Nam":"SALISBURY CENTER 1.8 NW, NY","Latitude":"43.16260","Longitude":"-74.80880","Snowdepth":"23.000","Units":"in","Rept_Date":"2020-02-15 11"},"coordinates":[5264,3850]},{"type":"Point","properties":{"Station_ID":"ME-PN-45","Station_Nam":"MILLINOCKET 2.7 ESE, ME","Latitude":"45.65002","Longitude":"-68.64472","Snowdepth":"23.000","Units":"in","Rept_Date":"2020-02-15 12"},"coordinates":[6711,5636]},{"type":"Point","properties":{"Station_ID":"ISLV1","Station_Nam":"ISLAND POND","Latitude":"44.81280","Longitude":"-71.89020","Snowdepth":"23.000","Units":"in","Rept_Date":"2020-02-15 15"},"coordinates":[5949,5035]},{"type":"Point","properties":{"Station_ID":"GHMN3","Station_Nam":"PINKHAM NOTCH","Latitude":"44.25800","Longitude":"-71.25250","Snowdepth":"23.000","Units":"in","Rept_Date":"2020-02-15 11"},"coordinates":[6099,4637]},{"type":"Point","properties":{"Station_ID":"GGRM4","Station_Nam":"GREEN GARDEN NO.2","Latitude":"46.45330","Longitude":"-87.30380","Snowdepth":"23.000","Units":"in","Rept_Date":"2020-02-15 12"},"coordinates":[2332,6213]},{"type":"Point","properties":{"Station_ID":"EGRW3","Station_Nam":"EAGLE RIVER-SOUTH","Latitude":"45.91360","Longitude":"-89.24360","Snowdepth":"23.000","Units":"in","Rept_Date":"2020-02-15 13"},"coordinates":[1876,5825]},{"type":"Point","properties":{"Station_ID":"BRDM1","Station_Nam":"BRIDGEWATER","Latitude":"46.42870","Longitude":"-67.84370","Snowdepth":"23.000","Units":"in","Rept_Date":"2020-02-15 23"},"coordinates":[6899,6195]},{"type":"Point","properties":{"Station_ID":"NY-FK-9","Station_Nam":"GABRIELS 1.3 SE, NY","Latitude":"44.41934","Longitude":"-74.16194","Snowdepth":"22.500","Units":"in","Rept_Date":"2020-02-15 12"},"coordinates":[5416,4752]},{"type":"Point","properties":{"Station_ID":"MN-SL-15","Station_Nam":"CHISHOLM 0.4 WSW, MN","Latitude":"47.48557","Longitude":"-92.88690","Snowdepth":"22.500","Units":"in","Rept_Date":"2020-02-15 13"},"coordinates":[1021,6954]},{"type":"Point","properties":{"Station_ID":"WTRW3","Station_Nam":"WINTER","Latitude":"45.79920","Longitude":"-90.99470","Snowdepth":"22.000","Units":"in","Rept_Date":"2020-02-15 15"},"coordinates":[1465,5743]},{"type":"Point","properties":{"Station_ID":"RHIW3","Station_Nam":"RHINELANDER","Latitude":"45.59860","Longitude":"-89.45080","Snowdepth":"22.000","Units":"in","Rept_Date":"2020-02-15 13"},"coordinates":[1828,5599]},{"type":"Point","properties":{"Station_ID":"PTBN3","Station_Nam":"PITTSBURG RESERVOIR","Latitude":"45.04690","Longitude":"-71.38300","Snowdepth":"22.000","Units":"in","Rept_Date":"2020-02-15 12"},"coordinates":[6068,5203]},{"type":"Point","properties":{"Station_ID":"KABM5","Station_Nam":"KABETOGAMA LAKE VISITOR CTR","Latitude":"48.40880","Longitude":"-93.04840","Snowdepth":"22.000","Units":"in","Rept_Date":"2020-02-15 13"},"coordinates":[983,7617]},{"type":"Point","properties":{"Station_ID":"INDN6","Station_Nam":"INDIAN LAKE","Latitude":"43.75500","Longitude":"-74.27560","Snowdepth":"22.000","Units":"in","Rept_Date":"2020-02-15 11"},"coordinates":[5389,4275]},{"type":"Point","properties":{"Station_ID":"DFXM1","Station_Nam":"DOVER-FOXCROFT","Latitude":"45.18720","Longitude":"-69.18350","Snowdepth":"22.000","Units":"in","Rept_Date":"2020-02-15 12"},"coordinates":[6584,5304]},{"type":"Point","properties":{"Station_ID":"SOCQ6","Station_Nam":"SOCKET LAKE","Latitude":"50.77870","Longitude":"-91.79300","Snowdepth":"21.610","Units":"in","Rept_Date":"2020-02-16 06"},"coordinates":[1278,9318]},{"type":"Point","properties":{"Station_ID":"WI-BY-2","Station_Nam":"MELLEN 18.6 SW, WI","Latitude":"46.16937","Longitude":"-90.98090","Snowdepth":"21.000","Units":"in","Rept_Date":"2020-02-15 13"},"coordinates":[1469,6009]},{"type":"Point","properties":{"Station_ID":"VT-OL-5","Station_Nam":"DERBY CENTER 1.8 NW, VT","Latitude":"44.97200","Longitude":"-72.14780","Snowdepth":"21.000","Units":"in","Rept_Date":"2020-02-15 12"},"coordinates":[5889,5149]},{"type":"Point","properties":{"Station_ID":"VT-OL-2","Station_Nam":"BARTON 3.0 ENE, VT","Latitude":"44.75863","Longitude":"-72.11680","Snowdepth":"21.000","Units":"in","Rept_Date":"2020-02-15 12"},"coordinates":[5896,4996]},{"type":"Point","properties":{"Station_ID":"SULW3","Station_Nam":"SUMMIT LAKE","Latitude":"45.37880","Longitude":"-89.19410","Snowdepth":"21.000","Units":"in","Rept_Date":"2020-02-15 11"},"coordinates":[1888,5441]},{"type":"Point","properties":{"Station_ID":"LILM1","Station_Nam":"LILLE","Latitude":"47.27770","Longitude":"-68.10520","Snowdepth":"21.000","Units":"in","Rept_Date":"2020-02-15 12"},"coordinates":[6837,6805]},{"type":"Point","properties":{"Station_ID":"LEIM5","Station_Nam":"ORR 3E","Latitude":"48.05810","Longitude":"-92.75220","Snowdepth":"21.000","Units":"in","Rept_Date":"2020-02-15 12"},"coordinates":[1053,7365]},{"type":"Point","properties":{"Station_ID":"INL","Station_Nam":"FALLS INTERNATIONAL ARPT","Latitude":"48.56640","Longitude":"-93.40310","Snowdepth":"21.000","Units":"in","Rept_Date":"2020-02-16 00"},"coordinates":[900,7730]},{"type":"Point","properties":{"Station_ID":"ELYM5","Station_Nam":"ELY","Latitude":"47.90560","Longitude":"-91.82830","Snowdepth":"21.000","Units":"in","Rept_Date":"2020-02-15 14"},"coordinates":[1270,7255]},{"type":"Point","properties":{"Station_ID":"CMKW3","Station_Nam":"CLAM LAKE 4W","Latitude":"46.16940","Longitude":"-90.98080","Snowdepth":"21.000","Units":"in","Rept_Date":"2020-02-15 13"},"coordinates":[1469,6009]},{"type":"Point","properties":{"Station_ID":"AGNW3","Station_Nam":"ARGONNE-1.5 NW","Latitude":"45.67360","Longitude":"-88.90380","Snowdepth":"21.000","Units":"in","Rept_Date":"2020-02-15 13"},"coordinates":[1956,5653]},{"type":"Point","properties":{"Station_ID":"CAN-QC-51","Station_Nam":"BELOEIL 0.7 NW, CAN","Latitude":"45.58049","Longitude":"-73.21218","Snowdepth":"20.500","Units":"in","Rept_Date":"2020-02-15 12"},"coordinates":[5639,5586]},{"type":"Point","properties":{"Station_ID":"WRTS2","Station_Nam":"WATERTOWN,SD","Latitude":"44.90280","Longitude":"-97.11360","Snowdepth":"20.000","Units":"in","Rept_Date":"2020-02-15 15"},"coordinates":[29,5100]},{"type":"Point","properties":{"Station_ID":"WLKW3","Station_Nam":"WHITE LAKE 1 SE","Latitude":"45.14520","Longitude":"-88.74160","Snowdepth":"20.000","Units":"in","Rept_Date":"2020-02-15 14"},"coordinates":[1994,5274]},{"type":"Point","properties":{"Station_ID":"WI-BY-22","Station_Nam":"MASON 11.5 WNW, WI","Latitude":"46.50198","Longitude":"-91.28339","Snowdepth":"20.000","Units":"in","Rept_Date":"2020-02-15 14"},"coordinates":[1398,6248]},{"type":"Point","properties":{"Station_ID":"WI-AS-4","Station_Nam":"ASHLAND 0.5 WNW, WI","Latitude":"46.58240","Longitude":"-90.88390","Snowdepth":"20.000","Units":"in","Rept_Date":"2020-02-15 13"},"coordinates":[1491,6305]},{"type":"Point","properties":{"Station_ID":"VT-CH-4","Station_Nam":"UNDERHILL 4.4 NNE, VT","Latitude":"44.58774","Longitude":"-72.92250","Snowdepth":"20.000","Units":"in","Rept_Date":"2020-02-15 12"},"coordinates":[5707,4873]},{"type":"Point","properties":{"Station_ID":"RSTW3","Station_Nam":"ROSHOLT","Latitude":"44.62710","Longitude":"-89.30600","Snowdepth":"20.000","Units":"in","Rept_Date":"2020-02-15 13"},"coordinates":[1862,4902]},{"type":"Point","properties":{"Station_ID":"NUNV1","Station_Nam":"NORTH UNDERHILL","Latitude":"44.58760","Longitude":"-72.92150","Snowdepth":"20.000","Units":"in","Rept_Date":"2020-02-15 12"},"coordinates":[5707,4873]},{"type":"Point","properties":{"Station_ID":"MN-BK-6","Station_Nam":"LAKE PARK 6.0 S, MN","Latitude":"46.79850","Longitude":"-96.12180","Snowdepth":"20.000","Units":"in","Rept_Date":"2020-02-15 13"},"coordinates":[262,6461]},{"type":"Point","properties":{"Station_ID":"MALN6","Station_Nam":"MALONE","Latitude":"44.84180","Longitude":"-74.30600","Snowdepth":"20.000","Units":"in","Rept_Date":"2020-02-15 12"},"coordinates":[5382,5056]},{"type":"Point","properties":{"Station_ID":"IMNM4","Station_Nam":"IRON MOUTAIN 5N","Latitude":"45.87580","Longitude":"-88.04030","Snowdepth":"20.000","Units":"in","Rept_Date":"2020-02-16 01"},"coordinates":[2159,5798]},{"type":"Point","properties":{"Station_ID":"IFSM5","Station_Nam":"INTERNATIONAL FALLS SNOW","Latitude":"48.57780","Longitude":"-93.39640","Snowdepth":"20.000","Units":"in","Rept_Date":"2020-02-16 00"},"coordinates":[902,7738]},{"type":"Point","properties":{"Station_ID":"ESGM1","Station_Nam":"EAST SANGERVILLE","Latitude":"45.13690","Longitude":"-69.28060","Snowdepth":"20.000","Units":"in","Rept_Date":"2020-02-15 12"},"coordinates":[6562,5268]},{"type":"Point","properties":{"Station_ID":"EMBM5","Station_Nam":"EMBARASS,MN","Latitude":"47.65810","Longitude":"-92.19580","Snowdepth":"20.000","Units":"in","Rept_Date":"2020-02-15 16"},"coordinates":[1184,7078]},{"type":"Point","properties":{"Station_ID":"CORV1","Station_Nam":"CORINTH","Latitude":"44.00690","Longitude":"-72.31940","Snowdepth":"20.000","Units":"in","Rept_Date":"2020-02-15 12"},"coordinates":[5848,4456]},{"type":"Point","properties":{"Station_ID":"CLKM4","Station_Nam":"CLARKSBURG","Latitude":"46.49910","Longitude":"-87.84500","Snowdepth":"20.000","Units":"in","Rept_Date":"2020-02-15 12"},"coordinates":[2205,6246]},{"type":"Point","properties":{"Station_ID":"CAN-NB-2","Station_Nam":"GRAFTON 2.7 NNE, CA","Latitude":"46.17062","Longitude":"-67.55330","Snowdepth":"20.000","Units":"in","Rept_Date":"2020-02-15 11"},"coordinates":[6967,6010]},{"type":"Point","properties":{"Station_ID":"AWXW3","Station_Nam":"ASHLAND","Latitude":"46.58240","Longitude":"-90.88390","Snowdepth":"20.000","Units":"in","Rept_Date":"2020-02-15 13"},"coordinates":[1491,6305]},{"type":"Point","properties":{"Station_ID":"AVTW3","Station_Nam":"ARBOR VITAE-JOHNSON LAKE","Latitude":"45.89940","Longitude":"-89.72670","Snowdepth":"20.000","Units":"in","Rept_Date":"2020-02-15 12"},"coordinates":[1763,5815]},{"type":"Point","properties":{"Station_ID":"ATY","Station_Nam":"WATERTOWN MUNICIPAL AIRPORT","Latitude":"44.91420","Longitude":"-97.15440","Snowdepth":"20.000","Units":"in","Rept_Date":"2020-02-15 12"},"coordinates":[20,5108]},{"type":"Point","properties":{"Station_ID":"ASTW3","Station_Nam":"ATHELSTANE","Latitude":"45.42500","Longitude":"-88.05750","Snowdepth":"20.000","Units":"in","Rept_Date":"2020-02-15 12"},"coordinates":[2155,5474]},{"type":"Point","properties":{"Station_ID":"AROM4","Station_Nam":"ARNOLD,MI","Latitude":"46.06670","Longitude":"-87.48330","Snowdepth":"20.000","Units":"in","Rept_Date":"2020-02-15 13"},"coordinates":[2290,5935]},{"type":"Point","properties":{"Station_ID":"CAN-NS-94","Station_Nam":"MARGAREE FORKS 2.6 SSE CBN, CAN","Latitude":"46.30937","Longitude":"-61.07603","Snowdepth":"19.700","Units":"in","Rept_Date":"2020-02-15 13"},"coordinates":[8487,6109]},{"type":"Point","properties":{"Station_ID":"VT-WS-30","Station_Nam":"WOODBURY 3.4 NNW, VT","Latitude":"44.48825","Longitude":"-72.43258","Snowdepth":"19.500","Units":"in","Rept_Date":"2020-02-15 12"},"coordinates":[5822,4802]},{"type":"Point","properties":{"Station_ID":"NY-ES-6","Station_Nam":"OLMSTEDVILLE 4.6 NNE, NY","Latitude":"43.83350","Longitude":"-73.89780","Snowdepth":"19.500","Units":"in","Rept_Date":"2020-02-15 13"},"coordinates":[5478,4332]},{"type":"Point","properties":{"Station_ID":"MI-OT-17","Station_Nam":"GAYLORD 4.1 S, MI","Latitude":"44.96388","Longitude":"-84.68467","Snowdepth":"19.500","Units":"in","Rept_Date":"2020-02-15 12"},"coordinates":[2946,5143]},{"type":"Point","properties":{"Station_ID":"WTNM4","Station_Nam":"WATTON 2WSW","Latitude":"46.52660","Longitude":"-88.64240","Snowdepth":"19.000","Units":"in","Rept_Date":"2020-02-15 13"},"coordinates":[2017,6265]},{"type":"Point","properties":{"Station_ID":"WORV1","Station_Nam":"WORCESTER 2 W","Latitude":"44.37470","Longitude":"-72.58220","Snowdepth":"19.000","Units":"in","Rept_Date":"2020-02-15 12"},"coordinates":[5787,4720]},{"type":"Point","properties":{"Station_ID":"TAKW3","Station_Nam":"RICE RESERVOIR NO. 2","Latitude":"45.53770","Longitude":"-89.73220","Snowdepth":"19.000","Units":"in","Rept_Date":"2020-02-15 13"},"coordinates":[1762,5555]},{"type":"Point","properties":{"Station_ID":"SAUW3","Station_Nam":"WAUSAU WSAW TV","Latitude":"44.94630","Longitude":"-89.62220","Snowdepth":"19.000","Units":"in","Rept_Date":"2020-02-16 05"},"coordinates":[1788,5131]},{"type":"Point","properties":{"Station_ID":"RHLW3","Station_Nam":"RHINELANDER 4NE","Latitude":"45.65270","Longitude":"-89.30740","Snowdepth":"19.000","Units":"in","Rept_Date":"2020-02-15 12"},"coordinates":[1861,5638]},{"type":"Point","properties":{"Station_ID":"NYMM5","Station_Nam":"NEW YORK MILLS","Latitude":"46.50920","Longitude":"-95.37990","Snowdepth":"19.000","Units":"in","Rept_Date":"2020-02-15 13"},"coordinates":[436,6253]},{"type":"Point","properties":{"Station_ID":"NY-OD-2","Station_Nam":"POINT ROCK 0.6 SE, NY","Latitude":"43.37335","Longitude":"-75.53840","Snowdepth":"19.000","Units":"in","Rept_Date":"2020-02-15 13"},"coordinates":[5093,4001]},{"type":"Point","properties":{"Station_ID":"NUMN3","Station_Nam":"NORTHUMBERLAND","Latitude":"44.52830","Longitude":"-71.50440","Snowdepth":"19.000","Units":"in","Rept_Date":"2020-02-15 13"},"coordinates":[6040,4831]},{"type":"Point","properties":{"Station_ID":"MN-IT-1","Station_Nam":"GRAND RAPIDS 2.0 E, MN","Latitude":"47.22266","Longitude":"-93.49600","Snowdepth":"19.000","Units":"in","Rept_Date":"2020-02-15 15"},"coordinates":[878,6765]},{"type":"Point","properties":{"Station_ID":"MIEM4","Station_Nam":"MICHIGAMME 3WNW","Latitude":"46.54530","Longitude":"-88.18000","Snowdepth":"19.000","Units":"in","Rept_Date":"2020-02-15 13"},"coordinates":[2126,6279]},{"type":"Point","properties":{"Station_ID":"LNCM1","Station_Nam":"LINCOLN WATER DISTRICT","Latitude":"45.32410","Longitude":"-68.58300","Snowdepth":"19.000","Units":"in","Rept_Date":"2020-02-15 12"},"coordinates":[6725,5402]},{"type":"Point","properties":{"Station_ID":"HUBN3","Station_Nam":"HUBBARD BROOK","Latitude":"43.93330","Longitude":"-71.71670","Snowdepth":"19.000","Units":"in","Rept_Date":"2020-02-16 06"},"coordinates":[5990,4403]},{"type":"Point","properties":{"Station_ID":"HGHN6","Station_Nam":"HIGHMARKET","Latitude":"43.57520","Longitude":"-75.52070","Snowdepth":"19.000","Units":"in","Rept_Date":"2020-02-15 11"},"coordinates":[5097,4146]},{"type":"Point","properties":{"Station_ID":"CAN-ON-42","Station_Nam":"VANKLEEK HILL 3.4 S, CA","Latitude":"45.48987","Longitude":"-74.64570","Snowdepth":"19.000","Units":"in","Rept_Date":"2020-02-15 12"},"coordinates":[5302,5521]},{"type":"Point","properties":{"Station_ID":"AUW","Station_Nam":"WAUSAU MUNICIPAL AIRPORT","Latitude":"44.92580","Longitude":"-89.62560","Snowdepth":"19.000","Units":"in","Rept_Date":"2020-02-16 00"},"coordinates":[1787,5116]},{"type":"Point","properties":{"Station_ID":"CAN-PE-7","Station_Nam":"MORELL 1.4 NNW, CA","Latitude":"46.42741","Longitude":"-62.70870","Snowdepth":"18.900","Units":"in","Rept_Date":"2020-02-15 12"},"coordinates":[8104,6194]},{"type":"Point","properties":{"Station_ID":"WI-ON-6","Station_Nam":"RHINELANDER 5.2 N, WI","Latitude":"45.71388","Longitude":"-89.42150","Snowdepth":"18.500","Units":"in","Rept_Date":"2020-02-15 14"},"coordinates":[1835,5682]},{"type":"Point","properties":{"Station_ID":"WI-BY-1","Station_Nam":"BAYFIELD 8.8 N, WI","Latitude":"46.93855","Longitude":"-90.83490","Snowdepth":"18.500","Units":"in","Rept_Date":"2020-02-15 13"},"coordinates":[1503,6561]},{"type":"Point","properties":{"Station_ID":"VT-WS-33","Station_Nam":"WAITSFIELD 3.5 WNW, VT","Latitude":"44.20052","Longitude":"-72.89421","Snowdepth":"18.500","Units":"in","Rept_Date":"2020-02-15 13"},"coordinates":[5713,4595]},{"type":"Point","properties":{"Station_ID":"VT-ES-3","Station_Nam":"LUNENBURG 2.3 NNW, VT","Latitude":"44.49324","Longitude":"-71.70446","Snowdepth":"18.500","Units":"in","Rept_Date":"2020-02-15 10"},"coordinates":[5993,4806]},{"type":"Point","properties":{"Station_ID":"NH-CR-11","Station_Nam":"NORTH CONWAY 1.4 SSW, NH","Latitude":"44.03556","Longitude":"-71.14010","Snowdepth":"18.500","Units":"in","Rept_Date":"2020-02-15 12"},"coordinates":[6125,4477]},{"type":"Point","properties":{"Station_ID":"CAN-NB-16","Station_Nam":"DORCHESTER 1.0 SSE, CAN","Latitude":"45.89160","Longitude":"-64.51269","Snowdepth":"18.100","Units":"in","Rept_Date":"2020-02-15 11"},"coordinates":[7681,5809]},{"type":"Point","properties":{"Station_ID":"ZNOM4","Station_Nam":"NORWAY","Latitude":"45.77810","Longitude":"-87.89560","Snowdepth":"18.000","Units":"in","Rept_Date":"2020-02-15 13"},"coordinates":[2193,5728]},{"type":"Point","properties":{"Station_ID":"WI-RS-1","Station_Nam":"LADYSMITH 2.8 WNW, WI","Latitude":"45.48180","Longitude":"-91.14680","Snowdepth":"18.000","Units":"in","Rept_Date":"2020-02-15 13"},"coordinates":[1430,5515]},{"type":"Point","properties":{"Station_ID":"WI-PR-2","Station_Nam":"BUTTERNUT 5.9 SW, WI","Latitude":"45.96501","Longitude":"-90.59750","Snowdepth":"18.000","Units":"in","Rept_Date":"2020-02-15 12"},"coordinates":[1559,5862]},{"type":"Point","properties":{"Station_ID":"SHIW3","Station_Nam":"SHIOCTON","Latitude":"44.43890","Longitude":"-88.58390","Snowdepth":"18.000","Units":"in","Rept_Date":"2020-02-15 14"},"coordinates":[2031,4766]},{"type":"Point","properties":{"Station_ID":"NY-ER-77","Station_Nam":"COLDEN 2.4 ENE, NY","Latitude":"42.65088","Longitude":"-78.61060","Snowdepth":"18.000","Units":"in","Rept_Date":"2020-02-15 13"},"coordinates":[4372,3483]},{"type":"Point","properties":{"Station_ID":"NY-ER-166","Station_Nam":"BOSTON 2.5 NE, NY","Latitude":"42.65480","Longitude":"-78.70300","Snowdepth":"18.000","Units":"in","Rept_Date":"2020-02-15 12"},"coordinates":[4350,3486]},{"type":"Point","properties":{"Station_ID":"NPTV1","Station_Nam":"NEWPORT","Latitude":"44.94900","Longitude":"-72.19120","Snowdepth":"18.000","Units":"in","Rept_Date":"2020-02-15 12"},"coordinates":[5878,5133]},{"type":"Point","properties":{"Station_ID":"NH-CS-7","Station_Nam":"LANCASTER 0.5 N, NH","Latitude":"44.49611","Longitude":"-71.57640","Snowdepth":"18.000","Units":"in","Rept_Date":"2020-02-15 12"},"coordinates":[6023,4808]},{"type":"Point","properties":{"Station_ID":"NH-CR-26","Station_Nam":"CENTER SANDWICH 4.9 E, NH","Latitude":"43.80976","Longitude":"-71.34150","Snowdepth":"18.000","Units":"in","Rept_Date":"2020-02-15 12"},"coordinates":[6078,4315]},{"type":"Point","properties":{"Station_ID":"MTQM4","Station_Nam":"MANISTIQUE WWTP","Latitude":"45.95120","Longitude":"-86.25130","Snowdepth":"18.000","Units":"in","Rept_Date":"2020-02-15 12"},"coordinates":[2579,5852]},{"type":"Point","properties":{"Station_ID":"MN-CW-22","Station_Nam":"FORT RIPLEY 0.8 N, MN","Latitude":"46.18089","Longitude":"-94.36510","Snowdepth":"18.000","Units":"in","Rept_Date":"2020-02-15 13"},"coordinates":[674,6017]},{"type":"Point","properties":{"Station_ID":"MI-OT-16","Station_Nam":"GAYLORD 2.2 SSE, MI","Latitude":"44.99441","Longitude":"-84.65820","Snowdepth":"18.000","Units":"in","Rept_Date":"2020-02-15 12"},"coordinates":[2953,5165]},{"type":"Point","properties":{"Station_ID":"JKMM1","Station_Nam":"JACKMAN","Latitude":"45.62600","Longitude":"-70.24600","Snowdepth":"18.000","Units":"in","Rept_Date":"2020-02-15 12"},"coordinates":[6335,5619]},{"type":"Point","properties":{"Station_ID":"ESDN3","Station_Nam":"EAST SANDWICH","Latitude":"43.80990","Longitude":"-71.34250","Snowdepth":"18.000","Units":"in","Rept_Date":"2020-02-15 11"},"coordinates":[6078,4315]},{"type":"Point","properties":{"Station_ID":"BREW3","Station_Nam":"SURING","Latitude":"44.99580","Longitude":"-88.37860","Snowdepth":"18.000","Units":"in","Rept_Date":"2020-02-15 12"},"coordinates":[2079,5166]},{"type":"Point","properties":{"Station_ID":"WI-SR-1","Station_Nam":"HAYWARD 9.2 NNE, WI","Latitude":"46.13255","Longitude":"-91.40500","Snowdepth":"17.800","Units":"in","Rept_Date":"2020-02-15 12"},"coordinates":[1369,5982]},{"type":"Point","properties":{"Station_ID":"CAN-NB-97","Station_Nam":"NEW MARYLAND 0.6 NW, CAN","Latitude":"45.90112","Longitude":"-66.68739","Snowdepth":"17.700","Units":"in","Rept_Date":"2020-02-15 13"},"coordinates":[7170,5816]},{"type":"Point","properties":{"Station_ID":"VT-CH-11","Station_Nam":"UNDERHILL 5.1 NNE, VT","Latitude":"44.59811","Longitude":"-72.91880","Snowdepth":"17.500","Units":"in","Rept_Date":"2020-02-15 13"},"coordinates":[5708,4881]},{"type":"Point","properties":{"Station_ID":"VT-BN-3","Station_Nam":"LANDGROVE 1.1 NNE, VT","Latitude":"43.29092","Longitude":"-72.83260","Snowdepth":"17.500","Units":"in","Rept_Date":"2020-02-15 12"},"coordinates":[5728,3942]},{"type":"Point","properties":{"Station_ID":"NH-CR-15","Station_Nam":"JACKSON 3.7 NW, NH","Latitude":"44.19069","Longitude":"-71.22598","Snowdepth":"17.500","Units":"in","Rept_Date":"2020-02-15 12"},"coordinates":[6105,4588]},{"type":"Point","properties":{"Station_ID":"WI-PR-8","Station_Nam":"PHILLIPS 0.4 SSW, WI","Latitude":"45.69086","Longitude":"-90.40200","Snowdepth":"17.000","Units":"in","Rept_Date":"2020-02-15 13"},"coordinates":[1605,5665]},{"type":"Point","properties":{"Station_ID":"WI-PR-6","Station_Nam":"PHILLIPS 1.3 S, WI","Latitude":"45.67677","Longitude":"-90.39543","Snowdepth":"17.000","Units":"in","Rept_Date":"2020-02-15 12"},"coordinates":[1606,5655]},{"type":"Point","properties":{"Station_ID":"WI-LN-2","Station_Nam":"MERRILL 7.0 W, WI","Latitude":"45.17746","Longitude":"-89.84820","Snowdepth":"17.000","Units":"in","Rept_Date":"2020-02-15 12"},"coordinates":[1734,5297]},{"type":"Point","properties":{"Station_ID":"VT-WS-10","Station_Nam":"NORTHFIELD 1.5 N, VT","Latitude":"44.16986","Longitude":"-72.65200","Snowdepth":"17.000","Units":"in","Rept_Date":"2020-02-15 12"},"coordinates":[5770,4573]},{"type":"Point","properties":{"Station_ID":"VT-OG-11","Station_Nam":"VERSHIRE 1.5 ESE, VT","Latitude":"43.96138","Longitude":"-72.29777","Snowdepth":"17.000","Units":"in","Rept_Date":"2020-02-15 12"},"coordinates":[5853,4424]},{"type":"Point","properties":{"Station_ID":"VT-CL-14","Station_Nam":"LYNDONVILLE 1.1 W, VT","Latitude":"44.53582","Longitude":"-72.02867","Snowdepth":"17.000","Units":"in","Rept_Date":"2020-02-15 12"},"coordinates":[5917,4836]},{"type":"Point","properties":{"Station_ID":"TOPN6","Station_Nam":"TUPPER LAKE SUNMOUNT","Latitude":"44.23070","Longitude":"-74.43820","Snowdepth":"17.000","Units":"in","Rept_Date":"2020-02-15 12"},"coordinates":[5351,4617]},{"type":"Point","properties":{"Station_ID":"SSMM4","Station_Nam":"SAULT STE MARIE","Latitude":"46.48660","Longitude":"-84.40250","Snowdepth":"17.000","Units":"in","Rept_Date":"2020-02-15 13"},"coordinates":[3013,6237]},{"type":"Point","properties":{"Station_ID":"RRVM4","Station_Nam":"RAPID RIVER 9S","Latitude":"45.78750","Longitude":"-86.93920","Snowdepth":"17.000","Units":"in","Rept_Date":"2020-02-15 13"},"coordinates":[2417,5735]},{"type":"Point","properties":{"Station_ID":"RHRW3","Station_Nam":"RHINELANDER WJFW TV-12","Latitude":"45.62220","Longitude":"-89.41000","Snowdepth":"17.000","Units":"in","Rept_Date":"2020-02-16 03"},"coordinates":[1837,5616]},{"type":"Point","properties":{"Station_ID":"RHI","Station_Nam":"RHINELANDER-ONEIDA COUNTY AIRPORT","Latitude":"45.63080","Longitude":"-89.46530","Snowdepth":"17.000","Units":"in","Rept_Date":"2020-02-16 00"},"coordinates":[1824,5622]},{"type":"Point","properties":{"Station_ID":"PEKN6","Station_Nam":"PECK LAKE","Latitude":"43.11500","Longitude":"-74.42360","Snowdepth":"17.000","Units":"in","Rept_Date":"2020-02-15 12"},"coordinates":[5355,3816]},{"type":"Point","properties":{"Station_ID":"NY-ER-65","Station_Nam":"BOSTON 1.5 NE, NY","Latitude":"42.65470","Longitude":"-78.72010","Snowdepth":"17.000","Units":"in","Rept_Date":"2020-02-15 12"},"coordinates":[4346,3486]},{"type":"Point","properties":{"Station_ID":"NCKN6","Station_Nam":"NORTH CREEK 5 SE","Latitude":"43.66110","Longitude":"-73.89690","Snowdepth":"17.000","Units":"in","Rept_Date":"2020-02-15 12"},"coordinates":[5478,4208]},{"type":"Point","properties":{"Station_ID":"MLLW3","Station_Nam":"MERRILL 8W","Latitude":"45.17810","Longitude":"-89.84810","Snowdepth":"17.000","Units":"in","Rept_Date":"2020-02-15 12"},"coordinates":[1735,5297]},{"type":"Point","properties":{"Station_ID":"MI-OT-4","Station_Nam":"GAYLORD 1.7 WNW, MI","Latitude":"45.03280","Longitude":"-84.71090","Snowdepth":"17.000","Units":"in","Rept_Date":"2020-02-15 13"},"coordinates":[2940,5193]},{"type":"Point","properties":{"Station_ID":"MCLN8","Station_Nam":"MC LEOD,ND","Latitude":"46.40250","Longitude":"-97.23810","Snowdepth":"17.000","Units":"in","Rept_Date":"2020-02-15 13"},"coordinates":[0,6176]},{"type":"Point","properties":{"Station_ID":"KINM1","Station_Nam":"KINGFIELD","Latitude":"44.95950","Longitude":"-70.17530","Snowdepth":"17.000","Units":"in","Rept_Date":"2020-02-15 13"},"coordinates":[6352,5140]},{"type":"Point","properties":{"Station_ID":"JOHV1","Station_Nam":"JOHNSON 2 N","Latitude":"44.65790","Longitude":"-72.67850","Snowdepth":"17.000","Units":"in","Rept_Date":"2020-02-15 12"},"coordinates":[5764,4924]},{"type":"Point","properties":{"Station_ID":"JCBM4","Station_Nam":"JACOBSVILLE","Latitude":"47.00830","Longitude":"-88.43180","Snowdepth":"17.000","Units":"in","Rept_Date":"2020-02-15 12"},"coordinates":[2067,6611]},{"type":"Point","properties":{"Station_ID":"GAYM4","Station_Nam":"GAYLORD","Latitude":"45.03320","Longitude":"-84.71130","Snowdepth":"17.000","Units":"in","Rept_Date":"2020-02-15 13"},"coordinates":[2940,5193]},{"type":"Point","properties":{"Station_ID":"COUW3","Station_Nam":"COUDERAY,WI","Latitude":"45.86670","Longitude":"-91.45000","Snowdepth":"17.000","Units":"in","Rept_Date":"2020-02-15 22"},"coordinates":[1359,5792]},{"type":"Point","properties":{"Station_ID":"COTM5","Station_Nam":"COTTON","Latitude":"47.16870","Longitude":"-92.46290","Snowdepth":"17.000","Units":"in","Rept_Date":"2020-02-15 13"},"coordinates":[1121,6726]},{"type":"Point","properties":{"Station_ID":"CAN-ON-208","Station_Nam":"PAKENHAM 7.8 NNW, CAN","Latitude":"45.39166","Longitude":"-76.34111","Snowdepth":"17.000","Units":"in","Rept_Date":"2020-02-15 12"},"coordinates":[4904,5451]},{"type":"Point","properties":{"Station_ID":"BTLN3","Station_Nam":"BARTLETT","Latitude":"44.08380","Longitude":"-71.29340","Snowdepth":"17.000","Units":"in","Rept_Date":"2020-02-15 12"},"coordinates":[6089,4512]},{"type":"Point","properties":{"Station_ID":"BRAM5","Station_Nam":"BRAINERD","Latitude":"46.34320","Longitude":"-94.20900","Snowdepth":"17.000","Units":"in","Rept_Date":"2020-02-15 13"},"coordinates":[711,6134]},{"type":"Point","properties":{"Station_ID":"APXM4","Station_Nam":"GAYLORD 9SSW","Latitude":"44.90720","Longitude":"-84.71880","Snowdepth":"17.000","Units":"in","Rept_Date":"2020-02-16 05"},"coordinates":[2938,5103]},{"type":"Point","properties":{"Station_ID":"ANJM4","Station_Nam":"SNOW PAID OBSERVER FOR KANJ","Latitude":"46.48670","Longitude":"-84.40260","Snowdepth":"17.000","Units":"in","Rept_Date":"2020-02-16 00"},"coordinates":[3013,6237]},{"type":"Point","properties":{"Station_ID":"ANJ","Station_Nam":"SAULT STE MARIE","Latitude":"46.46670","Longitude":"-84.36670","Snowdepth":"17.000","Units":"in","Rept_Date":"2020-02-16 00"},"coordinates":[3021,6222]},{"type":"Point","properties":{"Station_ID":"NH-GR-49","Station_Nam":"PLYMOUTH 3.7 N, NH","Latitude":"43.79048","Longitude":"-71.68413","Snowdepth":"16.500","Units":"in","Rept_Date":"2020-02-15 12"},"coordinates":[5997,4301]},{"type":"Point","properties":{"Station_ID":"MN-MW-8","Station_Nam":"AUSTIN 2.4 W, MN","Latitude":"43.67190","Longitude":"-93.02280","Snowdepth":"16.500","Units":"in","Rept_Date":"2020-02-15 13"},"coordinates":[989,4216]},{"type":"Point","properties":{"Station_ID":"MN-IT-7","Station_Nam":"GRAND RAPIDS 6.2 SSW, MN","Latitude":"47.13687","Longitude":"-93.56660","Snowdepth":"16.500","Units":"in","Rept_Date":"2020-02-15 12"},"coordinates":[862,6704]},{"type":"Point","properties":{"Station_ID":"WUNW3","Station_Nam":"WAUSAU-NORTHEAST","Latitude":"44.97310","Longitude":"-89.61690","Snowdepth":"16.000","Units":"in","Rept_Date":"2020-02-15 13"},"coordinates":[1789,5150]},{"type":"Point","properties":{"Station_ID":"WSFW3","Station_Nam":"TOWN OF WESTFORD","Latitude":"43.47190","Longitude":"-88.88250","Snowdepth":"16.000","Units":"in","Rept_Date":"2020-02-15 13"},"coordinates":[1961,4072]},{"type":"Point","properties":{"Station_ID":"WI-TR-8","Station_Nam":"ETTRICK 4.0 WNW, WI","Latitude":"44.19004","Longitude":"-91.34249","Snowdepth":"16.000","Units":"in","Rept_Date":"2020-02-15 13"},"coordinates":[1384,4588]},{"type":"Point","properties":{"Station_ID":"WI-SR-5","Station_Nam":"HAYWARD 9.7 NE, WI","Latitude":"46.12030","Longitude":"-91.35370","Snowdepth":"16.000","Units":"in","Rept_Date":"2020-02-15 14"},"coordinates":[1381,5974]},{"type":"Point","properties":{"Station_ID":"WI-PT-8","Station_Nam":"RUDOLPH 2.1 NNE, WI","Latitude":"44.52553","Longitude":"-89.78677","Snowdepth":"16.000","Units":"in","Rept_Date":"2020-02-15 11"},"coordinates":[1749,4829]},{"type":"Point","properties":{"Station_ID":"WI-DD-16","Station_Nam":"BEAVER DAM 2.4 WNW, WI","Latitude":"43.47210","Longitude":"-88.88280","Snowdepth":"16.000","Units":"in","Rept_Date":"2020-02-15 13"},"coordinates":[1961,4072]},{"type":"Point","properties":{"Station_ID":"VT-LM-7","Station_Nam":"HYDE PARK 2.9 NE, VT","Latitude":"44.62080","Longitude":"-72.57250","Snowdepth":"16.000","Units":"in","Rept_Date":"2020-02-15 13"},"coordinates":[5789,4897]},{"type":"Point","properties":{"Station_ID":"SD-CD-30","Station_Nam":"WATERTOWN 2.3 E, SD","Latitude":"44.91604","Longitude":"-97.11925","Snowdepth":"16.000","Units":"in","Rept_Date":"2020-02-15 13"},"coordinates":[28,5109]},{"type":"Point","properties":{"Station_ID":"RARM4","Station_Nam":"RAPID RIVER 1 SW","Latitude":"45.91500","Longitude":"-86.98800","Snowdepth":"16.000","Units":"in","Rept_Date":"2020-02-15 12"},"coordinates":[2406,5826]},{"type":"Point","properties":{"Station_ID":"OCON6","Station_Nam":"OSCEOLA","Latitude":"43.49910","Longitude":"-75.71210","Snowdepth":"16.000","Units":"in","Rept_Date":"2020-02-15 12"},"coordinates":[5052,4092]},{"type":"Point","properties":{"Station_ID":"MQRW3","Station_Nam":"MINOCQUA","Latitude":"45.88630","Longitude":"-89.73220","Snowdepth":"16.000","Units":"in","Rept_Date":"2020-02-15 12"},"coordinates":[1762,5806]},{"type":"Point","properties":{"Station_ID":"MNEY8CTB","Station_Nam":"MIDLAND JUNCTION 2.2 ENE","Latitude":"44.33041","Longitude":"-91.95891","Snowdepth":"16.000","Units":"in","Rept_Date":"2020-02-15 14"},"coordinates":[1239,4689]},{"type":"Point","properties":{"Station_ID":"MN-SE-2","Station_Nam":"OWATONNA 0.8 E, MN","Latitude":"44.09170","Longitude":"-93.21380","Snowdepth":"16.000","Units":"in","Rept_Date":"2020-02-15 13"},"coordinates":[945,4517]},{"type":"Point","properties":{"Station_ID":"MN-BM-15","Station_Nam":"BEMIDJI 7.8 ENE, MN","Latitude":"47.52043","Longitude":"-94.72121","Snowdepth":"16.000","Units":"in","Rept_Date":"2020-02-15 13"},"coordinates":[591,6979]},{"type":"Point","properties":{"Station_ID":"MN-BK-10","Station_Nam":"DETROIT LAKES 5.7 N, MN","Latitude":"46.88666","Longitude":"-95.84444","Snowdepth":"16.000","Units":"in","Rept_Date":"2020-02-15 14"},"coordinates":[327,6524]},{"type":"Point","properties":{"Station_ID":"ME-FR-4","Station_Nam":"NEW SHARON 2.0 NW, ME","Latitude":"44.66582","Longitude":"-70.02720","Snowdepth":"16.000","Units":"in","Rept_Date":"2020-02-15 12"},"coordinates":[6386,4929]},{"type":"Point","properties":{"Station_ID":"JEFV1","Station_Nam":"JEFFERSONVILLE","Latitude":"44.58430","Longitude":"-72.78700","Snowdepth":"16.000","Units":"in","Rept_Date":"2020-02-15 12"},"coordinates":[5739,4871]},{"type":"Point","properties":{"Station_ID":"GFDN6","Station_Nam":"CHASES LAKE","Latitude":"43.75920","Longitude":"-75.29980","Snowdepth":"16.000","Units":"in","Rept_Date":"2020-02-15 11"},"coordinates":[5149,4278]},{"type":"Point","properties":{"Station_ID":"FARM1","Station_Nam":"FARMINGTON","Latitude":"44.68930","Longitude":"-70.15640","Snowdepth":"16.000","Units":"in","Rept_Date":"2020-02-15 12"},"coordinates":[6356,4946]},{"type":"Point","properties":{"Station_ID":"ETTW3","Station_Nam":"ETTRICK 4WNW","Latitude":"44.19000","Longitude":"-91.34240","Snowdepth":"16.000","Units":"in","Rept_Date":"2020-02-15 13"},"coordinates":[1384,4588]},{"type":"Point","properties":{"Station_ID":"CLGM5","Station_Nam":"COLLEGEVILLE ST JOHN","Latitude":"45.57940","Longitude":"-94.39200","Snowdepth":"16.000","Units":"in","Rept_Date":"2020-02-16 00"},"coordinates":[668,5585]},{"type":"Point","properties":{"Station_ID":"CATQ6","Station_Nam":"CAT LAKE","Latitude":"51.72690","Longitude":"-91.82210","Snowdepth":"15.910","Units":"in","Rept_Date":"2020-02-16 06"},"coordinates":[1271,9999]},{"type":"Point","properties":{"Station_ID":"CAN-ON-92","Station_Nam":"DUNROBIN 1.9 W - MVCA, CAN","Latitude":"45.42318","Longitude":"-76.04525","Snowdepth":"15.700","Units":"in","Rept_Date":"2020-02-15 12"},"coordinates":[4974,5473]},{"type":"Point","properties":{"Station_ID":"CAN-NB-1","Station_Nam":"FREDERICTON 4.0 SSE, CA","Latitude":"45.92897","Longitude":"-66.62830","Snowdepth":"15.700","Units":"in","Rept_Date":"2020-02-15 11"},"coordinates":[7184,5836]},{"type":"Point","properties":{"Station_ID":"VT-WS-19","Station_Nam":"WATERBURY 3.0 NW, VT","Latitude":"44.36060","Longitude":"-72.80770","Snowdepth":"15.500","Units":"in","Rept_Date":"2020-02-15 11"},"coordinates":[5734,4710]},{"type":"Point","properties":{"Station_ID":"VT-WR-17","Station_Nam":"ROCHESTER 2.3 NE, VT","Latitude":"43.89418","Longitude":"-72.76992","Snowdepth":"15.500","Units":"in","Rept_Date":"2020-02-15 12"},"coordinates":[5743,4375]},{"type":"Point","properties":{"Station_ID":"NH-CR-27","Station_Nam":"TAMWORTH 0.4 NNW, NH","Latitude":"43.86449","Longitude":"-71.26610","Snowdepth":"15.500","Units":"in","Rept_Date":"2020-02-15 12"},"coordinates":[6096,4354]},{"type":"Point","properties":{"Station_ID":"MI-CX-7","Station_Nam":"EAST JORDAN 2.1 NNW, MI","Latitude":"45.18639","Longitude":"-85.14750","Snowdepth":"15.500","Units":"in","Rept_Date":"2020-02-15 13"},"coordinates":[2838,5303]},{"type":"Point","properties":{"Station_ID":"MI-CP-14","Station_Nam":"SAULT STE. MARIE 2.2 E, MI","Latitude":"46.48933","Longitude":"-84.31971","Snowdepth":"15.500","Units":"in","Rept_Date":"2020-02-15 13"},"coordinates":[3032,6239]},{"type":"Point","properties":{"Station_ID":"MI-AT-6","Station_Nam":"MANCELONA 0.5 ESE, MI","Latitude":"44.89981","Longitude":"-85.05100","Snowdepth":"15.500","Units":"in","Rept_Date":"2020-02-15 13"},"coordinates":[2860,5097]},{"type":"Point","properties":{"Station_ID":"CAN-QC-16","Station_Nam":"SAINT-ARMAND 3.6 W, CAN","Latitude":"45.02631","Longitude":"-73.08795","Snowdepth":"15.500","Units":"in","Rept_Date":"2020-02-15 12"},"coordinates":[5668,5188]},{"type":"Point","properties":{"Station_ID":"WNNM5","Station_Nam":"WINNEBAGO","Latitude":"43.76920","Longitude":"-94.18730","Snowdepth":"15.000","Units":"in","Rept_Date":"2020-02-15 13"},"coordinates":[716,4286]},{"type":"Point","properties":{"Station_ID":"WI-CH-7","Station_Nam":"CHIPPEWA FALLS 1.2 E, WI","Latitude":"44.92920","Longitude":"-91.36730","Snowdepth":"15.000","Units":"in","Rept_Date":"2020-02-15 13"},"coordinates":[1378,5119]},{"type":"Point","properties":{"Station_ID":"TMWN3","Station_Nam":"TAMWORTH 4","Latitude":"43.86390","Longitude":"-71.26610","Snowdepth":"15.000","Units":"in","Rept_Date":"2020-02-15 12"},"coordinates":[6096,4354]},{"type":"Point","properties":{"Station_ID":"SRAW3","Station_Nam":"SARONA","Latitude":"45.80250","Longitude":"-91.86700","Snowdepth":"15.000","Units":"in","Rept_Date":"2020-02-15 14"},"coordinates":[1261,5746]},{"type":"Point","properties":{"Station_ID":"SLNV1","Station_Nam":"SOUTH LINCOLN","Latitude":"44.07460","Longitude":"-72.97180","Snowdepth":"15.000","Units":"in","Rept_Date":"2020-02-15 12"},"coordinates":[5695,4505]},{"type":"Point","properties":{"Station_ID":"SBNM5","Station_Nam":"SABIN","Latitude":"46.77690","Longitude":"-96.65610","Snowdepth":"15.000","Units":"in","Rept_Date":"2020-02-15 15"},"coordinates":[137,6445]},{"type":"Point","properties":{"Station_ID":"RRLW3","Station_Nam":"MERRILL,WI","Latitude":"45.17860","Longitude":"-89.66170","Snowdepth":"15.000","Units":"in","Rept_Date":"2020-02-15 14"},"coordinates":[1778,5298]},{"type":"Point","properties":{"Station_ID":"PERV1","Station_Nam":"PERU","Latitude":"43.26670","Longitude":"-72.90000","Snowdepth":"15.000","Units":"in","Rept_Date":"2020-02-15 12"},"coordinates":[5712,3925]},{"type":"Point","properties":{"Station_ID":"OTTM5","Station_Nam":"OTTERTAIL,MN","Latitude":"46.41670","Longitude":"-95.56670","Snowdepth":"15.000","Units":"in","Rept_Date":"2020-02-15 13"},"coordinates":[392,6186]},{"type":"Point","properties":{"Station_ID":"NH-MR-6","Station_Nam":"DANBURY 2.2 ESE, NH","Latitude":"43.52000","Longitude":"-71.81900","Snowdepth":"15.000","Units":"in","Rept_Date":"2020-02-15 13"},"coordinates":[5966,4107]},{"type":"Point","properties":{"Station_ID":"NCON3","Station_Nam":"NORTH CONWAY","Latitude":"44.05620","Longitude":"-71.12970","Snowdepth":"15.000","Units":"in","Rept_Date":"2020-02-15 12"},"coordinates":[6128,4492]},{"type":"Point","properties":{"Station_ID":"MRAM4","Station_Nam":"MORAN","Latitude":"45.99030","Longitude":"-84.83610","Snowdepth":"15.000","Units":"in","Rept_Date":"2020-02-15 13"},"coordinates":[2911,5880]},{"type":"Point","properties":{"Station_ID":"MNLGGILP","Station_Nam":"LONG PRAIRIE 1.1 WSW","Latitude":"45.96913","Longitude":"-94.88686","Snowdepth":"15.000","Units":"in","Rept_Date":"2020-02-15 12"},"coordinates":[552,5865]},{"type":"Point","properties":{"Station_ID":"MN7M8EBJ","Station_Nam":"LUTSEN 15.7 NNW","Latitude":"47.85324","Longitude":"-89.92908","Snowdepth":"15.000","Units":"in","Rept_Date":"2020-02-15 14"},"coordinates":[1715,7218]},{"type":"Point","properties":{"Station_ID":"MN-PK-15","Station_Nam":"MENTOR 2.5 SSW, MN","Latitude":"47.66625","Longitude":"-96.17328","Snowdepth":"15.000","Units":"in","Rept_Date":"2020-02-15 13"},"coordinates":[250,7084]},{"type":"Point","properties":{"Station_ID":"MI-DL-1","Station_Nam":"GARDEN CORNERS 0.8 NW, MI","Latitude":"45.89815","Longitude":"-86.54850","Snowdepth":"15.000","Units":"in","Rept_Date":"2020-02-15 13"},"coordinates":[2509,5814]},{"type":"Point","properties":{"Station_ID":"LNGM5","Station_Nam":"LONG PRAIRIE","Latitude":"45.96460","Longitude":"-94.88920","Snowdepth":"15.000","Units":"in","Rept_Date":"2020-02-15 12"},"coordinates":[551,5862]},{"type":"Point","properties":{"Station_ID":"JEFN3","Station_Nam":"JEFFERSON","Latitude":"44.41690","Longitude":"-71.50080","Snowdepth":"15.000","Units":"in","Rept_Date":"2020-02-15 12"},"coordinates":[6040,4751]},{"type":"Point","properties":{"Station_ID":"GLRM5","Station_Nam":"GLACIAL RIDGE","Latitude":"47.71670","Longitude":"-96.26670","Snowdepth":"15.000","Units":"in","Rept_Date":"2020-02-16 06"},"coordinates":[228,7120]},{"type":"Point","properties":{"Station_ID":"GDCM4","Station_Nam":"GARDEN CORNERS","Latitude":"45.89830","Longitude":"-86.54850","Snowdepth":"15.000","Units":"in","Rept_Date":"2020-02-15 13"},"coordinates":[2509,5814]},{"type":"Point","properties":{"Station_ID":"ENFV1","Station_Nam":"ENOSBURG FALLS 2","Latitude":"44.90960","Longitude":"-72.81370","Snowdepth":"15.000","Units":"in","Rept_Date":"2020-02-15 12"},"coordinates":[5732,5104]},{"type":"Point","properties":{"Station_ID":"EJNM4","Station_Nam":"EAST JORDAN 2NW","Latitude":"45.18630","Longitude":"-85.14770","Snowdepth":"15.000","Units":"in","Rept_Date":"2020-02-15 13"},"coordinates":[2838,5303]},{"type":"Point","properties":{"Station_ID":"CODN6","Station_Nam":"COLDEN","Latitude":"42.64720","Longitude":"-78.71110","Snowdepth":"15.000","Units":"in","Rept_Date":"2020-02-15 12"},"coordinates":[4348,3480]},{"type":"Point","properties":{"Station_ID":"CAN-ON-132","Station_Nam":"ORANGEVILLE 5.1 SSW - CANWARN, CAN","Latitude":"43.87372","Longitude":"-80.13428","Snowdepth":"15.000","Units":"in","Rept_Date":"2020-02-15 14"},"coordinates":[4014,4361]},{"type":"Point","properties":{"Station_ID":"BRUM5","Station_Nam":"BRUNO,MN","Latitude":"46.28330","Longitude":"-92.50000","Snowdepth":"15.000","Units":"in","Rept_Date":"2020-02-15 14"},"coordinates":[1112,6091]},{"type":"Point","properties":{"Station_ID":"BRLN3","Station_Nam":"BERLIN","Latitude":"44.45350","Longitude":"-71.18540","Snowdepth":"15.000","Units":"in","Rept_Date":"2020-02-15 12"},"coordinates":[6115,4777]},{"type":"Point","properties":{"Station_ID":"BFSW3","Station_Nam":"BIG FALLS-5 NW","Latitude":"44.63980","Longitude":"-89.11330","Snowdepth":"15.000","Units":"in","Rept_Date":"2020-02-15 13"},"coordinates":[1907,4911]},{"type":"Point","properties":{"Station_ID":"BALW3","Station_Nam":"BALDWIN","Latitude":"44.96330","Longitude":"-92.39050","Snowdepth":"15.000","Units":"in","Rept_Date":"2020-02-15 13"},"coordinates":[1138,5143]},{"type":"Point","properties":{"Station_ID":"ARTM5","Station_Nam":"ARTICHOKE LAKE 1 E","Latitude":"45.38560","Longitude":"-96.12570","Snowdepth":"15.000","Units":"in","Rept_Date":"2020-02-16 01"},"coordinates":[261,5446]},{"type":"Point","properties":{"Station_ID":"ABGW3","Station_Nam":"AMBERG 9 E","Latitude":"45.48250","Longitude":"-87.81190","Snowdepth":"15.000","Units":"in","Rept_Date":"2020-02-15 12"},"coordinates":[2212,5516]},{"type":"Point","properties":{"Station_ID":"CAN-NS-86","Station_Nam":"NAPPAN 1.7 E, CA","Latitude":"45.76986","Longitude":"-64.21800","Snowdepth":"14.700","Units":"in","Rept_Date":"2020-02-15 13"},"coordinates":[7750,5722]},{"type":"Point","properties":{"Station_ID":"WI-WD-2","Station_Nam":"WISCONSIN RAPIDS 4.6 SSE, WI","Latitude":"44.33823","Longitude":"-89.78200","Snowdepth":"14.500","Units":"in","Rept_Date":"2020-02-15 12"},"coordinates":[1750,4694]},{"type":"Point","properties":{"Station_ID":"NY-WY-10","Station_Nam":"WYOMING COOP, NY","Latitude":"42.82060","Longitude":"-78.14810","Snowdepth":"14.500","Units":"in","Rept_Date":"2020-02-15 12"},"coordinates":[4480,3605]},{"type":"Point","properties":{"Station_ID":"NY-MD-10","Station_Nam":"CAZENOVIA 2.9 SE, NY","Latitude":"42.90003","Longitude":"-75.81140","Snowdepth":"14.500","Units":"in","Rept_Date":"2020-02-15 12"},"coordinates":[5029,3662]},{"type":"Point","properties":{"Station_ID":"MN-AT-5","Station_Nam":"TAMARACK 1.4 SW, MN","Latitude":"46.63760","Longitude":"-93.14554","Snowdepth":"14.500","Units":"in","Rept_Date":"2020-02-15 13"},"coordinates":[961,6345]},{"type":"Point","properties":{"Station_ID":"CAN-ON-245","Station_Nam":"PHELPSTON 3.1 ESE, CAN","Latitude":"44.50564","Longitude":"-79.81035","Snowdepth":"14.500","Units":"in","Rept_Date":"2020-02-15 14"},"coordinates":[4090,4814]},{"type":"Point","properties":{"Station_ID":"CAN-ON-757","Station_Nam":"SAULT STE. MARIE 2.8 ESE - GLFC, CAN","Latitude":"46.50300","Longitude":"-84.30300","Snowdepth":"14.400","Units":"in","Rept_Date":"2020-02-15 13"},"coordinates":[3036,6248]},{"type":"Point","properties":{"Station_ID":"CAN-NB-98","Station_Nam":"HOYT 4.2 S, CAN","Latitude":"45.54763","Longitude":"-66.55440","Snowdepth":"14.200","Units":"in","Rept_Date":"2020-02-15 11"},"coordinates":[7201,5563]},{"type":"Point","properties":{"Station_ID":"WYON6","Station_Nam":"WYOMING 3W","Latitude":"42.82060","Longitude":"-78.14810","Snowdepth":"14.000","Units":"in","Rept_Date":"2020-02-15 12"},"coordinates":[4480,3605]},{"type":"Point","properties":{"Station_ID":"WWWW3","Station_Nam":"WAUPACA","Latitude":"44.35470","Longitude":"-89.05920","Snowdepth":"14.000","Units":"in","Rept_Date":"2020-02-15 14"},"coordinates":[1920,4706]},{"type":"Point","properties":{"Station_ID":"WRSN6","Station_Nam":"WARSAW 6SW","Latitude":"42.68550","Longitude":"-78.22020","Snowdepth":"14.000","Units":"in","Rept_Date":"2020-02-15 12"},"coordinates":[4463,3508]},{"type":"Point","properties":{"Station_ID":"WLKM5","Station_Nam":"AH-GWAH-CHING","Latitude":"47.15000","Longitude":"-94.65000","Snowdepth":"14.000","Units":"in","Rept_Date":"2020-02-15 14"},"coordinates":[608,6713]},{"type":"Point","properties":{"Station_ID":"WI-TY-2","Station_Nam":"SHELDON 8.1 ENE, WI","Latitude":"45.35598","Longitude":"-90.80296","Snowdepth":"14.000","Units":"in","Rept_Date":"2020-02-15 13"},"coordinates":[1510,5425]},{"type":"Point","properties":{"Station_ID":"WI-GL-4","Station_Nam":"GREEN LAKE 0.8 E, WI","Latitude":"43.84369","Longitude":"-88.94066","Snowdepth":"14.000","Units":"in","Rept_Date":"2020-02-15 13"},"coordinates":[1947,4339]},{"type":"Point","properties":{"Station_ID":"WI-EC-23","Station_Nam":"EAU CLAIRE 3.7 S, WI","Latitude":"44.76858","Longitude":"-91.49898","Snowdepth":"14.000","Units":"in","Rept_Date":"2020-02-15 14"},"coordinates":[1347,5003]},{"type":"Point","properties":{"Station_ID":"WELM5","Station_Nam":"WELLS","Latitude":"43.74680","Longitude":"-93.73680","Snowdepth":"14.000","Units":"in","Rept_Date":"2020-02-15 14"},"coordinates":[822,4270]},{"type":"Point","properties":{"Station_ID":"RKWI4","Station_Nam":"ROCKWELL CITY,IA","Latitude":"42.40000","Longitude":"-94.61670","Snowdepth":"14.000","Units":"in","Rept_Date":"2020-02-15 13"},"coordinates":[615,3303]},{"type":"Point","properties":{"Station_ID":"PULW3","Station_Nam":"PULASKI WWTP","Latitude":"44.67830","Longitude":"-88.22750","Snowdepth":"14.000","Units":"in","Rept_Date":"2020-02-15 12"},"coordinates":[2115,4938]},{"type":"Point","properties":{"Station_ID":"NY-SR-22","Station_Nam":"GREENFIELD CENTER 1.6 W, NY","Latitude":"43.12684","Longitude":"-73.87860","Snowdepth":"14.000","Units":"in","Rept_Date":"2020-02-15 14"},"coordinates":[5482,3824]},{"type":"Point","properties":{"Station_ID":"NY-ER-63","Station_Nam":"GLENWOOD 1.5 SE, NY","Latitude":"42.60195","Longitude":"-78.63910","Snowdepth":"14.000","Units":"in","Rept_Date":"2020-02-15 13"},"coordinates":[4365,3448]},{"type":"Point","properties":{"Station_ID":"NVLV1","Station_Nam":"NASHVILLE","Latitude":"44.44970","Longitude":"-72.92640","Snowdepth":"14.000","Units":"in","Rept_Date":"2020-02-15 12"},"coordinates":[5706,4774]},{"type":"Point","properties":{"Station_ID":"NUMM5","Station_Nam":"NEW ULM 3SE","Latitude":"44.29450","Longitude":"-94.40840","Snowdepth":"14.000","Units":"in","Rept_Date":"2020-02-15 12"},"coordinates":[664,4663]},{"type":"Point","properties":{"Station_ID":"NH-MR-41","Station_Nam":"NEWBURY 1.6 NW, NH","Latitude":"43.33667","Longitude":"-72.06060","Snowdepth":"14.000","Units":"in","Rept_Date":"2020-02-15 12"},"coordinates":[5909,3975]},{"type":"Point","properties":{"Station_ID":"MNF74YNU","Station_Nam":"NEW ULM 3.3 ESE","Latitude":"44.29029","Longitude":"-94.40196","Snowdepth":"14.000","Units":"in","Rept_Date":"2020-02-15 11"},"coordinates":[666,4660]},{"type":"Point","properties":{"Station_ID":"MNBDUIOM","Station_Nam":"GRAND MEADOW 0.7 ENE","Latitude":"43.70981","Longitude":"-92.55148","Snowdepth":"14.000","Units":"in","Rept_Date":"2020-02-15 12"},"coordinates":[1100,4243]},{"type":"Point","properties":{"Station_ID":"ME-CM-86","Station_Nam":"POWNAL 4.1 S, ME","Latitude":"43.85370","Longitude":"-70.17210","Snowdepth":"14.000","Units":"in","Rept_Date":"2020-02-15 12"},"coordinates":[6352,4346]},{"type":"Point","properties":{"Station_ID":"LBRM5","Station_Nam":"LAKE BRONSON DAM","Latitude":"48.72410","Longitude":"-96.62180","Snowdepth":"14.000","Units":"in","Rept_Date":"2020-02-15 14"},"coordinates":[145,7843]},{"type":"Point","properties":{"Station_ID":"GRFN8","Station_Nam":"UNIVERSITY","Latitude":"47.93330","Longitude":"-97.08330","Snowdepth":"14.000","Units":"in","Rept_Date":"2020-02-16 06"},"coordinates":[36,7275]},{"type":"Point","properties":{"Station_ID":"GMDM5","Station_Nam":"GRAND MEADOW","Latitude":"43.70740","Longitude":"-92.56440","Snowdepth":"14.000","Units":"in","Rept_Date":"2020-02-15 12"},"coordinates":[1097,4241]},{"type":"Point","properties":{"Station_ID":"EPTW3","Station_Nam":"EAU PLEINE TENDER","Latitude":"44.77220","Longitude":"-89.76720","Snowdepth":"14.000","Units":"in","Rept_Date":"2020-02-15 13"},"coordinates":[1753,5006]},{"type":"Point","properties":{"Station_ID":"CAN-PE-3","Station_Nam":"WELLINGTON 1.6 NE, CA","Latitude":"46.46672","Longitude":"-63.98920","Snowdepth":"14.000","Units":"in","Rept_Date":"2020-02-15 11"},"coordinates":[7803,6222]},{"type":"Point","properties":{"Station_ID":"BETM1","Station_Nam":"BETHEL 6 SSE","Latitude":"44.32000","Longitude":"-70.75680","Snowdepth":"14.000","Units":"in","Rept_Date":"2020-02-15 12"},"coordinates":[6215,4681]},{"type":"Point","properties":{"Station_ID":"ALXM5","Station_Nam":"ALEXANDRIA","Latitude":"45.87820","Longitude":"-95.38270","Snowdepth":"14.000","Units":"in","Rept_Date":"2020-02-15 12"},"coordinates":[436,5800]},{"type":"Point","properties":{"Station_ID":"ALTM5","Station_Nam":"ALTURA 5W","Latitude":"44.06330","Longitude":"-92.03970","Snowdepth":"14.000","Units":"in","Rept_Date":"2020-02-15 13"},"coordinates":[1220,4497]},{"type":"Point","properties":{"Station_ID":"SD-BK-7","Station_Nam":"BROOKINGS 0.2 SSW, SD","Latitude":"44.30389","Longitude":"-96.78780","Snowdepth":"13.500","Units":"in","Rept_Date":"2020-02-15 13"},"coordinates":[106,4670]},{"type":"Point","properties":{"Station_ID":"NH-GR-47","Station_Nam":"LITTLETON 7.3 W, NH","Latitude":"44.31847","Longitude":"-71.91086","Snowdepth":"13.500","Units":"in","Rept_Date":"2020-02-15 13"},"coordinates":[5944,4680]},{"type":"Point","properties":{"Station_ID":"NH-CR-9","Station_Nam":"MADISON 1.7 SE, NH","Latitude":"43.87928","Longitude":"-71.12660","Snowdepth":"13.500","Units":"in","Rept_Date":"2020-02-15 12"},"coordinates":[6128,4365]},{"type":"Point","properties":{"Station_ID":"ND-CS-25","Station_Nam":"FARGO 2.1 N, ND","Latitude":"46.90816","Longitude":"-96.77937","Snowdepth":"13.500","Units":"in","Rept_Date":"2020-02-15 14"},"coordinates":[108,6539]},{"type":"Point","properties":{"Station_ID":"ME-CM-3","Station_Nam":"NEW GLOUCESTER 3.0 SE, ME","Latitude":"43.92372","Longitude":"-70.25790","Snowdepth":"13.500","Units":"in","Rept_Date":"2020-02-15 12"},"coordinates":[6332,4397]},{"type":"Point","properties":{"Station_ID":"ME-AN-32","Station_Nam":"WINTHROP 9.4 W, ME","Latitude":"44.30476","Longitude":"-70.15835","Snowdepth":"13.500","Units":"in","Rept_Date":"2020-02-15 12"},"coordinates":[6356,4670]},{"type":"Point","properties":{"Station_ID":"CAN-MB-32","Station_Nam":"PINAWA 1.0 SW, CA","Latitude":"50.14747","Longitude":"-95.89020","Snowdepth":"13.500","Units":"in","Rept_Date":"2020-02-15 13"},"coordinates":[316,8865]},{"type":"Point","properties":{"Station_ID":"FTHQ6","Station_Nam":"FORT HOPE","Latitude":"51.55820","Longitude":"-87.90510","Snowdepth":"13.430","Units":"in","Rept_Date":"2020-02-16 06"},"coordinates":[2191,9878]},{"type":"Point","properties":{"Station_ID":"VT-CL-23","Station_Nam":"RYEGATE 1.5 N, VT","Latitude":"44.23024","Longitude":"-72.10523","Snowdepth":"13.200","Units":"in","Rept_Date":"2020-02-15 12"},"coordinates":[5899,4617]},{"type":"Point","properties":{"Station_ID":"WRNW3","Station_Nam":"WARRENS 4WSW","Latitude":"44.10390","Longitude":"-90.58870","Snowdepth":"13.000","Units":"in","Rept_Date":"2020-02-15 13"},"coordinates":[1561,4526]},{"type":"Point","properties":{"Station_ID":"WLSN6","Station_Nam":"WALES","Latitude":"42.73920","Longitude":"-78.58780","Snowdepth":"13.000","Units":"in","Rept_Date":"2020-02-15 12"},"coordinates":[4377,3546]},{"type":"Point","properties":{"Station_ID":"WI-WN-9","Station_Nam":"NEENAH 1.1 ENE, WI","Latitude":"44.17370","Longitude":"-88.45130","Snowdepth":"13.000","Units":"in","Rept_Date":"2020-02-15 13"},"coordinates":[2062,4576]},{"type":"Point","properties":{"Station_ID":"WI-BT-14","Station_Nam":"OAKLAND 9.0 ENE, WI","Latitude":"45.95184","Longitude":"-92.21653","Snowdepth":"13.000","Units":"in","Rept_Date":"2020-02-15 13"},"coordinates":[1179,5853]},{"type":"Point","properties":{"Station_ID":"WDOM5","Station_Nam":"WINDOM","Latitude":"43.87700","Longitude":"-95.11590","Snowdepth":"13.000","Units":"in","Rept_Date":"2020-02-15 14"},"coordinates":[498,4363]},{"type":"Point","properties":{"Station_ID":"WASW3","Station_Nam":"WASHINGTON IS","Latitude":"45.35800","Longitude":"-86.89110","Snowdepth":"13.000","Units":"in","Rept_Date":"2020-02-15 13"},"coordinates":[2428,5426]},{"type":"Point","properties":{"Station_ID":"WAIV1","Station_Nam":"WAITSFIELD","Latitude":"44.17560","Longitude":"-72.79610","Snowdepth":"13.000","Units":"in","Rept_Date":"2020-02-15 12"},"coordinates":[5736,4577]},{"type":"Point","properties":{"Station_ID":"VT-WS-11","Station_Nam":"WAITSFIELD 1.8 SE, VT","Latitude":"44.17551","Longitude":"-72.79540","Snowdepth":"13.000","Units":"in","Rept_Date":"2020-02-15 12"},"coordinates":[5737,4577]},{"type":"Point","properties":{"Station_ID":"VT-WR-2","Station_Nam":"POMFRET 2.6 N, VT","Latitude":"43.74230","Longitude":"-72.52550","Snowdepth":"13.000","Units":"in","Rept_Date":"2020-02-15 12"},"coordinates":[5800,4266]},{"type":"Point","properties":{"Station_ID":"TOPM1","Station_Nam":"TOPSFIELD","Latitude":"45.43470","Longitude":"-67.72020","Snowdepth":"13.000","Units":"in","Rept_Date":"2020-02-15 12"},"coordinates":[6928,5481]},{"type":"Point","properties":{"Station_ID":"STPW3","Station_Nam":"STEVENS POINT","Latitude":"44.51130","Longitude":"-89.58550","Snowdepth":"13.000","Units":"in","Rept_Date":"2020-02-15 13"},"coordinates":[1796,4818]},{"type":"Point","properties":{"Station_ID":"SIBI4","Station_Nam":"SIBLEY","Latitude":"43.40470","Longitude":"-95.74830","Snowdepth":"13.000","Units":"in","Rept_Date":"2020-02-15 13"},"coordinates":[350,4024]},{"type":"Point","properties":{"Station_ID":"SHHW3","Station_Nam":"SHAWANO 2SSW","Latitude":"44.76310","Longitude":"-88.61830","Snowdepth":"13.000","Units":"in","Rept_Date":"2020-02-15 14"},"coordinates":[2023,4999]},{"type":"Point","properties":{"Station_ID":"SGVN6","Station_Nam":"SPRINGVILLE","Latitude":"42.54970","Longitude":"-78.57670","Snowdepth":"13.000","Units":"in","Rept_Date":"2020-02-16 01"},"coordinates":[4380,3410]},{"type":"Point","properties":{"Station_ID":"RST","Station_Nam":"ROCHESTER INTERNATIONAL ARPT","Latitude":"43.90890","Longitude":"-92.49780","Snowdepth":"13.000","Units":"in","Rept_Date":"2020-02-16 00"},"coordinates":[1113,4386]},{"type":"Point","properties":{"Station_ID":"RSRM5","Station_Nam":"ROCHESTER AP 2NE","Latitude":"43.92810","Longitude":"-92.47580","Snowdepth":"13.000","Units":"in","Rept_Date":"2020-02-15 13"},"coordinates":[1118,4400]},{"type":"Point","properties":{"Station_ID":"PORW3","Station_Nam":"PORTAGE,WI","Latitude":"43.53190","Longitude":"-89.43780","Snowdepth":"13.000","Units":"in","Rept_Date":"2020-02-15 14"},"coordinates":[1831,4115]},{"type":"Point","properties":{"Station_ID":"PLOW3","Station_Nam":"PLOVER","Latitude":"44.44280","Longitude":"-89.54530","Snowdepth":"13.000","Units":"in","Rept_Date":"2020-02-15 13"},"coordinates":[1806,4769]},{"type":"Point","properties":{"Station_ID":"ORAN3","Station_Nam":"ORANGE","Latitude":"43.66880","Longitude":"-71.94830","Snowdepth":"13.000","Units":"in","Rept_Date":"2020-02-15 12"},"coordinates":[5935,4214]},{"type":"Point","properties":{"Station_ID":"NY-SL-6","Station_Nam":"HANNAWA FALLS 0.1 SW, NY","Latitude":"44.61154","Longitude":"-74.97190","Snowdepth":"13.000","Units":"in","Rept_Date":"2020-02-15 12"},"coordinates":[5226,4890]},{"type":"Point","properties":{"Station_ID":"NY-ES-7","Station_Nam":"KEESEVILLE 0.8 SE, NY","Latitude":"44.49504","Longitude":"-73.47109","Snowdepth":"13.000","Units":"in","Rept_Date":"2020-02-15 12"},"coordinates":[5578,4807]},{"type":"Point","properties":{"Station_ID":"MXON6","Station_Nam":"MEXICO","Latitude":"43.43830","Longitude":"-76.26560","Snowdepth":"13.000","Units":"in","Rept_Date":"2020-02-15 12"},"coordinates":[4922,4048]},{"type":"Point","properties":{"Station_ID":"MWTM1","Station_Nam":"MILLINOCKET WWTP","Latitude":"45.64030","Longitude":"-68.67480","Snowdepth":"13.000","Units":"in","Rept_Date":"2020-02-15 12"},"coordinates":[6704,5629]},{"type":"Point","properties":{"Station_ID":"MNG0GYSN","Station_Nam":"LONSDALE 1.1 SSW","Latitude":"44.46445","Longitude":"-93.43293","Snowdepth":"13.000","Units":"in","Rept_Date":"2020-02-15 12"},"coordinates":[893,4785]},{"type":"Point","properties":{"Station_ID":"MN-RC-1","Station_Nam":"MONTGOMERY 3.2 ENE, MN","Latitude":"44.46400","Longitude":"-93.51980","Snowdepth":"13.000","Units":"in","Rept_Date":"2020-02-15 12"},"coordinates":[873,4785]},{"type":"Point","properties":{"Station_ID":"MI-BZ-1","Station_Nam":"BENZONIA 5.3 S, MI","Latitude":"44.53976","Longitude":"-86.10650","Snowdepth":"13.000","Units":"in","Rept_Date":"2020-02-15 14"},"coordinates":[2613,4839]},{"type":"Point","properties":{"Station_ID":"MEDW3","Station_Nam":"MEDFORD","Latitude":"45.13080","Longitude":"-90.34390","Snowdepth":"13.000","Units":"in","Rept_Date":"2020-02-15 14"},"coordinates":[1618,5263]},{"type":"Point","properties":{"Station_ID":"KGFK","Station_Nam":"GRAND FORKS INTERNATIONAL","Latitude":"47.95000","Longitude":"-97.18333","Snowdepth":"13.000","Units":"in","Rept_Date":"2020-02-16 06"},"coordinates":[13,7287]},{"type":"Point","properties":{"Station_ID":"HRTM1","Station_Nam":"HARTFORD","Latitude":"44.37440","Longitude":"-70.31620","Snowdepth":"13.000","Units":"in","Rept_Date":"2020-02-15 12"},"coordinates":[6318,4720]},{"type":"Point","properties":{"Station_ID":"GRBM5","Station_Nam":"GRAND RAPIDS 12N","Latitude":"47.39800","Longitude":"-93.51330","Snowdepth":"13.000","Units":"in","Rept_Date":"2020-02-15 13"},"coordinates":[874,6891]},{"type":"Point","properties":{"Station_ID":"GFK","Station_Nam":"GRAND FORKS INTERNATIONAL AIRPORT","Latitude":"47.94920","Longitude":"-97.17610","Snowdepth":"13.000","Units":"in","Rept_Date":"2020-02-16 00"},"coordinates":[15,7287]},{"type":"Point","properties":{"Station_ID":"BEAW3","Station_Nam":"BEAVER DAM,WI","Latitude":"43.45000","Longitude":"-88.85000","Snowdepth":"13.000","Units":"in","Rept_Date":"2020-02-15 18"},"coordinates":[1969,4056]},{"type":"Point","properties":{"Station_ID":"VT-LM-1","Station_Nam":"STOWE 0.2 SW, VT","Latitude":"44.46399","Longitude":"-72.69070","Snowdepth":"12.500","Units":"in","Rept_Date":"2020-02-15 12"},"coordinates":[5761,4785]},{"type":"Point","properties":{"Station_ID":"VT-CH-13","Station_Nam":"RICHMOND 3.4 SSE, VT","Latitude":"44.36084","Longitude":"-72.96400","Snowdepth":"12.500","Units":"in","Rept_Date":"2020-02-15 12"},"coordinates":[5697,4710]},{"type":"Point","properties":{"Station_ID":"ME-CM-54","Station_Nam":"WINDHAM 3.9 NW, ME","Latitude":"43.85787","Longitude":"-70.46200","Snowdepth":"12.400","Units":"in","Rept_Date":"2020-02-15 12"},"coordinates":[6284,4349]},{"type":"Point","properties":{"Station_ID":"CAN-NS-13","Station_Nam":"TRURO 5.0 ENE, CA","Latitude":"45.38252","Longitude":"-63.22810","Snowdepth":"12.200","Units":"in","Rept_Date":"2020-02-15 11"},"coordinates":[7982,5444]},{"type":"Point","properties":{"Station_ID":"WNDM1","Station_Nam":"WINDHAM 2NW","Latitude":"43.85670","Longitude":"-70.46630","Snowdepth":"12.000","Units":"in","Rept_Date":"2020-02-15 12"},"coordinates":[6283,4348]},{"type":"Point","properties":{"Station_ID":"WMRM5","Station_Nam":"WILLMAR 5N","Latitude":"45.19010","Longitude":"-95.05860","Snowdepth":"12.000","Units":"in","Rept_Date":"2020-02-15 12"},"coordinates":[512,5306]},{"type":"Point","properties":{"Station_ID":"WIRW3","Station_Nam":"WIS RAPIDS GRAND AV B","Latitude":"44.39940","Longitude":"-89.83050","Snowdepth":"12.000","Units":"in","Rept_Date":"2020-02-15 13"},"coordinates":[1739,4738]},{"type":"Point","properties":{"Station_ID":"WIPW3","Station_Nam":"WISCONSIN RAPIDS-SOUTHEAST","Latitude":"44.38190","Longitude":"-89.80470","Snowdepth":"12.000","Units":"in","Rept_Date":"2020-02-15 13"},"coordinates":[1745,4726]},{"type":"Point","properties":{"Station_ID":"WI-WH-7","Station_Nam":"WILD ROSE 0.5 E, WI","Latitude":"44.17764","Longitude":"-89.23812","Snowdepth":"12.000","Units":"in","Rept_Date":"2020-02-15 13"},"coordinates":[1878,4579]},{"type":"Point","properties":{"Station_ID":"WI-CB-5","Station_Nam":"PORTAGE 7.2 SW, WI","Latitude":"43.47933","Longitude":"-89.57370","Snowdepth":"12.000","Units":"in","Rept_Date":"2020-02-15 13"},"coordinates":[1799,4078]},{"type":"Point","properties":{"Station_ID":"WABM5","Station_Nam":"WABASHA","Latitude":"44.38500","Longitude":"-92.04860","Snowdepth":"12.000","Units":"in","Rept_Date":"2020-02-15 13"},"coordinates":[1218,4728]},{"type":"Point","properties":{"Station_ID":"VT-CH-38","Station_Nam":"WILLISTON 0.2 WSW, VT","Latitude":"44.43669","Longitude":"-73.07154","Snowdepth":"12.000","Units":"in","Rept_Date":"2020-02-15 12"},"coordinates":[5672,4765]},{"type":"Point","properties":{"Station_ID":"VT-BN-7","Station_Nam":"MANCHESTER 2.8 ENE, VT","Latitude":"43.17274","Longitude":"-73.01811","Snowdepth":"12.000","Units":"in","Rept_Date":"2020-02-15 12"},"coordinates":[5684,3857]},{"type":"Point","properties":{"Station_ID":"TCEM4","Station_Nam":"TRAVERSE CITY 5ESE","Latitude":"44.73370","Longitude":"-85.51180","Snowdepth":"12.000","Units":"in","Rept_Date":"2020-02-15 12"},"coordinates":[2752,4978]},{"type":"Point","properties":{"Station_ID":"TAHW3","Station_Nam":"TAYCHEEDAH","Latitude":"43.83390","Longitude":"-88.34690","Snowdepth":"12.000","Units":"in","Rept_Date":"2020-02-15 12"},"coordinates":[2087,4332]},{"type":"Point","properties":{"Station_ID":"STRW3","Station_Nam":"STRATFORD 1NW","Latitude":"44.81750","Longitude":"-90.08990","Snowdepth":"12.000","Units":"in","Rept_Date":"2020-02-15 13"},"coordinates":[1678,5038]},{"type":"Point","properties":{"Station_ID":"SANI4","Station_Nam":"ST ANSGAR","Latitude":"43.38170","Longitude":"-92.92320","Snowdepth":"12.000","Units":"in","Rept_Date":"2020-02-15 12"},"coordinates":[1013,4007]},{"type":"Point","properties":{"Station_ID":"ROWM3","Station_Nam":"ROWE 3NE","Latitude":"42.73500","Longitude":"-72.86920","Snowdepth":"12.000","Units":"in","Rept_Date":"2020-02-15 12"},"coordinates":[5719,3543]},{"type":"Point","properties":{"Station_ID":"REWM5","Station_Nam":"REDWOOD FALLS","Latitude":"44.54850","Longitude":"-95.09980","Snowdepth":"12.000","Units":"in","Rept_Date":"2020-02-15 13"},"coordinates":[502,4845]},{"type":"Point","properties":{"Station_ID":"RCEM5","Station_Nam":"RICE","Latitude":"45.75760","Longitude":"-94.20720","Snowdepth":"12.000","Units":"in","Rept_Date":"2020-02-15 13"},"coordinates":[711,5713]},{"type":"Point","properties":{"Station_ID":"PBAN8","Station_Nam":"SITE 1-3MI.N","Latitude":"48.97420","Longitude":"-97.23860","Snowdepth":"12.000","Units":"in","Rept_Date":"2020-02-15 14"},"coordinates":[0,8023]},{"type":"Point","properties":{"Station_ID":"NY-WR-10","Station_Nam":"WARRENSBURG 2.1 WNW, NY","Latitude":"43.51784","Longitude":"-73.81069","Snowdepth":"12.000","Units":"in","Rept_Date":"2020-02-15 13"},"coordinates":[5498,4105]},{"type":"Point","properties":{"Station_ID":"NH-GR-1","Station_Nam":"BRISTOL 0.4 SSE, NH","Latitude":"43.59490","Longitude":"-71.74140","Snowdepth":"12.000","Units":"in","Rept_Date":"2020-02-15 12"},"coordinates":[5984,4161]},{"type":"Point","properties":{"Station_ID":"MYOM4","Station_Nam":"MIO WWTP","Latitude":"44.64660","Longitude":"-84.11580","Snowdepth":"12.000","Units":"in","Rept_Date":"2020-02-15 16"},"coordinates":[3080,4916]},{"type":"Point","properties":{"Station_ID":"MSCM5","Station_Nam":"MINNESOTA CITY","Latitude":"44.16000","Longitude":"-91.81220","Snowdepth":"12.000","Units":"in","Rept_Date":"2020-02-15 14"},"coordinates":[1274,4566]},{"type":"Point","properties":{"Station_ID":"MN-OL-18","Station_Nam":"ROCHESTER 2.6 NE, MN","Latitude":"44.03975","Longitude":"-92.43750","Snowdepth":"12.000","Units":"in","Rept_Date":"2020-02-15 12"},"coordinates":[1127,4480]},{"type":"Point","properties":{"Station_ID":"MN-MR-4","Station_Nam":"LITTLE FALLS 1.2 SW, MN","Latitude":"45.96886","Longitude":"-94.37720","Snowdepth":"12.000","Units":"in","Rept_Date":"2020-02-15 13"},"coordinates":[672,5865]},{"type":"Point","properties":{"Station_ID":"MN-MR-13","Station_Nam":"LITTLE FALLS 8.0 NE, MN","Latitude":"46.06785","Longitude":"-94.24789","Snowdepth":"12.000","Units":"in","Rept_Date":"2020-02-15 13"},"coordinates":[702,5936]},{"type":"Point","properties":{"Station_ID":"MN-HN-181","Station_Nam":"MINNEAPOLIS 0.4 NE, MN","Latitude":"44.96708","Longitude":"-93.26222","Snowdepth":"12.000","Units":"in","Rept_Date":"2020-02-15 13"},"coordinates":[933,5146]},{"type":"Point","properties":{"Station_ID":"MIAM5","Station_Nam":"MILAN 1NW","Latitude":"45.12190","Longitude":"-95.92690","Snowdepth":"12.000","Units":"in","Rept_Date":"2020-02-16 00"},"coordinates":[308,5257]},{"type":"Point","properties":{"Station_ID":"MI-GT-25","Station_Nam":"TRAVERSE CITY 4.7 ESE, MI","Latitude":"44.73370","Longitude":"-85.51189","Snowdepth":"12.000","Units":"in","Rept_Date":"2020-02-15 12"},"coordinates":[2752,4978]},{"type":"Point","properties":{"Station_ID":"MI-GT-21","Station_Nam":"KINGSLEY 2.7 ENE, MI","Latitude":"44.59871","Longitude":"-85.48426","Snowdepth":"12.000","Units":"in","Rept_Date":"2020-02-15 13"},"coordinates":[2759,4881]},{"type":"Point","properties":{"Station_ID":"LUCW3","Station_Nam":"LUCK","Latitude":"45.57330","Longitude":"-92.48520","Snowdepth":"12.000","Units":"in","Rept_Date":"2020-02-15 16"},"coordinates":[1116,5581]},{"type":"Point","properties":{"Station_ID":"LGRN8","Station_Nam":"LIDGERWOOD,ND","Latitude":"46.06670","Longitude":"-97.16670","Snowdepth":"12.000","Units":"in","Rept_Date":"2020-02-15 13"},"coordinates":[17,5935]},{"type":"Point","properties":{"Station_ID":"LAFW3","Station_Nam":"LA FARGE","Latitude":"43.57340","Longitude":"-90.63200","Snowdepth":"12.000","Units":"in","Rept_Date":"2020-02-15 13"},"coordinates":[1551,4145]},{"type":"Point","properties":{"Station_ID":"KSEM4","Station_Nam":"KALKASKA 11SE","Latitude":"44.58970","Longitude":"-85.04860","Snowdepth":"12.000","Units":"in","Rept_Date":"2020-02-15 13"},"coordinates":[2861,4875]},{"type":"Point","properties":{"Station_ID":"KBTV","Station_Nam":"BURLINGTON INTERNATIONAL","Latitude":"44.46666","Longitude":"-73.15000","Snowdepth":"12.000","Units":"in","Rept_Date":"2020-02-16 00"},"coordinates":[5653,4786]},{"type":"Point","properties":{"Station_ID":"HTLM4","Station_Nam":"SNOW PAID OBSERVER FOR KHTL","Latitude":"44.34470","Longitude":"-84.67730","Snowdepth":"12.000","Units":"in","Rept_Date":"2020-02-15 18"},"coordinates":[2948,4699]},{"type":"Point","properties":{"Station_ID":"HTL","Station_Nam":"ROSCOMMON COUNTY AIRPORT","Latitude":"44.35000","Longitude":"-84.66670","Snowdepth":"12.000","Units":"in","Rept_Date":"2020-02-16 00"},"coordinates":[2951,4703]},{"type":"Point","properties":{"Station_ID":"HORW3","Station_Nam":"HORICON WWTP","Latitude":"43.45000","Longitude":"-88.63330","Snowdepth":"12.000","Units":"in","Rept_Date":"2020-02-15 13"},"coordinates":[2020,4056]},{"type":"Point","properties":{"Station_ID":"HARW3","Station_Nam":"HARTFORD,WI","Latitude":"43.31670","Longitude":"-88.40000","Snowdepth":"12.000","Units":"in","Rept_Date":"2020-02-15 14"},"coordinates":[2074,3961]},{"type":"Point","properties":{"Station_ID":"HALM4","Station_Nam":"LOUD DAM","Latitude":"44.46250","Longitude":"-83.72190","Snowdepth":"12.000","Units":"in","Rept_Date":"2020-02-15 14"},"coordinates":[3172,4783]},{"type":"Point","properties":{"Station_ID":"FLAM4","Station_Nam":"FIFE LAKE 2WNW","Latitude":"44.58480","Longitude":"-85.36530","Snowdepth":"12.000","Units":"in","Rept_Date":"2020-02-15 12"},"coordinates":[2787,4871]},{"type":"Point","properties":{"Station_ID":"ESAM4","Station_Nam":"ESCANABA","Latitude":"45.74380","Longitude":"-87.04060","Snowdepth":"12.000","Units":"in","Rept_Date":"2020-02-15 12"},"coordinates":[2393,5703]},{"type":"Point","properties":{"Station_ID":"ELRW3","Station_Nam":"EAU CLAIRE 3SW","Latitude":"44.78780","Longitude":"-91.51650","Snowdepth":"12.000","Units":"in","Rept_Date":"2020-02-16 06"},"coordinates":[1343,5017]},{"type":"Point","properties":{"Station_ID":"DURM1","Station_Nam":"DURHAM","Latitude":"43.99960","Longitude":"-70.09630","Snowdepth":"12.000","Units":"in","Rept_Date":"2020-02-15 12"},"coordinates":[6370,4451]},{"type":"Point","properties":{"Station_ID":"CNTW3","Station_Nam":"CLINTONVILLE","Latitude":"44.62270","Longitude":"-88.74830","Snowdepth":"12.000","Units":"in","Rept_Date":"2020-02-15 13"},"coordinates":[1993,4898]},{"type":"Point","properties":{"Station_ID":"CHRM4","Station_Nam":"CHARLEVOIX","Latitude":"45.31720","Longitude":"-85.26720","Snowdepth":"12.000","Units":"in","Rept_Date":"2020-02-15 13"},"coordinates":[2810,5397]},{"type":"Point","properties":{"Station_ID":"BTV","Station_Nam":"BURLINGTON, VT","Latitude":"44.47140","Longitude":"-73.15330","Snowdepth":"12.000","Units":"in","Rept_Date":"2020-02-16 01"},"coordinates":[5653,4790]},{"type":"Point","properties":{"Station_ID":"BDMW3","Station_Nam":"BEAVER DAM 1 N","Latitude":"43.46860","Longitude":"-88.83970","Snowdepth":"12.000","Units":"in","Rept_Date":"2020-02-15 13"},"coordinates":[1971,4070]},{"type":"Point","properties":{"Station_ID":"APPW3","Station_Nam":"APPLETON","Latitude":"44.27690","Longitude":"-88.43770","Snowdepth":"12.000","Units":"in","Rept_Date":"2020-02-15 12"},"coordinates":[2066,4650]},{"type":"Point","properties":{"Station_ID":"NY-OT-29","Station_Nam":"NEW BERLIN 1.5 NE, NY","Latitude":"42.63689","Longitude":"-75.31090","Snowdepth":"11.500","Units":"in","Rept_Date":"2020-02-15 13"},"coordinates":[5146,3473]},{"type":"Point","properties":{"Station_ID":"NY-OS-15","Station_Nam":"MINETTO 0.1 SE, NY","Latitude":"43.39771","Longitude":"-76.47960","Snowdepth":"11.500","Units":"in","Rept_Date":"2020-02-15 13"},"coordinates":[4872,4019]},{"type":"Point","properties":{"Station_ID":"NH-MR-60","Station_Nam":"SOUTH SUTTON 1.3 SE, NH","Latitude":"43.29531","Longitude":"-71.90238","Snowdepth":"11.500","Units":"in","Rept_Date":"2020-02-15 13"},"coordinates":[5946,3945]},{"type":"Point","properties":{"Station_ID":"MN-GH-4","Station_Nam":"NERSTRAND 4.2 E, MN","Latitude":"44.34247","Longitude":"-92.97920","Snowdepth":"11.500","Units":"in","Rept_Date":"2020-02-15 13"},"coordinates":[1000,4697]},{"type":"Point","properties":{"Station_ID":"MN-GH-28","Station_Nam":"CANNON FALLS 0.5 SE, MN","Latitude":"44.50866","Longitude":"-92.89526","Snowdepth":"11.500","Units":"in","Rept_Date":"2020-02-15 14"},"coordinates":[1019,4817]},{"type":"Point","properties":{"Station_ID":"WSWN6","Station_Nam":"WARSAW","Latitude":"42.74300","Longitude":"-78.21000","Snowdepth":"11.000","Units":"in","Rept_Date":"2020-02-15 13"},"coordinates":[4466,3549]},{"type":"Point","properties":{"Station_ID":"WRUM5","Station_Nam":"WARROAD 4W","Latitude":"48.89600","Longitude":"-95.40700","Snowdepth":"11.000","Units":"in","Rept_Date":"2020-02-16 04"},"coordinates":[430,7967]},{"type":"Point","properties":{"Station_ID":"WLDM5","Station_Nam":"WILD RIVER STATE PARK","Latitude":"45.52310","Longitude":"-92.74890","Snowdepth":"11.000","Units":"in","Rept_Date":"2020-02-15 14"},"coordinates":[1054,5545]},{"type":"Point","properties":{"Station_ID":"WI-WB-16","Station_Nam":"SARONA 4.5 NNE, WI","Latitude":"45.77030","Longitude":"-91.76890","Snowdepth":"11.000","Units":"in","Rept_Date":"2020-02-15 13"},"coordinates":[1284,5722]},{"type":"Point","properties":{"Station_ID":"WI-VR-1","Station_Nam":"HILLSBORO 0.5 WSW, WI","Latitude":"43.65138","Longitude":"-90.34753","Snowdepth":"11.000","Units":"in","Rept_Date":"2020-02-15 13"},"coordinates":[1617,4201]},{"type":"Point","properties":{"Station_ID":"WI-GN-5","Station_Nam":"MONTICELLO 2.2 SE, WI","Latitude":"42.71990","Longitude":"-89.56360","Snowdepth":"11.000","Units":"in","Rept_Date":"2020-02-15 13"},"coordinates":[1801,3532]},{"type":"Point","properties":{"Station_ID":"WI-DA-45","Station_Nam":"MADISON 6.1 W, WI","Latitude":"43.06948","Longitude":"-89.50788","Snowdepth":"11.000","Units":"in","Rept_Date":"2020-02-15 13"},"coordinates":[1814,3783]},{"type":"Point","properties":{"Station_ID":"WAOW3","Station_Nam":"WAUTOMA SILVER LAKE SANITARY DISTRICT","Latitude":"44.04110","Longitude":"-89.24330","Snowdepth":"11.000","Units":"in","Rept_Date":"2020-02-15 14"},"coordinates":[1876,4481]},{"type":"Point","properties":{"Station_ID":"VRGV1","Station_Nam":"VERGENNES","Latitude":"44.17190","Longitude":"-73.24720","Snowdepth":"11.000","Units":"in","Rept_Date":"2020-02-15 14"},"coordinates":[5631,4575]},{"type":"Point","properties":{"Station_ID":"THLM5","Station_Nam":"THEILMAN 1SSW","Latitude":"44.28130","Longitude":"-92.19430","Snowdepth":"11.000","Units":"in","Rept_Date":"2020-02-15 13"},"coordinates":[1184,4653]},{"type":"Point","properties":{"Station_ID":"SJBV1","Station_Nam":"SAINT JOHNSBURY","Latitude":"44.42000","Longitude":"-72.01940","Snowdepth":"11.000","Units":"in","Rept_Date":"2020-02-15 21"},"coordinates":[5919,4753]},{"type":"Point","properties":{"Station_ID":"RKNW3","Station_Nam":"MARKESAN","Latitude":"43.70280","Longitude":"-88.99890","Snowdepth":"11.000","Units":"in","Rept_Date":"2020-02-15 13"},"coordinates":[1934,4238]},{"type":"Point","properties":{"Station_ID":"NY-ER-75","Station_Nam":"ELMA CENTER 0.7 SE, NY","Latitude":"42.81936","Longitude":"-78.62140","Snowdepth":"11.000","Units":"in","Rept_Date":"2020-02-15 14"},"coordinates":[4369,3604]},{"type":"Point","properties":{"Station_ID":"NY-ER-158","Station_Nam":"EAST AURORA 2.7 SSE, NY","Latitude":"42.72936","Longitude":"-78.60561","Snowdepth":"11.000","Units":"in","Rept_Date":"2020-02-15 13"},"coordinates":[4373,3539]},{"type":"Point","properties":{"Station_ID":"NY-CR-1","Station_Nam":"FREETOWN 1.0 NE, NY","Latitude":"42.53299","Longitude":"-76.02111","Snowdepth":"11.000","Units":"in","Rept_Date":"2020-02-15 12"},"coordinates":[4980,3398]},{"type":"Point","properties":{"Station_ID":"NH-MR-45","Station_Nam":"NORTHFIELD 2.8 E, NH","Latitude":"43.43945","Longitude":"-71.53730","Snowdepth":"11.000","Units":"in","Rept_Date":"2020-02-15 12"},"coordinates":[6032,4049]},{"type":"Point","properties":{"Station_ID":"MN-SH-10","Station_Nam":"BIG LAKE 5.6 NNE, MN","Latitude":"45.41409","Longitude":"-93.69190","Snowdepth":"11.000","Units":"in","Rept_Date":"2020-02-15 13"},"coordinates":[832,5467]},{"type":"Point","properties":{"Station_ID":"MN-SC-2","Station_Nam":"PRIOR LAKE 2.0 W, MN","Latitude":"44.71250","Longitude":"-93.46360","Snowdepth":"11.000","Units":"in","Rept_Date":"2020-02-15 13"},"coordinates":[886,4963]},{"type":"Point","properties":{"Station_ID":"MN-MC-16","Station_Nam":"HUTCHINSON 0.1 ENE, MN","Latitude":"44.88633","Longitude":"-94.37503","Snowdepth":"11.000","Units":"in","Rept_Date":"2020-02-15 13"},"coordinates":[672,5088]},{"type":"Point","properties":{"Station_ID":"MN-FM-10","Station_Nam":"WYKOFF 3.1 NW, MN","Latitude":"43.74340","Longitude":"-92.30650","Snowdepth":"11.000","Units":"in","Rept_Date":"2020-02-15 13"},"coordinates":[1158,4267]},{"type":"Point","properties":{"Station_ID":"MLCM5","Station_Nam":"MILACA","Latitude":"45.75320","Longitude":"-93.66170","Snowdepth":"11.000","Units":"in","Rept_Date":"2020-02-15 13"},"coordinates":[839,5710]},{"type":"Point","properties":{"Station_ID":"MI-OC-3","Station_Nam":"HART 3 WSW, MI","Latitude":"43.67470","Longitude":"-86.42250","Snowdepth":"11.000","Units":"in","Rept_Date":"2020-02-15 12"},"coordinates":[2538,4218]},{"type":"Point","properties":{"Station_ID":"ME-YK-67","Station_Nam":"CORNISH 5.6 ESE, ME","Latitude":"43.78308","Longitude":"-70.69539","Snowdepth":"11.000","Units":"in","Rept_Date":"2020-02-15 12"},"coordinates":[6230,4296]},{"type":"Point","properties":{"Station_ID":"LOWN6","Station_Nam":"LOWVILLE","Latitude":"43.79280","Longitude":"-75.48290","Snowdepth":"11.000","Units":"in","Rept_Date":"2020-02-15 12"},"coordinates":[5106,4303]},{"type":"Point","properties":{"Station_ID":"LKFM5","Station_Nam":"LAKEFIELD,MN","Latitude":"43.68330","Longitude":"-95.18330","Snowdepth":"11.000","Units":"in","Rept_Date":"2020-02-15 13"},"coordinates":[482,4224]},{"type":"Point","properties":{"Station_ID":"LACN3","Station_Nam":"LACONIA","Latitude":"43.53010","Longitude":"-71.46260","Snowdepth":"11.000","Units":"in","Rept_Date":"2020-02-15 12"},"coordinates":[6049,4114]},{"type":"Point","properties":{"Station_ID":"KMWN","Station_Nam":"MOUNT WASHINGTON","Latitude":"44.26666","Longitude":"-71.30000","Snowdepth":"11.000","Units":"in","Rept_Date":"2020-02-16 06"},"coordinates":[6088,4643]},{"type":"Point","properties":{"Station_ID":"JIMW3","Station_Nam":"JIM FALLS 3NW","Latitude":"45.08270","Longitude":"-91.33130","Snowdepth":"11.000","Units":"in","Rept_Date":"2020-02-15 12"},"coordinates":[1386,5229]},{"type":"Point","properties":{"Station_ID":"HRTM4","Station_Nam":"HART,MI","Latitude":"43.70000","Longitude":"-86.36670","Snowdepth":"11.000","Units":"in","Rept_Date":"2020-02-15 12"},"coordinates":[2552,4236]},{"type":"Point","properties":{"Station_ID":"HMYM1","Station_Nam":"HARMONY","Latitude":"44.94660","Longitude":"-69.54560","Snowdepth":"11.000","Units":"in","Rept_Date":"2020-02-15 12"},"coordinates":[6499,5131]},{"type":"Point","properties":{"Station_ID":"GOVN6","Station_Nam":"GOUVERNEUR 3 NW","Latitude":"44.35400","Longitude":"-75.51230","Snowdepth":"11.000","Units":"in","Rept_Date":"2020-02-15 12"},"coordinates":[5099,4706]},{"type":"Point","properties":{"Station_ID":"GIBW3","Station_Nam":"GIBBSVILLE,WI","Latitude":"43.65670","Longitude":"-87.81170","Snowdepth":"11.000","Units":"in","Rept_Date":"2020-02-15 13"},"coordinates":[2212,4205]},{"type":"Point","properties":{"Station_ID":"FYTI4","Station_Nam":"FAYETTE","Latitude":"42.88300","Longitude":"-91.83020","Snowdepth":"11.000","Units":"in","Rept_Date":"2020-02-15 13"},"coordinates":[1269,3649]},{"type":"Point","properties":{"Station_ID":"FRSW3","Station_Nam":"FRIENDSHIP","Latitude":"43.97500","Longitude":"-89.83080","Snowdepth":"11.000","Units":"in","Rept_Date":"2020-02-15 13"},"coordinates":[1739,4433]},{"type":"Point","properties":{"Station_ID":"FORM5","Station_Nam":"FOREST LAKE 5NE","Latitude":"45.33170","Longitude":"-92.89820","Snowdepth":"11.000","Units":"in","Rept_Date":"2020-02-15 13"},"coordinates":[1019,5407]},{"type":"Point","properties":{"Station_ID":"FDRN8","Station_Nam":"FARGO 3S","Latitude":"46.82930","Longitude":"-96.79620","Snowdepth":"11.000","Units":"in","Rept_Date":"2020-02-16 06"},"coordinates":[104,6483]},{"type":"Point","properties":{"Station_ID":"FAR","Station_Nam":"HECTOR INTERNATIONAL ARPT","Latitude":"46.91560","Longitude":"-96.81440","Snowdepth":"11.000","Units":"in","Rept_Date":"2020-02-16 00"},"coordinates":[100,6545]},{"type":"Point","properties":{"Station_ID":"DWSM5","Station_Nam":"DAWSON","Latitude":"44.93180","Longitude":"-96.04500","Snowdepth":"11.000","Units":"in","Rept_Date":"2020-02-15 13"},"coordinates":[280,5120]},{"type":"Point","properties":{"Station_ID":"CRCI4","Station_Nam":"CRESCO 1NE","Latitude":"43.38940","Longitude":"-92.09380","Snowdepth":"11.000","Units":"in","Rept_Date":"2020-02-15 13"},"coordinates":[1207,4013]},{"type":"Point","properties":{"Station_ID":"BRLW3","Station_Nam":"BRILLION,WI","Latitude":"44.18330","Longitude":"-88.06670","Snowdepth":"11.000","Units":"in","Rept_Date":"2020-02-15 17"},"coordinates":[2153,4583]},{"type":"Point","properties":{"Station_ID":"BLGW3","Station_Nam":"BELGIUM WWTP","Latitude":"43.51310","Longitude":"-87.85440","Snowdepth":"11.000","Units":"in","Rept_Date":"2020-02-15 12"},"coordinates":[2202,4102]},{"type":"Point","properties":{"Station_ID":"BKEM5","Station_Nam":"BRECKENRIDGE 4NE","Latitude":"46.30470","Longitude":"-96.52170","Snowdepth":"11.000","Units":"in","Rept_Date":"2020-02-15 13"},"coordinates":[168,6106]},{"type":"Point","properties":{"Station_ID":"APLW3","Station_Nam":"APPLETON WHBY RADIO","Latitude":"44.25110","Longitude":"-88.36440","Snowdepth":"11.000","Units":"in","Rept_Date":"2020-02-15 14"},"coordinates":[2083,4632]},{"type":"Point","properties":{"Station_ID":"WI-WK-29","Station_Nam":"OCONOMOWOC 4.6 NE, WI","Latitude":"43.14621","Longitude":"-88.42860","Snowdepth":"10.500","Units":"in","Rept_Date":"2020-02-15 15"},"coordinates":[2068,3838]},{"type":"Point","properties":{"Station_ID":"WI-DR-5","Station_Nam":"ELLISON BAY 2.2 E, WI","Latitude":"45.25750","Longitude":"-87.02670","Snowdepth":"10.500","Units":"in","Rept_Date":"2020-02-15 13"},"coordinates":[2397,5354]},{"type":"Point","properties":{"Station_ID":"WI-DA-35","Station_Nam":"MADISON 5.5 N, WI","Latitude":"43.15858","Longitude":"-89.37280","Snowdepth":"10.500","Units":"in","Rept_Date":"2020-02-15 14"},"coordinates":[1846,3847]},{"type":"Point","properties":{"Station_ID":"WI-CT-4","Station_Nam":"MENASHA 5.4 ESE, WI","Latitude":"44.19640","Longitude":"-88.33070","Snowdepth":"10.500","Units":"in","Rept_Date":"2020-02-15 13"},"coordinates":[2091,4592]},{"type":"Point","properties":{"Station_ID":"NY-TM-18","Station_Nam":"EAST ITHACA 4.7 E, NY","Latitude":"42.41910","Longitude":"-76.37330","Snowdepth":"10.500","Units":"in","Rept_Date":"2020-02-15 12"},"coordinates":[4897,3316]},{"type":"Point","properties":{"Station_ID":"NY-TG-15","Station_Nam":"BERKSHIRE 1.9 ENE, NY","Latitude":"42.31910","Longitude":"-76.21940","Snowdepth":"10.500","Units":"in","Rept_Date":"2020-02-15 13"},"coordinates":[4933,3245]},{"type":"Point","properties":{"Station_ID":"NY-CT-22","Station_Nam":"FRANKLINVILLE 0.5 NNE, NY","Latitude":"42.34166","Longitude":"-78.45280","Snowdepth":"10.500","Units":"in","Rept_Date":"2020-02-15 11"},"coordinates":[4409,3261]},{"type":"Point","properties":{"Station_ID":"NY-CR-5","Station_Nam":"MARATHON 1.0 NW, NY","Latitude":"42.45161","Longitude":"-76.04370","Snowdepth":"10.500","Units":"in","Rept_Date":"2020-02-15 12"},"coordinates":[4974,3340]},