{"type":"Topology","objects":{"snowdepth_geo":{"type":"GeometryCollection","name":"snowdepth","crs":{"type":"name","properties":{"name":"urn:ogc:def:crs:OGC:1.3:CRS84"}},"geometries":[{"type":"Point","properties":{"Station_ID":"MMSV1","Station_Nam":"MOUNT MANSFIELD","Latitude":"44.53330","Longitude":"-72.83330","Snowdepth":"82.000","Units":"in","Rept_Date":"2019-11-08 05"},"coordinates":[8046,2566]},{"type":"Point","properties":{"Station_ID":"PRKM4","Station_Nam":"MUNISING EAST","Latitude":"46.42580","Longitude":"-86.62000","Snowdepth":"76.500","Units":"in","Rept_Date":"2019-11-08 06"},"coordinates":[3498,4521]},{"type":"Point","properties":{"Station_ID":"OGIQ6","Station_Nam":"OGOKI CAMP","Latitude":"50.76680","Longitude":"-87.85820","Snowdepth":"61.100","Units":"in","Rept_Date":"2019-11-08 06"},"coordinates":[3090,9007]},{"type":"Point","properties":{"Station_ID":"AUDQ6","Station_Nam":"AUDEN","Latitude":"48.52600","Longitude":"-82.57570","Snowdepth":"47.640","Units":"in","Rept_Date":"2019-11-08 06"},"coordinates":[4832,6692]},{"type":"Point","properties":{"Station_ID":"DVLQ6","Station_Nam":"DEVIOUS LAKE","Latitude":"49.19890","Longitude":"-87.76440","Snowdepth":"43.460","Units":"in","Rept_Date":"2019-11-08 06"},"coordinates":[3121,7387]},{"type":"Point","properties":{"Station_ID":"MFU","Station_Nam":"MFU","Latitude":"51.52170","Longitude":"-66.91110","Snowdepth":"12.283","Units":"in","Rept_Date":"2019-11-07 12"},"coordinates":[9999,9787]},{"type":"Point","properties":{"Station_ID":"QGD","Station_Nam":"QGD","Latitude":"51.11140","Longitude":"-67.13940","Snowdepth":"11.968","Units":"in","Rept_Date":"2019-11-07 12"},"coordinates":[9924,9363]},{"type":"Point","properties":{"Station_ID":"QOU","Station_Nam":"QOU","Latitude":"50.79250","Longitude":"-69.67470","Snowdepth":"11.378","Units":"in","Rept_Date":"2019-11-07 12"},"coordinates":[9087,9034]},{"type":"Point","properties":{"Station_ID":"QMA","Station_Nam":"QMA","Latitude":"50.10330","Longitude":"-70.47190","Snowdepth":"9.134","Units":"in","Rept_Date":"2019-11-07 12"},"coordinates":[8825,8321]},{"type":"Point","properties":{"Station_ID":"MI-HG-18","Station_Nam":"CALUMET 0.7 W (TAMARACK), MI","Latitude":"47.24560","Longitude":"-88.46791","Snowdepth":"9.000","Units":"in","Rept_Date":"2019-11-07 13"},"coordinates":[2889,5369]},{"type":"Point","properties":{"Station_ID":"QMD","Station_Nam":"QMD","Latitude":"49.29060","Longitude":"-75.84500","Snowdepth":"8.622","Units":"in","Rept_Date":"2019-11-07 12"},"coordinates":[7052,7482]},{"type":"Point","properties":{"Station_ID":"GMSM4","Station_Nam":"GRAND MARAIS 10S","Latitude":"46.50940","Longitude":"-85.96310","Snowdepth":"8.000","Units":"in","Rept_Date":"2019-11-07 12"},"coordinates":[3715,4608]},{"type":"Point","properties":{"Station_ID":"BERM4","Station_Nam":"BERGLAND DAM","Latitude":"46.58690","Longitude":"-89.54750","Snowdepth":"8.000","Units":"in","Rept_Date":"2019-11-07 13"},"coordinates":[2533,4688]},{"type":"Point","properties":{"Station_ID":"QGO","Station_Nam":"QGO","Latitude":"48.85500","Longitude":"-74.20640","Snowdepth":"7.402","Units":"in","Rept_Date":"2019-11-07 12"},"coordinates":[7593,7032]},{"type":"Point","properties":{"Station_ID":"MI-AT-6","Station_Nam":"MANCELONA 0.5 ESE, MI","Latitude":"44.89981","Longitude":"-85.05100","Snowdepth":"7.200","Units":"in","Rept_Date":"2019-11-07 13"},"coordinates":[4016,2945]},{"type":"Point","properties":{"Station_ID":"PDLM4","Station_Nam":"PAINESDALE","Latitude":"47.04160","Longitude":"-88.67170","Snowdepth":"7.000","Units":"in","Rept_Date":"2019-11-07 13"},"coordinates":[2822,5158]},{"type":"Point","properties":{"Station_ID":"MI-HG-11","Station_Nam":"HOUGHTON 3.0 SSW, MI","Latitude":"47.07704","Longitude":"-88.59680","Snowdepth":"7.000","Units":"in","Rept_Date":"2019-11-07 13"},"coordinates":[2846,5194]},{"type":"Point","properties":{"Station_ID":"QCO","Station_Nam":"QCO","Latitude":"51.45280","Longitude":"-72.20110","Snowdepth":"6.575","Units":"in","Rept_Date":"2019-11-07 12"},"coordinates":[8254,9716]},{"type":"Point","properties":{"Station_ID":"QCX","Station_Nam":"QCX","Latitude":"51.32830","Longitude":"-70.08060","Snowdepth":"6.378","Units":"in","Rept_Date":"2019-11-07 12"},"coordinates":[8954,9587]},{"type":"Point","properties":{"Station_ID":"WELM5","Station_Nam":"WELLS","Latitude":"43.74680","Longitude":"-93.73680","Snowdepth":"6.000","Units":"in","Rept_Date":"2019-11-07 14"},"coordinates":[1151,1753]},{"type":"Point","properties":{"Station_ID":"MKNM4","Station_Nam":"MUSKEGON 4 SE","Latitude":"43.18390","Longitude":"-86.20370","Snowdepth":"6.000","Units":"in","Rept_Date":"2019-11-08 06"},"coordinates":[3636,1172]},{"type":"Point","properties":{"Station_ID":"MKG","Station_Nam":"MUSKEGON COUNTY AIRPORT","Latitude":"43.16940","Longitude":"-86.23810","Snowdepth":"6.000","Units":"in","Rept_Date":"2019-11-08 00"},"coordinates":[3624,1157]},{"type":"Point","properties":{"Station_ID":"MI-OC-3","Station_Nam":"HART 3 WSW, MI","Latitude":"43.67470","Longitude":"-86.42250","Snowdepth":"6.000","Units":"in","Rept_Date":"2019-11-07 12"},"coordinates":[3564,1679]},{"type":"Point","properties":{"Station_ID":"MI-HG-17","Station_Nam":"CALUMET 0.5 NE (CALUMET LAKE), MI","Latitude":"47.25300","Longitude":"-88.44652","Snowdepth":"6.000","Units":"in","Rept_Date":"2019-11-07 13"},"coordinates":[2896,5376]},{"type":"Point","properties":{"Station_ID":"HRTM4","Station_Nam":"HART,MI","Latitude":"43.70000","Longitude":"-86.36670","Snowdepth":"6.000","Units":"in","Rept_Date":"2019-11-07 12"},"coordinates":[3582,1705]},{"type":"Point","properties":{"Station_ID":"CAN-ON-118","Station_Nam":"DURHAM 1.4 S, CAN","Latitude":"44.16525","Longitude":"-80.82064","Snowdepth":"6.000","Units":"in","Rept_Date":"2019-11-07 12"},"coordinates":[5411,2186]},{"type":"Point","properties":{"Station_ID":"CAN-ON-109","Station_Nam":"MILDMAY 5.9 SSE, CA","Latitude":"43.98733","Longitude":"-81.10330","Snowdepth":"6.000","Units":"in","Rept_Date":"2019-11-07 13"},"coordinates":[5318,2002]},{"type":"Point","properties":{"Station_ID":"ATMM4","Station_Nam":"ATLANTIC MINE 5NW","Latitude":"47.15440","Longitude":"-88.71670","Snowdepth":"6.000","Units":"in","Rept_Date":"2019-11-07 14"},"coordinates":[2807,5274]},{"type":"Point","properties":{"Station_ID":"QFT","Station_Nam":"QFT","Latitude":"50.83280","Longitude":"-74.40390","Snowdepth":"5.984","Units":"in","Rept_Date":"2019-11-07 12"},"coordinates":[7528,9075]},{"type":"Point","properties":{"Station_ID":"QCU","Station_Nam":"QCU","Latitude":"47.82750","Longitude":"-76.59830","Snowdepth":"5.984","Units":"in","Rept_Date":"2019-11-07 12"},"coordinates":[6804,5970]},{"type":"Point","properties":{"Station_ID":"QTM","Station_Nam":"QTM","Latitude":"51.05780","Longitude":"-72.57190","Snowdepth":"5.787","Units":"in","Rept_Date":"2019-11-07 12"},"coordinates":[8132,9308]},{"type":"Point","properties":{"Station_ID":"WI-WS-30","Station_Nam":"HARTFORD 2.9 ENE, WI","Latitude":"43.34256","Longitude":"-88.33687","Snowdepth":"5.500","Units":"in","Rept_Date":"2019-11-07 13"},"coordinates":[2932,1336]},{"type":"Point","properties":{"Station_ID":"MI-OC-2","Station_Nam":"MONTAGUE 8.1 NW, MI","Latitude":"43.50000","Longitude":"-86.47000","Snowdepth":"5.500","Units":"in","Rept_Date":"2019-11-07 12"},"coordinates":[3548,1498]},{"type":"Point","properties":{"Station_ID":"MI-ME-10","Station_Nam":"MECOSTA 4.6 SSW, MI","Latitude":"43.56269","Longitude":"-85.28063","Snowdepth":"5.500","Units":"in","Rept_Date":"2019-11-07 13"},"coordinates":[3940,1563]},{"type":"Point","properties":{"Station_ID":"WI-CB-1","Station_Nam":"COLUMBUS 1.2 S, WI","Latitude":"43.31887","Longitude":"-89.02680","Snowdepth":"5.200","Units":"in","Rept_Date":"2019-11-07 13"},"coordinates":[2705,1311]},{"type":"Point","properties":{"Station_ID":"MI-MD-10","Station_Nam":"MIDLAND 1.5 NNE, MI","Latitude":"43.64412","Longitude":"-84.21729","Snowdepth":"5.200","Units":"in","Rept_Date":"2019-11-07 11"},"coordinates":[4291,1647]},{"type":"Point","properties":{"Station_ID":"MI-IS-7","Station_Nam":"MOUNT PLEASANT 3.8 ESE, MI","Latitude":"43.57860","Longitude":"-84.70720","Snowdepth":"5.200","Units":"in","Rept_Date":"2019-11-07 13"},"coordinates":[4129,1579]},{"type":"Point","properties":{"Station_ID":"WSFW3","Station_Nam":"TOWN OF WESTFORD","Latitude":"43.47190","Longitude":"-88.88250","Snowdepth":"5.000","Units":"in","Rept_Date":"2019-11-07 13"},"coordinates":[2752,1469]},{"type":"Point","properties":{"Station_ID":"WI-WS-1","Station_Nam":"HARTFORD 3.8 E, WI","Latitude":"43.32410","Longitude":"-88.31340","Snowdepth":"5.000","Units":"in","Rept_Date":"2019-11-07 13"},"coordinates":[2940,1317]},{"type":"Point","properties":{"Station_ID":"WDOM5","Station_Nam":"WINDOM","Latitude":"43.87700","Longitude":"-95.11590","Snowdepth":"5.000","Units":"in","Rept_Date":"2019-11-07 14"},"coordinates":[696,1888]},{"type":"Point","properties":{"Station_ID":"VQAW3","Station_Nam":"VIROQUA","Latitude":"43.55970","Longitude":"-90.87560","Snowdepth":"5.000","Units":"in","Rept_Date":"2019-11-07 13"},"coordinates":[2095,1560]},{"type":"Point","properties":{"Station_ID":"OILM4","Station_Nam":"OIL CITY 3E","Latitude":"43.61140","Longitude":"-84.52810","Snowdepth":"5.000","Units":"in","Rept_Date":"2019-11-07 12"},"coordinates":[4188,1613]},{"type":"Point","properties":{"Station_ID":"MNSM4","Station_Nam":"MUNISING","Latitude":"46.41210","Longitude":"-86.66250","Snowdepth":"5.000","Units":"in","Rept_Date":"2019-11-07 11"},"coordinates":[3484,4507]},{"type":"Point","properties":{"Station_ID":"MN-MT-6","Station_Nam":"FAIRMONT 0.7 E, MN","Latitude":"43.64501","Longitude":"-94.44860","Snowdepth":"5.000","Units":"in","Rept_Date":"2019-11-07 13"},"coordinates":[916,1648]},{"type":"Point","properties":{"Station_ID":"MLOW3","Station_Nam":"MONTELLO 1W (FROST DEPTH)","Latitude":"43.79420","Longitude":"-89.33780","Snowdepth":"5.000","Units":"in","Rept_Date":"2019-11-07 18"},"coordinates":[2602,1802]},{"type":"Point","properties":{"Station_ID":"MAPM4","Station_Nam":"MAPLE CITY 1E","Latitude":"44.85500","Longitude":"-85.83520","Snowdepth":"5.000","Units":"in","Rept_Date":"2019-11-07 23"},"coordinates":[3757,2898]},{"type":"Point","properties":{"Station_ID":"LAFW3","Station_Nam":"LA FARGE","Latitude":"43.57340","Longitude":"-90.63200","Snowdepth":"5.000","Units":"in","Rept_Date":"2019-11-07 13"},"coordinates":[2175,1574]},{"type":"Point","properties":{"Station_ID":"KMKG","Station_Nam":"MUSKEGON COUNTY AIRPORT","Latitude":"43.16666","Longitude":"-86.23333","Snowdepth":"5.000","Units":"in","Rept_Date":"2019-11-08 00"},"coordinates":[3626,1154]},{"type":"Point","properties":{"Station_ID":"IA-WH-1","Station_Nam":"DECORAH 7.9 ENE, IA","Latitude":"43.34391","Longitude":"-91.64430","Snowdepth":"5.000","Units":"in","Rept_Date":"2019-11-07 14"},"coordinates":[1841,1337]},{"type":"Point","properties":{"Station_ID":"HERM4","Station_Nam":"HERMAN,MI","Latitude":"46.65000","Longitude":"-88.33330","Snowdepth":"5.000","Units":"in","Rept_Date":"2019-11-07 13"},"coordinates":[2933,4753]},{"type":"Point","properties":{"Station_ID":"GENW3","Station_Nam":"GENOA DAM 8","Latitude":"43.57050","Longitude":"-91.22950","Snowdepth":"5.000","Units":"in","Rept_Date":"2019-11-07 14"},"coordinates":[1978,1571]},{"type":"Point","properties":{"Station_ID":"FREM4","Station_Nam":"FREMONT,MI","Latitude":"43.45000","Longitude":"-86.03330","Snowdepth":"5.000","Units":"in","Rept_Date":"2019-11-07 12"},"coordinates":[3692,1447]},{"type":"Point","properties":{"Station_ID":"BLGW3","Station_Nam":"BELGIUM WWTP","Latitude":"43.51310","Longitude":"-87.85440","Snowdepth":"5.000","Units":"in","Rept_Date":"2019-11-07 13"},"coordinates":[3091,1512]},{"type":"Point","properties":{"Station_ID":"MLZ","Station_Nam":"MLZ","Latitude":"50.66170","Longitude":"-68.82360","Snowdepth":"4.724","Units":"in","Rept_Date":"2019-11-07 12"},"coordinates":[9368,8898]},{"type":"Point","properties":{"Station_ID":"WI-OZ-17","Station_Nam":"WEST BEND 7.3 E, WI","Latitude":"43.42860","Longitude":"-88.03870","Snowdepth":"4.500","Units":"in","Rept_Date":"2019-11-07 13"},"coordinates":[3030,1424]},{"type":"Point","properties":{"Station_ID":"WI-DD-4","Station_Nam":"BEAVER DAM 1.4 SSW, WI","Latitude":"43.44719","Longitude":"-88.85260","Snowdepth":"4.500","Units":"in","Rept_Date":"2019-11-07 14"},"coordinates":[2762,1444]},{"type":"Point","properties":{"Station_ID":"WI-DD-15","Station_Nam":"COLUMBUS 4.8 ENE, WI","Latitude":"43.35742","Longitude":"-88.93819","Snowdepth":"4.500","Units":"in","Rept_Date":"2019-11-07 13"},"coordinates":[2734,1351]},{"type":"Point","properties":{"Station_ID":"WI-DA-60","Station_Nam":"MIDDLETON 0.8 SSW, WI","Latitude":"43.09292","Longitude":"-89.51258","Snowdepth":"4.500","Units":"in","Rept_Date":"2019-11-07 13"},"coordinates":[2544,1078]},{"type":"Point","properties":{"Station_ID":"MN-HS-4","Station_Nam":"CALEDONIA 5.4 S, MN","Latitude":"43.55696","Longitude":"-91.51300","Snowdepth":"4.500","Units":"in","Rept_Date":"2019-11-07 14"},"coordinates":[1885,1557]},{"type":"Point","properties":{"Station_ID":"MI-NW-8","Station_Nam":"WHITE CLOUD 7.5 ENE, MI","Latitude":"43.60630","Longitude":"-85.64190","Snowdepth":"4.500","Units":"in","Rept_Date":"2019-11-07 12"},"coordinates":[3821,1608]},{"type":"Point","properties":{"Station_ID":"CAN-ON-203","Station_Nam":"LUCKNOW 1.5 NNE - MVCA, CAN","Latitude":"43.97350","Longitude":"-81.50764","Snowdepth":"4.500","Units":"in","Rept_Date":"2019-11-07 13"},"coordinates":[5185,1988]},{"type":"Point","properties":{"Station_ID":"MRL","Station_Nam":"MRL","Latitude":"51.28330","Longitude":"-68.84060","Snowdepth":"4.488","Units":"in","Rept_Date":"2019-11-07 12"},"coordinates":[9363,9541]},{"type":"Point","properties":{"Station_ID":"SVBQ6","Station_Nam":"SAVANT BASE","Latitude":"50.28730","Longitude":"-90.65670","Snowdepth":"4.410","Units":"in","Rept_Date":"2019-11-08 06"},"coordinates":[2167,8511]},{"type":"Point","properties":{"Station_ID":"MN-HS-10","Station_Nam":"BROWNSVILLE 3.1 S, MN","Latitude":"43.65410","Longitude":"-91.27894","Snowdepth":"4.400","Units":"in","Rept_Date":"2019-11-07 11"},"coordinates":[1962,1657]},{"type":"Point","properties":{"Station_ID":"WI-WS-35","Station_Nam":"WEST BEND 1.4 W, WI","Latitude":"43.42115","Longitude":"-88.21203","Snowdepth":"4.300","Units":"in","Rept_Date":"2019-11-07 14"},"coordinates":[2973,1417]},{"type":"Point","properties":{"Station_ID":"SOCQ6","Station_Nam":"SOCKET LAKE","Latitude":"50.77870","Longitude":"-91.79300","Snowdepth":"4.290","Units":"in","Rept_Date":"2019-11-08 06"},"coordinates":[1792,9019]},{"type":"Point","properties":{"Station_ID":"MN-WC-8","Station_Nam":"WASECA 2.0 N, MN","Latitude":"44.11194","Longitude":"-93.49972","Snowdepth":"4.200","Units":"in","Rept_Date":"2019-11-07 13"},"coordinates":[1229,2131]},{"type":"Point","properties":{"Station_ID":"MI-ME-11","Station_Nam":"BIG RAPIDS 5.4 S, MI","Latitude":"43.62630","Longitude":"-85.47600","Snowdepth":"4.200","Units":"in","Rept_Date":"2019-11-07 12"},"coordinates":[3876,1629]},{"type":"Point","properties":{"Station_ID":"MN-FM-10","Station_Nam":"WYKOFF 3.1 NW, MN","Latitude":"43.74340","Longitude":"-92.30650","Snowdepth":"4.100","Units":"in","Rept_Date":"2019-11-07 13"},"coordinates":[1623,1750]},{"type":"Point","properties":{"Station_ID":"CAN-ON-741","Station_Nam":"KIMBERLEY 2.7 WSW, CAN","Latitude":"44.37820","Longitude":"-80.56956","Snowdepth":"4.100","Units":"in","Rept_Date":"2019-11-07 21"},"coordinates":[5494,2406]},{"type":"Point","properties":{"Station_ID":"WTBW3","Station_Nam":"WEST BEND PUBLIC WORKS","Latitude":"43.41110","Longitude":"-88.19380","Snowdepth":"4.000","Units":"in","Rept_Date":"2019-11-07 16"},"coordinates":[2979,1406]},{"type":"Point","properties":{"Station_ID":"WSTW3","Station_Nam":"WEST BEND -FIRE","Latitude":"43.43138","Longitude":"-88.16111","Snowdepth":"4.000","Units":"in","Rept_Date":"2019-11-07 13"},"coordinates":[2990,1427]},{"type":"Point","properties":{"Station_ID":"WLNM4","Station_Nam":"WELLSTON 1N","Latitude":"44.22940","Longitude":"-85.95690","Snowdepth":"4.000","Units":"in","Rept_Date":"2019-11-07 12"},"coordinates":[3717,2252]},{"type":"Point","properties":{"Station_ID":"WI-WS-28","Station_Nam":"JACKSON 0.9 SSE, WI","Latitude":"43.30781","Longitude":"-88.15942","Snowdepth":"4.000","Units":"in","Rept_Date":"2019-11-07 13"},"coordinates":[2991,1300]},{"type":"Point","properties":{"Station_ID":"WI-WS-22","Station_Nam":"JACKSON 3.2 SE, WI","Latitude":"43.29373","Longitude":"-88.11280","Snowdepth":"4.000","Units":"in","Rept_Date":"2019-11-07 11"},"coordinates":[3006,1285]},{"type":"Point","properties":{"Station_ID":"WI-WS-16","Station_Nam":"GERMANTOWN 1.3 NE, WI","Latitude":"43.23127","Longitude":"-88.10234","Snowdepth":"4.000","Units":"in","Rept_Date":"2019-11-07 12"},"coordinates":[3009,1221]},{"type":"Point","properties":{"Station_ID":"WI-WK-68","Station_Nam":"OCONOMOWOC 0.9 W, WI","Latitude":"43.10089","Longitude":"-88.51441","Snowdepth":"4.000","Units":"in","Rept_Date":"2019-11-07 14"},"coordinates":[2874,1086]},{"type":"Point","properties":{"Station_ID":"WI-WK-29","Station_Nam":"OCONOMOWOC 4.6 NE, WI","Latitude":"43.14621","Longitude":"-88.42860","Snowdepth":"4.000","Units":"in","Rept_Date":"2019-11-07 15"},"coordinates":[2902,1133]},{"type":"Point","properties":{"Station_ID":"WI-SK-2","Station_Nam":"ROCK SPRINGS 2.8 WSW, WI","Latitude":"43.45901","Longitude":"-89.96540","Snowdepth":"4.000","Units":"in","Rept_Date":"2019-11-07 13"},"coordinates":[2395,1456]},{"type":"Point","properties":{"Station_ID":"WI-SK-15","Station_Nam":"REEDSBURG 1.3 N, WI","Latitude":"43.55348","Longitude":"-89.99739","Snowdepth":"4.000","Units":"in","Rept_Date":"2019-11-07 11"},"coordinates":[2384,1554]},{"type":"Point","properties":{"Station_ID":"WI-SB-19","Station_Nam":"SHEBOYGAN 0.7 SSW, WI","Latitude":"43.73560","Longitude":"-87.73490","Snowdepth":"4.000","Units":"in","Rept_Date":"2019-11-07 12"},"coordinates":[3131,1742]},{"type":"Point","properties":{"Station_ID":"WI-SB-10","Station_Nam":"RANDOM LAKE 0.5 SSE, WI","Latitude":"43.54812","Longitude":"-87.95050","Snowdepth":"4.000","Units":"in","Rept_Date":"2019-11-07 13"},"coordinates":[3060,1548]},{"type":"Point","properties":{"Station_ID":"WI-OZ-12","Station_Nam":"PORT WASHINGTON 0.5 S, WI","Latitude":"43.38610","Longitude":"-87.87900","Snowdepth":"4.000","Units":"in","Rept_Date":"2019-11-07 13"},"coordinates":[3083,1381]},{"type":"Point","properties":{"Station_ID":"WI-DD-6","Station_Nam":"THERESA 0.5 SSW, WI","Latitude":"43.51135","Longitude":"-88.45578","Snowdepth":"4.000","Units":"in","Rept_Date":"2019-11-07 13"},"coordinates":[2893,1510]},{"type":"Point","properties":{"Station_ID":"WI-AD-10","Station_Nam":"OXFORD 4.0 W, WI","Latitude":"43.78638","Longitude":"-89.64166","Snowdepth":"4.000","Units":"in","Rept_Date":"2019-11-07 12"},"coordinates":[2502,1794]},{"type":"Point","properties":{"Station_ID":"SSMM4","Station_Nam":"SAULT STE MARIE","Latitude":"46.48660","Longitude":"-84.40250","Snowdepth":"4.000","Units":"in","Rept_Date":"2019-11-07 13"},"coordinates":[4230,4584]},{"type":"Point","properties":{"Station_ID":"SPGM5","Station_Nam":"SPRING VALLEY","Latitude":"43.69330","Longitude":"-92.39260","Snowdepth":"4.000","Units":"in","Rept_Date":"2019-11-07 12"},"coordinates":[1594,1698]},{"type":"Point","properties":{"Station_ID":"SLRW3","Station_Nam":"SLINGER","Latitude":"43.33390","Longitude":"-88.29780","Snowdepth":"4.000","Units":"in","Rept_Date":"2019-11-07 13"},"coordinates":[2945,1327]},{"type":"Point","properties":{"Station_ID":"SAVW3","Station_Nam":"SAUKVILLE WWTP","Latitude":"43.37470","Longitude":"-87.93940","Snowdepth":"4.000","Units":"in","Rept_Date":"2019-11-07 12"},"coordinates":[3063,1369]},{"type":"Point","properties":{"Station_ID":"SANI4","Station_Nam":"ST ANSGAR","Latitude":"43.38170","Longitude":"-92.92320","Snowdepth":"4.000","Units":"in","Rept_Date":"2019-11-07 12"},"coordinates":[1419,1376]},{"type":"Point","properties":{"Station_ID":"RLWM5","Station_Nam":"CAMP NORRIS DNR","Latitude":"48.61000","Longitude":"-95.18170","Snowdepth":"4.000","Units":"in","Rept_Date":"2019-11-07 14"},"coordinates":[675,6778]},{"type":"Point","properties":{"Station_ID":"RBGW3","Station_Nam":"REEDSBURG","Latitude":"43.52060","Longitude":"-89.99970","Snowdepth":"4.000","Units":"in","Rept_Date":"2019-11-07 14"},"coordinates":[2384,1520]},{"type":"Point","properties":{"Station_ID":"QNCM4","Station_Nam":"QUINCY HILL","Latitude":"47.13640","Longitude":"-88.57950","Snowdepth":"4.000","Units":"in","Rept_Date":"2019-11-07 12"},"coordinates":[2852,5256]},{"type":"Point","properties":{"Station_ID":"PORW3","Station_Nam":"PORTAGE,WI","Latitude":"43.53190","Longitude":"-89.43780","Snowdepth":"4.000","Units":"in","Rept_Date":"2019-11-07 14"},"coordinates":[2569,1531]},{"type":"Point","properties":{"Station_ID":"OWAM5","Station_Nam":"OWATONNA","Latitude":"44.09760","Longitude":"-93.23180","Snowdepth":"4.000","Units":"in","Rept_Date":"2019-11-07 14"},"coordinates":[1318,2116]},{"type":"Point","properties":{"Station_ID":"ONCW3","Station_Nam":"SOUTH","Latitude":"43.11170","Longitude":"-88.49970","Snowdepth":"4.000","Units":"in","Rept_Date":"2019-11-07 14"},"coordinates":[2878,1097]},{"type":"Point","properties":{"Station_ID":"MN-SE-2","Station_Nam":"OWATONNA 0.8 E, MN","Latitude":"44.09170","Longitude":"-93.21380","Snowdepth":"4.000","Units":"in","Rept_Date":"2019-11-07 12"},"coordinates":[1324,2110]},{"type":"Point","properties":{"Station_ID":"MI-OT-4","Station_Nam":"GAYLORD 1.7 WNW, MI","Latitude":"45.03280","Longitude":"-84.71090","Snowdepth":"4.000","Units":"in","Rept_Date":"2019-11-07 13"},"coordinates":[4128,3082]},{"type":"Point","properties":{"Station_ID":"MI-HG-14","Station_Nam":"HOUGHTON 0.6 SE, MI","Latitude":"47.10847","Longitude":"-88.55235","Snowdepth":"4.000","Units":"in","Rept_Date":"2019-11-07 13"},"coordinates":[2861,5227]},{"type":"Point","properties":{"Station_ID":"MI-BZ-1","Station_Nam":"BENZONIA 5.3 S, MI","Latitude":"44.53976","Longitude":"-86.10650","Snowdepth":"4.000","Units":"in","Rept_Date":"2019-11-07 13"},"coordinates":[3668,2573]},{"type":"Point","properties":{"Station_ID":"MABM5","Station_Nam":"MABEL","Latitude":"43.52410","Longitude":"-91.76160","Snowdepth":"4.000","Units":"in","Rept_Date":"2019-11-07 12"},"coordinates":[1803,1523]},{"type":"Point","properties":{"Station_ID":"LODW3","Station_Nam":"LODI","Latitude":"43.32170","Longitude":"-89.53110","Snowdepth":"4.000","Units":"in","Rept_Date":"2019-11-07 13"},"coordinates":[2538,1314]},{"type":"Point","properties":{"Station_ID":"LKWM5","Station_Nam":"LAKE WILSON","Latitude":"43.99840","Longitude":"-95.94950","Snowdepth":"4.000","Units":"in","Rept_Date":"2019-11-07 14"},"coordinates":[421,2013]},{"type":"Point","properties":{"Station_ID":"LKFM5","Station_Nam":"LAKEFIELD,MN","Latitude":"43.68330","Longitude":"-95.18330","Snowdepth":"4.000","Units":"in","Rept_Date":"2019-11-07 13"},"coordinates":[674,1688]},{"type":"Point","properties":{"Station_ID":"IBLM5","Station_Nam":"ISABELLA 14W","Latitude":"47.59360","Longitude":"-91.65140","Snowdepth":"4.000","Units":"in","Rept_Date":"2019-11-07 15"},"coordinates":[1839,5728]},{"type":"Point","properties":{"Station_ID":"HLBW3","Station_Nam":"HILLSBORO 2SW","Latitude":"43.63410","Longitude":"-90.37920","Snowdepth":"4.000","Units":"in","Rept_Date":"2019-11-07 13"},"coordinates":[2259,1637]},{"type":"Point","properties":{"Station_ID":"HARW3","Station_Nam":"HARTFORD,WI","Latitude":"43.31670","Longitude":"-88.40000","Snowdepth":"4.000","Units":"in","Rept_Date":"2019-11-07 12"},"coordinates":[2911,1309]},{"type":"Point","properties":{"Station_ID":"GMDM5","Station_Nam":"GRAND MEADOW","Latitude":"43.70740","Longitude":"-92.56440","Snowdepth":"4.000","Units":"in","Rept_Date":"2019-11-07 12"},"coordinates":[1538,1713]},{"type":"Point","properties":{"Station_ID":"GERW3","Station_Nam":"GERMANTOWN,WI","Latitude":"43.21670","Longitude":"-88.11670","Snowdepth":"4.000","Units":"in","Rept_Date":"2019-11-07 13"},"coordinates":[3005,1206]},{"type":"Point","properties":{"Station_ID":"GAYM4","Station_Nam":"GAYLORD","Latitude":"45.03320","Longitude":"-84.71130","Snowdepth":"4.000","Units":"in","Rept_Date":"2019-11-07 13"},"coordinates":[4128,3083]},{"type":"Point","properties":{"Station_ID":"FRSW3","Station_Nam":"FRIENDSHIP","Latitude":"43.97500","Longitude":"-89.83080","Snowdepth":"4.000","Units":"in","Rept_Date":"2019-11-07 13"},"coordinates":[2439,1989]},{"type":"Point","properties":{"Station_ID":"ETTW3","Station_Nam":"ETTRICK 4WNW","Latitude":"44.19000","Longitude":"-91.34240","Snowdepth":"4.000","Units":"in","Rept_Date":"2019-11-07 13"},"coordinates":[1941,2211]},{"type":"Point","properties":{"Station_ID":"EJNM4","Station_Nam":"EAST JORDAN 2NW","Latitude":"45.18630","Longitude":"-85.14770","Snowdepth":"4.000","Units":"in","Rept_Date":"2019-11-07 13"},"coordinates":[3984,3241]},{"type":"Point","properties":{"Station_ID":"DCRI4","Station_Nam":"DECORAH","Latitude":"43.30430","Longitude":"-91.79520","Snowdepth":"4.000","Units":"in","Rept_Date":"2019-11-08 00"},"coordinates":[1791,1296]},{"type":"Point","properties":{"Station_ID":"CRCI4","Station_Nam":"CRESCO 1NE","Latitude":"43.38940","Longitude":"-92.09380","Snowdepth":"4.000","Units":"in","Rept_Date":"2019-11-07 13"},"coordinates":[1693,1384]},{"type":"Point","properties":{"Station_ID":"CLDM5","Station_Nam":"CALEDONIA","Latitude":"43.63090","Longitude":"-91.50270","Snowdepth":"4.000","Units":"in","Rept_Date":"2019-11-07 13"},"coordinates":[1888,1634]},{"type":"Point","properties":{"Station_ID":"CAN-ON-452","Station_Nam":"CHATSWORTH 1.8 ENE - GSCA, CAN","Latitude":"44.46118","Longitude":"-80.87506","Snowdepth":"4.000","Units":"in","Rept_Date":"2019-11-07 12"},"coordinates":[5393,2491]},{"type":"Point","properties":{"Station_ID":"BGRM4","Station_Nam":"WATER WORKS","Latitude":"43.70000","Longitude":"-85.48330","Snowdepth":"4.000","Units":"in","Rept_Date":"2019-11-07 12"},"coordinates":[3873,1705]},{"type":"Point","properties":{"Station_ID":"BDMW3","Station_Nam":"BEAVER DAM 1 N","Latitude":"43.46860","Longitude":"-88.83970","Snowdepth":"4.000","Units":"in","Rept_Date":"2019-11-07 13"},"coordinates":[2766,1466]},{"type":"Point","properties":{"Station_ID":"APXM4","Station_Nam":"GAYLORD 9SSW","Latitude":"44.90720","Longitude":"-84.71880","Snowdepth":"4.000","Units":"in","Rept_Date":"2019-11-08 06"},"coordinates":[4125,2952]},{"type":"Point","properties":{"Station_ID":"ANJM4","Station_Nam":"SNOW PAID OBSERVER FOR KANJ","Latitude":"46.48670","Longitude":"-84.40260","Snowdepth":"4.000","Units":"in","Rept_Date":"2019-11-08 00"},"coordinates":[4230,4584]},{"type":"Point","properties":{"Station_ID":"ANJ","Station_Nam":"SAULT STE MARIE","Latitude":"46.46670","Longitude":"-84.36670","Snowdepth":"4.000","Units":"in","Rept_Date":"2019-11-08 00"},"coordinates":[4242,4564]},{"type":"Point","properties":{"Station_ID":"ALBM5","Station_Nam":"ALBERT LEA 3 SE","Latitude":"43.60640","Longitude":"-93.30190","Snowdepth":"4.000","Units":"in","Rept_Date":"2019-11-07 14"},"coordinates":[1295,1608]},{"type":"Point","properties":{"Station_ID":"WI-VR-2","Station_Nam":"VIROQUA 0.8 ESE, WI","Latitude":"43.55304","Longitude":"-90.87100","Snowdepth":"3.800","Units":"in","Rept_Date":"2019-11-07 13"},"coordinates":[2096,1553]},{"type":"Point","properties":{"Station_ID":"WI-WN-15","Station_Nam":"OSHKOSH 2.0 W, WI","Latitude":"44.01962","Longitude":"-88.59359","Snowdepth":"3.500","Units":"in","Rept_Date":"2019-11-07 13"},"coordinates":[2847,2035]},{"type":"Point","properties":{"Station_ID":"WI-WK-73","Station_Nam":"MENOMONEE FALLS 3.2 NNW, WI","Latitude":"43.18817","Longitude":"-88.15555","Snowdepth":"3.500","Units":"in","Rept_Date":"2019-11-07 13"},"coordinates":[2992,1176]},{"type":"Point","properties":{"Station_ID":"WI-SB-14","Station_Nam":"SHEBOYGAN 2.7 N, WI","Latitude":"43.78416","Longitude":"-87.72303","Snowdepth":"3.500","Units":"in","Rept_Date":"2019-11-07 12"},"coordinates":[3135,1792]},{"type":"Point","properties":{"Station_ID":"WI-OG-12","Station_Nam":"KAUKAUNA 1.5 SW, WI","Latitude":"44.26062","Longitude":"-88.28590","Snowdepth":"3.500","Units":"in","Rept_Date":"2019-11-07 12"},"coordinates":[2949,2284]},{"type":"Point","properties":{"Station_ID":"MI-NW-10","Station_Nam":"WHITE CLOUD 9.6 E, MI","Latitude":"43.52587","Longitude":"-85.58461","Snowdepth":"3.500","Units":"in","Rept_Date":"2019-11-07 13"},"coordinates":[3840,1525]},{"type":"Point","properties":{"Station_ID":"FTHQ6","Station_Nam":"FORT HOPE","Latitude":"51.55820","Longitude":"-87.90510","Snowdepth":"3.460","Units":"in","Rept_Date":"2019-11-08 06"},"coordinates":[3075,9825]},{"type":"Point","properties":{"Station_ID":"QWG","Station_Nam":"QWG","Latitude":"48.48890","Longitude":"-73.45940","Snowdepth":"3.425","Units":"in","Rept_Date":"2019-11-07 12"},"coordinates":[7839,6653]},{"type":"Point","properties":{"Station_ID":"WI-MW-14","Station_Nam":"MILWAUKEE 3.6 NNW, WI","Latitude":"43.11300","Longitude":"-87.98730","Snowdepth":"3.400","Units":"in","Rept_Date":"2019-11-07 11"},"coordinates":[3047,1098]},{"type":"Point","properties":{"Station_ID":"WI-DA-45","Station_Nam":"MADISON 6.1 W, WI","Latitude":"43.06948","Longitude":"-89.50788","Snowdepth":"3.300","Units":"in","Rept_Date":"2019-11-07 13"},"coordinates":[2546,1053]},{"type":"Point","properties":{"Station_ID":"WTNM4","Station_Nam":"WATTON 2WSW","Latitude":"46.52660","Longitude":"-88.64240","Snowdepth":"3.000","Units":"in","Rept_Date":"2019-11-07 13"},"coordinates":[2831,4626]},{"type":"Point","properties":{"Station_ID":"WRNW3","Station_Nam":"WARRENS 4WSW","Latitude":"44.10390","Longitude":"-90.58870","Snowdepth":"3.000","Units":"in","Rept_Date":"2019-11-07 13"},"coordinates":[2189,2122]},{"type":"Point","properties":{"Station_ID":"WRNM5","Station_Nam":"WORTHINGTON,MN","Latitude":"43.65440","Longitude":"-95.57920","Snowdepth":"3.000","Units":"in","Rept_Date":"2019-11-07 13"},"coordinates":[543,1658]},{"type":"Point","properties":{"Station_ID":"WOKW3","Station_Nam":"MANITOWOC-5 NW ROCKWOOD","Latitude":"44.15420","Longitude":"-87.69810","Snowdepth":"3.000","Units":"in","Rept_Date":"2019-11-07 13"},"coordinates":[3143,2174]},{"type":"Point","properties":{"Station_ID":"WIPW3","Station_Nam":"WISCONSIN RAPIDS-SOUTHEAST","Latitude":"44.38190","Longitude":"-89.80470","Snowdepth":"3.000","Units":"in","Rept_Date":"2019-11-07 12"},"coordinates":[2448,2410]},{"type":"Point","properties":{"Station_ID":"WIDM5","Station_Nam":"WINONA DAM 5A","Latitude":"44.08750","Longitude":"-91.67030","Snowdepth":"3.000","Units":"in","Rept_Date":"2019-11-07 14"},"coordinates":[1833,2105]},{"type":"Point","properties":{"Station_ID":"WI-WS-5","Station_Nam":"JACKSON 0.2 WSW, WI","Latitude":"43.32007","Longitude":"-88.16820","Snowdepth":"3.000","Units":"in","Rept_Date":"2019-11-07 12"},"coordinates":[2988,1312]},{"type":"Point","properties":{"Station_ID":"WI-WP-8","Station_Nam":"WAUPACA 5.7 WSW, WI","Latitude":"44.33239","Longitude":"-89.18714","Snowdepth":"3.000","Units":"in","Rept_Date":"2019-11-07 13"},"coordinates":[2652,2358]},{"type":"Point","properties":{"Station_ID":"WI-WK-61","Station_Nam":"HARTLAND 5.0 NNE, WI","Latitude":"43.16351","Longitude":"-88.30400","Snowdepth":"3.000","Units":"in","Rept_Date":"2019-11-07 13"},"coordinates":[2943,1151]},{"type":"Point","properties":{"Station_ID":"WI-SB-12","Station_Nam":"SHEBOYGAN 3.2 NW, WI","Latitude":"43.78470","Longitude":"-87.76640","Snowdepth":"3.000","Units":"in","Rept_Date":"2019-11-07 12"},"coordinates":[3120,1792]},{"type":"Point","properties":{"Station_ID":"WI-MW-18","Station_Nam":"WEST ALLIS 0.7 SSE, WI","Latitude":"42.99802","Longitude":"-88.02380","Snowdepth":"3.000","Units":"in","Rept_Date":"2019-11-07 14"},"coordinates":[3035,980]},{"type":"Point","properties":{"Station_ID":"WI-JF-19","Station_Nam":"WATERTOWN 0.8 S, WI","Latitude":"43.18063","Longitude":"-88.72399","Snowdepth":"3.000","Units":"in","Rept_Date":"2019-11-07 13"},"coordinates":[2804,1168]},{"type":"Point","properties":{"Station_ID":"WI-IW-7","Station_Nam":"DODGEVILLE 2.7 NE, WI","Latitude":"42.99414","Longitude":"-90.09488","Snowdepth":"3.000","Units":"in","Rept_Date":"2019-11-07 13"},"coordinates":[2352,976]},{"type":"Point","properties":{"Station_ID":"WI-DA-78","Station_Nam":"SUN PRAIRIE 3.0 W, WI","Latitude":"43.17607","Longitude":"-89.29134","Snowdepth":"3.000","Units":"in","Rept_Date":"2019-11-07 13"},"coordinates":[2617,1164]},{"type":"Point","properties":{"Station_ID":"WI-DA-46","Station_Nam":"MADISON 6.4 W, WI","Latitude":"43.08337","Longitude":"-89.51503","Snowdepth":"3.000","Units":"in","Rept_Date":"2019-11-07 13"},"coordinates":[2544,1068]},{"type":"Point","properties":{"Station_ID":"WAOW3","Station_Nam":"WAUTOMA SILVER LAKE SANITARY DISTRICT","Latitude":"44.04110","Longitude":"-89.24330","Snowdepth":"3.000","Units":"in","Rept_Date":"2019-11-07 14"},"coordinates":[2633,2057]},{"type":"Point","properties":{"Station_ID":"WABM5","Station_Nam":"WABASHA","Latitude":"44.38500","Longitude":"-92.04860","Snowdepth":"3.000","Units":"in","Rept_Date":"2019-11-07 13"},"coordinates":[1708,2413]},{"type":"Point","properties":{"Station_ID":"TREW3","Station_Nam":"DAM 6","Latitude":"43.99970","Longitude":"-91.43580","Snowdepth":"3.000","Units":"in","Rept_Date":"2019-11-07 14"},"coordinates":[1910,2015]},{"type":"Point","properties":{"Station_ID":"THLM5","Station_Nam":"THEILMAN 1SSW","Latitude":"44.28130","Longitude":"-92.19430","Snowdepth":"3.000","Units":"in","Rept_Date":"2019-11-07 13"},"coordinates":[1660,2306]},{"type":"Point","properties":{"Station_ID":"TAHW3","Station_Nam":"TAYCHEEDAH","Latitude":"43.83390","Longitude":"-88.34690","Snowdepth":"3.000","Units":"in","Rept_Date":"2019-11-07 12"},"coordinates":[2929,1843]},{"type":"Point","properties":{"Station_ID":"STDW3","Station_Nam":"STODDARD","Latitude":"43.66020","Longitude":"-91.21930","Snowdepth":"3.000","Units":"in","Rept_Date":"2019-11-07 13"},"coordinates":[1981,1664]},{"type":"Point","properties":{"Station_ID":"STAM4","Station_Nam":"STANDISH 4NE","Latitude":"44.01260","Longitude":"-83.89770","Snowdepth":"3.000","Units":"in","Rept_Date":"2019-11-07 13"},"coordinates":[4396,2028]},{"type":"Point","properties":{"Station_ID":"RST","Station_Nam":"ROCHESTER INTERNATIONAL ARPT","Latitude":"43.90890","Longitude":"-92.49780","Snowdepth":"3.000","Units":"in","Rept_Date":"2019-11-08 00"},"coordinates":[1560,1921]},{"type":"Point","properties":{"Station_ID":"RSRM5","Station_Nam":"ROCHESTER AP 2NE","Latitude":"43.92810","Longitude":"-92.47580","Snowdepth":"3.000","Units":"in","Rept_Date":"2019-11-07 18"},"coordinates":[1567,1941]},{"type":"Point","properties":{"Station_ID":"RKNW3","Station_Nam":"MARKESAN","Latitude":"43.70280","Longitude":"-88.99890","Snowdepth":"3.000","Units":"in","Rept_Date":"2019-11-07 13"},"coordinates":[2714,1708]},{"type":"Point","properties":{"Station_ID":"PTNM5","Station_Nam":"PRESTON","Latitude":"43.67250","Longitude":"-92.07470","Snowdepth":"3.000","Units":"in","Rept_Date":"2019-11-07 14"},"coordinates":[1699,1677]},{"type":"Point","properties":{"Station_ID":"POYW3","Station_Nam":"POY SIPPI - 2 SW","Latitude":"44.10810","Longitude":"-89.01610","Snowdepth":"3.000","Units":"in","Rept_Date":"2019-11-07 12"},"coordinates":[2708,2127]},{"type":"Point","properties":{"Station_ID":"OTRW3","Station_Nam":"ONTARIO 3E","Latitude":"43.71940","Longitude":"-90.53010","Snowdepth":"3.000","Units":"in","Rept_Date":"2019-11-07 13"},"coordinates":[2209,1725]},{"type":"Point","properties":{"Station_ID":"OSAI4","Station_Nam":"OSAGE","Latitude":"43.27940","Longitude":"-92.81060","Snowdepth":"3.000","Units":"in","Rept_Date":"2019-11-07 13"},"coordinates":[1457,1270]},{"type":"Point","properties":{"Station_ID":"OOSW3","Station_Nam":"OSHKOSH 6 S","Latitude":"43.93750","Longitude":"-88.54250","Snowdepth":"3.000","Units":"in","Rept_Date":"2019-11-07 13"},"coordinates":[2864,1950]},{"type":"Point","properties":{"Station_ID":"OKHW3","Station_Nam":"OSHKOSH,WI","Latitude":"44.03330","Longitude":"-88.55560","Snowdepth":"3.000","Units":"in","Rept_Date":"2019-11-07 13"},"coordinates":[2860,2049]},{"type":"Point","properties":{"Station_ID":"OCOW3","Station_Nam":"OCONOMOWOC,WI","Latitude":"43.10190","Longitude":"-88.50330","Snowdepth":"3.000","Units":"in","Rept_Date":"2019-11-07 13"},"coordinates":[2877,1087]},{"type":"Point","properties":{"Station_ID":"NUMM5","Station_Nam":"NEW ULM 3SE","Latitude":"44.29450","Longitude":"-94.40840","Snowdepth":"3.000","Units":"in","Rept_Date":"2019-11-07 12"},"coordinates":[930,2319]},{"type":"Point","properties":{"Station_ID":"NAZW3","Station_Nam":"ST. NAZIANZ-2 W","Latitude":"44.00420","Longitude":"-87.96360","Snowdepth":"3.000","Units":"in","Rept_Date":"2019-11-07 13"},"coordinates":[3055,2019]},{"type":"Point","properties":{"Station_ID":"MWN","Station_Nam":"MOUNT WASHINGTON","Latitude":"44.26670","Longitude":"-71.30000","Snowdepth":"3.000","Units":"in","Rept_Date":"2019-11-08 05"},"coordinates":[8551,2290]},{"type":"Point","properties":{"Station_ID":"MTLW3","Station_Nam":"MONTELLO,WI","Latitude":"43.78000","Longitude":"-89.30000","Snowdepth":"3.000","Units":"in","Rept_Date":"2019-11-07 13"},"coordinates":[2614,1788]},{"type":"Point","properties":{"Station_ID":"MNV905PW","Station_Nam":"ROOSEVELT 5.3 N","Latitude":"48.87933","Longitude":"-95.08224","Snowdepth":"3.000","Units":"in","Rept_Date":"2019-11-07 13"},"coordinates":[707,7057]},{"type":"Point","properties":{"Station_ID":"MNEY8CTB","Station_Nam":"MIDLAND JUNCTION 2.2 ENE","Latitude":"44.33041","Longitude":"-91.95891","Snowdepth":"3.000","Units":"in","Rept_Date":"2019-11-07 14"},"coordinates":[1737,2356]},{"type":"Point","properties":{"Station_ID":"MNE9SLWI","Station_Nam":"LEAVENWORTH 5.4 S","Latitude":"44.14481","Longitude":"-94.78882","Snowdepth":"3.000","Units":"in","Rept_Date":"2019-11-07 13"},"coordinates":[804,2165]},{"type":"Point","properties":{"Station_ID":"MN-PS-6","Station_Nam":"EDGERTON 0.2 WSW, MN","Latitude":"43.87444","Longitude":"-96.13328","Snowdepth":"3.000","Units":"in","Rept_Date":"2019-11-07 12"},"coordinates":[361,1885]},{"type":"Point","properties":{"Station_ID":"MI-OT-17","Station_Nam":"GAYLORD 4.1 S, MI","Latitude":"44.96388","Longitude":"-84.68467","Snowdepth":"3.000","Units":"in","Rept_Date":"2019-11-07 12"},"coordinates":[4137,3011]},{"type":"Point","properties":{"Station_ID":"MI-OT-16","Station_Nam":"GAYLORD 2.2 SSE, MI","Latitude":"44.99441","Longitude":"-84.65820","Snowdepth":"3.000","Units":"in","Rept_Date":"2019-11-07 11"},"coordinates":[4145,3042]},{"type":"Point","properties":{"Station_ID":"MI-HR-10","Station_Nam":"BAY PORT 3.2 SSW, MI","Latitude":"43.80746","Longitude":"-83.40013","Snowdepth":"3.000","Units":"in","Rept_Date":"2019-11-07 13"},"coordinates":[4560,1816]},{"type":"Point","properties":{"Station_ID":"MI-HG-12","Station_Nam":"DOLLAR BAY 0.2 ENE, MI","Latitude":"47.12067","Longitude":"-88.49895","Snowdepth":"3.000","Units":"in","Rept_Date":"2019-11-07 13"},"coordinates":[2879,5239]},{"type":"Point","properties":{"Station_ID":"MI-HG-1","Station_Nam":"HOUGHTON 1.6 ESE, MI","Latitude":"47.10774","Longitude":"-88.52940","Snowdepth":"3.000","Units":"in","Rept_Date":"2019-11-07 13"},"coordinates":[2869,5226]},{"type":"Point","properties":{"Station_ID":"MI-GR-3","Station_Nam":"ALMA 0.3 NW, MI","Latitude":"43.38184","Longitude":"-84.65860","Snowdepth":"3.000","Units":"in","Rept_Date":"2019-11-07 12"},"coordinates":[4145,1376]},{"type":"Point","properties":{"Station_ID":"MI-CF-9","Station_Nam":"GRAYLING 15.8 NE, MI","Latitude":"44.80464","Longitude":"-84.46313","Snowdepth":"3.000","Units":"in","Rept_Date":"2019-11-07 12"},"coordinates":[4210,2846]},{"type":"Point","properties":{"Station_ID":"MI-BG-3","Station_Nam":"L'ANSE 17.8 SE, MI","Latitude":"46.55730","Longitude":"-88.20770","Snowdepth":"3.000","Units":"in","Rept_Date":"2019-11-07 13"},"coordinates":[2975,4657]},{"type":"Point","properties":{"Station_ID":"MDDW3","Station_Nam":"MIDDLETON,WI","Latitude":"43.09060","Longitude":"-89.51470","Snowdepth":"3.000","Units":"in","Rept_Date":"2019-11-07 13"},"coordinates":[2544,1075]},{"type":"Point","properties":{"Station_ID":"MBSM4","Station_Nam":"SAGINAW","Latitude":"43.49540","Longitude":"-84.09630","Snowdepth":"3.000","Units":"in","Rept_Date":"2019-11-07 12"},"coordinates":[4331,1494]},{"type":"Point","properties":{"Station_ID":"MAZW3","Station_Nam":"MAZOMANIE","Latitude":"43.17080","Longitude":"-89.81920","Snowdepth":"3.000","Units":"in","Rept_Date":"2019-11-07 13"},"coordinates":[2443,1158]},{"type":"Point","properties":{"Station_ID":"MAUW3","Station_Nam":"MAUSTON 1SE","Latitude":"43.78990","Longitude":"-90.05970","Snowdepth":"3.000","Units":"in","Rept_Date":"2019-11-07 14"},"coordinates":[2364,1798]},{"type":"Point","properties":{"Station_ID":"LSNW3","Station_Nam":"LA CROSSE SNOW","Latitude":"43.86220","Longitude":"-91.26660","Snowdepth":"3.000","Units":"in","Rept_Date":"2019-11-07 18"},"coordinates":[1966,1873]},{"type":"Point","properties":{"Station_ID":"LSE","Station_Nam":"LA CROSSE MUNICIPAL AIRPORT","Latitude":"43.87920","Longitude":"-91.25610","Snowdepth":"3.000","Units":"in","Rept_Date":"2019-11-08 00"},"coordinates":[1969,1890]},{"type":"Point","properties":{"Station_ID":"LMLI4","Station_Nam":"LAKE MILLS,IA","Latitude":"43.40000","Longitude":"-93.53330","Snowdepth":"3.000","Units":"in","Rept_Date":"2019-11-07 13"},"coordinates":[1218,1395]},{"type":"Point","properties":{"Station_ID":"LCFW3","Station_Nam":"LA CROSSE 4NNW","Latitude":"43.86690","Longitude":"-91.27250","Snowdepth":"3.000","Units":"in","Rept_Date":"2019-11-07 13"},"coordinates":[1964,1877]},{"type":"Point","properties":{"Station_ID":"LBKV1","Station_Nam":"LYE BROOK","Latitude":"43.05000","Longitude":"-73.03330","Snowdepth":"3.000","Units":"in","Rept_Date":"2019-11-08 06"},"coordinates":[7980,1033]},{"type":"Point","properties":{"Station_ID":"LAMM5","Station_Nam":"LAMBERTON SW RESEARCH AND OUTREACH CENTER","Latitude":"44.23950","Longitude":"-95.31520","Snowdepth":"3.000","Units":"in","Rept_Date":"2019-11-07 14"},"coordinates":[630,2262]},{"type":"Point","properties":{"Station_ID":"KMWN","Station_Nam":"MOUNT WASHINGTON","Latitude":"44.26666","Longitude":"-71.30000","Snowdepth":"3.000","Units":"in","Rept_Date":"2019-11-08 06"},"coordinates":[8551,2290]},{"type":"Point","properties":{"Station_ID":"JACW3","Station_Nam":"JACKSON","Latitude":"43.31940","Longitude":"-88.16810","Snowdepth":"3.000","Units":"in","Rept_Date":"2019-11-07 12"},"coordinates":[2988,1312]},{"type":"Point","properties":{"Station_ID":"INDM5","Station_Nam":"INDUS,MN","Latitude":"48.61670","Longitude":"-93.90000","Snowdepth":"3.000","Units":"in","Rept_Date":"2019-11-07 14"},"coordinates":[1097,6785]},{"type":"Point","properties":{"Station_ID":"IA-WH-5","Station_Nam":"DECORAH 4.9SE, IA","Latitude":"43.26481","Longitude":"-91.70294","Snowdepth":"3.000","Units":"in","Rept_Date":"2019-11-07 12"},"coordinates":[1822,1255]},{"type":"Point","properties":{"Station_ID":"HORW3","Station_Nam":"HORICON WWTP","Latitude":"43.45000","Longitude":"-88.63330","Snowdepth":"3.000","Units":"in","Rept_Date":"2019-11-07 13"},"coordinates":[2834,1447]},{"type":"Point","properties":{"Station_ID":"GIBW3","Station_Nam":"GIBBSVILLE,WI","Latitude":"43.65670","Longitude":"-87.81170","Snowdepth":"3.000","Units":"in","Rept_Date":"2019-11-07 13"},"coordinates":[3105,1660]},{"type":"Point","properties":{"Station_ID":"FDCW3","Station_Nam":"FOND DU LAC-MID","Latitude":"43.63330","Longitude":"-88.45000","Snowdepth":"3.000","Units":"in","Rept_Date":"2019-11-08 06"},"coordinates":[2895,1636]},{"type":"Point","properties":{"Station_ID":"FCDW3","Station_Nam":"FOND DU LAC-AM","Latitude":"43.76670","Longitude":"-88.46670","Snowdepth":"3.000","Units":"in","Rept_Date":"2019-11-07 13"},"coordinates":[2889,1774]},{"type":"Point","properties":{"Station_ID":"EGNM5","Station_Nam":"ELGIN 2SSW","Latitude":"44.09700","Longitude":"-92.27010","Snowdepth":"3.000","Units":"in","Rept_Date":"2019-11-07 13"},"coordinates":[1635,2115]},{"type":"Point","properties":{"Station_ID":"CUSW3","Station_Nam":"COLUMBUS","Latitude":"43.32610","Longitude":"-89.00810","Snowdepth":"3.000","Units":"in","Rept_Date":"2019-11-07 13"},"coordinates":[2711,1319]},{"type":"Point","properties":{"Station_ID":"CMRI4","Station_Nam":"CALMAR NE","Latitude":"43.18760","Longitude":"-91.86200","Snowdepth":"3.000","Units":"in","Rept_Date":"2019-11-07 13"},"coordinates":[1769,1175]},{"type":"Point","properties":{"Station_ID":"CEFM4","Station_Nam":"EXPERIMENT FARM #2","Latitude":"46.33330","Longitude":"-86.91670","Snowdepth":"3.000","Units":"in","Rept_Date":"2019-11-07 13"},"coordinates":[3401,4426]},{"type":"Point","properties":{"Station_ID":"CDLM4","Station_Nam":"CADILLAC 9&10 NEWS","Latitude":"44.21130","Longitude":"-85.40860","Snowdepth":"3.000","Units":"in","Rept_Date":"2019-11-07 12"},"coordinates":[3898,2233]},{"type":"Point","properties":{"Station_ID":"BROS2","Station_Nam":"BROOKINGS,SD","Latitude":"44.31670","Longitude":"-96.76670","Snowdepth":"3.000","Units":"in","Rept_Date":"2019-11-07 14"},"coordinates":[152,2342]},{"type":"Point","properties":{"Station_ID":"BRCM5","Station_Nam":"BRICELYN","Latitude":"43.54400","Longitude":"-93.84230","Snowdepth":"3.000","Units":"in","Rept_Date":"2019-11-07 13"},"coordinates":[1116,1544]},{"type":"Point","properties":{"Station_ID":"BLNW3","Station_Nam":"BERLIN WWTP","Latitude":"43.99000","Longitude":"-88.94170","Snowdepth":"3.000","Units":"in","Rept_Date":"2019-11-07 13"},"coordinates":[2733,2005]},{"type":"Point","properties":{"Station_ID":"BEUM4","Station_Nam":"BEULAH 7SSW","Latitude":"44.53160","Longitude":"-86.13110","Snowdepth":"3.000","Units":"in","Rept_Date":"2019-11-07 13"},"coordinates":[3660,2564]},{"type":"Point","properties":{"Station_ID":"BDAM4","Station_Nam":"BAD AXE,MI","Latitude":"43.81670","Longitude":"-83.00000","Snowdepth":"3.000","Units":"in","Rept_Date":"2019-11-07 12"},"coordinates":[4692,1826]},{"type":"Point","properties":{"Station_ID":"BBDW3","Station_Nam":"BIG BEND","Latitude":"42.88140","Longitude":"-88.20670","Snowdepth":"3.000","Units":"in","Rept_Date":"2019-11-07 13"},"coordinates":[2975,859]},{"type":"Point","properties":{"Station_ID":"BABW3","Station_Nam":"BARABOO WWTP","Latitude":"43.48330","Longitude":"-89.63330","Snowdepth":"3.000","Units":"in","Rept_Date":"2019-11-07 14"},"coordinates":[2505,1481]},{"type":"Point","properties":{"Station_ID":"ARX","Station_Nam":"LA CROSSE, WI","Latitude":"43.82280","Longitude":"-91.19190","Snowdepth":"3.000","Units":"in","Rept_Date":"2019-11-08 06"},"coordinates":[1990,1832]},{"type":"Point","properties":{"Station_ID":"APPW3","Station_Nam":"APPLETON","Latitude":"44.27690","Longitude":"-88.43770","Snowdepth":"3.000","Units":"in","Rept_Date":"2019-11-07 12"},"coordinates":[2899,2301]},{"type":"Point","properties":{"Station_ID":"APLW3","Station_Nam":"APPLETON WHBY RADIO","Latitude":"44.25110","Longitude":"-88.36440","Snowdepth":"3.000","Units":"in","Rept_Date":"2019-11-07 14"},"coordinates":[2923,2274]},{"type":"Point","properties":{"Station_ID":"AMDW3","Station_Nam":"ALMOND-5 NE","Latitude":"44.30830","Longitude":"-89.34640","Snowdepth":"3.000","Units":"in","Rept_Date":"2019-11-07 14"},"coordinates":[2599,2333]},{"type":"Point","properties":{"Station_ID":"ALLW3","Station_Nam":"ALLENTON","Latitude":"43.42360","Longitude":"-88.35110","Snowdepth":"3.000","Units":"in","Rept_Date":"2019-11-07 21"},"coordinates":[2927,1419]},{"type":"Point","properties":{"Station_ID":"QLB","Station_Nam":"QLB","Latitude":"50.72360","Longitude":"-75.10000","Snowdepth":"2.953","Units":"in","Rept_Date":"2019-11-07 12"},"coordinates":[7298,8962]},{"type":"Point","properties":{"Station_ID":"CATQ6","Station_Nam":"CAT LAKE","Latitude":"51.72690","Longitude":"-91.82210","Snowdepth":"2.760","Units":"in","Rept_Date":"2019-11-08 06"},"coordinates":[1783,9999]},{"type":"Point","properties":{"Station_ID":"QYR","Station_Nam":"QYR","Latitude":"48.87220","Longitude":"-75.61470","Snowdepth":"2.677","Units":"in","Rept_Date":"2019-11-07 12"},"coordinates":[7128,7049]},{"type":"Point","properties":{"Station_ID":"WI-VR-6","Station_Nam":"STODDARD 0.1 SW, WI","Latitude":"43.66050","Longitude":"-91.21930","Snowdepth":"2.600","Units":"in","Rept_Date":"2019-11-07 13"},"coordinates":[1981,1664]},{"type":"Point","properties":{"Station_ID":"CAN-ON-132","Station_Nam":"ORANGEVILLE 5.1 SSW - CANWARN, CAN","Latitude":"43.87372","Longitude":"-80.13428","Snowdepth":"2.600","Units":"in","Rept_Date":"2019-11-07 14"},"coordinates":[5638,1884]},{"type":"Point","properties":{"Station_ID":"WI-SB-18","Station_Nam":"PLYMOUTH 5.4 NE, WI","Latitude":"43.81185","Longitude":"-87.91054","Snowdepth":"2.500","Units":"in","Rept_Date":"2019-11-07 13"},"coordinates":[3073,1820]},{"type":"Point","properties":{"Station_ID":"WI-MW-43","Station_Nam":"BROWN DEER 0.8 NW, WI","Latitude":"43.18438","Longitude":"-87.98401","Snowdepth":"2.500","Units":"in","Rept_Date":"2019-11-07 13"},"coordinates":[3049,1172]},{"type":"Point","properties":{"Station_ID":"WI-MW-23","Station_Nam":"GREENDALE 1.0 ENE, WI","Latitude":"42.94094","Longitude":"-87.98230","Snowdepth":"2.500","Units":"in","Rept_Date":"2019-11-07 13"},"coordinates":[3049,921]},{"type":"Point","properties":{"Station_ID":"WI-JF-10","Station_Nam":"PALMYRA 1.5 N, WI","Latitude":"42.90084","Longitude":"-88.58620","Snowdepth":"2.500","Units":"in","Rept_Date":"2019-11-07 13"},"coordinates":[2850,879]},{"type":"Point","properties":{"Station_ID":"WI-GL-4","Station_Nam":"GREEN LAKE 0.8 E, WI","Latitude":"43.84369","Longitude":"-88.94066","Snowdepth":"2.500","Units":"in","Rept_Date":"2019-11-07 13"},"coordinates":[2733,1853]},{"type":"Point","properties":{"Station_ID":"WI-DA-72","Station_Nam":"MADISON 4.0 SW, WI","Latitude":"43.03801","Longitude":"-89.44355","Snowdepth":"2.500","Units":"in","Rept_Date":"2019-11-07 13"},"coordinates":[2567,1021]},{"type":"Point","properties":{"Station_ID":"WI-DA-31","Station_Nam":"DEERFIELD 0.6 N, WI","Latitude":"43.05958","Longitude":"-89.07340","Snowdepth":"2.500","Units":"in","Rept_Date":"2019-11-07 12"},"coordinates":[2689,1043]},{"type":"Point","properties":{"Station_ID":"MN-BW-8","Station_Nam":"COMFREY 6.5 ENE, MN","Latitude":"44.15109","Longitude":"-94.78516","Snowdepth":"2.500","Units":"in","Rept_Date":"2019-11-07 13"},"coordinates":[805,2171]},{"type":"Point","properties":{"Station_ID":"MI-MT-8","Station_Nam":"EDMORE 3.8 ESE, MI","Latitude":"43.37974","Longitude":"-84.97319","Snowdepth":"2.500","Units":"in","Rept_Date":"2019-11-07 15"},"coordinates":[4042,1374]},{"type":"Point","properties":{"Station_ID":"MI-CP-14","Station_Nam":"SAULT STE. MARIE 2.2 E, MI","Latitude":"46.48933","Longitude":"-84.31971","Snowdepth":"2.500","Units":"in","Rept_Date":"2019-11-07 12"},"coordinates":[4257,4587]},{"type":"Point","properties":{"Station_ID":"IA-DK-11","Station_Nam":"SPIRIT LAKE 1.7 SW, IA","Latitude":"43.40694","Longitude":"-95.13694","Snowdepth":"2.500","Units":"in","Rept_Date":"2019-11-07 13"},"coordinates":[689,1402]},{"type":"Point","properties":{"Station_ID":"CAN-ON-245","Station_Nam":"PHELPSTON 3.1 ESE, CAN","Latitude":"44.50564","Longitude":"-79.81035","Snowdepth":"2.500","Units":"in","Rept_Date":"2019-11-07 12"},"coordinates":[5744,2537]},{"type":"Point","properties":{"Station_ID":"WI-GT-6","Station_Nam":"MUSCODA 0.5 WSW, WI","Latitude":"43.18483","Longitude":"-90.44318","Snowdepth":"2.400","Units":"in","Rept_Date":"2019-11-07 14"},"coordinates":[2237,1173]},{"type":"Point","properties":{"Station_ID":"MI-EM-5","Station_Nam":"HARBOR SPRINGS 0.7 ENE, MI","Latitude":"45.43450","Longitude":"-84.97540","Snowdepth":"2.400","Units":"in","Rept_Date":"2019-11-07 12"},"coordinates":[4041,3497]},{"type":"Point","properties":{"Station_ID":"CAN-ON-130","Station_Nam":"BARRIE 3.6 N - CANWARN, CAN","Latitude":"44.41135","Longitude":"-79.69817","Snowdepth":"2.400","Units":"in","Rept_Date":"2019-11-07 13"},"coordinates":[5781,2440]},{"type":"Point","properties":{"Station_ID":"CAN-ON-31","Station_Nam":"KOMOKA 2.8 W, CAN","Latitude":"42.95424","Longitude":"-81.43488","Snowdepth":"2.200","Units":"in","Rept_Date":"2019-11-07 14"},"coordinates":[5209,934]},{"type":"Point","properties":{"Station_ID":"IA-BH-7","Station_Nam":"CEDAR FALLS 1.4 SSE, IA","Latitude":"42.50186","Longitude":"-92.44180","Snowdepth":"2.100","Units":"in","Rept_Date":"2019-11-07 13"},"coordinates":[1578,467]},{"type":"Point","properties":{"Station_ID":"WWWW3","Station_Nam":"WAUPACA","Latitude":"44.35470","Longitude":"-89.05920","Snowdepth":"2.000","Units":"in","Rept_Date":"2019-11-07 14"},"coordinates":[2694,2381]},{"type":"Point","properties":{"Station_ID":"WRUM5","Station_Nam":"WARROAD 4W","Latitude":"48.89600","Longitude":"-95.40700","Snowdepth":"2.000","Units":"in","Rept_Date":"2019-11-08 04"},"coordinates":[600,7074]},{"type":"Point","properties":{"Station_ID":"WMTI4","Station_Nam":"FORT DODGE,IA","Latitude":"42.50610","Longitude":"-94.20110","Snowdepth":"2.000","Units":"in","Rept_Date":"2019-11-07 13"},"coordinates":[998,471]},{"type":"Point","properties":{"Station_ID":"WIRW3","Station_Nam":"WIS RAPIDS GRAND AV B","Latitude":"44.39940","Longitude":"-89.83050","Snowdepth":"2.000","Units":"in","Rept_Date":"2019-11-07 13"},"coordinates":[2439,2428]},{"type":"Point","properties":{"Station_ID":"WI-WN-9","Station_Nam":"NEENAH 1.1 ENE, WI","Latitude":"44.17370","Longitude":"-88.45130","Snowdepth":"2.000","Units":"in","Rept_Date":"2019-11-07 13"},"coordinates":[2894,2194]},{"type":"Point","properties":{"Station_ID":"WI-WN-19","Station_Nam":"OSHKOSH 1.6 ESE, WI","Latitude":"44.01097","Longitude":"-88.52354","Snowdepth":"2.000","Units":"in","Rept_Date":"2019-11-07 13"},"coordinates":[2871,2026]},{"type":"Point","properties":{"Station_ID":"WI-PT-8","Station_Nam":"RUDOLPH 2.1 NNE, WI","Latitude":"44.52553","Longitude":"-89.78677","Snowdepth":"2.000","Units":"in","Rept_Date":"2019-11-07 11"},"coordinates":[2454,2558]},{"type":"Point","properties":{"Station_ID":"WI-JF-17","Station_Nam":"JOHNSON CREEK 2.7 SSW, WI","Latitude":"43.04559","Longitude":"-88.79925","Snowdepth":"2.000","Units":"in","Rept_Date":"2019-11-07 11"},"coordinates":[2780,1029]},{"type":"Point","properties":{"Station_ID":"WI-IW-3","Station_Nam":"MINERAL POINT 7.3 ENE, WI","Latitude":"42.91400","Longitude":"-90.05700","Snowdepth":"2.000","Units":"in","Rept_Date":"2019-11-07 13"},"coordinates":[2365,893]},{"type":"Point","properties":{"Station_ID":"WI-DA-62","Station_Nam":"WAUNAKEE 4.9 W, WI","Latitude":"43.19755","Longitude":"-89.54904","Snowdepth":"2.000","Units":"in","Rept_Date":"2019-11-07 13"},"coordinates":[2532,1186]},{"type":"Point","properties":{"Station_ID":"WI-DA-39","Station_Nam":"MADISON 4.0 W, WI","Latitude":"43.07741","Longitude":"-89.46757","Snowdepth":"2.000","Units":"in","Rept_Date":"2019-11-07 13"},"coordinates":[2559,1062]},{"type":"Point","properties":{"Station_ID":"WI-DA-33","Station_Nam":"OREGON 0.4 SSW, WI","Latitude":"42.92080","Longitude":"-89.38540","Snowdepth":"2.000","Units":"in","Rept_Date":"2019-11-07 13"},"coordinates":[2586,900]},{"type":"Point","properties":{"Station_ID":"WI-BN-22","Station_Nam":"WRIGHTSTOWN 0.4 ENE, WI","Latitude":"44.32735","Longitude":"-88.16669","Snowdepth":"2.000","Units":"in","Rept_Date":"2019-11-07 13"},"coordinates":[2988,2353]},{"type":"Point","properties":{"Station_ID":"WI-BN-14","Station_Nam":"GREEN BAY 3.8 SSE, WI","Latitude":"44.46772","Longitude":"-87.97350","Snowdepth":"2.000","Units":"in","Rept_Date":"2019-11-07 13"},"coordinates":[3052,2498]},{"type":"Point","properties":{"Station_ID":"WATW3","Station_Nam":"WATERTOWN,WI","Latitude":"43.17500","Longitude":"-88.73530","Snowdepth":"2.000","Units":"in","Rept_Date":"2019-11-07 13"},"coordinates":[2801,1162]},{"type":"Point","properties":{"Station_ID":"VOLI4","Station_Nam":"VOLGA 1NE","Latitude":"42.81150","Longitude":"-91.52300","Snowdepth":"2.000","Units":"in","Rept_Date":"2019-11-07 12"},"coordinates":[1881,787]},{"type":"Point","properties":{"Station_ID":"VANM4","Station_Nam":"VANDERBILT 11ENE","Latitude":"45.17020","Longitude":"-84.43970","Snowdepth":"2.000","Units":"in","Rept_Date":"2019-11-07 13"},"coordinates":[4218,3224]},{"type":"Point","properties":{"Station_ID":"TWOW3","Station_Nam":"TWO RIVERS","Latitude":"44.14300","Longitude":"-87.56770","Snowdepth":"2.000","Units":"in","Rept_Date":"2019-11-07 13"},"coordinates":[3186,2163]},{"type":"Point","properties":{"Station_ID":"TRPI4","Station_Nam":"TRIPOLI,IA","Latitude":"42.81310","Longitude":"-92.25830","Snowdepth":"2.000","Units":"in","Rept_Date":"2019-11-07 13"},"coordinates":[1639,789]},{"type":"Point","properties":{"Station_ID":"SWEI4","Station_Nam":"SWEA CITY,IA","Latitude":"43.38530","Longitude":"-94.25000","Snowdepth":"2.000","Units":"in","Rept_Date":"2019-11-07 12"},"coordinates":[982,1380]},{"type":"Point","properties":{"Station_ID":"SIBI4","Station_Nam":"SIBLEY","Latitude":"43.40470","Longitude":"-95.74830","Snowdepth":"2.000","Units":"in","Rept_Date":"2019-11-07 13"},"coordinates":[488,1400]},{"type":"Point","properties":{"Station_ID":"SHIW3","Station_Nam":"SHIOCTON","Latitude":"44.43890","Longitude":"-88.58390","Snowdepth":"2.000","Units":"in","Rept_Date":"2019-11-07 14"},"coordinates":[2851,2468]},{"type":"Point","properties":{"Station_ID":"SBNW3","Station_Nam":"STEUBEN 4SE","Latitude":"43.13430","Longitude":"-90.83720","Snowdepth":"2.000","Units":"in","Rept_Date":"2019-11-07 13"},"coordinates":[2107,1120]},{"type":"Point","properties":{"Station_ID":"SBEW3","Station_Nam":"EXP. FARM","Latitude":"44.86670","Longitude":"-87.33330","Snowdepth":"2.000","Units":"in","Rept_Date":"2019-11-07 13"},"coordinates":[3263,2910]},{"type":"Point","properties":{"Station_ID":"SACI4","Station_Nam":"SAC CITY,IA","Latitude":"42.42390","Longitude":"-94.99080","Snowdepth":"2.000","Units":"in","Rept_Date":"2019-11-07 12"},"coordinates":[737,386]},{"type":"Point","properties":{"Station_ID":"RWGM5","Station_Nam":"RED WING","Latitude":"44.57120","Longitude":"-92.52830","Snowdepth":"2.000","Units":"in","Rept_Date":"2019-11-07 14"},"coordinates":[1550,2605]},{"type":"Point","properties":{"Station_ID":"ROCW3","Station_Nam":"ROCHESTER WWTP","Latitude":"42.72690","Longitude":"-88.22580","Snowdepth":"2.000","Units":"in","Rept_Date":"2019-11-07 11"},"coordinates":[2969,699]},{"type":"Point","properties":{"Station_ID":"RFDM4","Station_Nam":"ROCKFORD","Latitude":"43.11580","Longitude":"-85.56410","Snowdepth":"2.000","Units":"in","Rept_Date":"2019-11-07 12"},"coordinates":[3847,1101]},{"type":"Point","properties":{"Station_ID":"PWKW3","Station_Nam":"PEWAUKEE WWTP","Latitude":"43.06170","Longitude":"-88.29500","Snowdepth":"2.000","Units":"in","Rept_Date":"2019-11-07 16"},"coordinates":[2946,1045]},{"type":"Point","properties":{"Station_ID":"PULW3","Station_Nam":"PULASKI WWTP","Latitude":"44.67830","Longitude":"-88.22750","Snowdepth":"2.000","Units":"in","Rept_Date":"2019-11-07 12"},"coordinates":[2968,2716]},{"type":"Point","properties":{"Station_ID":"PDGM4","Station_Nam":"PAULDING","Latitude":"46.39760","Longitude":"-89.17940","Snowdepth":"2.000","Units":"in","Rept_Date":"2019-11-07 13"},"coordinates":[2654,4492]},{"type":"Point","properties":{"Station_ID":"OSNW3","Station_Nam":"OSHKOSH-NORTH","Latitude":"44.03500","Longitude":"-88.54390","Snowdepth":"2.000","Units":"in","Rept_Date":"2019-11-07 13"},"coordinates":[2864,2051]},{"type":"Point","properties":{"Station_ID":"OMWW3","Station_Nam":"OMRO - 2 SW","Latitude":"44.02080","Longitude":"-88.77970","Snowdepth":"2.000","Units":"in","Rept_Date":"2019-11-07 13"},"coordinates":[2786,2036]},{"type":"Point","properties":{"Station_ID":"NWFM4","Station_Nam":"NW MICHIGAN RESEARCH FARM","Latitude":"44.88300","Longitude":"-85.67520","Snowdepth":"2.000","Units":"in","Rept_Date":"2019-11-07 13"},"coordinates":[3810,2927]},{"type":"Point","properties":{"Station_ID":"NONW3","Station_Nam":"NEW LONDON","Latitude":"44.35890","Longitude":"-88.71890","Snowdepth":"2.000","Units":"in","Rept_Date":"2019-11-07 12"},"coordinates":[2806,2386]},{"type":"Point","properties":{"Station_ID":"NHUI4","Station_Nam":"NASHUA 2SW","Latitude":"42.93670","Longitude":"-92.56970","Snowdepth":"2.000","Units":"in","Rept_Date":"2019-11-07 13"},"coordinates":[1536,916]},{"type":"Point","properties":{"Station_ID":"NHNW3","Station_Nam":"NEW HOLSTEIN-EAST-WWTP","Latitude":"43.95310","Longitude":"-88.07720","Snowdepth":"2.000","Units":"in","Rept_Date":"2019-11-07 12"},"coordinates":[3018,1966]},{"type":"Point","properties":{"Station_ID":"NGLW3","Station_Nam":"NEW GLARUS","Latitude":"42.83500","Longitude":"-89.62080","Snowdepth":"2.000","Units":"in","Rept_Date":"2019-11-07 13"},"coordinates":[2509,811]},{"type":"Point","properties":{"Station_ID":"MSN","Station_Nam":"MADISON DANE COUNTY RGNL","Latitude":"43.13970","Longitude":"-89.33750","Snowdepth":"2.000","Units":"in","Rept_Date":"2019-11-08 00"},"coordinates":[2602,1126]},{"type":"Point","properties":{"Station_ID":"MSCM5","Station_Nam":"MINNESOTA CITY","Latitude":"44.16000","Longitude":"-91.81220","Snowdepth":"2.000","Units":"in","Rept_Date":"2019-11-07 14"},"coordinates":[1786,2180]},{"type":"Point","properties":{"Station_ID":"MRBW3","Station_Nam":"MT HOREB","Latitude":"42.98030","Longitude":"-89.73940","Snowdepth":"2.000","Units":"in","Rept_Date":"2019-11-07 13"},"coordinates":[2470,961]},{"type":"Point","properties":{"Station_ID":"MNG0GYSN","Station_Nam":"LONSDALE 1.1 SSW","Latitude":"44.46445","Longitude":"-93.43293","Snowdepth":"2.000","Units":"in","Rept_Date":"2019-11-07 12"},"coordinates":[1251,2495]},{"type":"Point","properties":{"Station_ID":"MN-RC-11","Station_Nam":"NEW PRAGUE 4.8 ESE, MN","Latitude":"44.51999","Longitude":"-93.48470","Snowdepth":"2.000","Units":"in","Rept_Date":"2019-11-07 11"},"coordinates":[1234,2552]},{"type":"Point","properties":{"Station_ID":"MN-RC-1","Station_Nam":"MONTGOMERY 3.2 ENE, MN","Latitude":"44.46400","Longitude":"-93.51980","Snowdepth":"2.000","Units":"in","Rept_Date":"2019-11-07 11"},"coordinates":[1223,2494]},{"type":"Point","properties":{"Station_ID":"MN-GH-4","Station_Nam":"NERSTRAND 4.2 E, MN","Latitude":"44.34247","Longitude":"-92.97920","Snowdepth":"2.000","Units":"in","Rept_Date":"2019-11-07 13"},"coordinates":[1401,2369]},{"type":"Point","properties":{"Station_ID":"MKX","Station_Nam":"MILWAUKEE, WI","Latitude":"42.96810","Longitude":"-88.54920","Snowdepth":"2.000","Units":"in","Rept_Date":"2019-11-08 06"},"coordinates":[2862,949]},{"type":"Point","properties":{"Station_ID":"MI-PI-1","Station_Nam":"ROGERS CITY 0.2 WSW, MI","Latitude":"45.41740","Longitude":"-83.81060","Snowdepth":"2.000","Units":"in","Rept_Date":"2019-11-07 13"},"coordinates":[4425,3479]},{"type":"Point","properties":{"Station_ID":"MI-OW-25","Station_Nam":"HOLLAND 5.1 WNW, MI","Latitude":"42.80115","Longitude":"-86.19480","Snowdepth":"2.000","Units":"in","Rept_Date":"2019-11-07 13"},"coordinates":[3639,776]},{"type":"Point","properties":{"Station_ID":"MI-GT-21","Station_Nam":"KINGSLEY 2.7 ENE, MI","Latitude":"44.59871","Longitude":"-85.48426","Snowdepth":"2.000","Units":"in","Rept_Date":"2019-11-07 11"},"coordinates":[3873,2634]},{"type":"Point","properties":{"Station_ID":"MDLM4","Station_Nam":"MIDLAND,MI","Latitude":"43.61670","Longitude":"-84.21670","Snowdepth":"2.000","Units":"in","Rept_Date":"2019-11-08 05"},"coordinates":[4291,1619]},{"type":"Point","properties":{"Station_ID":"MBS","Station_Nam":"MBS INTERNATIONAL AIRPORT","Latitude":"43.53310","Longitude":"-84.07970","Snowdepth":"2.000","Units":"in","Rept_Date":"2019-11-07 12"},"coordinates":[4336,1532]},{"type":"Point","properties":{"Station_ID":"MANW3","Station_Nam":"MANITOWOC","Latitude":"44.08690","Longitude":"-87.65220","Snowdepth":"2.000","Units":"in","Rept_Date":"2019-11-08 00"},"coordinates":[3158,2105]},{"type":"Point","properties":{"Station_ID":"MALN6","Station_Nam":"MALONE","Latitude":"44.84180","Longitude":"-74.30600","Snowdepth":"2.000","Units":"in","Rept_Date":"2019-11-07 12"},"coordinates":[7560,2885]},{"type":"Point","properties":{"Station_ID":"LOOW3","Station_Nam":"WATERLOO","Latitude":"43.18830","Longitude":"-88.98440","Snowdepth":"2.000","Units":"in","Rept_Date":"2019-11-07 14"},"coordinates":[2719,1176]},{"type":"Point","properties":{"Station_ID":"LKCM4","Station_Nam":"LAKE CITY EXP FARM","Latitude":"44.30880","Longitude":"-85.20500","Snowdepth":"2.000","Units":"in","Rept_Date":"2019-11-07 13"},"coordinates":[3965,2334]},{"type":"Point","properties":{"Station_ID":"LCRM5","Station_Nam":"LA CRESCENT DAM 7","Latitude":"43.86560","Longitude":"-91.31000","Snowdepth":"2.000","Units":"in","Rept_Date":"2019-11-07 14"},"coordinates":[1952,1876]},{"type":"Point","properties":{"Station_ID":"KTVC","Station_Nam":"CHERRY CAPITAL AIRPORT","Latitude":"44.73333","Longitude":"-85.56666","Snowdepth":"2.000","Units":"in","Rept_Date":"2019-11-08 00"},"coordinates":[3846,2773]},{"type":"Point","properties":{"Station_ID":"KMSN","Station_Nam":"MADISON DANE COUNTY RGNL","Latitude":"43.13333","Longitude":"-89.35000","Snowdepth":"2.000","Units":"in","Rept_Date":"2019-11-08 06"},"coordinates":[2598,1119]},{"type":"Point","properties":{"Station_ID":"KKKW3","Station_Nam":"KEWAUNEE","Latitude":"44.46280","Longitude":"-87.50500","Snowdepth":"2.000","Units":"in","Rept_Date":"2019-11-07 13"},"coordinates":[3207,2493]},{"type":"Point","properties":{"Station_ID":"KGTB","Station_Nam":"FORT DRUM / WHEELER-SACK U. S. ARMY AIRFIELD","Latitude":"44.05000","Longitude":"-75.73333","Snowdepth":"2.000","Units":"in","Rept_Date":"2019-11-07 18"},"coordinates":[7089,2067]},{"type":"Point","properties":{"Station_ID":"JFNW3","Station_Nam":"JEFFERSON - WWTP","Latitude":"42.99470","Longitude":"-88.80390","Snowdepth":"2.000","Units":"in","Rept_Date":"2019-11-07 13"},"coordinates":[2778,976]},{"type":"Point","properties":{"Station_ID":"JCBM4","Station_Nam":"JACOBSVILLE","Latitude":"47.00830","Longitude":"-88.43180","Snowdepth":"2.000","Units":"in","Rept_Date":"2019-11-07 12"},"coordinates":[2901,5123]},{"type":"Point","properties":{"Station_ID":"IWAI4","Station_Nam":"IOWA FALLS,IA","Latitude":"42.53330","Longitude":"-93.26670","Snowdepth":"2.000","Units":"in","Rept_Date":"2019-11-07 13"},"coordinates":[1306,499]},{"type":"Point","properties":{"Station_ID":"HTLM4","Station_Nam":"SNOW PAID OBSERVER FOR KHTL","Latitude":"44.34470","Longitude":"-84.67730","Snowdepth":"2.000","Units":"in","Rept_Date":"2019-11-08 06"},"coordinates":[4139,2371]},{"type":"Point","properties":{"Station_ID":"HTL","Station_Nam":"ROSCOMMON COUNTY AIRPORT","Latitude":"44.35000","Longitude":"-84.66670","Snowdepth":"2.000","Units":"in","Rept_Date":"2019-11-08 00"},"coordinates":[4143,2377]},{"type":"Point","properties":{"Station_ID":"HBHM4","Station_Nam":"HARBOR BEACH,MI","Latitude":"43.83330","Longitude":"-82.63330","Snowdepth":"2.000","Units":"in","Rept_Date":"2019-11-07 13"},"coordinates":[4813,1843]},{"type":"Point","properties":{"Station_ID":"FLAM4","Station_Nam":"FIFE LAKE 2WNW","Latitude":"44.58480","Longitude":"-85.36530","Snowdepth":"2.000","Units":"in","Rept_Date":"2019-11-07 12"},"coordinates":[3912,2619]},{"type":"Point","properties":{"Station_ID":"EVYI4","Station_Nam":"EVERLY,IA","Latitude":"43.18330","Longitude":"-95.36670","Snowdepth":"2.000","Units":"in","Rept_Date":"2019-11-07 13"},"coordinates":[613,1171]},{"type":"Point","properties":{"Station_ID":"ETWM4","Station_Nam":"EAST TAWAS","Latitude":"44.28380","Longitude":"-83.50360","Snowdepth":"2.000","Units":"in","Rept_Date":"2019-11-07 13"},"coordinates":[4526,2308]},{"type":"Point","properties":{"Station_ID":"ELMI4","Station_Nam":"ELMA IOWA","Latitude":"43.24190","Longitude":"-92.44330","Snowdepth":"2.000","Units":"in","Rept_Date":"2019-11-07 13"},"coordinates":[1578,1232]},{"type":"Point","properties":{"Station_ID":"DRYW3","Station_Nam":"APPLETON-4 SE DARBOY","Latitude":"44.24970","Longitude":"-88.32780","Snowdepth":"2.000","Units":"in","Rept_Date":"2019-11-07 11"},"coordinates":[2935,2273]},{"type":"Point","properties":{"Station_ID":"DENW3","Station_Nam":"DENMARK WWTP","Latitude":"44.35130","Longitude":"-87.81190","Snowdepth":"2.000","Units":"in","Rept_Date":"2019-11-07 14"},"coordinates":[3105,2378]},{"type":"Point","properties":{"Station_ID":"CTNW3","Station_Nam":"CASHTON 3NNW","Latitude":"43.78600","Longitude":"-90.79520","Snowdepth":"2.000","Units":"in","Rept_Date":"2019-11-07 14"},"coordinates":[2121,1794]},{"type":"Point","properties":{"Station_ID":"COSW3","Station_Nam":"CITY OF SHEBOYGAN WWTP","Latitude":"43.71850","Longitude":"-87.70870","Snowdepth":"2.000","Units":"in","Rept_Date":"2019-11-07 14"},"coordinates":[3139,1724]},{"type":"Point","properties":{"Station_ID":"COKM5","Station_Nam":"COOK","Latitude":"47.85060","Longitude":"-92.69250","Snowdepth":"2.000","Units":"in","Rept_Date":"2019-11-07 12"},"coordinates":[1496,5994]},{"type":"Point","properties":{"Station_ID":"CLKM4","Station_Nam":"CLARKSBURG","Latitude":"46.49910","Longitude":"-87.84500","Snowdepth":"2.000","Units":"in","Rept_Date":"2019-11-07 12"},"coordinates":[3094,4597]},{"type":"Point","properties":{"Station_ID":"CHMW3","Station_Nam":"MADISON,WI","Latitude":"43.06030","Longitude":"-89.47810","Snowdepth":"2.000","Units":"in","Rept_Date":"2019-11-07 13"},"coordinates":[2556,1044]},{"type":"Point","properties":{"Station_ID":"BRLW3","Station_Nam":"BRILLION,WI","Latitude":"44.18330","Longitude":"-88.06670","Snowdepth":"2.000","Units":"in","Rept_Date":"2019-11-07 12"},"coordinates":[3021,2204]},{"type":"Point","properties":{"Station_ID":"BNDM5","Station_Nam":"ELY 25E","Latitude":"47.97190","Longitude":"-91.44860","Snowdepth":"2.000","Units":"in","Rept_Date":"2019-11-07 13"},"coordinates":[1906,6119]},{"type":"Point","properties":{"Station_ID":"BFDW3","Station_Nam":"BROOKFIELD","Latitude":"43.05390","Longitude":"-88.17640","Snowdepth":"2.000","Units":"in","Rept_Date":"2019-11-07 15"},"coordinates":[2985,1037]},{"type":"Point","properties":{"Station_ID":"AMRW3","Station_Nam":"AMHERST","Latitude":"44.44720","Longitude":"-89.28970","Snowdepth":"2.000","Units":"in","Rept_Date":"2019-11-07 12"},"coordinates":[2618,2477]},{"type":"Point","properties":{"Station_ID":"ALTM5","Station_Nam":"ALTURA 5W","Latitude":"44.06330","Longitude":"-92.03970","Snowdepth":"2.000","Units":"in","Rept_Date":"2019-11-07 13"},"coordinates":[1711,2080]},{"type":"Point","properties":{"Station_ID":"WI-WD-4","Station_Nam":"PITTSVILLE 0.1 NE, WI","Latitude":"44.44120","Longitude":"-90.12890","Snowdepth":"1.900","Units":"in","Rept_Date":"2019-11-07 12"},"coordinates":[2341,2471]},{"type":"Point","properties":{"Station_ID":"WI-WW-12","Station_Nam":"ELKHORN 0.4 ESE, WI","Latitude":"42.66970","Longitude":"-88.53170","Snowdepth":"1.500","Units":"in","Rept_Date":"2019-11-07 11"},"coordinates":[2868,640]},{"type":"Point","properties":{"Station_ID":"WI-WK-65","Station_Nam":"EAGLE 3.4 SW, WI","Latitude":"42.85067","Longitude":"-88.52596","Snowdepth":"1.500","Units":"in","Rept_Date":"2019-11-07 12"},"coordinates":[2870,827]},{"type":"Point","properties":{"Station_ID":"WI-WK-20","Station_Nam":"MUKWONAGO 0.5 N, WI","Latitude":"42.87385","Longitude":"-88.33180","Snowdepth":"1.500","Units":"in","Rept_Date":"2019-11-07 14"},"coordinates":[2934,851]},{"type":"Point","properties":{"Station_ID":"SD-BK-7","Station_Nam":"BROOKINGS 0.2 SSW, SD","Latitude":"44.30389","Longitude":"-96.78780","Snowdepth":"1.500","Units":"in","Rept_Date":"2019-11-07 13"},"coordinates":[145,2329]},{"type":"Point","properties":{"Station_ID":"MN-SL-108","Station_Nam":"IRON JUNCTION 3.4 NNW, MN","Latitude":"47.46150","Longitude":"-92.63130","Snowdepth":"1.500","Units":"in","Rept_Date":"2019-11-07 12"},"coordinates":[1516,5592]},{"type":"Point","properties":{"Station_ID":"MI-IC-3","Station_Nam":"EAST TAWAS 0.8 WSW, MI","Latitude":"44.28322","Longitude":"-83.49920","Snowdepth":"1.500","Units":"in","Rept_Date":"2019-11-07 13"},"coordinates":[4528,2308]},{"type":"Point","properties":{"Station_ID":"MI-GT-25","Station_Nam":"TRAVERSE CITY 4.7 ESE, MI","Latitude":"44.73370","Longitude":"-85.51189","Snowdepth":"1.500","Units":"in","Rept_Date":"2019-11-07 12"},"coordinates":[3864,2773]},{"type":"Point","properties":{"Station_ID":"MI-CX-4","Station_Nam":"CHARLEVOIX 4.3 SSE, MI","Latitude":"45.25720","Longitude":"-85.21650","Snowdepth":"1.500","Units":"in","Rept_Date":"2019-11-07 12"},"coordinates":[3961,3314]},{"type":"Point","properties":{"Station_ID":"IA-BH-3","Station_Nam":"CEDAR FALLS 0.4 WNW, IA","Latitude":"42.52318","Longitude":"-92.45961","Snowdepth":"1.500","Units":"in","Rept_Date":"2019-11-07 13"},"coordinates":[1572,489]},{"type":"Point","properties":{"Station_ID":"CAN-ON-42","Station_Nam":"VANKLEEK HILL 3.4 S, CA","Latitude":"45.48987","Longitude":"-74.64570","Snowdepth":"1.500","Units":"in","Rept_Date":"2019-11-07 12"},"coordinates":[7448,3554]},{"type":"Point","properties":{"Station_ID":"TRIQ6","Station_Nam":"TRIO LAKE","Latitude":"49.22880","Longitude":"-87.22920","Snowdepth":"1.460","Units":"in","Rept_Date":"2019-11-08 06"},"coordinates":[3297,7418]},{"type":"Point","properties":{"Station_ID":"QLM","Station_Nam":"QLM","Latitude":"48.92030","Longitude":"-70.25280","Snowdepth":"1.417","Units":"in","Rept_Date":"2019-11-07 12"},"coordinates":[8897,7099]},{"type":"Point","properties":{"Station_ID":"WI-KN-6","Station_Nam":"KENOSHA 1.7 S, WI","Latitude":"42.55970","Longitude":"-87.85660","Snowdepth":"1.400","Units":"in","Rept_Date":"2019-11-07 12"},"coordinates":[3091,527]},{"type":"Point","properties":{"Station_ID":"WI-KN-11","Station_Nam":"PLEASANT PRAIRIE 3.8 NW, WI","Latitude":"42.56005","Longitude":"-87.93840","Snowdepth":"1.400","Units":"in","Rept_Date":"2019-11-07 12"},"coordinates":[3064,527]},{"type":"Point","properties":{"Station_ID":"MI-OW-2","Station_Nam":"HOLLAND 3.9 NNE, MI","Latitude":"42.82296","Longitude":"-86.06780","Snowdepth":"1.300","Units":"in","Rept_Date":"2019-11-07 11"},"coordinates":[3681,799]},{"type":"Point","properties":{"Station_ID":"MI-MT-9","Station_Nam":"FENWICK 3.3 E, MI","Latitude":"43.15067","Longitude":"-85.01435","Snowdepth":"1.300","Units":"in","Rept_Date":"2019-11-07 12"},"coordinates":[4028,1137]},{"type":"Point","properties":{"Station_ID":"CAN-ON-208","Station_Nam":"PAKENHAM 7.8 NNW, CAN","Latitude":"45.39166","Longitude":"-76.34111","Snowdepth":"1.300","Units":"in","Rept_Date":"2019-11-07 12"},"coordinates":[6889,3453]},{"type":"Point","properties":{"Station_ID":"QLP","Station_Nam":"QLP","Latitude":"48.13920","Longitude":"-72.63830","Snowdepth":"1.220","Units":"in","Rept_Date":"2019-11-07 12"},"coordinates":[8110,6292]},{"type":"Point","properties":{"Station_ID":"QGA","Station_Nam":"QGA","Latitude":"47.25640","Longitude":"-73.73810","Snowdepth":"1.220","Units":"in","Rept_Date":"2019-11-07 12"},"coordinates":[7747,5380]},{"type":"Point","properties":{"Station_ID":"IA-PA-5","Station_Nam":"WEST BEND 5.4 W, IA","Latitude":"42.96313","Longitude":"-94.55402","Snowdepth":"1.200","Units":"in","Rept_Date":"2019-11-07 13"},"coordinates":[882,944]},{"type":"Point","properties":{"Station_ID":"CAN-ON-187","Station_Nam":"WATERLOO 1.9 E - UOFW, CAN","Latitude":"43.47024","Longitude":"-80.50634","Snowdepth":"1.200","Units":"in","Rept_Date":"2019-11-07 13"},"coordinates":[5515,1468]},{"type":"Point","properties":{"Station_ID":"WI-PC-25","Station_Nam":"ELLSWORTH 2.6 SW, WI","Latitude":"44.71119","Longitude":"-92.51849","Snowdepth":"1.100","Units":"in","Rept_Date":"2019-11-07 13"},"coordinates":[1553,2750]},{"type":"Point","properties":{"Station_ID":"WI-BN-6","Station_Nam":"SUAMICO 4.4 WNW, WI","Latitude":"44.66111","Longitude":"-88.11780","Snowdepth":"1.100","Units":"in","Rept_Date":"2019-11-07 13"},"coordinates":[3004,2698]},{"type":"Point","properties":{"Station_ID":"WTRM4","Station_Nam":"WATERSMEET 12WSW","Latitude":"46.22310","Longitude":"-89.40850","Snowdepth":"1.000","Units":"in","Rept_Date":"2019-11-07 13"},"coordinates":[2579,4312]},{"type":"Point","properties":{"Station_ID":"WI-WW-2","Station_Nam":"LAKE GENEVA 0.6 ENE, WI","Latitude":"42.59169","Longitude":"-88.41770","Snowdepth":"1.000","Units":"in","Rept_Date":"2019-11-07 13"},"coordinates":[2905,560]},{"type":"Point","properties":{"Station_ID":"WI-VL-9","Station_Nam":"LAND O' LAKES 11.7 W, WI","Latitude":"46.19023","Longitude":"-89.45790","Snowdepth":"1.000","Units":"in","Rept_Date":"2019-11-07 13"},"coordinates":[2562,4278]},{"type":"Point","properties":{"Station_ID":"WI-RC-3","Station_Nam":"RACINE 2.3 WSW, WI","Latitude":"42.71124","Longitude":"-87.84570","Snowdepth":"1.000","Units":"in","Rept_Date":"2019-11-07 12"},"coordinates":[3094,683]},{"type":"Point","properties":{"Station_ID":"WI-LF-6","Station_Nam":"SOUTH WAYNE 3.9 SSW, WI","Latitude":"42.51173","Longitude":"-89.89555","Snowdepth":"1.000","Units":"in","Rept_Date":"2019-11-07 12"},"coordinates":[2418,477]},{"type":"Point","properties":{"Station_ID":"WI-EC-5","Station_Nam":"ALTOONA 0.4 SW, WI","Latitude":"44.80128","Longitude":"-91.44819","Snowdepth":"1.000","Units":"in","Rept_Date":"2019-11-07 12"},"coordinates":[1906,2843]},{"type":"Point","properties":{"Station_ID":"WEBI4","Station_Nam":"WEBSTER CITY,IA","Latitude":"42.46670","Longitude":"-93.80000","Snowdepth":"1.000","Units":"in","Rept_Date":"2019-11-07 13"},"coordinates":[1130,431]},{"type":"Point","properties":{"Station_ID":"WBRM4","Station_Nam":"WEST BRANCH 3SE","Latitude":"44.25410","Longitude":"-84.20110","Snowdepth":"1.000","Units":"in","Rept_Date":"2019-11-07 13"},"coordinates":[4296,2277]},{"type":"Point","properties":{"Station_ID":"UGRW3","Station_Nam":"UNION GROVE,WI","Latitude":"42.70000","Longitude":"-88.03220","Snowdepth":"1.000","Units":"in","Rept_Date":"2019-11-07 14"},"coordinates":[3033,672]},{"type":"Point","properties":{"Station_ID":"TCEM4","Station_Nam":"TRAVERSE CITY 5ESE","Latitude":"44.73370","Longitude":"-85.51180","Snowdepth":"1.000","Units":"in","Rept_Date":"2019-11-07 12"},"coordinates":[3864,2773]},{"type":"Point","properties":{"Station_ID":"STRW3","Station_Nam":"STRATFORD 1NW","Latitude":"44.81750","Longitude":"-90.08990","Snowdepth":"1.000","Units":"in","Rept_Date":"2019-11-07 12"},"coordinates":[2354,2860]},{"type":"Point","properties":{"Station_ID":"STPW3","Station_Nam":"STEVENS POINT","Latitude":"44.51130","Longitude":"-89.58550","Snowdepth":"1.000","Units":"in","Rept_Date":"2019-11-07 13"},"coordinates":[2520,2543]},{"type":"Point","properties":{"Station_ID":"STOW3","Station_Nam":"STOUGHTON,WI","Latitude":"42.91670","Longitude":"-89.21670","Snowdepth":"1.000","Units":"in","Rept_Date":"2019-11-07 13"},"coordinates":[2642,896]},{"type":"Point","properties":{"Station_ID":"SPTI4","Station_Nam":"STRAWBERRY POINT","Latitude":"42.68530","Longitude":"-91.53300","Snowdepth":"1.000","Units":"in","Rept_Date":"2019-11-07 13"},"coordinates":[1878,656]},{"type":"Point","properties":{"Station_ID":"SPRI4","Station_Nam":"SPIRIT LAKE","Latitude":"43.42310","Longitude":"-95.10000","Snowdepth":"1.000","Units":"in","Rept_Date":"2019-11-07 13"},"coordinates":[701,1419]},{"type":"Point","properties":{"Station_ID":"SPCW3","Station_Nam":"SPENCER-WWTP","Latitude":"44.75390","Longitude":"-90.28920","Snowdepth":"1.000","Units":"in","Rept_Date":"2019-11-07 13"},"coordinates":[2288,2794]},{"type":"Point","properties":{"Station_ID":"SLBI4","Station_Nam":"STORM LAKE","Latitude":"42.64690","Longitude":"-95.19330","Snowdepth":"1.000","Units":"in","Rept_Date":"2019-11-07 14"},"coordinates":[671,617]},{"type":"Point","properties":{"Station_ID":"SHHW3","Station_Nam":"SHAWANO 2SSW","Latitude":"44.76310","Longitude":"-88.61830","Snowdepth":"1.000","Units":"in","Rept_Date":"2019-11-07 14"},"coordinates":[2839,2803]},{"type":"Point","properties":{"Station_ID":"SHDI4","Station_Nam":"SHELDON,IA","Latitude":"43.18080","Longitude":"-95.85280","Snowdepth":"1.000","Units":"in","Rept_Date":"2019-11-07 13"},"coordinates":[453,1168]},{"type":"Point","properties":{"Station_ID":"SGVN6","Station_Nam":"SPRINGVILLE","Latitude":"42.54970","Longitude":"-78.57670","Snowdepth":"1.000","Units":"in","Rept_Date":"2019-11-08 00"},"coordinates":[6151,516]},{"type":"Point","properties":{"Station_ID":"SEEW3","Station_Nam":"SOUTH MILWAUKEE WWTP","Latitude":"42.90110","Longitude":"-87.84940","Snowdepth":"1.000","Units":"in","Rept_Date":"2019-11-07 14"},"coordinates":[3093,879]},{"type":"Point","properties":{"Station_ID":"SD-MH-20","Station_Nam":"SIOUX FALLS 3.4 ESE, SD","Latitude":"43.52670","Longitude":"-96.66580","Snowdepth":"1.000","Units":"in","Rept_Date":"2019-11-07 13"},"coordinates":[185,1526]},{"type":"Point","properties":{"Station_ID":"SAGM4","Station_Nam":"SAGINAW #3","Latitude":"43.41220","Longitude":"-83.95610","Snowdepth":"1.000","Units":"in","Rept_Date":"2019-11-07 13"},"coordinates":[4377,1408]},{"type":"Point","properties":{"Station_ID":"RSTW3","Station_Nam":"ROSHOLT","Latitude":"44.62710","Longitude":"-89.30600","Snowdepth":"1.000","Units":"in","Rept_Date":"2019-11-07 11"},"coordinates":[2612,2663]},{"type":"Point","properties":{"Station_ID":"RSMM5","Station_Nam":"ROSEMOUNT RESEARCH AND OUTREACH CENTER","Latitude":"44.71660","Longitude":"-93.09800","Snowdepth":"1.000","Units":"in","Rept_Date":"2019-11-07 14"},"coordinates":[1362,2755]},{"type":"Point","properties":{"Station_ID":"RSCI2","Station_Nam":"ROSCOE","Latitude":"42.40500","Longitude":"-88.97940","Snowdepth":"1.000","Units":"in","Rept_Date":"2019-11-07 12"},"coordinates":[2720,367]},{"type":"Point","properties":{"Station_ID":"RNBW3","Station_Nam":"WFO GREEN BAY","Latitude":"44.49780","Longitude":"-88.11080","Snowdepth":"1.000","Units":"in","Rept_Date":"2019-11-08 06"},"coordinates":[3007,2529]},{"type":"Point","properties":{"Station_ID":"RCNW3","Station_Nam":"RACINE,WI","Latitude":"42.70390","Longitude":"-87.76670","Snowdepth":"1.000","Units":"in","Rept_Date":"2019-11-07 14"},"coordinates":[3120,676]},{"type":"Point","properties":{"Station_ID":"PVRW3","Station_Nam":"PLOVER-2-E WATER TREATMENT PLANT","Latitude":"44.45920","Longitude":"-89.49530","Snowdepth":"1.000","Units":"in","Rept_Date":"2019-11-07 13"},"coordinates":[2550,2489]},{"type":"Point","properties":{"Station_ID":"PTYM4","Station_Nam":"PETOSKEY NCMC","Latitude":"45.36120","Longitude":"-84.95110","Snowdepth":"1.000","Units":"in","Rept_Date":"2019-11-07 13"},"coordinates":[4049,3421]},{"type":"Point","properties":{"Station_ID":"PLLW3","Station_Nam":"PELL LAKE","Latitude":"42.53220","Longitude":"-88.33280","Snowdepth":"1.000","Units":"in","Rept_Date":"2019-11-07 13"},"coordinates":[2933,498]},{"type":"Point","properties":{"Station_ID":"PITW3","Station_Nam":"PITTSVILLE-WWTP","Latitude":"44.43690","Longitude":"-90.13170","Snowdepth":"1.000","Units":"in","Rept_Date":"2019-11-07 13"},"coordinates":[2340,2466]},{"type":"Point","properties":{"Station_ID":"PDCW3","Station_Nam":"PRAIRIE DU CHIEN","Latitude":"43.05150","Longitude":"-91.13490","Snowdepth":"1.000","Units":"in","Rept_Date":"2019-11-07 13"},"coordinates":[2009,1035]},{"type":"Point","properties":{"Station_ID":"ONAM4","Station_Nam":"ONAWAY 4N","Latitude":"45.41080","Longitude":"-84.22330","Snowdepth":"1.000","Units":"in","Rept_Date":"2019-11-07 23"},"coordinates":[4289,3473]},{"type":"Point","properties":{"Station_ID":"OLNI4","Station_Nam":"OELWEIN 1E","Latitude":"42.68010","Longitude":"-91.87510","Snowdepth":"1.000","Units":"in","Rept_Date":"2019-11-07 12"},"coordinates":[1765,651]},{"type":"Point","properties":{"Station_ID":"OCNW3","Station_Nam":"OCONTO 4 W","Latitude":"44.89190","Longitude":"-87.95500","Snowdepth":"1.000","Units":"in","Rept_Date":"2019-11-07 13"},"coordinates":[3058,2936]},{"type":"Point","properties":{"Station_ID":"NHPI4","Station_Nam":"NEW HAMPTON","Latitude":"43.05750","Longitude":"-92.31220","Snowdepth":"1.000","Units":"in","Rept_Date":"2019-11-07 14"},"coordinates":[1621,1041]},{"type":"Point","properties":{"Station_ID":"NELW3","Station_Nam":"NEILLSVILLE 3ESE","Latitude":"44.53780","Longitude":"-90.53500","Snowdepth":"1.000","Units":"in","Rept_Date":"2019-11-07 12"},"coordinates":[2207,2571]},{"type":"Point","properties":{"Station_ID":"MYOM4","Station_Nam":"MIO WWTP","Latitude":"44.64660","Longitude":"-84.11580","Snowdepth":"1.000","Units":"in","Rept_Date":"2019-11-07 13"},"coordinates":[4324,2683]},{"type":"Point","properties":{"Station_ID":"MWOW3","Station_Nam":"MUKWONAGO","Latitude":"42.85380","Longitude":"-88.43550","Snowdepth":"1.000","Units":"in","Rept_Date":"2019-11-07 13"},"coordinates":[2900,831]},{"type":"Point","properties":{"Station_ID":"MTOM5","Station_Nam":"MANKATO 4E","Latitude":"44.16730","Longitude":"-93.91020","Snowdepth":"1.000","Units":"in","Rept_Date":"2019-11-07 13"},"coordinates":[1094,2188]},{"type":"Point","properties":{"Station_ID":"MQT","Station_Nam":"MARQUETTE, MI","Latitude":"46.53140","Longitude":"-87.54920","Snowdepth":"1.000","Units":"in","Rept_Date":"2019-11-08 06"},"coordinates":[3192,4631]},{"type":"Point","properties":{"Station_ID":"MONW3","Station_Nam":"MONROE,WI","Latitude":"42.60000","Longitude":"-89.66670","Snowdepth":"1.000","Units":"in","Rept_Date":"2019-11-07 13"},"coordinates":[2494,568]},{"type":"Point","properties":{"Station_ID":"MN-GH-28","Station_Nam":"CANNON FALLS 0.5 SE, MN","Latitude":"44.50866","Longitude":"-92.89526","Snowdepth":"1.000","Units":"in","Rept_Date":"2019-11-07 14"},"coordinates":[1429,2541]},{"type":"Point","properties":{"Station_ID":"MN-DK-53","Station_Nam":"LAKEVILLE 3.8 ENE, MN","Latitude":"44.70423","Longitude":"-93.18460","Snowdepth":"1.000","Units":"in","Rept_Date":"2019-11-07 13"},"coordinates":[1333,2743]},{"type":"Point","properties":{"Station_ID":"MN-DK-49","Station_Nam":"LAKEVILLE 2.1 SW, MN","Latitude":"44.65694","Longitude":"-93.28390","Snowdepth":"1.000","Units":"in","Rept_Date":"2019-11-07 14"},"coordinates":[1300,2694]},{"type":"Point","properties":{"Station_ID":"MN-DK-104","Station_Nam":"HASTINGS 1.6 NW, MN","Latitude":"44.74458","Longitude":"-92.88035","Snowdepth":"1.000","Units":"in","Rept_Date":"2019-11-07 13"},"coordinates":[1434,2784]},{"type":"Point","properties":{"Station_ID":"MKE","Station_Nam":"GEN MITCHELL INTL AIRPORT","Latitude":"42.94720","Longitude":"-87.89670","Snowdepth":"1.000","Units":"in","Rept_Date":"2019-11-08 00"},"coordinates":[3077,927]},{"type":"Point","properties":{"Station_ID":"MIEM4","Station_Nam":"MICHIGAMME 3WNW","Latitude":"46.54530","Longitude":"-88.18000","Snowdepth":"1.000","Units":"in","Rept_Date":"2019-11-07 13"},"coordinates":[2984,4645]},{"type":"Point","properties":{"Station_ID":"MI-WS-3","Station_Nam":"PLYMOUTH 5.4 W, MI","Latitude":"42.38279","Longitude":"-83.57120","Snowdepth":"1.000","Units":"in","Rept_Date":"2019-11-07 12"},"coordinates":[4504,344]},{"type":"Point","properties":{"Station_ID":"MI-OW-44","Station_Nam":"HOLLAND 3.0 W, MI","Latitude":"42.77069","Longitude":"-86.16205","Snowdepth":"1.000","Units":"in","Rept_Date":"2019-11-07 12"},"coordinates":[3649,745]},{"type":"Point","properties":{"Station_ID":"MI-OK-112","Station_Nam":"TROY 2.8 W, MI","Latitude":"42.57358","Longitude":"-83.19643","Snowdepth":"1.000","Units":"in","Rept_Date":"2019-11-07 12"},"coordinates":[4628,541]},{"type":"Point","properties":{"Station_ID":"MI-OG-6","Station_Nam":"WEST BRANCH 2.1 SSW, MI","Latitude":"44.24814","Longitude":"-84.25089","Snowdepth":"1.000","Units":"in","Rept_Date":"2019-11-07 12"},"coordinates":[4280,2271]},{"type":"Point","properties":{"Station_ID":"MI-MB-55","Station_Nam":"FRASER 1.2 N, MI","Latitude":"42.55697","Longitude":"-82.94938","Snowdepth":"1.000","Units":"in","Rept_Date":"2019-11-07 13"},"coordinates":[4709,524]},{"type":"Point","properties":{"Station_ID":"MI-KN-33","Station_Nam":"GRAND RAPIDS 3.0 NW, MI","Latitude":"42.99502","Longitude":"-85.69218","Snowdepth":"1.000","Units":"in","Rept_Date":"2019-11-07 13"},"coordinates":[3804,976]},{"type":"Point","properties":{"Station_ID":"MI-KN-32","Station_Nam":"GRAND RAPIDS 2.9 NW, MI","Latitude":"42.99191","Longitude":"-85.69440","Snowdepth":"1.000","Units":"in","Rept_Date":"2019-11-07 12"},"coordinates":[3804,973]},{"type":"Point","properties":{"Station_ID":"MI-KN-14","Station_Nam":"GRANDVILLE 1.3 WSW, MI","Latitude":"42.89716","Longitude":"-85.77910","Snowdepth":"1.000","Units":"in","Rept_Date":"2019-11-07 12"},"coordinates":[3776,875]},{"type":"Point","properties":{"Station_ID":"MI-HG-13","Station_Nam":"HOUGHTON 1.2 WNW, MI","Latitude":"47.12035","Longitude":"-88.58525","Snowdepth":"1.000","Units":"in","Rept_Date":"2019-11-07 13"},"coordinates":[2850,5239]},{"type":"Point","properties":{"Station_ID":"MFDW3","Station_Nam":"MARSHFIELD EXP FARM","Latitude":"44.64110","Longitude":"-90.13330","Snowdepth":"1.000","Units":"in","Rept_Date":"2019-11-07 13"},"coordinates":[2340,2677]},{"type":"Point","properties":{"Station_ID":"MCWI4","Station_Nam":"WINNEBAGO RIVER","Latitude":"43.15000","Longitude":"-93.19250","Snowdepth":"1.000","Units":"in","Rept_Date":"2019-11-07 13"},"coordinates":[1331,1137]},{"type":"Point","properties":{"Station_ID":"LNOW3","Station_Nam":"LAND O LAKES","Latitude":"46.19000","Longitude":"-89.45700","Snowdepth":"1.000","Units":"in","Rept_Date":"2019-11-07 13"},"coordinates":[2563,4278]},{"type":"Point","properties":{"Station_ID":"LIDM4","Station_Nam":"LINDEN WWTP","Latitude":"42.81330","Longitude":"-83.80380","Snowdepth":"1.000","Units":"in","Rept_Date":"2019-11-07 13"},"coordinates":[4427,789]},{"type":"Point","properties":{"Station_ID":"LGEW3","Station_Nam":"LAKE GENEVA, WI","Latitude":"42.60000","Longitude":"-88.43440","Snowdepth":"1.000","Units":"in","Rept_Date":"2019-11-07 13"},"coordinates":[2900,568]},{"type":"Point","properties":{"Station_ID":"LEWM4","Station_Nam":"LEWISTON 3W","Latitude":"44.88210","Longitude":"-84.36540","Snowdepth":"1.000","Units":"in","Rept_Date":"2019-11-07 13"},"coordinates":[4242,2926]},{"type":"Point","properties":{"Station_ID":"LEIM5","Station_Nam":"ORR 3E","Latitude":"48.05810","Longitude":"-92.75220","Snowdepth":"1.000","Units":"in","Rept_Date":"2019-11-07 12"},"coordinates":[1476,6208]},{"type":"Point","properties":{"Station_ID":"LANW3","Station_Nam":"LANCASTER 4WSW","Latitude":"42.82780","Longitude":"-90.78890","Snowdepth":"1.000","Units":"in","Rept_Date":"2019-11-07 14"},"coordinates":[2123,804]},{"type":"Point","properties":{"Station_ID":"KSLI4","Station_Nam":"KESLEY","Latitude":"42.66110","Longitude":"-92.90830","Snowdepth":"1.000","Units":"in","Rept_Date":"2019-11-07 13"},"coordinates":[1424,631]},{"type":"Point","properties":{"Station_ID":"KSEM4","Station_Nam":"KALKASKA 11SE","Latitude":"44.58970","Longitude":"-85.04860","Snowdepth":"1.000","Units":"in","Rept_Date":"2019-11-07 13"},"coordinates":[4017,2624]},{"type":"Point","properties":{"Station_ID":"KMKE","Station_Nam":"GEN MITCHELL INTERNATIONAL  AIRPORT","Latitude":"42.95000","Longitude":"-87.90000","Snowdepth":"1.000","Units":"in","Rept_Date":"2019-11-08 06"},"coordinates":[3076,930]},{"type":"Point","properties":{"Station_ID":"KISM4","Station_Nam":"K.I. SAWYER WWTP","Latitude":"46.33410","Longitude":"-87.37790","Snowdepth":"1.000","Units":"in","Rept_Date":"2019-11-07 13"},"coordinates":[3248,4427]},{"type":"Point","properties":{"Station_ID":"KENW3","Station_Nam":"WATER POLLUTION CONTROL PLANT","Latitude":"42.55000","Longitude":"-87.81420","Snowdepth":"1.000","Units":"in","Rept_Date":"2019-11-08 06"},"coordinates":[3105,517]},{"type":"Point","properties":{"Station_ID":"KANW3","Station_Nam":"KEWAUNEE-SOUTHWEST","Latitude":"44.44920","Longitude":"-87.51470","Snowdepth":"1.000","Units":"in","Rept_Date":"2019-11-07 11"},"coordinates":[3203,2479]},{"type":"Point","properties":{"Station_ID":"KABM5","Station_Nam":"KABETOGAMA LAKE VISITOR CTR","Latitude":"48.40880","Longitude":"-93.04840","Snowdepth":"1.000","Units":"in","Rept_Date":"2019-11-07 13"},"coordinates":[1378,6570]},{"type":"Point","properties":{"Station_ID":"JACS2","Station_Nam":"SIOUX FALLS 5.5SE FSD ARPT","Latitude":"43.52610","Longitude":"-96.66390","Snowdepth":"1.000","Units":"in","Rept_Date":"2019-11-07 14"},"coordinates":[186,1525]},{"type":"Point","properties":{"Station_ID":"INL","Station_Nam":"FALLS INTERNATIONAL ARPT","Latitude":"48.56640","Longitude":"-93.40310","Snowdepth":"1.000","Units":"in","Rept_Date":"2019-11-08 00"},"coordinates":[1261,6733]},{"type":"Point","properties":{"Station_ID":"IL-SP-7","Station_Nam":"DAVIS 0.5 N, IL","Latitude":"42.42919","Longitude":"-89.41730","Snowdepth":"1.000","Units":"in","Rept_Date":"2019-11-07 13"},"coordinates":[2576,392]},{"type":"Point","properties":{"Station_ID":"IFSM5","Station_Nam":"INTERNATIONAL FALLS SNOW","Latitude":"48.57780","Longitude":"-93.39640","Snowdepth":"1.000","Units":"in","Rept_Date":"2019-11-07 18"},"coordinates":[1263,6745]},{"type":"Point","properties":{"Station_ID":"IA-FL-3","Station_Nam":"NORA SPRINGS 2.4 SSE, IA","Latitude":"43.11120","Longitude":"-92.99400","Snowdepth":"1.000","Units":"in","Rept_Date":"2019-11-07 14"},"coordinates":[1396,1097]},{"type":"Point","properties":{"Station_ID":"IA-BH-6","Station_Nam":"WATERLOO 1.9 SSE, IA","Latitude":"42.46500","Longitude":"-92.34100","Snowdepth":"1.000","Units":"in","Rept_Date":"2019-11-07 14"},"coordinates":[1611,429]},{"type":"Point","properties":{"Station_ID":"IA-BC-9","Station_Nam":"WINTHROP 5.6 NNE, IA","Latitude":"42.55206","Longitude":"-91.70663","Snowdepth":"1.000","Units":"in","Rept_Date":"2019-11-07 15"},"coordinates":[1821,519]},{"type":"Point","properties":{"Station_ID":"HYTS2","Station_Nam":"HAYTI 1W","Latitude":"44.66330","Longitude":"-97.22670","Snowdepth":"1.000","Units":"in","Rept_Date":"2019-11-07 14"},"coordinates":[0,2700]},{"type":"Point","properties":{"Station_ID":"HURW3","Station_Nam":"HURLEY","Latitude":"46.46250","Longitude":"-90.19550","Snowdepth":"1.000","Units":"in","Rept_Date":"2019-11-07 14"},"coordinates":[2319,4559]},{"type":"Point","properties":{"Station_ID":"HPTI4","Station_Nam":"HAMPTON,IA","Latitude":"42.75000","Longitude":"-93.20000","Snowdepth":"1.000","Units":"in","Rept_Date":"2019-11-07 13"},"coordinates":[1328,723]},{"type":"Point","properties":{"Station_ID":"HEBI2","Station_Nam":"HEBRON","Latitude":"42.46750","Longitude":"-88.48060","Snowdepth":"1.000","Units":"in","Rept_Date":"2019-11-07 13"},"coordinates":[2885,431]},{"type":"Point","properties":{"Station_ID":"HANW3","Station_Nam":"HANCOCK EXP FARM","Latitude":"44.11860","Longitude":"-89.53580","Snowdepth":"1.000","Units":"in","Rept_Date":"2019-11-07 14"},"coordinates":[2537,2137]},{"type":"Point","properties":{"Station_ID":"GTTI4","Station_Nam":"LOCK & DAM 10","Latitude":"42.78580","Longitude":"-91.09970","Snowdepth":"1.000","Units":"in","Rept_Date":"2019-11-07 13"},"coordinates":[2021,760]},{"type":"Point","properties":{"Station_ID":"GRB","Station_Nam":"GREEN BAY, WI","Latitude":"44.49860","Longitude":"-88.11170","Snowdepth":"1.000","Units":"in","Rept_Date":"2019-11-08 00"},"coordinates":[3006,2530]},{"type":"Point","properties":{"Station_ID":"GPDM4","Station_Nam":"44TH STREET","Latitude":"42.90000","Longitude":"-85.76670","Snowdepth":"1.000","Units":"in","Rept_Date":"2019-11-07 12"},"coordinates":[3780,878]},{"type":"Point","properties":{"Station_ID":"FYTI4","Station_Nam":"FAYETTE","Latitude":"42.85040","Longitude":"-91.81570","Snowdepth":"1.000","Units":"in","Rept_Date":"2019-11-07 13"},"coordinates":[1785,827]},{"type":"Point","properties":{"Station_ID":"FORW3","Station_Nam":"FORESTVILLE-4E","Latitude":"44.69780","Longitude":"-87.39690","Snowdepth":"1.000","Units":"in","Rept_Date":"2019-11-07 14"},"coordinates":[3242,2736]},{"type":"Point","properties":{"Station_ID":"FARM4","Station_Nam":"FARMINGTON,MI","Latitude":"42.46670","Longitude":"-83.36670","Snowdepth":"1.000","Units":"in","Rept_Date":"2019-11-07 12"},"coordinates":[4571,431]},{"type":"Point","properties":{"Station_ID":"EPTW3","Station_Nam":"EAU PLEINE TENDER","Latitude":"44.77220","Longitude":"-89.76720","Snowdepth":"1.000","Units":"in","Rept_Date":"2019-11-07 13"},"coordinates":[2460,2813]},{"type":"Point","properties":{"Station_ID":"EMMI4","Station_Nam":"EMMETSBURG,IA","Latitude":"43.10000","Longitude":"-94.68330","Snowdepth":"1.000","Units":"in","Rept_Date":"2019-11-07 15"},"coordinates":[839,1085]},{"type":"Point","properties":{"Station_ID":"EMBM5","Station_Nam":"EMBARASS,MN","Latitude":"47.65810","Longitude":"-92.19580","Snowdepth":"1.000","Units":"in","Rept_Date":"2019-11-07 12"},"coordinates":[1659,5795]},{"type":"Point","properties":{"Station_ID":"ELRW3","Station_Nam":"EAU CLAIRE 3SW","Latitude":"44.78780","Longitude":"-91.51650","Snowdepth":"1.000","Units":"in","Rept_Date":"2019-11-08 06"},"coordinates":[1883,2829]},{"type":"Point","properties":{"Station_ID":"EKRI4","Station_Nam":"ELKADER 6SSW","Latitude":"42.77540","Longitude":"-91.45370","Snowdepth":"1.000","Units":"in","Rept_Date":"2019-11-07 13"},"coordinates":[1904,750]},{"type":"Point","properties":{"Station_ID":"EAU","Station_Nam":"CHIPPEWA VALLEY REGIONAL AIRPORT","Latitude":"44.86650","Longitude":"-91.48790","Snowdepth":"1.000","Units":"in","Rept_Date":"2019-11-08 00"},"coordinates":[1893,2910]},{"type":"Point","properties":{"Station_ID":"DLNW3","Station_Nam":"WALWORTH COUNTYMETROPOLITAN SEWERAGE DISTRICT (DELEVAN)","Latitude":"42.63440","Longitude":"-88.66280","Snowdepth":"1.000","Units":"in","Rept_Date":"2019-11-07 14"},"coordinates":[2825,604]},{"type":"Point","properties":{"Station_ID":"DAKI4","Station_Nam":"RIVER","Latitude":"42.72390","Longitude":"-94.19170","Snowdepth":"1.000","Units":"in","Rept_Date":"2019-11-07 14"},"coordinates":[1001,696]},{"type":"Point","properties":{"Station_ID":"CSSM4","Station_Nam":"CASS CITY,MI","Latitude":"43.58330","Longitude":"-83.18330","Snowdepth":"1.000","Units":"in","Rept_Date":"2019-11-07 11"},"coordinates":[4632,1584]},{"type":"Point","properties":{"Station_ID":"CRDI4","Station_Nam":"CONRAD,IA","Latitude":"42.23330","Longitude":"-92.86670","Snowdepth":"1.000","Units":"in","Rept_Date":"2019-11-07 14"},"coordinates":[1438,189]},{"type":"Point","properties":{"Station_ID":"CNTW3","Station_Nam":"CLINTONVILLE","Latitude":"44.62270","Longitude":"-88.74830","Snowdepth":"1.000","Units":"in","Rept_Date":"2019-11-07 13"},"coordinates":[2796,2658]},{"type":"Point","properties":{"Station_ID":"CNNS2","Station_Nam":"CANTON","Latitude":"43.31120","Longitude":"-96.58770","Snowdepth":"1.000","Units":"in","Rept_Date":"2019-11-07 13"},"coordinates":[211,1303]},{"type":"Point","properties":{"Station_ID":"CLIW3","Station_Nam":"CLINTON,WI","Latitude":"42.60000","Longitude":"-88.88330","Snowdepth":"1.000","Units":"in","Rept_Date":"2019-11-07 13"},"coordinates":[2752,568]},{"type":"Point","properties":{"Station_ID":"CIYI4","Station_Nam":"CHARLES CITY","Latitude":"43.06040","Longitude":"-92.67160","Snowdepth":"1.000","Units":"in","Rept_Date":"2019-11-07 13"},"coordinates":[1502,1044]},{"type":"Point","properties":{"Station_ID":"CAN-ON-120","Station_Nam":"DUNROBIN 5.8 NE MIVCA, CA","Latitude":"45.46243","Longitude":"-75.97120","Snowdepth":"1.000","Units":"in","Rept_Date":"2019-11-07 12"},"coordinates":[7011,3526]},{"type":"Point","properties":{"Station_ID":"CAN-MB-63","Station_Nam":"STEINBACH 0.8 SSE, CA","Latitude":"49.51964","Longitude":"-96.67940","Snowdepth":"1.000","Units":"in","Rept_Date":"2019-11-07 13"},"coordinates":[181,7718]},{"type":"Point","properties":{"Station_ID":"BVDI2","Station_Nam":"BELVIDERE","Latitude":"42.25500","Longitude":"-88.86400","Snowdepth":"1.000","Units":"in","Rept_Date":"2019-11-07 13"},"coordinates":[2758,212]},{"type":"Point","properties":{"Station_ID":"BTTI4","Station_Nam":"BRITT,IA","Latitude":"43.08330","Longitude":"-93.80140","Snowdepth":"1.000","Units":"in","Rept_Date":"2019-11-07 14"},"coordinates":[1130,1068]},{"type":"Point","properties":{"Station_ID":"BRDM1","Station_Nam":"BRIDGEWATER","Latitude":"46.42870","Longitude":"-67.84370","Snowdepth":"1.000","Units":"in","Rept_Date":"2019-11-07 23"},"coordinates":[9691,4524]},{"type":"Point","properties":{"Station_ID":"BNWI4","Station_Nam":"BOONE,IA","Latitude":"42.05000","Longitude":"-93.93330","Snowdepth":"1.000","Units":"in","Rept_Date":"2019-11-07 14"},"coordinates":[1086,0]},{"type":"Point","properties":{"Station_ID":"BLTW3","Station_Nam":"BELOIT,WI","Latitude":"42.50000","Longitude":"-89.03330","Snowdepth":"1.000","Units":"in","Rept_Date":"2019-11-07 12"},"coordinates":[2702,465]},