{"type":"Topology","objects":{"snowdepth_geo":{"type":"GeometryCollection","name":"snowdepth","crs":{"type":"name","properties":{"name":"urn:ogc:def:crs:OGC:1.3:CRS84"}},"geometries":[{"type":"Point","properties":{"Station_ID":"MMSV1","Station_Nam":"MOUNT MANSFIELD","Latitude":"44.53330","Longitude":"-72.83330","Snowdepth":"79.000","Units":"in","Rept_Date":"2019-11-02 05"},"coordinates":[9999,4602]},{"type":"Point","properties":{"Station_ID":"PRKM4","Station_Nam":"MUNISING EAST","Latitude":"46.42580","Longitude":"-86.62000","Snowdepth":"76.500","Units":"in","Rept_Date":"2019-11-02 06"},"coordinates":[3471,6022]},{"type":"Point","properties":{"Station_ID":"OGIQ6","Station_Nam":"OGOKI CAMP","Latitude":"50.76680","Longitude":"-87.85820","Snowdepth":"61.100","Units":"in","Rept_Date":"2019-11-02 06"},"coordinates":[2885,9279]},{"type":"Point","properties":{"Station_ID":"WI-RC-3","Station_Nam":"RACINE 2.3 WSW, WI","Latitude":"42.71124","Longitude":"-87.84570","Snowdepth":"50.000","Units":"in","Rept_Date":"2019-11-01 12"},"coordinates":[2890,3235]},{"type":"Point","properties":{"Station_ID":"DVLQ6","Station_Nam":"DEVIOUS LAKE","Latitude":"49.19890","Longitude":"-87.76440","Snowdepth":"43.460","Units":"in","Rept_Date":"2019-11-02 06"},"coordinates":[2929,8102]},{"type":"Point","properties":{"Station_ID":"WI-DA-45","Station_Nam":"MADISON 6.1 W, WI","Latitude":"43.06948","Longitude":"-89.50788","Snowdepth":"7.800","Units":"in","Rept_Date":"2019-11-01 12"},"coordinates":[2103,3504]},{"type":"Point","properties":{"Station_ID":"ROCW3","Station_Nam":"ROCHESTER WWTP","Latitude":"42.72690","Longitude":"-88.22580","Snowdepth":"7.000","Units":"in","Rept_Date":"2019-11-01 10"},"coordinates":[2710,3247]},{"type":"Point","properties":{"Station_ID":"IL-MCH-13","Station_Nam":"BULL VALLEY 2.5 WNW, IL","Latitude":"42.32455","Longitude":"-88.39460","Snowdepth":"7.000","Units":"in","Rept_Date":"2019-11-01 13"},"coordinates":[2631,2945]},{"type":"Point","properties":{"Station_ID":"CAN-ON-755","Station_Nam":"ELLIOT LAKE 1.1 SW, CAN","Latitude":"46.37418","Longitude":"-82.66759","Snowdepth":"7.000","Units":"in","Rept_Date":"2019-11-01 12"},"coordinates":[5342,5983]},{"type":"Point","properties":{"Station_ID":"WI-WS-32","Station_Nam":"GERMANTOWN 0.6 S, WI","Latitude":"43.22680","Longitude":"-88.12143","Snowdepth":"6.500","Units":"in","Rept_Date":"2019-11-01 12"},"coordinates":[2760,3622]},{"type":"Point","properties":{"Station_ID":"WI-WK-73","Station_Nam":"MENOMONEE FALLS 3.2 NNW, WI","Latitude":"43.18817","Longitude":"-88.15555","Snowdepth":"6.500","Units":"in","Rept_Date":"2019-11-01 12"},"coordinates":[2744,3593]},{"type":"Point","properties":{"Station_ID":"WI-WK-65","Station_Nam":"EAGLE 3.4 SW, WI","Latitude":"42.85067","Longitude":"-88.52596","Snowdepth":"6.500","Units":"in","Rept_Date":"2019-11-01 13"},"coordinates":[2568,3340]},{"type":"Point","properties":{"Station_ID":"WI-JF-17","Station_Nam":"JOHNSON CREEK 2.7 SSW, WI","Latitude":"43.04559","Longitude":"-88.79925","Snowdepth":"6.500","Units":"in","Rept_Date":"2019-11-01 10"},"coordinates":[2439,3486]},{"type":"Point","properties":{"Station_ID":"WI-WW-12","Station_Nam":"ELKHORN 0.4 ESE, WI","Latitude":"42.66970","Longitude":"-88.53170","Snowdepth":"6.000","Units":"in","Rept_Date":"2019-11-01 10"},"coordinates":[2566,3204]},{"type":"Point","properties":{"Station_ID":"WI-WS-30","Station_Nam":"HARTFORD 2.9 ENE, WI","Latitude":"43.34256","Longitude":"-88.33687","Snowdepth":"6.000","Units":"in","Rept_Date":"2019-11-01 12"},"coordinates":[2658,3709]},{"type":"Point","properties":{"Station_ID":"WI-WS-1","Station_Nam":"HARTFORD 3.8 E, WI","Latitude":"43.32410","Longitude":"-88.31340","Snowdepth":"6.000","Units":"in","Rept_Date":"2019-11-01 12"},"coordinates":[2669,3695]},{"type":"Point","properties":{"Station_ID":"WI-WK-61","Station_Nam":"HARTLAND 5.0 NNE, WI","Latitude":"43.16351","Longitude":"-88.30400","Snowdepth":"6.000","Units":"in","Rept_Date":"2019-11-01 12"},"coordinates":[2673,3574]},{"type":"Point","properties":{"Station_ID":"WI-DA-33","Station_Nam":"OREGON 0.4 SSW, WI","Latitude":"42.92080","Longitude":"-89.38540","Snowdepth":"6.000","Units":"in","Rept_Date":"2019-11-01 12"},"coordinates":[2161,3392]},{"type":"Point","properties":{"Station_ID":"WI-DA-13","Station_Nam":"MADISON 3.7 WSW, WI","Latitude":"43.06230","Longitude":"-89.45650","Snowdepth":"6.000","Units":"in","Rept_Date":"2019-11-01 12"},"coordinates":[2128,3499]},{"type":"Point","properties":{"Station_ID":"PWKW3","Station_Nam":"PEWAUKEE WWTP","Latitude":"43.06170","Longitude":"-88.29500","Snowdepth":"6.000","Units":"in","Rept_Date":"2019-11-01 13"},"coordinates":[2678,3498]},{"type":"Point","properties":{"Station_ID":"GERW3","Station_Nam":"GERMANTOWN,WI","Latitude":"43.21670","Longitude":"-88.11670","Snowdepth":"6.000","Units":"in","Rept_Date":"2019-11-01 11"},"coordinates":[2762,3614]},{"type":"Point","properties":{"Station_ID":"BLTW3","Station_Nam":"BELOIT,WI","Latitude":"42.50000","Longitude":"-89.03330","Snowdepth":"6.000","Units":"in","Rept_Date":"2019-11-01 11"},"coordinates":[2328,3077]},{"type":"Point","properties":{"Station_ID":"WI-DA-35","Station_Nam":"MADISON 5.5 N, WI","Latitude":"43.15858","Longitude":"-89.37280","Snowdepth":"5.600","Units":"in","Rept_Date":"2019-11-01 13"},"coordinates":[2167,3571]},{"type":"Point","properties":{"Station_ID":"WI-WK-29","Station_Nam":"OCONOMOWOC 4.6 NE, WI","Latitude":"43.14621","Longitude":"-88.42860","Snowdepth":"5.500","Units":"in","Rept_Date":"2019-11-01 14"},"coordinates":[2614,3562]},{"type":"Point","properties":{"Station_ID":"WI-RK-12","Station_Nam":"JANESVILLE 3.1 W, WI","Latitude":"42.67576","Longitude":"-89.07614","Snowdepth":"5.500","Units":"in","Rept_Date":"2019-11-01 12"},"coordinates":[2308,3209]},{"type":"Point","properties":{"Station_ID":"WI-OZ-17","Station_Nam":"WEST BEND 7.3 E, WI","Latitude":"43.42860","Longitude":"-88.03870","Snowdepth":"5.500","Units":"in","Rept_Date":"2019-11-01 12"},"coordinates":[2799,3773]},{"type":"Point","properties":{"Station_ID":"WI-JF-10","Station_Nam":"PALMYRA 1.5 N, WI","Latitude":"42.90084","Longitude":"-88.58620","Snowdepth":"5.500","Units":"in","Rept_Date":"2019-11-01 13"},"coordinates":[2540,3377]},{"type":"Point","properties":{"Station_ID":"IL-MCH-95","Station_Nam":"CARY 0.5 SSW, IL","Latitude":"42.20235","Longitude":"-88.25224","Snowdepth":"5.500","Units":"in","Rept_Date":"2019-11-01 12"},"coordinates":[2698,2853]},{"type":"Point","properties":{"Station_ID":"IL-MCH-33","Station_Nam":"WOODSTOCK 3.8 SW, IL","Latitude":"42.27554","Longitude":"-88.49500","Snowdepth":"5.500","Units":"in","Rept_Date":"2019-11-01 13"},"coordinates":[2583,2908]},{"type":"Point","properties":{"Station_ID":"IL-LK-69","Station_Nam":"HIGHWOOD 0.9 S, IL","Latitude":"42.19841","Longitude":"-87.81400","Snowdepth":"5.500","Units":"in","Rept_Date":"2019-11-01 11"},"coordinates":[2905,2850]},{"type":"Point","properties":{"Station_ID":"IL-KN-118","Station_Nam":"SLEEPY HOLLOW 0.7 W, IL","Latitude":"42.09500","Longitude":"-88.32790","Snowdepth":"5.500","Units":"in","Rept_Date":"2019-11-01 12"},"coordinates":[2662,2773]},{"type":"Point","properties":{"Station_ID":"WI-WS-27","Station_Nam":"RICHFIELD 2.8 WNW, WI","Latitude":"43.26840","Longitude":"-88.24890","Snowdepth":"5.000","Units":"in","Rept_Date":"2019-11-01 13"},"coordinates":[2700,3653]},{"type":"Point","properties":{"Station_ID":"WI-WS-22","Station_Nam":"JACKSON 3.2 SE, WI","Latitude":"43.29373","Longitude":"-88.11280","Snowdepth":"5.000","Units":"in","Rept_Date":"2019-11-01 10"},"coordinates":[2764,3672]},{"type":"Point","properties":{"Station_ID":"WI-WS-16","Station_Nam":"GERMANTOWN 1.3 NE, WI","Latitude":"43.23127","Longitude":"-88.10234","Snowdepth":"5.000","Units":"in","Rept_Date":"2019-11-01 11"},"coordinates":[2769,3625]},{"type":"Point","properties":{"Station_ID":"WI-WK-68","Station_Nam":"OCONOMOWOC 0.9 W, WI","Latitude":"43.10089","Longitude":"-88.51441","Snowdepth":"5.000","Units":"in","Rept_Date":"2019-11-01 13"},"coordinates":[2574,3528]},{"type":"Point","properties":{"Station_ID":"WI-WK-67","Station_Nam":"WAUKESHA 1.8 ENE, WI","Latitude":"43.02596","Longitude":"-88.20847","Snowdepth":"5.000","Units":"in","Rept_Date":"2019-11-01 12"},"coordinates":[2719,3471]},{"type":"Point","properties":{"Station_ID":"WI-WK-55","Station_Nam":"HARTLAND 4.4 NNE, WI","Latitude":"43.15341","Longitude":"-88.30146","Snowdepth":"5.000","Units":"in","Rept_Date":"2019-11-01 12"},"coordinates":[2675,3567]},{"type":"Point","properties":{"Station_ID":"WI-MW-23","Station_Nam":"GREENDALE 1.0 ENE, WI","Latitude":"42.94094","Longitude":"-87.98230","Snowdepth":"5.000","Units":"in","Rept_Date":"2019-11-01 13"},"coordinates":[2826,3408]},{"type":"Point","properties":{"Station_ID":"WI-MW-18","Station_Nam":"WEST ALLIS 0.7 SSE, WI","Latitude":"42.99802","Longitude":"-88.02380","Snowdepth":"5.000","Units":"in","Rept_Date":"2019-11-01 13"},"coordinates":[2806,3450]},{"type":"Point","properties":{"Station_ID":"WI-GT-3","Station_Nam":"CUBA CITY 0.4 NNE, WI","Latitude":"42.60796","Longitude":"-90.42881","Snowdepth":"5.000","Units":"in","Rept_Date":"2019-11-01 11"},"coordinates":[1667,3158]},{"type":"Point","properties":{"Station_ID":"WI-DD-4","Station_Nam":"BEAVER DAM 1.4 SSW, WI","Latitude":"43.44719","Longitude":"-88.85260","Snowdepth":"5.000","Units":"in","Rept_Date":"2019-11-01 13"},"coordinates":[2414,3787]},{"type":"Point","properties":{"Station_ID":"WI-DA-46","Station_Nam":"MADISON 6.4 W, WI","Latitude":"43.08337","Longitude":"-89.51503","Snowdepth":"5.000","Units":"in","Rept_Date":"2019-11-01 12"},"coordinates":[2100,3514]},{"type":"Point","properties":{"Station_ID":"UGRW3","Station_Nam":"UNION GROVE,WI","Latitude":"42.70000","Longitude":"-88.03220","Snowdepth":"5.000","Units":"in","Rept_Date":"2019-11-01 12"},"coordinates":[2802,3227]},{"type":"Point","properties":{"Station_ID":"STWI2","Station_Nam":"STEWARD","Latitude":"41.81110","Longitude":"-89.02330","Snowdepth":"5.000","Units":"in","Rept_Date":"2019-11-01 12"},"coordinates":[2333,2560]},{"type":"Point","properties":{"Station_ID":"SLRW3","Station_Nam":"SLINGER","Latitude":"43.33390","Longitude":"-88.29780","Snowdepth":"5.000","Units":"in","Rept_Date":"2019-11-01 12"},"coordinates":[2676,3702]},{"type":"Point","properties":{"Station_ID":"RSCI2","Station_Nam":"ROSCOE","Latitude":"42.40500","Longitude":"-88.97940","Snowdepth":"5.000","Units":"in","Rept_Date":"2019-11-01 11"},"coordinates":[2354,3005]},{"type":"Point","properties":{"Station_ID":"OTTI2","Station_Nam":"OTTAWA,IL","Latitude":"41.32830","Longitude":"-88.91060","Snowdepth":"5.000","Units":"in","Rept_Date":"2019-11-01 15"},"coordinates":[2386,2198]},{"type":"Point","properties":{"Station_ID":"ONCW3","Station_Nam":"SOUTH","Latitude":"43.11170","Longitude":"-88.49970","Snowdepth":"5.000","Units":"in","Rept_Date":"2019-11-01 13"},"coordinates":[2581,3536]},{"type":"Point","properties":{"Station_ID":"MI-CF-9","Station_Nam":"GRAYLING 15.8 NE, MI","Latitude":"44.80464","Longitude":"-84.46313","Snowdepth":"5.000","Units":"in","Rept_Date":"2019-11-01 10"},"coordinates":[4492,4806]},{"type":"Point","properties":{"Station_ID":"MDDW3","Station_Nam":"MIDDLETON,WI","Latitude":"43.09060","Longitude":"-89.51470","Snowdepth":"5.000","Units":"in","Rept_Date":"2019-11-01 12"},"coordinates":[2100,3520]},{"type":"Point","properties":{"Station_ID":"LKZI2","Station_Nam":"LAKE ZURICH","Latitude":"42.19250","Longitude":"-88.06530","Snowdepth":"5.000","Units":"in","Rept_Date":"2019-11-01 12"},"coordinates":[2786,2846]},{"type":"Point","properties":{"Station_ID":"LGEW3","Station_Nam":"LAKE GENEVA, WI","Latitude":"42.60000","Longitude":"-88.43440","Snowdepth":"5.000","Units":"in","Rept_Date":"2019-11-01 12"},"coordinates":[2612,3152]},{"type":"Point","properties":{"Station_ID":"JACW3","Station_Nam":"JACKSON","Latitude":"43.31940","Longitude":"-88.16810","Snowdepth":"5.000","Units":"in","Rept_Date":"2019-11-01 11"},"coordinates":[2738,3691]},{"type":"Point","properties":{"Station_ID":"IL-WN-2","Station_Nam":"ROSCOE 1.6 ESE, IL","Latitude":"42.40500","Longitude":"-88.97950","Snowdepth":"5.000","Units":"in","Rept_Date":"2019-11-01 11"},"coordinates":[2354,3005]},{"type":"Point","properties":{"Station_ID":"IL-MCH-30","Station_Nam":"WONDER LAKE 0.8 WNW, IL","Latitude":"42.38354","Longitude":"-88.37090","Snowdepth":"5.000","Units":"in","Rept_Date":"2019-11-01 12"},"coordinates":[2642,2989]},{"type":"Point","properties":{"Station_ID":"IL-LK-42","Station_Nam":"GURNEE 1.6 W, IL","Latitude":"42.37776","Longitude":"-87.96740","Snowdepth":"5.000","Units":"in","Rept_Date":"2019-11-01 12"},"coordinates":[2833,2985]},{"type":"Point","properties":{"Station_ID":"IL-KN-67","Station_Nam":"ST. CHARLES 6.0 NW, IL","Latitude":"41.98401","Longitude":"-88.38030","Snowdepth":"5.000","Units":"in","Rept_Date":"2019-11-01 12"},"coordinates":[2637,2690]},{"type":"Point","properties":{"Station_ID":"IL-JD-8","Station_Nam":"STOCKTON 3.4 NNE, IL","Latitude":"42.39960","Longitude":"-89.99020","Snowdepth":"5.000","Units":"in","Rept_Date":"2019-11-01 12"},"coordinates":[1875,3001]},{"type":"Point","properties":{"Station_ID":"GATW3","Station_Nam":"GRAFTON WWTP","Latitude":"43.30810","Longitude":"-87.95530","Snowdepth":"5.000","Units":"in","Rept_Date":"2019-11-01 12"},"coordinates":[2839,3683]},{"type":"Point","properties":{"Station_ID":"EGNI2","Station_Nam":"ELGIN","Latitude":"42.02590","Longitude":"-88.28860","Snowdepth":"5.000","Units":"in","Rept_Date":"2019-11-01 13"},"coordinates":[2681,2721]},{"type":"Point","properties":{"Station_ID":"CDLM4","Station_Nam":"CADILLAC 9&10 NEWS","Latitude":"44.21130","Longitude":"-85.40860","Snowdepth":"5.000","Units":"in","Rept_Date":"2019-11-01 11"},"coordinates":[4044,4361]},{"type":"Point","properties":{"Station_ID":"BGTW3","Station_Nam":"SEWAGE DISPOSAL PLANT","Latitude":"42.68330","Longitude":"-88.20000","Snowdepth":"5.000","Units":"in","Rept_Date":"2019-11-01 11"},"coordinates":[2723,3214]},{"type":"Point","properties":{"Station_ID":"BBDW3","Station_Nam":"BIG BEND","Latitude":"42.88140","Longitude":"-88.20670","Snowdepth":"5.000","Units":"in","Rept_Date":"2019-11-01 12"},"coordinates":[2720,3363]},{"type":"Point","properties":{"Station_ID":"ARLW3","Station_Nam":"UNIV FARM","Latitude":"43.30000","Longitude":"-89.35000","Snowdepth":"5.000","Units":"in","Rept_Date":"2019-11-01 13"},"coordinates":[2178,3677]},{"type":"Point","properties":{"Station_ID":"AFTW3","Station_Nam":"ROCK RIVER","Latitude":"42.61670","Longitude":"-89.06670","Snowdepth":"5.000","Units":"in","Rept_Date":"2019-11-01 12"},"coordinates":[2312,3164]},{"type":"Point","properties":{"Station_ID":"WI-DA-75","Station_Nam":"COTTAGE GROVE 2.2 E, WI","Latitude":"43.08112","Longitude":"-89.15945","Snowdepth":"4.700","Units":"in","Rept_Date":"2019-11-01 12"},"coordinates":[2268,3513]},{"type":"Point","properties":{"Station_ID":"IL-MCH-83","Station_Nam":"CRYSTAL LAKE 1.0 WSW, IL","Latitude":"42.22882","Longitude":"-88.34964","Snowdepth":"4.600","Units":"in","Rept_Date":"2019-11-01 12"},"coordinates":[2652,2873]},{"type":"Point","properties":{"Station_ID":"WI-WS-5","Station_Nam":"JACKSON 0.2 WSW, WI","Latitude":"43.32007","Longitude":"-88.16820","Snowdepth":"4.500","Units":"in","Rept_Date":"2019-11-01 11"},"coordinates":[2738,3692]},{"type":"Point","properties":{"Station_ID":"WI-OZ-12","Station_Nam":"PORT WASHINGTON 0.5 S, WI","Latitude":"43.38610","Longitude":"-87.87900","Snowdepth":"4.500","Units":"in","Rept_Date":"2019-11-01 12"},"coordinates":[2875,3741]},{"type":"Point","properties":{"Station_ID":"WI-MC-12","Station_Nam":"TWO RIVERS 0.9 SE, WI","Latitude":"44.14700","Longitude":"-87.56970","Snowdepth":"4.500","Units":"in","Rept_Date":"2019-11-01 12"},"coordinates":[3021,4312]},{"type":"Point","properties":{"Station_ID":"WI-DA-78","Station_Nam":"SUN PRAIRIE 3.0 W, WI","Latitude":"43.17607","Longitude":"-89.29134","Snowdepth":"4.500","Units":"in","Rept_Date":"2019-11-01 12"},"coordinates":[2206,3584]},{"type":"Point","properties":{"Station_ID":"WI-DA-60","Station_Nam":"MIDDLETON 0.8 SSW, WI","Latitude":"43.09292","Longitude":"-89.51258","Snowdepth":"4.500","Units":"in","Rept_Date":"2019-11-01 15"},"coordinates":[2101,3522]},{"type":"Point","properties":{"Station_ID":"IL-WN-8","Station_Nam":"ROCKFORD 0.7 NW, IL","Latitude":"42.27670","Longitude":"-89.07470","Snowdepth":"4.500","Units":"in","Rept_Date":"2019-11-01 12"},"coordinates":[2309,2909]},{"type":"Point","properties":{"Station_ID":"IL-SP-3","Station_Nam":"ORANGEVILLE 2.8 NW, IL","Latitude":"42.49607","Longitude":"-89.68430","Snowdepth":"4.500","Units":"in","Rept_Date":"2019-11-01 12"},"coordinates":[2020,3074]},{"type":"Point","properties":{"Station_ID":"IL-LE-10","Station_Nam":"DIXON 3.0 NNW, IL","Latitude":"41.88759","Longitude":"-89.50820","Snowdepth":"4.500","Units":"in","Rept_Date":"2019-11-01 13"},"coordinates":[2103,2617]},{"type":"Point","properties":{"Station_ID":"IL-KN-9","Station_Nam":"ELGIN 1.0 S, IL","Latitude":"42.02560","Longitude":"-88.28850","Snowdepth":"4.500","Units":"in","Rept_Date":"2019-11-01 13"},"coordinates":[2681,2721]},{"type":"Point","properties":{"Station_ID":"IL-DP-101","Station_Nam":"AURORA 3.8 SE, IL","Latitude":"41.73035","Longitude":"-88.23760","Snowdepth":"4.500","Units":"in","Rept_Date":"2019-11-01 12"},"coordinates":[2705,2499]},{"type":"Point","properties":{"Station_ID":"WI-CB-1","Station_Nam":"COLUMBUS 1.2 S, WI","Latitude":"43.31887","Longitude":"-89.02680","Snowdepth":"4.400","Units":"in","Rept_Date":"2019-11-01 12"},"coordinates":[2331,3691]},{"type":"Point","properties":{"Station_ID":"WI-RK-6","Station_Nam":"EVANSVILLE 0.4 E, WI","Latitude":"42.77913","Longitude":"-89.29020","Snowdepth":"4.100","Units":"in","Rept_Date":"2019-11-01 13"},"coordinates":[2206,3286]},{"type":"Point","properties":{"Station_ID":"WSTW3","Station_Nam":"WEST BEND -FIRE","Latitude":"43.43138","Longitude":"-88.16111","Snowdepth":"4.000","Units":"in","Rept_Date":"2019-11-01 12"},"coordinates":[2741,3775]},{"type":"Point","properties":{"Station_ID":"WI-WW-2","Station_Nam":"LAKE GENEVA 0.6 ENE, WI","Latitude":"42.59169","Longitude":"-88.41770","Snowdepth":"4.000","Units":"in","Rept_Date":"2019-11-01 12"},"coordinates":[2620,3145]},{"type":"Point","properties":{"Station_ID":"WI-SB-19","Station_Nam":"SHEBOYGAN 0.7 SSW, WI","Latitude":"43.73560","Longitude":"-87.73490","Snowdepth":"4.000","Units":"in","Rept_Date":"2019-11-01 13"},"coordinates":[2943,4004]},{"type":"Point","properties":{"Station_ID":"WI-SB-10","Station_Nam":"RANDOM LAKE 0.5 SSE, WI","Latitude":"43.54812","Longitude":"-87.95050","Snowdepth":"4.000","Units":"in","Rept_Date":"2019-11-01 12"},"coordinates":[2841,3863]},{"type":"Point","properties":{"Station_ID":"WI-MC-4","Station_Nam":"TWO RIVERS 1.4 N, WI","Latitude":"44.17617","Longitude":"-87.58330","Snowdepth":"4.000","Units":"in","Rept_Date":"2019-11-01 12"},"coordinates":[3015,4334]},{"type":"Point","properties":{"Station_ID":"WI-GL-4","Station_Nam":"GREEN LAKE 0.8 E, WI","Latitude":"43.84369","Longitude":"-88.94066","Snowdepth":"4.000","Units":"in","Rept_Date":"2019-11-01 12"},"coordinates":[2372,4085]},{"type":"Point","properties":{"Station_ID":"WI-DD-14","Station_Nam":"THERESA 0.1 ESE, WI","Latitude":"43.51691","Longitude":"-88.45026","Snowdepth":"4.000","Units":"in","Rept_Date":"2019-11-01 12"},"coordinates":[2604,3840]},{"type":"Point","properties":{"Station_ID":"WI-DA-31","Station_Nam":"DEERFIELD 0.6 N, WI","Latitude":"43.05958","Longitude":"-89.07340","Snowdepth":"4.000","Units":"in","Rept_Date":"2019-11-01 12"},"coordinates":[2309,3497]},{"type":"Point","properties":{"Station_ID":"WHTW3","Station_Nam":"WHITEWATER,WI","Latitude":"42.85670","Longitude":"-88.72940","Snowdepth":"4.000","Units":"in","Rept_Date":"2019-11-01 13"},"coordinates":[2472,3344]},{"type":"Point","properties":{"Station_ID":"TAHW3","Station_Nam":"TAYCHEEDAH","Latitude":"43.83390","Longitude":"-88.34690","Snowdepth":"4.000","Units":"in","Rept_Date":"2019-11-01 12"},"coordinates":[2653,4077]},{"type":"Point","properties":{"Station_ID":"SEEW3","Station_Nam":"SOUTH MILWAUKEE WWTP","Latitude":"42.90110","Longitude":"-87.84940","Snowdepth":"4.000","Units":"in","Rept_Date":"2019-11-01 13"},"coordinates":[2889,3378]},{"type":"Point","properties":{"Station_ID":"RCHW3","Station_Nam":"RICHRIELD,WI","Latitude":"43.21080","Longitude":"-88.20940","Snowdepth":"4.000","Units":"in","Rept_Date":"2019-11-01 11"},"coordinates":[2718,3610]},{"type":"Point","properties":{"Station_ID":"PYRW3","Station_Nam":"PALMYRA WWTP","Latitude":"42.88720","Longitude":"-88.58310","Snowdepth":"4.000","Units":"in","Rept_Date":"2019-11-01 12"},"coordinates":[2541,3367]},{"type":"Point","properties":{"Station_ID":"PRWI2","Station_Nam":"PEORIA 5NW","Latitude":"40.74930","Longitude":"-89.62030","Snowdepth":"4.000","Units":"in","Rept_Date":"2019-11-01 13"},"coordinates":[2050,1763]},{"type":"Point","properties":{"Station_ID":"PLLW3","Station_Nam":"PELL LAKE","Latitude":"42.53220","Longitude":"-88.33280","Snowdepth":"4.000","Units":"in","Rept_Date":"2019-11-01 11"},"coordinates":[2660,3101]},{"type":"Point","properties":{"Station_ID":"PAWI2","Station_Nam":"PAW PAW,IL","Latitude":"41.70000","Longitude":"-88.96670","Snowdepth":"4.000","Units":"in","Rept_Date":"2019-11-01 12"},"coordinates":[2360,2477]},{"type":"Point","properties":{"Station_ID":"OCOW3","Station_Nam":"OCONOMOWOC,WI","Latitude":"43.10190","Longitude":"-88.50330","Snowdepth":"4.000","Units":"in","Rept_Date":"2019-11-01 12"},"coordinates":[2579,3528]},{"type":"Point","properties":{"Station_ID":"NGLW3","Station_Nam":"NEW GLARUS","Latitude":"42.83500","Longitude":"-89.62080","Snowdepth":"4.000","Units":"in","Rept_Date":"2019-11-01 12"},"coordinates":[2050,3328]},{"type":"Point","properties":{"Station_ID":"MYOM4","Station_Nam":"MIO WWTP","Latitude":"44.64660","Longitude":"-84.11580","Snowdepth":"4.000","Units":"in","Rept_Date":"2019-11-01 12"},"coordinates":[4657,4687]},{"type":"Point","properties":{"Station_ID":"MONW3","Station_Nam":"MONROE,WI","Latitude":"42.60000","Longitude":"-89.66670","Snowdepth":"4.000","Units":"in","Rept_Date":"2019-11-01 12"},"coordinates":[2028,3152]},{"type":"Point","properties":{"Station_ID":"KNXI2","Station_Nam":"KNOXVILLE","Latitude":"40.90340","Longitude":"-90.28930","Snowdepth":"4.000","Units":"in","Rept_Date":"2019-11-01 13"},"coordinates":[1733,1879]},{"type":"Point","properties":{"Station_ID":"IL-SP-14","Station_Nam":"FREEPORT 1.7 ESE, IL","Latitude":"42.28257","Longitude":"-89.60360","Snowdepth":"4.000","Units":"in","Rept_Date":"2019-11-01 12"},"coordinates":[2058,2914]},{"type":"Point","properties":{"Station_ID":"IL-MCH-43","Station_Nam":"ALGONQUIN 0.7 N, IL","Latitude":"42.17392","Longitude":"-88.29930","Snowdepth":"4.000","Units":"in","Rept_Date":"2019-11-01 13"},"coordinates":[2676,2832]},{"type":"Point","properties":{"Station_ID":"IL-LK-9","Station_Nam":"LAKE VILLA 1.1 SSW, IL","Latitude":"42.40305","Longitude":"-88.09050","Snowdepth":"4.000","Units":"in","Rept_Date":"2019-11-01 11"},"coordinates":[2775,3004]},{"type":"Point","properties":{"Station_ID":"IL-LK-81","Station_Nam":"LAKE VILLA 2.3 WSW, IL","Latitude":"42.40532","Longitude":"-88.12380","Snowdepth":"4.000","Units":"in","Rept_Date":"2019-11-01 12"},"coordinates":[2759,3006]},{"type":"Point","properties":{"Station_ID":"IL-KN-62","Station_Nam":"BATAVIA 1.3 WNW, IL","Latitude":"41.85917","Longitude":"-88.32210","Snowdepth":"4.000","Units":"in","Rept_Date":"2019-11-01 11"},"coordinates":[2665,2596]},{"type":"Point","properties":{"Station_ID":"IL-HY-5","Station_Nam":"COAL VALLEY 1.9 SE, IL","Latitude":"41.43339","Longitude":"-90.41750","Snowdepth":"4.000","Units":"in","Rept_Date":"2019-11-01 12"},"coordinates":[1673,2276]},{"type":"Point","properties":{"Station_ID":"IL-DP-127","Station_Nam":"DOWNERS GROVE 0.4 NNE, IL","Latitude":"41.80331","Longitude":"-88.01542","Snowdepth":"4.000","Units":"in","Rept_Date":"2019-11-01 09"},"coordinates":[2810,2554]},{"type":"Point","properties":{"Station_ID":"IL-DK-6","Station_Nam":"DE KALB 0.3 ENE, IL","Latitude":"41.93238","Longitude":"-88.74700","Snowdepth":"4.000","Units":"in","Rept_Date":"2019-11-01 12"},"coordinates":[2464,2651]},{"type":"Point","properties":{"Station_ID":"IL-CK-75","Station_Nam":"ELK GROVE VILLAGE 2.2 WSW, IL","Latitude":"41.99526","Longitude":"-88.05270","Snowdepth":"4.000","Units":"in","Rept_Date":"2019-11-01 10"},"coordinates":[2792,2698]},{"type":"Point","properties":{"Station_ID":"IL-CK-192","Station_Nam":"PARK RIDGE 0.7 WNW, IL","Latitude":"42.01676","Longitude":"-87.85570","Snowdepth":"4.000","Units":"in","Rept_Date":"2019-11-01 12"},"coordinates":[2886,2714]},{"type":"Point","properties":{"Station_ID":"IL-CK-163","Station_Nam":"ARLINGTON HEIGHTS 1.2 SW, IL","Latitude":"42.08194","Longitude":"-87.99710","Snowdepth":"4.000","Units":"in","Rept_Date":"2019-11-01 12"},"coordinates":[2819,2763]},{"type":"Point","properties":{"Station_ID":"HEBI2","Station_Nam":"HEBRON","Latitude":"42.46750","Longitude":"-88.48060","Snowdepth":"4.000","Units":"in","Rept_Date":"2019-11-01 12"},"coordinates":[2590,3052]},{"type":"Point","properties":{"Station_ID":"GEOI2","Station_Nam":"GENOA,IL","Latitude":"42.08000","Longitude":"-88.70750","Snowdepth":"4.000","Units":"in","Rept_Date":"2019-11-01 11"},"coordinates":[2482,2762]},{"type":"Point","properties":{"Station_ID":"FDLW3","Station_Nam":"SEWAGE TREATMENT PLANT","Latitude":"43.80000","Longitude":"-88.45000","Snowdepth":"4.000","Units":"in","Rept_Date":"2019-11-01 13"},"coordinates":[2604,4052]},{"type":"Point","properties":{"Station_ID":"FCDW3","Station_Nam":"FOND DU LAC-AM","Latitude":"43.76670","Longitude":"-88.46670","Snowdepth":"4.000","Units":"in","Rept_Date":"2019-11-01 12"},"coordinates":[2596,4027]},{"type":"Point","properties":{"Station_ID":"DLNW3","Station_Nam":"WALWORTH COUNTYMETROPOLITAN SEWERAGE DISTRICT (DELEVAN)","Latitude":"42.63440","Longitude":"-88.66280","Snowdepth":"4.000","Units":"in","Rept_Date":"2019-11-01 13"},"coordinates":[2504,3178]},{"type":"Point","properties":{"Station_ID":"DGVW3","Station_Nam":"DODGEVILLE","Latitude":"42.96670","Longitude":"-90.11670","Snowdepth":"4.000","Units":"in","Rept_Date":"2019-11-01 12"},"coordinates":[1815,3427]},{"type":"Point","properties":{"Station_ID":"DEKI2","Station_Nam":"DE KALB,IL","Latitude":"41.93330","Longitude":"-88.76670","Snowdepth":"4.000","Units":"in","Rept_Date":"2019-11-01 12"},"coordinates":[2454,2652]},{"type":"Point","properties":{"Station_ID":"CHMW3","Station_Nam":"MADISON,WI","Latitude":"43.06030","Longitude":"-89.47810","Snowdepth":"4.000","Units":"in","Rept_Date":"2019-11-01 12"},"coordinates":[2118,3497]},{"type":"Point","properties":{"Station_ID":"BLGW3","Station_Nam":"BELGIUM WWTP","Latitude":"43.51310","Longitude":"-87.85440","Snowdepth":"4.000","Units":"in","Rept_Date":"2019-11-01 12"},"coordinates":[2886,3837]},{"type":"Point","properties":{"Station_ID":"BATI2","Station_Nam":"BATAVIA","Latitude":"41.84830","Longitude":"-88.31190","Snowdepth":"4.000","Units":"in","Rept_Date":"2019-11-01 11"},"coordinates":[2670,2588]},{"type":"Point","properties":{"Station_ID":"IL-KX-9","Station_Nam":"KNOXVILLE 0.7 NW, IL","Latitude":"40.91356","Longitude":"-90.29350","Snowdepth":"3.800","Units":"in","Rept_Date":"2019-11-01 12"},"coordinates":[1731,1887]},{"type":"Point","properties":{"Station_ID":"IL-KN-78","Station_Nam":"GENEVA 1.3 SSW, IL","Latitude":"41.86442","Longitude":"-88.32320","Snowdepth":"3.700","Units":"in","Rept_Date":"2019-11-01 12"},"coordinates":[2664,2600]},{"type":"Point","properties":{"Station_ID":"WI-WS-4","Station_Nam":"KEWASKUM 1.8 WNW, WI","Latitude":"43.52880","Longitude":"-88.26570","Snowdepth":"3.500","Units":"in","Rept_Date":"2019-11-01 12"},"coordinates":[2692,3849]},{"type":"Point","properties":{"Station_ID":"WI-SB-14","Station_Nam":"SHEBOYGAN 2.7 N, WI","Latitude":"43.78416","Longitude":"-87.72303","Snowdepth":"3.500","Units":"in","Rept_Date":"2019-11-01 11"},"coordinates":[2949,4040]},{"type":"Point","properties":{"Station_ID":"WI-SB-12","Station_Nam":"SHEBOYGAN 3.2 NW, WI","Latitude":"43.78470","Longitude":"-87.76640","Snowdepth":"3.500","Units":"in","Rept_Date":"2019-11-01 11"},"coordinates":[2928,4041]},{"type":"Point","properties":{"Station_ID":"WI-MW-43","Station_Nam":"BROWN DEER 0.8 NW, WI","Latitude":"43.18438","Longitude":"-87.98401","Snowdepth":"3.500","Units":"in","Rept_Date":"2019-11-01 12"},"coordinates":[2825,3590]},{"type":"Point","properties":{"Station_ID":"WI-MC-10","Station_Nam":"MANITOWOC 1.1 NE, WI","Latitude":"44.10943","Longitude":"-87.66030","Snowdepth":"3.500","Units":"in","Rept_Date":"2019-11-01 13"},"coordinates":[2978,4284]},{"type":"Point","properties":{"Station_ID":"WI-LF-5","Station_Nam":"BENTON 0.3 WNW, WI","Latitude":"42.57194","Longitude":"-90.38755","Snowdepth":"3.500","Units":"in","Rept_Date":"2019-11-01 12"},"coordinates":[1687,3131]},{"type":"Point","properties":{"Station_ID":"WI-IW-3","Station_Nam":"MINERAL POINT 7.3 ENE, WI","Latitude":"42.91400","Longitude":"-90.05700","Snowdepth":"3.500","Units":"in","Rept_Date":"2019-11-01 12"},"coordinates":[1843,3387]},{"type":"Point","properties":{"Station_ID":"WI-GN-5","Station_Nam":"MONTICELLO 2.2 SE, WI","Latitude":"42.71990","Longitude":"-89.56360","Snowdepth":"3.500","Units":"in","Rept_Date":"2019-11-01 12"},"coordinates":[2077,3242]},{"type":"Point","properties":{"Station_ID":"IL-WN-40","Station_Nam":"ROCKFORD 4.5 WSW, IL","Latitude":"42.24878","Longitude":"-89.14556","Snowdepth":"3.500","Units":"in","Rept_Date":"2019-11-01 12"},"coordinates":[2275,2888]},{"type":"Point","properties":{"Station_ID":"IL-TZ-23","Station_Nam":"WASHINGTON 1.7 NE, IL","Latitude":"40.71567","Longitude":"-89.41230","Snowdepth":"3.500","Units":"in","Rept_Date":"2019-11-01 12"},"coordinates":[2149,1738]},{"type":"Point","properties":{"Station_ID":"IL-SP-6","Station_Nam":"FREEPORT 2.0 NW, IL","Latitude":"42.30955","Longitude":"-89.66370","Snowdepth":"3.500","Units":"in","Rept_Date":"2019-11-01 12"},"coordinates":[2030,2934]},{"type":"Point","properties":{"Station_ID":"IL-LK-16","Station_Nam":"BUFFALO GROVE 1.5 N, IL","Latitude":"42.18800","Longitude":"-87.95900","Snowdepth":"3.500","Units":"in","Rept_Date":"2019-11-01 12"},"coordinates":[2837,2843]},{"type":"Point","properties":{"Station_ID":"IL-KN-33","Station_Nam":"NORTH AURORA 1.5 NE, IL","Latitude":"41.81629","Longitude":"-88.30680","Snowdepth":"3.500","Units":"in","Rept_Date":"2019-11-01 12"},"coordinates":[2672,2564]},{"type":"Point","properties":{"Station_ID":"IL-KN-23","Station_Nam":"BATAVIA 1.5 WNW, IL","Latitude":"41.85937","Longitude":"-88.32750","Snowdepth":"3.500","Units":"in","Rept_Date":"2019-11-01 12"},"coordinates":[2662,2596]},{"type":"Point","properties":{"Station_ID":"IL-GY-16","Station_Nam":"MORRIS 6.4 ESE, IL","Latitude":"41.33153","Longitude":"-88.31410","Snowdepth":"3.500","Units":"in","Rept_Date":"2019-11-01 12"},"coordinates":[2669,2200]},{"type":"Point","properties":{"Station_ID":"IL-DP-16","Station_Nam":"AURORA 3.6 SE, IL","Latitude":"41.73455","Longitude":"-88.23910","Snowdepth":"3.500","Units":"in","Rept_Date":"2019-11-01 12"},"coordinates":[2704,2502]},{"type":"Point","properties":{"Station_ID":"IL-DP-109","Station_Nam":"ELMHURST 0.8 ESE, IL","Latitude":"41.89287","Longitude":"-87.92960","Snowdepth":"3.500","Units":"in","Rept_Date":"2019-11-01 12"},"coordinates":[2851,2621]},{"type":"Point","properties":{"Station_ID":"IL-CK-94","Station_Nam":"LINCOLNWOOD 1.8 E, IL","Latitude":"42.00187","Longitude":"-87.69850","Snowdepth":"3.500","Units":"in","Rept_Date":"2019-11-01 12"},"coordinates":[2960,2703]},{"type":"Point","properties":{"Station_ID":"IL-CK-180","Station_Nam":"PARK RIDGE 0.5 SSW, IL","Latitude":"42.00443","Longitude":"-87.84600","Snowdepth":"3.500","Units":"in","Rept_Date":"2019-11-01 12"},"coordinates":[2890,2705]},{"type":"Point","properties":{"Station_ID":"IA-LS-5","Station_Nam":"WAPELLO 5.4 SE, IA","Latitude":"41.11441","Longitude":"-91.13017","Snowdepth":"3.200","Units":"in","Rept_Date":"2019-11-01 12"},"coordinates":[1335,2037]},{"type":"Point","properties":{"Station_ID":"WTBW3","Station_Nam":"WEST BEND PUBLIC WORKS","Latitude":"43.41110","Longitude":"-88.19380","Snowdepth":"3.000","Units":"in","Rept_Date":"2019-11-01 12"},"coordinates":[2726,3760]},{"type":"Point","properties":{"Station_ID":"WPKW3","Station_Nam":"SW-WHITNAL PARK","Latitude":"42.91670","Longitude":"-88.03330","Snowdepth":"3.000","Units":"in","Rept_Date":"2019-11-01 12"},"coordinates":[2802,3389]},{"type":"Point","properties":{"Station_ID":"WODI2","Station_Nam":"WOODSTOCK","Latitude":"42.36280","Longitude":"-88.53140","Snowdepth":"3.000","Units":"in","Rept_Date":"2019-11-01 12"},"coordinates":[2566,2974]},{"type":"Point","properties":{"Station_ID":"WI-WW-13","Station_Nam":"MUKWONAGO 3.4 SW, WI","Latitude":"42.83734","Longitude":"-88.38534","Snowdepth":"3.000","Units":"in","Rept_Date":"2019-11-01 11"},"coordinates":[2635,3330]},{"type":"Point","properties":{"Station_ID":"WI-WS-28","Station_Nam":"JACKSON 0.9 SSE, WI","Latitude":"43.30781","Longitude":"-88.15942","Snowdepth":"3.000","Units":"in","Rept_Date":"2019-11-01 11"},"coordinates":[2742,3683]},{"type":"Point","properties":{"Station_ID":"WI-WN-19","Station_Nam":"OSHKOSH 1.6 ESE, WI","Latitude":"44.01097","Longitude":"-88.52354","Snowdepth":"3.000","Units":"in","Rept_Date":"2019-11-01 12"},"coordinates":[2569,4210]},{"type":"Point","properties":{"Station_ID":"WI-KN-6","Station_Nam":"KENOSHA 1.7 S, WI","Latitude":"42.55970","Longitude":"-87.85660","Snowdepth":"3.000","Units":"in","Rept_Date":"2019-11-01 12"},"coordinates":[2885,3121]},{"type":"Point","properties":{"Station_ID":"WI-KN-11","Station_Nam":"PLEASANT PRAIRIE 3.8 NW, WI","Latitude":"42.56005","Longitude":"-87.93840","Snowdepth":"3.000","Units":"in","Rept_Date":"2019-11-01 11"},"coordinates":[2847,3122]},{"type":"Point","properties":{"Station_ID":"WI-CB-4","Station_Nam":"PORTAGE 5.7 WSW, WI","Latitude":"43.51411","Longitude":"-89.56910","Snowdepth":"3.000","Units":"in","Rept_Date":"2019-11-01 11"},"coordinates":[2074,3838]},{"type":"Point","properties":{"Station_ID":"WBRM4","Station_Nam":"WEST BRANCH 3SE","Latitude":"44.25410","Longitude":"-84.20110","Snowdepth":"3.000","Units":"in","Rept_Date":"2019-11-01 12"},"coordinates":[4616,4393]},{"type":"Point","properties":{"Station_ID":"SBEW3","Station_Nam":"EXP. FARM","Latitude":"44.86670","Longitude":"-87.33330","Snowdepth":"3.000","Units":"in","Rept_Date":"2019-11-01 12"},"coordinates":[3133,4852]},{"type":"Point","properties":{"Station_ID":"SAVW3","Station_Nam":"SAUKVILLE WWTP","Latitude":"43.37470","Longitude":"-87.93940","Snowdepth":"3.000","Units":"in","Rept_Date":"2019-11-01 11"},"coordinates":[2846,3733]},{"type":"Point","properties":{"Station_ID":"ROAI2","Station_Nam":"ROANOKE","Latitude":"40.79830","Longitude":"-89.19470","Snowdepth":"3.000","Units":"in","Rept_Date":"2019-11-01 12"},"coordinates":[2252,1800]},{"type":"Point","properties":{"Station_ID":"RKNW3","Station_Nam":"MARKESAN","Latitude":"43.70280","Longitude":"-88.99890","Snowdepth":"3.000","Units":"in","Rept_Date":"2019-11-01 12"},"coordinates":[2344,3979]},{"type":"Point","properties":{"Station_ID":"RCFI2","Station_Nam":"ROCK FALLS 3 NE","Latitude":"41.79810","Longitude":"-89.64140","Snowdepth":"3.000","Units":"in","Rept_Date":"2019-11-01 12"},"coordinates":[2040,2550]},{"type":"Point","properties":{"Station_ID":"PTNI2","Station_Nam":"PRINCETON","Latitude":"41.37610","Longitude":"-89.46420","Snowdepth":"3.000","Units":"in","Rept_Date":"2019-11-01 12"},"coordinates":[2124,2234]},{"type":"Point","properties":{"Station_ID":"PORW3","Station_Nam":"PORTAGE,WI","Latitude":"43.53190","Longitude":"-89.43780","Snowdepth":"3.000","Units":"in","Rept_Date":"2019-11-01 13"},"coordinates":[2137,3851]},{"type":"Point","properties":{"Station_ID":"PFDI2","Station_Nam":"PLAINFIELD,IL","Latitude":"41.63860","Longitude":"-88.18810","Snowdepth":"3.000","Units":"in","Rept_Date":"2019-11-01 12"},"coordinates":[2728,2430]},{"type":"Point","properties":{"Station_ID":"OSNW3","Station_Nam":"OSHKOSH-NORTH","Latitude":"44.03500","Longitude":"-88.54390","Snowdepth":"3.000","Units":"in","Rept_Date":"2019-11-01 12"},"coordinates":[2560,4228]},{"type":"Point","properties":{"Station_ID":"OOSW3","Station_Nam":"OSHKOSH 6 S","Latitude":"43.93750","Longitude":"-88.54250","Snowdepth":"3.000","Units":"in","Rept_Date":"2019-11-01 12"},"coordinates":[2561,4155]},{"type":"Point","properties":{"Station_ID":"NRLI2","Station_Nam":"NORMAL","Latitude":"40.54920","Longitude":"-88.94970","Snowdepth":"3.000","Units":"in","Rept_Date":"2019-11-01 10"},"coordinates":[2368,1613]},{"type":"Point","properties":{"Station_ID":"MUNI2","Station_Nam":"MUNDELEIN,IL","Latitude":"42.25530","Longitude":"-88.07690","Snowdepth":"3.000","Units":"in","Rept_Date":"2019-11-01 12"},"coordinates":[2781,2893]},{"type":"Point","properties":{"Station_ID":"MTCI2","Station_Nam":"MOUNT CARROLL","Latitude":"42.09800","Longitude":"-89.98410","Snowdepth":"3.000","Units":"in","Rept_Date":"2019-11-01 14"},"coordinates":[1878,2775]},{"type":"Point","properties":{"Station_ID":"MQBI2","Station_Nam":"MACOMB","Latitude":"40.47860","Longitude":"-90.66980","Snowdepth":"3.000","Units":"in","Rept_Date":"2019-11-01 12"},"coordinates":[1553,1560]},{"type":"Point","properties":{"Station_ID":"MMTI2","Station_Nam":"MONMOUTH 4 NW","Latitude":"40.93620","Longitude":"-90.71970","Snowdepth":"3.000","Units":"in","Rept_Date":"2019-11-01 13"},"coordinates":[1530,1903]},{"type":"Point","properties":{"Station_ID":"MMOI2","Station_Nam":"MARSEILLES LOCK AND DAM","Latitude":"41.33060","Longitude":"-88.75830","Snowdepth":"3.000","Units":"in","Rept_Date":"2019-11-01 10"},"coordinates":[2458,2199]},{"type":"Point","properties":{"Station_ID":"MINI2","Station_Nam":"MINONK","Latitude":"40.91250","Longitude":"-89.03390","Snowdepth":"3.000","Units":"in","Rept_Date":"2019-11-01 13"},"coordinates":[2328,1886]},{"type":"Point","properties":{"Station_ID":"MACI2","Station_Nam":"MACKINAW","Latitude":"40.55140","Longitude":"-89.33440","Snowdepth":"3.000","Units":"in","Rept_Date":"2019-11-01 14"},"coordinates":[2186,1615]},{"type":"Point","properties":{"Station_ID":"LOOW3","Station_Nam":"WATERLOO","Latitude":"43.18830","Longitude":"-88.98440","Snowdepth":"3.000","Units":"in","Rept_Date":"2019-11-01 13"},"coordinates":[2351,3593]},{"type":"Point","properties":{"Station_ID":"LAHI2","Station_Nam":"LA HARPE","Latitude":"40.58380","Longitude":"-90.96860","Snowdepth":"3.000","Units":"in","Rept_Date":"2019-11-01 13"},"coordinates":[1412,1639]},{"type":"Point","properties":{"Station_ID":"KRFD","Station_Nam":"GREATER ROCKFORD AIRPORT","Latitude":"42.20000","Longitude":"-89.10000","Snowdepth":"3.000","Units":"in","Rept_Date":"2019-11-01 12"},"coordinates":[2297,2852]},{"type":"Point","properties":{"Station_ID":"KLKM4","Station_Nam":"KALKASKA","Latitude":"44.72800","Longitude":"-85.17270","Snowdepth":"3.000","Units":"in","Rept_Date":"2019-11-01 12"},"coordinates":[4156,4748]},{"type":"Point","properties":{"Station_ID":"KEWI2","Station_Nam":"KEWANEE 1 E","Latitude":"41.24290","Longitude":"-89.89970","Snowdepth":"3.000","Units":"in","Rept_Date":"2019-11-01 12"},"coordinates":[1918,2134]},{"type":"Point","properties":{"Station_ID":"JFNW3","Station_Nam":"JEFFERSON - WWTP","Latitude":"42.99470","Longitude":"-88.80390","Snowdepth":"3.000","Units":"in","Rept_Date":"2019-11-01 12"},"coordinates":[2437,3448]},{"type":"Point","properties":{"Station_ID":"IL-WL-80","Station_Nam":"LOCKPORT 1.3 SE, IL","Latitude":"41.57454","Longitude":"-88.03300","Snowdepth":"3.000","Units":"in","Rept_Date":"2019-11-01 12"},"coordinates":[2802,2382]},{"type":"Point","properties":{"Station_ID":"IL-TZ-10","Station_Nam":"TREMONT 3.6 E, IL","Latitude":"40.52456","Longitude":"-89.42130","Snowdepth":"3.000","Units":"in","Rept_Date":"2019-11-01 12"},"coordinates":[2144,1595]},{"type":"Point","properties":{"Station_ID":"IL-TZ-1","Station_Nam":"MORTON 1.0 S, IL","Latitude":"40.59743","Longitude":"-89.47060","Snowdepth":"3.000","Units":"in","Rept_Date":"2019-11-01 12"},"coordinates":[2121,1649]},{"type":"Point","properties":{"Station_ID":"IL-MCL-39","Station_Nam":"BLOOMINGTON 5.0 WSW, IL","Latitude":"40.45837","Longitude":"-89.06499","Snowdepth":"3.000","Units":"in","Rept_Date":"2019-11-01 12"},"coordinates":[2313,1545]},{"type":"Point","properties":{"Station_ID":"IL-LS-34","Station_Nam":"LA SALLE 0.1 W, IL","Latitude":"41.34015","Longitude":"-89.09590","Snowdepth":"3.000","Units":"in","Rept_Date":"2019-11-01 12"},"coordinates":[2298,2207]},{"type":"Point","properties":{"Station_ID":"IL-LK-39","Station_Nam":"RIVERWOODS 0.4 ENE, IL","Latitude":"42.17264","Longitude":"-87.88840","Snowdepth":"3.000","Units":"in","Rept_Date":"2019-11-01 12"},"coordinates":[2870,2831]},{"type":"Point","properties":{"Station_ID":"IL-LK-11","Station_Nam":"LINCOLNSHIRE 0.9 N, IL","Latitude":"42.20816","Longitude":"-87.91880","Snowdepth":"3.000","Units":"in","Rept_Date":"2019-11-01 13"},"coordinates":[2856,2858]},{"type":"Point","properties":{"Station_ID":"IL-KN-4","Station_Nam":"SUGAR GROVE 0.7 NE, IL","Latitude":"41.77622","Longitude":"-88.44780","Snowdepth":"3.000","Units":"in","Rept_Date":"2019-11-01 12"},"coordinates":[2605,2534]},{"type":"Point","properties":{"Station_ID":"IL-KN-30","Station_Nam":"ELBURN 0.4 NW, IL","Latitude":"41.89417","Longitude":"-88.47860","Snowdepth":"3.000","Units":"in","Rept_Date":"2019-11-01 11"},"coordinates":[2591,2622]},{"type":"Point","properties":{"Station_ID":"IL-KN-104","Station_Nam":"GENEVA 3.9 WSW, IL","Latitude":"41.85711","Longitude":"-88.38230","Snowdepth":"3.000","Units":"in","Rept_Date":"2019-11-01 10"},"coordinates":[2636,2594]},{"type":"Point","properties":{"Station_ID":"IL-JD-2","Station_Nam":"GALENA 5.7 E, IL","Latitude":"42.40627","Longitude":"-90.31810","Snowdepth":"3.000","Units":"in","Rept_Date":"2019-11-01 12"},"coordinates":[1720,3006]},{"type":"Point","properties":{"Station_ID":"IL-HN-2","Station_Nam":"WARSAW 5.8 SE, IL","Latitude":"40.28743","Longitude":"-91.35880","Snowdepth":"3.000","Units":"in","Rept_Date":"2019-11-01 12"},"coordinates":[1227,1417]},{"type":"Point","properties":{"Station_ID":"IL-DP-87","Station_Nam":"ROSELLE 1.2 ESE, IL","Latitude":"41.97664","Longitude":"-88.05980","Snowdepth":"3.000","Units":"in","Rept_Date":"2019-11-01 13"},"coordinates":[2789,2684]},{"type":"Point","properties":{"Station_ID":"IL-DP-32","Station_Nam":"LISLE 1.3 SE, IL","Latitude":"41.78143","Longitude":"-88.06740","Snowdepth":"3.000","Units":"in","Rept_Date":"2019-11-01 12"},"coordinates":[2785,2538]},{"type":"Point","properties":{"Station_ID":"IL-DK-36","Station_Nam":"DE KALB 3.5 WSW, IL","Latitude":"41.91085","Longitude":"-88.81389","Snowdepth":"3.000","Units":"in","Rept_Date":"2019-11-01 12"},"coordinates":[2432,2635]},{"type":"Point","properties":{"Station_ID":"IL-CK-316","Station_Nam":"OAK LAWN 0.8 WSW, IL","Latitude":"41.71069","Longitude":"-87.76631","Snowdepth":"3.000","Units":"in","Rept_Date":"2019-11-01 11"},"coordinates":[2928,2485]},{"type":"Point","properties":{"Station_ID":"IL-CK-131","Station_Nam":"SCHAUMBURG 2.0 E, IL","Latitude":"42.03028","Longitude":"-88.04400","Snowdepth":"3.000","Units":"in","Rept_Date":"2019-11-01 12"},"coordinates":[2797,2724]},{"type":"Point","properties":{"Station_ID":"IL-BU-5","Station_Nam":"PRINCETON 1.1 SE, IL","Latitude":"41.36713","Longitude":"-89.45190","Snowdepth":"3.000","Units":"in","Rept_Date":"2019-11-01 12"},"coordinates":[2130,2227]},{"type":"Point","properties":{"Station_ID":"IA-ST-48","Station_Nam":"BETTENDORF 1.6 W, IA","Latitude":"41.56502","Longitude":"-90.50767","Snowdepth":"3.000","Units":"in","Rept_Date":"2019-11-01 12"},"coordinates":[1630,2375]},{"type":"Point","properties":{"Station_ID":"IA-ST-37","Station_Nam":"DAVENPORT 0.9 WNW, IA","Latitude":"41.54450","Longitude":"-90.59100","Snowdepth":"3.000","Units":"in","Rept_Date":"2019-11-01 12"},"coordinates":[1591,2360]},{"type":"Point","properties":{"Station_ID":"IA-ST-30","Station_Nam":"ELDRIDGE 0.7 SSW, IA","Latitude":"41.64465","Longitude":"-90.58706","Snowdepth":"3.000","Units":"in","Rept_Date":"2019-11-01 13"},"coordinates":[1592,2435]},{"type":"Point","properties":{"Station_ID":"IA-ST-3","Station_Nam":"PARK VIEW 0.2 WSW, IA","Latitude":"41.68855","Longitude":"-90.54380","Snowdepth":"3.000","Units":"in","Rept_Date":"2019-11-01 12"},"coordinates":[1613,2468]},{"type":"Point","properties":{"Station_ID":"IA-MC-13","Station_Nam":"MUSCATINE 2.1 N, IA","Latitude":"41.44808","Longitude":"-91.07428","Snowdepth":"3.000","Units":"in","Rept_Date":"2019-11-01 12"},"coordinates":[1362,2288]},{"type":"Point","properties":{"Station_ID":"IA-LN-39","Station_Nam":"CEDAR RAPIDS 2.5 WSW, IA","Latitude":"41.95474","Longitude":"-91.71049","Snowdepth":"3.000","Units":"in","Rept_Date":"2019-11-01 11"},"coordinates":[1060,2668]},{"type":"Point","properties":{"Station_ID":"HORW3","Station_Nam":"HORICON WWTP","Latitude":"43.45000","Longitude":"-88.63330","Snowdepth":"3.000","Units":"in","Rept_Date":"2019-11-01 12"},"coordinates":[2518,3789]},{"type":"Point","properties":{"Station_ID":"HARW3","Station_Nam":"HARTFORD,WI","Latitude":"43.31670","Longitude":"-88.40000","Snowdepth":"3.000","Units":"in","Rept_Date":"2019-11-01 11"},"coordinates":[2628,3689]},{"type":"Point","properties":{"Station_ID":"GPBI2","Station_Nam":"GALENA","Latitude":"42.39950","Longitude":"-90.38600","Snowdepth":"3.000","Units":"in","Rept_Date":"2019-11-01 12"},"coordinates":[1688,3001]},{"type":"Point","properties":{"Station_ID":"GLNM4","Station_Nam":"GLENNIE 2SE","Latitude":"44.53580","Longitude":"-83.70220","Snowdepth":"3.000","Units":"in","Rept_Date":"2019-11-01 11"},"coordinates":[4852,4604]},{"type":"Point","properties":{"Station_ID":"GLEI2","Station_Nam":"GLEN ELLYN 4S","Latitude":"41.82670","Longitude":"-88.05810","Snowdepth":"3.000","Units":"in","Rept_Date":"2019-11-01 12"},"coordinates":[2790,2572]},{"type":"Point","properties":{"Station_ID":"GIBW3","Station_Nam":"GIBBSVILLE,WI","Latitude":"43.65670","Longitude":"-87.81170","Snowdepth":"3.000","Units":"in","Rept_Date":"2019-11-01 12"},"coordinates":[2907,3944]},{"type":"Point","properties":{"Station_ID":"GBGI2","Station_Nam":"GALESBURG","Latitude":"40.94640","Longitude":"-90.38560","Snowdepth":"3.000","Units":"in","Rept_Date":"2019-11-01 12"},"coordinates":[1688,1911]},{"type":"Point","properties":{"Station_ID":"FATW3","Station_Nam":"FORT ATKINSON,WI","Latitude":"42.88330","Longitude":"-88.83330","Snowdepth":"3.000","Units":"in","Rept_Date":"2019-11-01 12"},"coordinates":[2423,3364]},{"type":"Point","properties":{"Station_ID":"ELBI2","Station_Nam":"ELBURN,IL","Latitude":"41.89190","Longitude":"-88.46780","Snowdepth":"3.000","Units":"in","Rept_Date":"2019-11-01 11"},"coordinates":[2596,2620]},{"type":"Point","properties":{"Station_ID":"DNNI4","Station_Nam":"DONNELLSON","Latitude":"40.64580","Longitude":"-91.56400","Snowdepth":"3.000","Units":"in","Rept_Date":"2019-11-01 12"},"coordinates":[1130,1686]},{"type":"Point","properties":{"Station_ID":"DARW3","Station_Nam":"DARLINGTON","Latitude":"42.67780","Longitude":"-90.11860","Snowdepth":"3.000","Units":"in","Rept_Date":"2019-11-01 16"},"coordinates":[1814,3210]},{"type":"Point","properties":{"Station_ID":"COSW3","Station_Nam":"CITY OF SHEBOYGAN WWTP","Latitude":"43.71850","Longitude":"-87.70870","Snowdepth":"3.000","Units":"in","Rept_Date":"2019-11-01 13"},"coordinates":[2955,3991]},{"type":"Point","properties":{"Station_ID":"CNGI2","Station_Nam":"CONGERVILLE 2NW","Latitude":"40.62110","Longitude":"-89.24150","Snowdepth":"3.000","Units":"in","Rept_Date":"2019-11-01 13"},"coordinates":[2230,1667]},{"type":"Point","properties":{"Station_ID":"CHOI2","Station_Nam":"CHENOA 2","Latitude":"40.74070","Longitude":"-88.71800","Snowdepth":"3.000","Units":"in","Rept_Date":"2019-11-01 12"},"coordinates":[2477,1757]},{"type":"Point","properties":{"Station_ID":"CAN-ON-118","Station_Nam":"DURHAM 1.4 S, CAN","Latitude":"44.16525","Longitude":"-80.82064","Snowdepth":"3.000","Units":"in","Rept_Date":"2019-11-01 11"},"coordinates":[6217,4326]},{"type":"Point","properties":{"Station_ID":"BVDI2","Station_Nam":"BELVIDERE","Latitude":"42.25500","Longitude":"-88.86400","Snowdepth":"3.000","Units":"in","Rept_Date":"2019-11-01 12"},"coordinates":[2408,2893]},{"type":"Point","properties":{"Station_ID":"BROW3","Station_Nam":"BRODHEAD,WI","Latitude":"42.61720","Longitude":"-89.38970","Snowdepth":"3.000","Units":"in","Rept_Date":"2019-11-01 12"},"coordinates":[2159,3165]},{"type":"Point","properties":{"Station_ID":"BLNW3","Station_Nam":"BERLIN WWTP","Latitude":"43.99000","Longitude":"-88.94170","Snowdepth":"3.000","Units":"in","Rept_Date":"2019-11-01 12"},"coordinates":[2371,4195]},{"type":"Point","properties":{"Station_ID":"BFDW3","Station_Nam":"BROOKFIELD","Latitude":"43.05390","Longitude":"-88.17640","Snowdepth":"3.000","Units":"in","Rept_Date":"2019-11-01 13"},"coordinates":[2734,3492]},{"type":"Point","properties":{"Station_ID":"BEAW3","Station_Nam":"BEAVER DAM,WI","Latitude":"43.45000","Longitude":"-88.85000","Snowdepth":"3.000","Units":"in","Rept_Date":"2019-11-01 12"},"coordinates":[2415,3789]},{"type":"Point","properties":{"Station_ID":"BARI2","Station_Nam":"CRABTREE NATURE CENTER","Latitude":"42.11530","Longitude":"-88.16390","Snowdepth":"3.000","Units":"in","Rept_Date":"2019-11-01 13"},"coordinates":[2740,2788]},{"type":"Point","properties":{"Station_ID":"AVOI2","Station_Nam":"AVON","Latitude":"40.66320","Longitude":"-90.44470","Snowdepth":"3.000","Units":"in","Rept_Date":"2019-11-01 12"},"coordinates":[1660,1699]},{"type":"Point","properties":{"Station_ID":"ATLM4","Station_Nam":"ATLANTA","Latitude":"45.00470","Longitude":"-84.14040","Snowdepth":"3.000","Units":"in","Rept_Date":"2019-11-01 11"},"coordinates":[4645,4956]},{"type":"Point","properties":{"Station_ID":"ARRI2","Station_Nam":"WATER DEPT","Latitude":"41.75000","Longitude":"-88.35000","Snowdepth":"3.000","Units":"in","Rept_Date":"2019-11-01 12"},"coordinates":[2652,2514]},{"type":"Point","properties":{"Station_ID":"ARGW3","Station_Nam":"ARGYLE","Latitude":"42.70060","Longitude":"-89.01890","Snowdepth":"3.000","Units":"in","Rept_Date":"2019-11-01 12"},"coordinates":[2335,3227]},{"type":"Point","properties":{"Station_ID":"ALLW3","Station_Nam":"ALLENTON","Latitude":"43.42360","Longitude":"-88.35110","Snowdepth":"3.000","Units":"in","Rept_Date":"2019-11-01 12"},"coordinates":[2651,3770]},{"type":"Point","properties":{"Station_ID":"MI-AT-6","Station_Nam":"MANCELONA 0.5 ESE, MI","Latitude":"44.89981","Longitude":"-85.05100","Snowdepth":"2.800","Units":"in","Rept_Date":"2019-11-01 12"},"coordinates":[4214,4877]},{"type":"Point","properties":{"Station_ID":"SVBQ6","Station_Nam":"SAVANT BASE","Latitude":"50.28730","Longitude":"-90.65670","Snowdepth":"2.760","Units":"in","Rept_Date":"2019-11-02 06"},"coordinates":[1559,8919]},{"type":"Point","properties":{"Station_ID":"WI-WN-9","Station_Nam":"NEENAH 1.1 ENE, WI","Latitude":"44.17370","Longitude":"-88.45130","Snowdepth":"2.500","Units":"in","Rept_Date":"2019-11-01 12"},"coordinates":[2604,4332]},{"type":"Point","properties":{"Station_ID":"WI-WN-15","Station_Nam":"OSHKOSH 2.0 W, WI","Latitude":"44.01962","Longitude":"-88.59359","Snowdepth":"2.500","Units":"in","Rept_Date":"2019-11-01 12"},"coordinates":[2536,4217]},{"type":"Point","properties":{"Station_ID":"WI-SK-16","Station_Nam":"LA VALLE 3.5 W, WI","Latitude":"43.58731","Longitude":"-90.20020","Snowdepth":"2.500","Units":"in","Rept_Date":"2019-11-01 12"},"coordinates":[1776,3892]},{"type":"Point","properties":{"Station_ID":"IL-WL-97","Station_Nam":"NEW LENOX 3.3 E, IL","Latitude":"41.51934","Longitude":"-87.91930","Snowdepth":"2.500","Units":"in","Rept_Date":"2019-11-01 11"},"coordinates":[2856,2341]},{"type":"Point","properties":{"Station_ID":"IL-WL-63","Station_Nam":"NEW LENOX 1.8 SE, IL","Latitude":"41.49964","Longitude":"-87.96030","Snowdepth":"2.500","Units":"in","Rept_Date":"2019-11-01 12"},"coordinates":[2836,2326]},{"type":"Point","properties":{"Station_ID":"IL-WF-14","Station_Nam":"EL PASO 5.2 NNW, IL","Latitude":"40.80923","Longitude":"-89.05460","Snowdepth":"2.500","Units":"in","Rept_Date":"2019-11-01 12"},"coordinates":[2318,1808]},{"type":"Point","properties":{"Station_ID":"IL-WD-5","Station_Nam":"MORRISON 3.2 E, IL","Latitude":"41.81601","Longitude":"-89.90400","Snowdepth":"2.500","Units":"in","Rept_Date":"2019-11-01 12"},"coordinates":[1916,2564]},{"type":"Point","properties":{"Station_ID":"IL-SP-25","Station_Nam":"FREEPORT 1.7 NW, IL","Latitude":"42.30427","Longitude":"-89.66285","Snowdepth":"2.500","Units":"in","Rept_Date":"2019-11-01 12"},"coordinates":[2030,2930]},{"type":"Point","properties":{"Station_ID":"IL-MCL-17","Station_Nam":"BLOOMINGTON 2.7 NE, IL","Latitude":"40.50100","Longitude":"-88.93190","Snowdepth":"2.500","Units":"in","Rept_Date":"2019-11-01 12"},"coordinates":[2376,1577]},{"type":"Point","properties":{"Station_ID":"IL-MCD-7","Station_Nam":"COLCHESTER 3.5 NE, IL","Latitude":"40.46236","Longitude":"-90.74520","Snowdepth":"2.500","Units":"in","Rept_Date":"2019-11-01 12"},"coordinates":[1518,1548]},{"type":"Point","properties":{"Station_ID":"IL-KN-121","Station_Nam":"GENEVA 1.3 NW, IL","Latitude":"41.89380","Longitude":"-88.33500","Snowdepth":"2.500","Units":"in","Rept_Date":"2019-11-01 12"},"coordinates":[2659,2622]},{"type":"Point","properties":{"Station_ID":"IL-HY-8","Station_Nam":"GENESEO 2.0 NW, IL","Latitude":"41.46726","Longitude":"-90.18180","Snowdepth":"2.500","Units":"in","Rept_Date":"2019-11-01 12"},"coordinates":[1784,2302]},{"type":"Point","properties":{"Station_ID":"IL-HY-15","Station_Nam":"COAL VALLEY 2.6 E, IL","Latitude":"41.44513","Longitude":"-90.39730","Snowdepth":"2.500","Units":"in","Rept_Date":"2019-11-01 13"},"coordinates":[1682,2285]},{"type":"Point","properties":{"Station_ID":"IL-GY-10","Station_Nam":"MINOOKA 0.3 NE, IL","Latitude":"41.45182","Longitude":"-88.25430","Snowdepth":"2.500","Units":"in","Rept_Date":"2019-11-01 13"},"coordinates":[2697,2290]},{"type":"Point","properties":{"Station_ID":"IL-DP-78","Station_Nam":"NAPERVILLE 2.4 SE, IL","Latitude":"41.74184","Longitude":"-88.11620","Snowdepth":"2.500","Units":"in","Rept_Date":"2019-11-01 12"},"coordinates":[2762,2508]},{"type":"Point","properties":{"Station_ID":"IL-DP-75","Station_Nam":"NAPERVILLE 1.1 NW, IL","Latitude":"41.77288","Longitude":"-88.17130","Snowdepth":"2.500","Units":"in","Rept_Date":"2019-11-01 14"},"coordinates":[2736,2531]},{"type":"Point","properties":{"Station_ID":"IL-CK-306","Station_Nam":"OAK FOREST 0.6 N, IL","Latitude":"41.61550","Longitude":"-87.75070","Snowdepth":"2.500","Units":"in","Rept_Date":"2019-11-01 12"},"coordinates":[2935,2413]},{"type":"Point","properties":{"Station_ID":"IL-CK-149","Station_Nam":"OAK LAWN 0.5 SSW, IL","Latitude":"41.70845","Longitude":"-87.75390","Snowdepth":"2.500","Units":"in","Rept_Date":"2019-11-01 12"},"coordinates":[2934,2483]},{"type":"Point","properties":{"Station_ID":"IL-CK-12","Station_Nam":"BRIDGEVIEW 1.3 NNW, IL","Latitude":"41.75502","Longitude":"-87.81730","Snowdepth":"2.500","Units":"in","Rept_Date":"2019-11-01 12"},"coordinates":[2904,2518]},{"type":"Point","properties":{"Station_ID":"IA-ST-42","Station_Nam":"RIVERDALE 0.5 N, IA","Latitude":"41.54319","Longitude":"-90.46752","Snowdepth":"2.500","Units":"in","Rept_Date":"2019-11-01 12"},"coordinates":[1649,2359]},{"type":"Point","properties":{"Station_ID":"IA-BT-12","Station_Nam":"FAIRFAX 4.0 NW, IA","Latitude":"41.96178","Longitude":"-91.83661","Snowdepth":"2.500","Units":"in","Rept_Date":"2019-11-01 12"},"coordinates":[1001,2673]},{"type":"Point","properties":{"Station_ID":"SOCQ6","Station_Nam":"SOCKET LAKE","Latitude":"50.77870","Longitude":"-91.79300","Snowdepth":"2.400","Units":"in","Rept_Date":"2019-11-02 06"},"coordinates":[1021,9288]},{"type":"Point","properties":{"Station_ID":"FTHQ6","Station_Nam":"FORT HOPE","Latitude":"51.55820","Longitude":"-87.90510","Snowdepth":"2.360","Units":"in","Rept_Date":"2019-11-02 06"},"coordinates":[2862,9872]},{"type":"Point","properties":{"Station_ID":"IL-CK-193","Station_Nam":"WINNETKA 0.8 ESE, IL","Latitude":"42.10164","Longitude":"-87.72900","Snowdepth":"2.200","Units":"in","Rept_Date":"2019-11-01 13"},"coordinates":[2946,2778]},{"type":"Point","properties":{"Station_ID":"WSHI4","Station_Nam":"WASHINGTON","Latitude":"41.28240","Longitude":"-91.70780","Snowdepth":"2.000","Units":"in","Rept_Date":"2019-11-01 12"},"coordinates":[1062,2163]},{"type":"Point","properties":{"Station_ID":"WLLI2","Station_Nam":"WILLOW SPRINGS","Latitude":"41.70910","Longitude":"-87.95940","Snowdepth":"2.000","Units":"in","Rept_Date":"2019-11-01 13"},"coordinates":[2837,2483]},{"type":"Point","properties":{"Station_ID":"WI-WN-7","Station_Nam":"OMRO 2.3 WSW, WI","Latitude":"44.02074","Longitude":"-88.77970","Snowdepth":"2.000","Units":"in","Rept_Date":"2019-11-01 12"},"coordinates":[2448,4218]},{"type":"Point","properties":{"Station_ID":"WI-WK-34","Station_Nam":"MUKWONAGO 5.3 W, WI","Latitude":"42.85380","Longitude":"-88.43550","Snowdepth":"2.000","Units":"in","Rept_Date":"2019-11-01 12"},"coordinates":[2611,3342]},{"type":"Point","properties":{"Station_ID":"WI-SK-2","Station_Nam":"ROCK SPRINGS 2.8 WSW, WI","Latitude":"43.45901","Longitude":"-89.96540","Snowdepth":"2.000","Units":"in","Rept_Date":"2019-11-01 12"},"coordinates":[1887,3796]},{"type":"Point","properties":{"Station_ID":"WI-DD-15","Station_Nam":"COLUMBUS 4.8 ENE, WI","Latitude":"43.35742","Longitude":"-88.93819","Snowdepth":"2.000","Units":"in","Rept_Date":"2019-11-01 13"},"coordinates":[2373,3720]},{"type":"Point","properties":{"Station_ID":"WI-BN-22","Station_Nam":"WRIGHTSTOWN 0.4 ENE, WI","Latitude":"44.32735","Longitude":"-88.16669","Snowdepth":"2.000","Units":"in","Rept_Date":"2019-11-01 12"},"coordinates":[2738,4448]},{"type":"Point","properties":{"Station_ID":"WI-BN-14","Station_Nam":"GREEN BAY 3.8 SSE, WI","Latitude":"44.46772","Longitude":"-87.97350","Snowdepth":"2.000","Units":"in","Rept_Date":"2019-11-01 12"},"coordinates":[2830,4553]},{"type":"Point","properties":{"Station_ID":"WHTI2","Station_Nam":"WHEATON,IL","Latitude":"41.81330","Longitude":"-88.07360","Snowdepth":"2.000","Units":"in","Rept_Date":"2019-11-01 12"},"coordinates":[2783,2562]},{"type":"Point","properties":{"Station_ID":"WATW3","Station_Nam":"WATERTOWN,WI","Latitude":"43.17500","Longitude":"-88.73530","Snowdepth":"2.000","Units":"in","Rept_Date":"2019-11-01 12"},"coordinates":[2469,3583]},{"type":"Point","properties":{"Station_ID":"TWOW3","Station_Nam":"TWO RIVERS","Latitude":"44.14300","Longitude":"-87.56770","Snowdepth":"2.000","Units":"in","Rept_Date":"2019-11-01 12"},"coordinates":[3022,4309]},{"type":"Point","properties":{"Station_ID":"STOW3","Station_Nam":"STOUGHTON,WI","Latitude":"42.91670","Longitude":"-89.21670","Snowdepth":"2.000","Units":"in","Rept_Date":"2019-11-01 12"},"coordinates":[2241,3389]},{"type":"Point","properties":{"Station_ID":"RDCM4","Station_Nam":"WASTE WATER TREATMENT PLANT","Latitude":"43.86670","Longitude":"-85.50000","Snowdepth":"2.000","Units":"in","Rept_Date":"2019-11-01 11"},"coordinates":[4001,4102]},{"type":"Point","properties":{"Station_ID":"RCNW3","Station_Nam":"RACINE,WI","Latitude":"42.70390","Longitude":"-87.76670","Snowdepth":"2.000","Units":"in","Rept_Date":"2019-11-01 13"},"coordinates":[2928,3230]},{"type":"Point","properties":{"Station_ID":"RCHI2","Station_Nam":"ROCHELLE,IL","Latitude":"41.90000","Longitude":"-89.06670","Snowdepth":"2.000","Units":"in","Rept_Date":"2019-11-01 11"},"coordinates":[2312,2627]},{"type":"Point","properties":{"Station_ID":"PRCI2","Station_Nam":"PRAIRIE CITY","Latitude":"40.59140","Longitude":"-90.46390","Snowdepth":"2.000","Units":"in","Rept_Date":"2019-11-01 11"},"coordinates":[1651,1645]},{"type":"Point","properties":{"Station_ID":"PEOI2","Station_Nam":"PEOTONE,IL","Latitude":"41.33330","Longitude":"-87.80000","Snowdepth":"2.000","Units":"in","Rept_Date":"2019-11-01 12"},"coordinates":[2912,2201]},{"type":"Point","properties":{"Station_ID":"PEAI2","Station_Nam":"PEORIA #2 SNOW PAID","Latitude":"40.71100","Longitude":"-89.63600","Snowdepth":"2.000","Units":"in","Rept_Date":"2019-11-01 12"},"coordinates":[2043,1735]},{"type":"Point","properties":{"Station_ID":"OMWW3","Station_Nam":"OMRO - 2 SW","Latitude":"44.02080","Longitude":"-88.77970","Snowdepth":"2.000","Units":"in","Rept_Date":"2019-11-01 12"},"coordinates":[2448,4218]},{"type":"Point","properties":{"Station_ID":"OKHW3","Station_Nam":"OSHKOSH,WI","Latitude":"44.03330","Longitude":"-88.55560","Snowdepth":"2.000","Units":"in","Rept_Date":"2019-11-01 12"},"coordinates":[2554,4227]},{"type":"Point","properties":{"Station_ID":"MWOW3","Station_Nam":"MUKWONAGO","Latitude":"42.85380","Longitude":"-88.43550","Snowdepth":"2.000","Units":"in","Rept_Date":"2019-11-01 12"},"coordinates":[2611,3342]},{"type":"Point","properties":{"Station_ID":"MTPI2","Station_Nam":"MOUNT PULASKI","Latitude":"40.00740","Longitude":"-89.28310","Snowdepth":"2.000","Units":"in","Rept_Date":"2019-11-01 11"},"coordinates":[2210,1207]},{"type":"Point","properties":{"Station_ID":"MSTI4","Station_Nam":"MUSCATINE 2N","Latitude":"41.47130","Longitude":"-91.04630","Snowdepth":"2.000","Units":"in","Rept_Date":"2019-11-01 12"},"coordinates":[1375,2305]},{"type":"Point","properties":{"Station_ID":"MSN","Station_Nam":"MADISON DANE COUNTY RGNL","Latitude":"43.13970","Longitude":"-89.33750","Snowdepth":"2.000","Units":"in","Rept_Date":"2019-11-02 00"},"coordinates":[2184,3557]},{"type":"Point","properties":{"Station_ID":"MRTI2","Station_Nam":"MORTON","Latitude":"40.60050","Longitude":"-89.46540","Snowdepth":"2.000","Units":"in","Rept_Date":"2019-11-01 12"},"coordinates":[2124,1652]},{"type":"Point","properties":{"Station_ID":"MRBW3","Station_Nam":"MT HOREB","Latitude":"42.98030","Longitude":"-89.73940","Snowdepth":"2.000","Units":"in","Rept_Date":"2019-11-01 12"},"coordinates":[1994,3437]},{"type":"Point","properties":{"Station_ID":"MOSI2","Station_Nam":"MORRIS,IL","Latitude":"41.37390","Longitude":"-88.43360","Snowdepth":"2.000","Units":"in","Rept_Date":"2019-11-01 13"},"coordinates":[2612,2232]},{"type":"Point","properties":{"Station_ID":"MOEI2","Station_Nam":"MONEE RSVR","Latitude":"41.42000","Longitude":"-87.73330","Snowdepth":"2.000","Units":"in","Rept_Date":"2019-11-01 13"},"coordinates":[2944,2266]},{"type":"Point","properties":{"Station_ID":"MKE","Station_Nam":"GEN MITCHELL INTL AIRPORT","Latitude":"42.94720","Longitude":"-87.89670","Snowdepth":"2.000","Units":"in","Rept_Date":"2019-11-02 00"},"coordinates":[2866,3412]},{"type":"Point","properties":{"Station_ID":"MI-OT-17","Station_Nam":"GAYLORD 4.1 S, MI","Latitude":"44.96388","Longitude":"-84.68467","Snowdepth":"2.000","Units":"in","Rept_Date":"2019-11-01 11"},"coordinates":[4387,4925]},{"type":"Point","properties":{"Station_ID":"MI-OT-16","Station_Nam":"GAYLORD 2.2 SSE, MI","Latitude":"44.99441","Longitude":"-84.65820","Snowdepth":"2.000","Units":"in","Rept_Date":"2019-11-01 13"},"coordinates":[4400,4948]},{"type":"Point","properties":{"Station_ID":"MHYI2","Station_Nam":"LOCK AND DAM","Latitude":"42.28330","Longitude":"-88.23330","Snowdepth":"2.000","Units":"in","Rept_Date":"2019-11-01 13"},"coordinates":[2707,2914]},{"type":"Point","properties":{"Station_ID":"MFWI2","Station_Nam":"MIDWAY COOP","Latitude":"41.73730","Longitude":"-87.77760","Snowdepth":"2.000","Units":"in","Rept_Date":"2019-11-01 12"},"coordinates":[2923,2505]},{"type":"Point","properties":{"Station_ID":"MDTI2","Station_Nam":"MENDOTA 2SE","Latitude":"41.52940","Longitude":"-89.12670","Snowdepth":"2.000","Units":"in","Rept_Date":"2019-11-01 11"},"coordinates":[2284,2349]},{"type":"Point","properties":{"Station_ID":"MATI2","Station_Nam":"MANHATTAN","Latitude":"41.45840","Longitude":"-87.90980","Snowdepth":"2.000","Units":"in","Rept_Date":"2019-11-01 13"},"coordinates":[2860,2295]},{"type":"Point","properties":{"Station_ID":"LODW3","Station_Nam":"LODI","Latitude":"43.32170","Longitude":"-89.53110","Snowdepth":"2.000","Units":"in","Rept_Date":"2019-11-01 12"},"coordinates":[2092,3693]},{"type":"Point","properties":{"Station_ID":"LKMW3","Station_Nam":"LAKE MILLS,WI","Latitude":"43.06670","Longitude":"-88.91220","Snowdepth":"2.000","Units":"in","Rept_Date":"2019-11-01 12"},"coordinates":[2385,3502]},{"type":"Point","properties":{"Station_ID":"LKCM4","Station_Nam":"LAKE CITY EXP FARM","Latitude":"44.30880","Longitude":"-85.20500","Snowdepth":"2.000","Units":"in","Rept_Date":"2019-11-01 12"},"coordinates":[4141,4434]},{"type":"Point","properties":{"Station_ID":"KSEM4","Station_Nam":"KALKASKA 11SE","Latitude":"44.58970","Longitude":"-85.04860","Snowdepth":"2.000","Units":"in","Rept_Date":"2019-11-01 12"},"coordinates":[4215,4644]},{"type":"Point","properties":{"Station_ID":"KMSN","Station_Nam":"MADISON DANE COUNTY RGNL","Latitude":"43.13333","Longitude":"-89.35000","Snowdepth":"2.000","Units":"in","Rept_Date":"2019-11-02 00"},"coordinates":[2178,3552]},{"type":"Point","properties":{"Station_ID":"KMKE","Station_Nam":"GEN MITCHELL INTERNATIONAL  AIRPORT","Latitude":"42.95000","Longitude":"-87.90000","Snowdepth":"2.000","Units":"in","Rept_Date":"2019-11-02 06"},"coordinates":[2865,3414]},{"type":"Point","properties":{"Station_ID":"KKKW3","Station_Nam":"KEWAUNEE","Latitude":"44.46280","Longitude":"-87.50500","Snowdepth":"2.000","Units":"in","Rept_Date":"2019-11-01 12"},"coordinates":[3052,4549]},{"type":"Point","properties":{"Station_ID":"KANW3","Station_Nam":"KEWAUNEE-SOUTHWEST","Latitude":"44.44920","Longitude":"-87.51470","Snowdepth":"2.000","Units":"in","Rept_Date":"2019-11-01 12"},"coordinates":[3047,4539]},{"type":"Point","properties":{"Station_ID":"JKJI2","Station_Nam":"JOLIET","Latitude":"41.55030","Longitude":"-88.12670","Snowdepth":"2.000","Units":"in","Rept_Date":"2019-11-01 12"},"coordinates":[2757,2364]},{"type":"Point","properties":{"Station_ID":"IN-PT-12","Station_Nam":"VALPARAISO 4.3 SW, IN","Latitude":"41.43454","Longitude":"-87.11240","Snowdepth":"2.000","Units":"in","Rept_Date":"2019-11-01 11"},"coordinates":[3238,2277]},{"type":"Point","properties":{"Station_ID":"IN-PT-117","Station_Nam":"VALPARAISO 5.5 SSW, IN","Latitude":"41.40786","Longitude":"-87.10440","Snowdepth":"2.000","Units":"in","Rept_Date":"2019-11-01 11"},"coordinates":[3241,2257]},{"type":"Point","properties":{"Station_ID":"IN-LK-99","Station_Nam":"ST. JOHN 2.8 SE, IN","Latitude":"41.41524","Longitude":"-87.44359","Snowdepth":"2.000","Units":"in","Rept_Date":"2019-11-01 12"},"coordinates":[3081,2263]},{"type":"Point","properties":{"Station_ID":"IL-WL-46","Station_Nam":"PEOTONE 0.4 ENE, IL","Latitude":"41.33361","Longitude":"-87.78910","Snowdepth":"2.000","Units":"in","Rept_Date":"2019-11-01 12"},"coordinates":[2917,2202]},{"type":"Point","properties":{"Station_ID":"IL-WL-20","Station_Nam":"MANHATTAN 4.7 ENE, IL","Latitude":"41.45845","Longitude":"-87.90980","Snowdepth":"2.000","Units":"in","Rept_Date":"2019-11-01 13"},"coordinates":[2860,2295]},{"type":"Point","properties":{"Station_ID":"IL-WL-149","Station_Nam":"BULT FIELD-MONEE 4.9 SE, IL","Latitude":"41.37740","Longitude":"-87.67975","Snowdepth":"2.000","Units":"in","Rept_Date":"2019-11-01 13"},"coordinates":[2969,2234]},{"type":"Point","properties":{"Station_ID":"IL-TZ-26","Station_Nam":"PEKIN 3.6 SSE, IL","Latitude":"40.52163","Longitude":"-89.59596","Snowdepth":"2.000","Units":"in","Rept_Date":"2019-11-01 14"},"coordinates":[2062,1592]},{"type":"Point","properties":{"Station_ID":"IL-SP-26","Station_Nam":"FREEPORT 2.9 WSW, IL","Latitude":"42.26779","Longitude":"-89.68323","Snowdepth":"2.000","Units":"in","Rept_Date":"2019-11-01 12"},"coordinates":[2020,2902]},{"type":"Point","properties":{"Station_ID":"IL-ME-6","Station_Nam":"PETERSBURG 7.5 W, IL","Latitude":"40.01888","Longitude":"-89.99344","Snowdepth":"2.000","Units":"in","Rept_Date":"2019-11-01 12"},"coordinates":[1873,1215]},{"type":"Point","properties":{"Station_ID":"IL-MCL-46","Station_Nam":"NORMAL 1.1 SSE, IL","Latitude":"40.50413","Longitude":"-88.98844","Snowdepth":"2.000","Units":"in","Rept_Date":"2019-11-01 12"},"coordinates":[2349,1579]},{"type":"Point","properties":{"Station_ID":"IL-LS-56","Station_Nam":"OTTAWA 0.4 N, IL","Latitude":"41.35543","Longitude":"-88.84000","Snowdepth":"2.000","Units":"in","Rept_Date":"2019-11-01 15"},"coordinates":[2420,2218]},{"type":"Point","properties":{"Station_ID":"IL-LG-9","Station_Nam":"BEASON 4.0 SW, IL","Latitude":"40.09703","Longitude":"-89.23890","Snowdepth":"2.000","Units":"in","Rept_Date":"2019-11-01 11"},"coordinates":[2231,1274]},{"type":"Point","properties":{"Station_ID":"IL-LG-38","Station_Nam":"NEW HOLLAND 0.3 ESE, IL","Latitude":"40.18333","Longitude":"-89.57790","Snowdepth":"2.000","Units":"in","Rept_Date":"2019-11-01 12"},"coordinates":[2070,1339]},{"type":"Point","properties":{"Station_ID":"IL-KD-34","Station_Nam":"PLAINFIELD 4.8 SW, IL","Latitude":"41.56779","Longitude":"-88.27010","Snowdepth":"2.000","Units":"in","Rept_Date":"2019-11-01 12"},"coordinates":[2690,2377]},{"type":"Point","properties":{"Station_ID":"IL-HD-4","Station_Nam":"OQUAWKA 0.5 N, IL","Latitude":"40.94470","Longitude":"-90.94860","Snowdepth":"2.000","Units":"in","Rept_Date":"2019-11-01 13"},"coordinates":[1421,1910]},{"type":"Point","properties":{"Station_ID":"IL-GY-4","Station_Nam":"COAL CITY 0.4 N, IL","Latitude":"41.29474","Longitude":"-88.27780","Snowdepth":"2.000","Units":"in","Rept_Date":"2019-11-01 13"},"coordinates":[2686,2172]},{"type":"Point","properties":{"Station_ID":"IL-GY-1","Station_Nam":"CARBON HILL 3.1 N, IL","Latitude":"41.34139","Longitude":"-88.29810","Snowdepth":"2.000","Units":"in","Rept_Date":"2019-11-01 12"},"coordinates":[2676,2207]},{"type":"Point","properties":{"Station_ID":"IL-DW-7","Station_Nam":"CLINTON 0.4 WSW, IL","Latitude":"40.14727","Longitude":"-88.96782","Snowdepth":"2.000","Units":"in","Rept_Date":"2019-11-01 12"},"coordinates":[2359,1312]},{"type":"Point","properties":{"Station_ID":"IL-DP-79","Station_Nam":"BURR RIDGE 1.9 SW, IL","Latitude":"41.73194","Longitude":"-87.94860","Snowdepth":"2.000","Units":"in","Rept_Date":"2019-11-01 13"},"coordinates":[2842,2500]},{"type":"Point","properties":{"Station_ID":"IL-DP-42","Station_Nam":"CAROL STREAM 0.3 SSE, IL","Latitude":"41.91301","Longitude":"-88.12940","Snowdepth":"2.000","Units":"in","Rept_Date":"2019-11-01 12"},"coordinates":[2756,2636]},{"type":"Point","properties":{"Station_ID":"IL-DP-132","Station_Nam":"WHEATON 2.0 NNE, IL","Latitude":"41.87980","Longitude":"-88.08630","Snowdepth":"2.000","Units":"in","Rept_Date":"2019-11-01 12"},"coordinates":[2777,2611]},{"type":"Point","properties":{"Station_ID":"IL-DK-24","Station_Nam":"SOMONAUK 1.9 NE, IL","Latitude":"41.65063","Longitude":"-88.65663","Snowdepth":"2.000","Units":"in","Rept_Date":"2019-11-01 09"},"coordinates":[2506,2439]},{"type":"Point","properties":{"Station_ID":"IL-CR-12","Station_Nam":"MOUNT CARROLL 6.8 NNW, IL","Latitude":"42.18735","Longitude":"-90.02185","Snowdepth":"2.000","Units":"in","Rept_Date":"2019-11-01 12"},"coordinates":[1860,2842]},{"type":"Point","properties":{"Station_ID":"IL-CK-145","Station_Nam":"OAK PARK 1.5 S, IL","Latitude":"41.86592","Longitude":"-87.79280","Snowdepth":"2.000","Units":"in","Rept_Date":"2019-11-01 11"},"coordinates":[2916,2601]},{"type":"Point","properties":{"Station_ID":"IL-BU-8","Station_Nam":"TISKILWA 2.1 N, IL","Latitude":"41.32347","Longitude":"-89.50470","Snowdepth":"2.000","Units":"in","Rept_Date":"2019-11-01 12"},"coordinates":[2105,2194]},{"type":"Point","properties":{"Station_ID":"IL-BN-14","Station_Nam":"CAPRON 0.1 N, IL","Latitude":"42.39998","Longitude":"-88.74240","Snowdepth":"2.000","Units":"in","Rept_Date":"2019-11-01 12"},"coordinates":[2466,3002]},{"type":"Point","properties":{"Station_ID":"ICYI4","Station_Nam":"IOWA CITY","Latitude":"41.60930","Longitude":"-91.50510","Snowdepth":"2.000","Units":"in","Rept_Date":"2019-11-01 12"},"coordinates":[1158,2408]},{"type":"Point","properties":{"Station_ID":"IA-JH-20","Station_Nam":"CORALVILLE 1.4 S, IA","Latitude":"41.67016","Longitude":"-91.60296","Snowdepth":"2.000","Units":"in","Rept_Date":"2019-11-01 13"},"coordinates":[1111,2454]},{"type":"Point","properties":{"Station_ID":"HTLM4","Station_Nam":"SNOW PAID OBSERVER FOR KHTL","Latitude":"44.34470","Longitude":"-84.67730","Snowdepth":"2.000","Units":"in","Rept_Date":"2019-11-02 06"},"coordinates":[4391,4461]},{"type":"Point","properties":{"Station_ID":"HTL","Station_Nam":"ROSCOMMON COUNTY AIRPORT","Latitude":"44.35000","Longitude":"-84.66670","Snowdepth":"2.000","Units":"in","Rept_Date":"2019-11-02 00"},"coordinates":[4396,4465]},{"type":"Point","properties":{"Station_ID":"GLDI2","Station_Nam":"MISSISSIPPI RIVER","Latitude":"40.88330","Longitude":"-91.03330","Snowdepth":"2.000","Units":"in","Rept_Date":"2019-11-01 11"},"coordinates":[1381,1864]},{"type":"Point","properties":{"Station_ID":"FULI4","Station_Nam":"FULTON","Latitude":"42.15730","Longitude":"-90.70620","Snowdepth":"2.000","Units":"in","Rept_Date":"2019-11-01 12"},"coordinates":[1536,2820]},{"type":"Point","properties":{"Station_ID":"FRBI2","Station_Nam":"WATERWORKS","Latitude":"40.73330","Longitude":"-88.51670","Snowdepth":"2.000","Units":"in","Rept_Date":"2019-11-01 12"},"coordinates":[2573,1751]},{"type":"Point","properties":{"Station_ID":"FORW3","Station_Nam":"FORESTVILLE-4E","Latitude":"44.69780","Longitude":"-87.39690","Snowdepth":"2.000","Units":"in","Rept_Date":"2019-11-01 13"},"coordinates":[3103,4726]},{"type":"Point","properties":{"Station_ID":"FLAM4","Station_Nam":"FIFE LAKE 2WNW","Latitude":"44.58480","Longitude":"-85.36530","Snowdepth":"2.000","Units":"in","Rept_Date":"2019-11-01 11"},"coordinates":[4065,4641]},{"type":"Point","properties":{"Station_ID":"FEEI2","Station_Nam":"PECATONICA RIVER","Latitude":"42.30000","Longitude":"-89.61670","Snowdepth":"2.000","Units":"in","Rept_Date":"2019-11-01 12"},"coordinates":[2052,2927]},{"type":"Point","properties":{"Station_ID":"ELGI2","Station_Nam":"ELGIN","Latitude":"42.06280","Longitude":"-88.28610","Snowdepth":"2.000","Units":"in","Rept_Date":"2019-11-01 12"},"coordinates":[2682,2749]},{"type":"Point","properties":{"Station_ID":"CWWI2","Station_Nam":"CITY WATER WORKS WITHIN","Latitude":"41.08330","Longitude":"-88.41670","Snowdepth":"2.000","Units":"in","Rept_Date":"2019-11-01 12"},"coordinates":[2620,2014]},{"type":"Point","properties":{"Station_ID":"CUSW3","Station_Nam":"COLUMBUS","Latitude":"43.32610","Longitude":"-89.00810","Snowdepth":"2.000","Units":"in","Rept_Date":"2019-11-01 12"},"coordinates":[2340,3696]},{"type":"Point","properties":{"Station_ID":"CTYI2","Station_Nam":"COAL CITY","Latitude":"41.34160","Longitude":"-88.29780","Snowdepth":"2.000","Units":"in","Rept_Date":"2019-11-01 12"},"coordinates":[2676,2208]},{"type":"Point","properties":{"Station_ID":"CLIW3","Station_Nam":"CLINTON,WI","Latitude":"42.60000","Longitude":"-88.88330","Snowdepth":"2.000","Units":"in","Rept_Date":"2019-11-01 12"},"coordinates":[2399,3152]},{"type":"Point","properties":{"Station_ID":"CHIW3","Station_Nam":"CHILTON,WI","Latitude":"44.03330","Longitude":"-88.15000","Snowdepth":"2.000","Units":"in","Rept_Date":"2019-11-01 12"},"coordinates":[2746,4227]},{"type":"Point","properties":{"Station_ID":"CBCW3","Station_Nam":"CUBA CITY","Latitude":"42.60010","Longitude":"-90.42370","Snowdepth":"2.000","Units":"in","Rept_Date":"2019-11-01 13"},"coordinates":[1670,3152]},{"type":"Point","properties":{"Station_ID":"CASI4","Station_Nam":"CASCADE","Latitude":"42.29880","Longitude":"-90.99840","Snowdepth":"2.000","Units":"in","Rept_Date":"2019-11-01 12"},"coordinates":[1398,2926]},{"type":"Point","properties":{"Station_ID":"CAN-ON-452","Station_Nam":"CHATSWORTH 1.8 ENE - GSCA, CAN","Latitude":"44.46118","Longitude":"-80.87506","Snowdepth":"2.000","Units":"in","Rept_Date":"2019-11-01 11"},"coordinates":[6191,4548]},{"type":"Point","properties":{"Station_ID":"BTYI2","Station_Nam":"BENTLEY","Latitude":"40.34440","Longitude":"-91.11240","Snowdepth":"2.000","Units":"in","Rept_Date":"2019-11-01 12"},"coordinates":[1344,1460]},{"type":"Point","properties":{"Station_ID":"BDMW3","Station_Nam":"BEAVER DAM 1 N","Latitude":"43.46860","Longitude":"-88.83970","Snowdepth":"2.000","Units":"in","Rept_Date":"2019-11-01 12"},"coordinates":[2420,3803]},{"type":"Point","properties":{"Station_ID":"AUGI2","Station_Nam":"AUGUSTA","Latitude":"40.23330","Longitude":"-90.94710","Snowdepth":"2.000","Units":"in","Rept_Date":"2019-11-01 10"},"coordinates":[1422,1376]},{"type":"Point","properties":{"Station_ID":"AOAI2","Station_Nam":"ALTONA","Latitude":"41.12040","Longitude":"-90.16410","Snowdepth":"2.000","Units":"in","Rept_Date":"2019-11-01 11"},"coordinates":[1793,2042]},{"type":"Point","properties":{"Station_ID":"AMOI4","Station_Nam":"ANAMOSA 3 SSW","Latitude":"42.07630","Longitude":"-91.30190","Snowdepth":"2.000","Units":"in","Rept_Date":"2019-11-01 11"},"coordinates":[1254,2759]},{"type":"Point","properties":{"Station_ID":"ALEI2","Station_Nam":"ALEDO","Latitude":"41.19620","Longitude":"-90.74770","Snowdepth":"2.000","Units":"in","Rept_Date":"2019-11-01 12"},"coordinates":[1516,2099]},{"type":"Point","properties":{"Station_ID":"CATQ6","Station_Nam":"CAT LAKE","Latitude":"51.72690","Longitude":"-91.82210","Snowdepth":"1.730","Units":"in","Rept_Date":"2019-11-02 06"},"coordinates":[1008,9999]},{"type":"Point","properties":{"Station_ID":"IN-PT-18","Station_Nam":"HEBRON 3.7 NE, IN","Latitude":"41.36707","Longitude":"-87.16230","Snowdepth":"1.700","Units":"in","Rept_Date":"2019-11-01 12"},"coordinates":[3214,2227]},{"type":"Point","properties":{"Station_ID":"IA-ST-8","Station_Nam":"BETTENDORF 2.2 SE, IA","Latitude":"41.54013","Longitude":"-90.44920","Snowdepth":"1.700","Units":"in","Rept_Date":"2019-11-01 12"},"coordinates":[1658,2357]},{"type":"Point","properties":{"Station_ID":"WI-SK-15","Station_Nam":"REEDSBURG 1.3 N, WI","Latitude":"43.55348","Longitude":"-89.99739","Snowdepth":"1.500","Units":"in","Rept_Date":"2019-11-01 10"},"coordinates":[1872,3867]},{"type":"Point","properties":{"Station_ID":"WI-CT-4","Station_Nam":"MENASHA 5.4 ESE, WI","Latitude":"44.19640","Longitude":"-88.33070","Snowdepth":"1.500","Units":"in","Rept_Date":"2019-11-01 12"},"coordinates":[2661,4349]},{"type":"Point","properties":{"Station_ID":"MI-GT-21","Station_Nam":"KINGSLEY 2.7 ENE, MI","Latitude":"44.59871","Longitude":"-85.48426","Snowdepth":"1.500","Units":"in","Rept_Date":"2019-11-01 11"},"coordinates":[4009,4651]},{"type":"Point","properties":{"Station_ID":"MI-BZ-1","Station_Nam":"BENZONIA 5.3 S, MI","Latitude":"44.53976","Longitude":"-86.10650","Snowdepth":"1.500","Units":"in","Rept_Date":"2019-11-01 10"},"coordinates":[3714,4607]},{"type":"Point","properties":{"Station_ID":"IL-WL-136","Station_Nam":"CRETE 3.3 ENE FRANKTUARY FARM, IL","Latitude":"41.46631","Longitude":"-87.55438","Snowdepth":"1.500","Units":"in","Rept_Date":"2019-11-01 12"},"coordinates":[3028,2301]},{"type":"Point","properties":{"Station_ID":"IL-MCL-4","Station_Nam":"HEYWORTH 0.6 E, IL","Latitude":"40.31346","Longitude":"-88.96760","Snowdepth":"1.500","Units":"in","Rept_Date":"2019-11-01 13"},"coordinates":[2359,1436]},{"type":"Point","properties":{"Station_ID":"IL-LG-3","Station_Nam":"EMDEN 2.9 SW, IL","Latitude":"40.26433","Longitude":"-89.51790","Snowdepth":"1.500","Units":"in","Rept_Date":"2019-11-01 13"},"coordinates":[2099,1399]},{"type":"Point","properties":{"Station_ID":"IL-KD-24","Station_Nam":"OSWEGO 5.0 SSE, IL","Latitude":"41.62933","Longitude":"-88.29910","Snowdepth":"1.500","Units":"in","Rept_Date":"2019-11-01 12"},"coordinates":[2676,2423]},{"type":"Point","properties":{"Station_ID":"IL-HN-7","Station_Nam":"LA HARPE 0.7 E, IL","Latitude":"40.58490","Longitude":"-90.95710","Snowdepth":"1.500","Units":"in","Rept_Date":"2019-11-01 15"},"coordinates":[1417,1640]},{"type":"Point","properties":{"Station_ID":"IL-DP-38","Station_Nam":"ELMHURST 0.4 SW, IL","Latitude":"41.89346","Longitude":"-87.94850","Snowdepth":"1.500","Units":"in","Rept_Date":"2019-11-01 11"},"coordinates":[2842,2622]},{"type":"Point","properties":{"Station_ID":"IL-DP-102","Station_Nam":"BOLINGBROOK 2.7 NE, IL","Latitude":"41.73019","Longitude":"-88.04479","Snowdepth":"1.500","Units":"in","Rept_Date":"2019-11-01 12"},"coordinates":[2796,2499]},{"type":"Point","properties":{"Station_ID":"IL-CK-98","Station_Nam":"LA GRANGE PARK 0.7 SSW, IL","Latitude":"41.82257","Longitude":"-87.87580","Snowdepth":"1.500","Units":"in","Rept_Date":"2019-11-01 12"},"coordinates":[2876,2568]},{"type":"Point","properties":{"Station_ID":"IL-CK-64","Station_Nam":"HOMEWOOD 0.1 ESE, IL","Latitude":"41.55769","Longitude":"-87.65940","Snowdepth":"1.500","Units":"in","Rept_Date":"2019-11-01 12"},"coordinates":[2979,2370]},{"type":"Point","properties":{"Station_ID":"IL-CK-211","Station_Nam":"OAK LAWN 1.6 WNW, IL","Latitude":"41.72686","Longitude":"-87.77770","Snowdepth":"1.500","Units":"in","Rept_Date":"2019-11-01 13"},"coordinates":[2923,2497]},{"type":"Point","properties":{"Station_ID":"IL-CK-152","Station_Nam":"CHICAGO RIDGE 0.2 WSW, IL","Latitude":"41.70177","Longitude":"-87.78200","Snowdepth":"1.500","Units":"in","Rept_Date":"2019-11-01 12"},"coordinates":[2921,2478]},{"type":"Point","properties":{"Station_ID":"IA-LN-31","Station_Nam":"CEDAR RAPIDS 2.7 NE, IA","Latitude":"42.00070","Longitude":"-91.63260","Snowdepth":"1.500","Units":"in","Rept_Date":"2019-11-01 11"},"coordinates":[1097,2702]},{"type":"Point","properties":{"Station_ID":"IA-DV-10","Station_Nam":"BLOOMFIELD 8.4 NNE, IA","Latitude":"40.85602","Longitude":"-92.34318","Snowdepth":"1.500","Units":"in","Rept_Date":"2019-11-01 12"},"coordinates":[761,1843]},{"type":"Point","properties":{"Station_ID":"41.9034_079.6523","Station_Nam":"CORRY (CLE0230)","Latitude":"41.90340","Longitude":"-79.65230","Snowdepth":"1.500","Units":"in","Rept_Date":"2019-11-01 13"},"coordinates":[6770,2629]},{"type":"Point","properties":{"Station_ID":"MI-MT-8","Station_Nam":"EDMORE 3.8 ESE, MI","Latitude":"43.37974","Longitude":"-84.97319","Snowdepth":"1.400","Units":"in","Rept_Date":"2019-11-01 14"},"coordinates":[4251,3737]},{"type":"Point","properties":{"Station_ID":"IL-WD-8","Station_Nam":"COLETA 1.4 SSW, IL","Latitude":"41.88758","Longitude":"-89.81360","Snowdepth":"1.300","Units":"in","Rept_Date":"2019-11-01 12"},"coordinates":[1959,2617]},{"type":"Point","properties":{"Station_ID":"IA-ST-4","Station_Nam":"DAVENPORT 0.9 SSW, IA","Latitude":"41.52643","Longitude":"-90.58580","Snowdepth":"1.300","Units":"in","Rept_Date":"2019-11-01 12"},"coordinates":[1593,2346]},{"type":"Point","properties":{"Station_ID":"MI-IC-6","Station_Nam":"NATIONAL CITY 4.5 NNE, MI","Latitude":"44.29330","Longitude":"-83.68410","Snowdepth":"1.200","Units":"in","Rept_Date":"2019-11-01 13"},"coordinates":[4861,4422]},{"type":"Point","properties":{"Station_ID":"IL-WL-16","Station_Nam":"HOMER GLEN 0.8 ENE, IL","Latitude":"41.62737","Longitude":"-87.92810","Snowdepth":"1.200","Units":"in","Rept_Date":"2019-11-01 12"},"coordinates":[2851,2422]},{"type":"Point","properties":{"Station_ID":"IL-VR-25","Station_Nam":"HOOPESTON 0.6 E, IL","Latitude":"40.46359","Longitude":"-87.65980","Snowdepth":"1.200","Units":"in","Rept_Date":"2019-11-01 10"},"coordinates":[2978,1549]},{"type":"Point","properties":{"Station_ID":"IL-CP-27","Station_Nam":"CHAMPAIGN 1.2 S, IL","Latitude":"40.09577","Longitude":"-88.26200","Snowdepth":"1.200","Units":"in","Rept_Date":"2019-11-01 13"},"coordinates":[2693,1273]},{"type":"Point","properties":{"Station_ID":"MBGM7","Station_Nam":"MISSOURI BOTANICAL GARDENS","Latitude":"38.61280","Longitude":"-90.26080","Snowdepth":"1.100","Units":"in","Rept_Date":"2019-11-02 06"},"coordinates":[1747,160]},{"type":"Point","properties":{"Station_ID":"YNGI3","Station_Nam":"YOUNG AMERICA,IN","Latitude":"40.56670","Longitude":"-86.33330","Snowdepth":"1.000","Units":"in","Rept_Date":"2019-11-01 12"},"coordinates":[3607,1626]},{"type":"Point","properties":{"Station_ID":"WLBI4","Station_Nam":"WILLIAMSBURG 3 SE","Latitude":"41.64020","Longitude":"-91.97840","Snowdepth":"1.000","Units":"in","Rept_Date":"2019-11-01 12"},"coordinates":[934,2432]},{"type":"Point","properties":{"Station_ID":"WJWI2","Station_Nam":"WESTMONT,IL","Latitude":"41.80000","Longitude":"-87.95000","Snowdepth":"1.000","Units":"in","Rept_Date":"2019-11-01 12"},"coordinates":[2841,2552]},{"type":"Point","properties":{"Station_ID":"WI-WK-60","Station_Nam":"OCONOMOWOC 2.3 WSW, WI","Latitude":"43.08753","Longitude":"-88.53749","Snowdepth":"1.000","Units":"in","Rept_Date":"2019-11-01 22"},"coordinates":[2563,3517]},{"type":"Point","properties":{"Station_ID":"WI-OG-7","Station_Nam":"APPLETON 1.3 N, WI","Latitude":"44.28580","Longitude":"-88.39470","Snowdepth":"1.000","Units":"in","Rept_Date":"2019-11-01 12"},"coordinates":[2631,4416]},{"type":"Point","properties":{"Station_ID":"WASW3","Station_Nam":"WASHINGTON IS","Latitude":"45.35800","Longitude":"-86.89110","Snowdepth":"1.000","Units":"in","Rept_Date":"2019-11-01 12"},"coordinates":[3342,5221]},{"type":"Point","properties":{"Station_ID":"STAI2","Station_Nam":"STREATOR,IL","Latitude":"41.10000","Longitude":"-88.81670","Snowdepth":"1.000","Units":"in","Rept_Date":"2019-11-01 12"},"coordinates":[2431,2026]},{"type":"Point","properties":{"Station_ID":"SNOW2","Station_Nam":"SNOWSHOE","Latitude":"38.39900","Longitude":"-79.99490","Snowdepth":"1.000","Units":"in","Rept_Date":"2019-11-01 10"},"coordinates":[6608,0]},{"type":"Point","properties":{"Station_ID":"SLHI4","Station_Nam":"SALEM 1 S","Latitude":"40.83550","Longitude":"-91.62210","Snowdepth":"1.000","Units":"in","Rept_Date":"2019-11-01 12"},"coordinates":[1102,1828]},{"type":"Point","properties":{"Station_ID":"SIDI2","Station_Nam":"SIDELL 4N","Latitude":"39.96770","Longitude":"-87.82280","Snowdepth":"1.000","Units":"in","Rept_Date":"2019-11-01 12"},"coordinates":[2901,1177]},{"type":"Point","properties":{"Station_ID":"SFDI2","Station_Nam":"SPRINGFIELD 3N","Latitude":"39.83650","Longitude":"-89.62490","Snowdepth":"1.000","Units":"in","Rept_Date":"2019-11-01 12"},"coordinates":[2048,1078]},{"type":"Point","properties":{"Station_ID":"SBNW3","Station_Nam":"STEUBEN 4SE","Latitude":"43.13430","Longitude":"-90.83720","Snowdepth":"1.000","Units":"in","Rept_Date":"2019-11-01 12"},"coordinates":[1474,3553]},{"type":"Point","properties":{"Station_ID":"SAAI2","Station_Nam":"ST ANNE","Latitude":"41.02280","Longitude":"-87.71750","Snowdepth":"1.000","Units":"in","Rept_Date":"2019-11-01 12"},"coordinates":[2951,1968]},{"type":"Point","properties":{"Station_ID":"RDGI3","Station_Nam":"RIDGEVILLE 3SSE","Latitude":"40.25520","Longitude":"-84.99580","Snowdepth":"1.000","Units":"in","Rept_Date":"2019-11-01 11"},"coordinates":[4240,1393]},{"type":"Point","properties":{"Station_ID":"RBGW3","Station_Nam":"REEDSBURG","Latitude":"43.52060","Longitude":"-89.99970","Snowdepth":"1.000","Units":"in","Rept_Date":"2019-11-01 13"},"coordinates":[1871,3842]},{"type":"Point","properties":{"Station_ID":"PNCI3","Station_Nam":"PENCE","Latitude":"40.35220","Longitude":"-87.52500","Snowdepth":"1.000","Units":"in","Rept_Date":"2019-11-01 11"},"coordinates":[3042,1465]},{"type":"Point","properties":{"Station_ID":"PKFI2","Station_Nam":"PARK FOREST,IL","Latitude":"41.50000","Longitude":"-87.68330","Snowdepth":"1.000","Units":"in","Rept_Date":"2019-11-01 10"},"coordinates":[2967,2326]},{"type":"Point","properties":{"Station_ID":"PHLI2","Station_Nam":"PHILO","Latitude":"40.00630","Longitude":"-88.15320","Snowdepth":"1.000","Units":"in","Rept_Date":"2019-11-01 12"},"coordinates":[2745,1206]},{"type":"Point","properties":{"Station_ID":"OH-GG-7","Station_Nam":"MIDDLEFIELD 0.6 NE, OH","Latitude":"41.46438","Longitude":"-81.06520","Snowdepth":"1.000","Units":"in","Rept_Date":"2019-11-01 12"},"coordinates":[6101,2300]},{"type":"Point","properties":{"Station_ID":"OGDI2","Station_Nam":"OGDEN","Latitude":"40.11000","Longitude":"-87.95670","Snowdepth":"1.000","Units":"in","Rept_Date":"2019-11-01 11"},"coordinates":[2838,1284]},{"type":"Point","properties":{"Station_ID":"NWFM4","Station_Nam":"NW MICHIGAN RESEARCH FARM","Latitude":"44.88300","Longitude":"-85.67520","Snowdepth":"1.000","Units":"in","Rept_Date":"2019-11-01 12"},"coordinates":[3918,4865]},{"type":"Point","properties":{"Station_ID":"MORI3","Station_Nam":"MOROCCO,IN","Latitude":"40.96670","Longitude":"-87.45000","Snowdepth":"1.000","Units":"in","Rept_Date":"2019-11-01 11"},"coordinates":[3078,1926]},{"type":"Point","properties":{"Station_ID":"MKX","Station_Nam":"MILWAUKEE, WI","Latitude":"42.96810","Longitude":"-88.54920","Snowdepth":"1.000","Units":"in","Rept_Date":"2019-11-02 05"},"coordinates":[2557,3428]},{"type":"Point","properties":{"Station_ID":"MKTI4","Station_Nam":"MAQUOKETA","Latitude":"42.07710","Longitude":"-90.66470","Snowdepth":"1.000","Units":"in","Rept_Date":"2019-11-01 12"},"coordinates":[1556,2759]},{"type":"Point","properties":{"Station_ID":"MI-PI-1","Station_Nam":"ROGERS CITY 0.2 WSW, MI","Latitude":"45.41740","Longitude":"-83.81060","Snowdepth":"1.000","Units":"in","Rept_Date":"2019-11-01 12"},"coordinates":[4801,5265]},{"type":"Point","properties":{"Station_ID":"MI-OT-4","Station_Nam":"GAYLORD 1.7 WNW, MI","Latitude":"45.03280","Longitude":"-84.71090","Snowdepth":"1.000","Units":"in","Rept_Date":"2019-11-01 12"},"coordinates":[4375,4977]},{"type":"Point","properties":{"Station_ID":"MI-ME-10","Station_Nam":"MECOSTA 4.6 SSW, MI","Latitude":"43.56269","Longitude":"-85.28063","Snowdepth":"1.000","Units":"in","Rept_Date":"2019-11-01 12"},"coordinates":[4105,3874]},{"type":"Point","properties":{"Station_ID":"MCTI4","Station_Nam":"MUSCATINE","Latitude":"41.40760","Longitude":"-91.07270","Snowdepth":"1.000","Units":"in","Rept_Date":"2019-11-01 12"},"coordinates":[1362,2257]},{"type":"Point","properties":{"Station_ID":"MANW3","Station_Nam":"MANITOWOC","Latitude":"44.08690","Longitude":"-87.65220","Snowdepth":"1.000","Units":"in","Rept_Date":"2019-11-01 23"},"coordinates":[2982,4267]},{"type":"Point","properties":{"Station_ID":"LTVN6","Station_Nam":"LITTLE VALLEY","Latitude":"42.24730","Longitude":"-78.81250","Snowdepth":"1.000","Units":"in","Rept_Date":"2019-11-01 11"},"coordinates":[7168,2887]},{"type":"Point","properties":{"Station_ID":"LNSI2","Station_Nam":"LANSING","Latitude":"41.54220","Longitude":"-87.54170","Snowdepth":"1.000","Units":"in","Rept_Date":"2019-11-01 12"},"coordinates":[3034,2358]},{"type":"Point","properties":{"Station_ID":"KEQI4","Station_Nam":"KEOSAUQUA,IA","Latitude":"40.73330","Longitude":"-91.96670","Snowdepth":"1.000","Units":"in","Rept_Date":"2019-11-01 12"},"coordinates":[939,1751]},{"type":"Point","properties":{"Station_ID":"IN-TP-28","Station_Nam":"LAFAYETTE 2.2 NE, IN","Latitude":"40.43626","Longitude":"-86.84420","Snowdepth":"1.000","Units":"in","Rept_Date":"2019-11-01 11"},"coordinates":[3365,1528]},{"type":"Point","properties":{"Station_ID":"IN-NW-1","Station_Nam":"MOUNT AYR 1.6 NNE, IN","Latitude":"40.97330","Longitude":"-87.29050","Snowdepth":"1.000","Units":"in","Rept_Date":"2019-11-01 13"},"coordinates":[3153,1931]},{"type":"Point","properties":{"Station_ID":"IN-HW-3","Station_Nam":"KOKOMO 4.6 ESE, IN","Latitude":"40.45279","Longitude":"-86.05080","Snowdepth":"1.000","Units":"in","Rept_Date":"2019-11-01 11"},"coordinates":[3740,1541]},{"type":"Point","properties":{"Station_ID":"IN-CR-9","Station_Nam":"BURLINGTON 0.1 NNE, IN","Latitude":"40.48347","Longitude":"-86.39605","Snowdepth":"1.000","Units":"in","Rept_Date":"2019-11-01 11"},"coordinates":[3577,1564]},{"type":"Point","properties":{"Station_ID":"IN-CL-14","Station_Nam":"FRANKFORT 4.9 NNE, IN","Latitude":"40.35030","Longitude":"-86.48670","Snowdepth":"1.000","Units":"in","Rept_Date":"2019-11-01 11"},"coordinates":[3534,1464]},{"type":"Point","properties":{"Station_ID":"IN-BL-7","Station_Nam":"HARTFORD CITY 4.8 NW, IN","Latitude":"40.50690","Longitude":"-85.42750","Snowdepth":"1.000","Units":"in","Rept_Date":"2019-11-01 11"},"coordinates":[4036,1581]},{"type":"Point","properties":{"Station_ID":"IL-JD-6","Station_Nam":"HANOVER 0.2 NW, IL","Latitude":"42.25640","Longitude":"-90.28109","Snowdepth":"1.000","Units":"in","Rept_Date":"2019-11-01 12"},"coordinates":[1737,2894]},{"type":"Point","properties":{"Station_ID":"IL-CS-3","Station_Nam":"ARENZVILLE 5.3 NNE, IL","Latitude":"39.94836","Longitude":"-90.32800","Snowdepth":"1.000","Units":"in","Rept_Date":"2019-11-01 12"},"coordinates":[1715,1162]},{"type":"Point","properties":{"Station_ID":"IL-CP-95","Station_Nam":"URBANA 4.2 ESE, IL","Latitude":"40.09450","Longitude":"-88.12820","Snowdepth":"1.000","Units":"in","Rept_Date":"2019-11-01 12"},"coordinates":[2757,1272]},{"type":"Point","properties":{"Station_ID":"IL-CP-64","Station_Nam":"CHAMPAIGN 2.4 SSE, IL","Latitude":"40.08401","Longitude":"-88.24030","Snowdepth":"1.000","Units":"in","Rept_Date":"2019-11-01 13"},"coordinates":[2704,1264]},{"type":"Point","properties":{"Station_ID":"IL-CP-62","Station_Nam":"CHAMPAIGN 2.5 S, IL","Latitude":"40.07678","Longitude":"-88.26670","Snowdepth":"1.000","Units":"in","Rept_Date":"2019-11-01 12"},"coordinates":[2691,1259]},{"type":"Point","properties":{"Station_ID":"IL-CP-58","Station_Nam":"URBANA 0.9 SSE, IL","Latitude":"40.09540","Longitude":"-88.20020","Snowdepth":"1.000","Units":"in","Rept_Date":"2019-11-01 12"},"coordinates":[2723,1273]},{"type":"Point","properties":{"Station_ID":"IL-CP-109","Station_Nam":"SAVOY 0.6 SSE, IL","Latitude":"40.05658","Longitude":"-88.24892","Snowdepth":"1.000","Units":"in","Rept_Date":"2019-11-01 12"},"coordinates":[2700,1244]},{"type":"Point","properties":{"Station_ID":"IL-CP-108","Station_Nam":"URBANA 2.3 SSE, IL","Latitude":"40.07741","Longitude":"-88.18891","Snowdepth":"1.000","Units":"in","Rept_Date":"2019-11-01 13"},"coordinates":[2728,1259]},{"type":"Point","properties":{"Station_ID":"IL-CK-296","Station_Nam":"CHICAGO HEIGHTS 2.4 NNW, IL","Latitude":"41.54277","Longitude":"-87.65407","Snowdepth":"1.000","Units":"in","Rept_Date":"2019-11-01 13"},"coordinates":[2981,2359]},{"type":"Point","properties":{"Station_ID":"IL-CK-285","Station_Nam":"HARWOOD HEIGHTS 0.4 NNE, IL","Latitude":"41.97154","Longitude":"-87.80325","Snowdepth":"1.000","Units":"in","Rept_Date":"2019-11-01 12"},"coordinates":[2911,2680]},{"type":"Point","properties":{"Station_ID":"IL-CK-121","Station_Nam":"PALATINE 1.3 E, IL","Latitude":"42.11385","Longitude":"-88.01780","Snowdepth":"1.000","Units":"in","Rept_Date":"2019-11-01 13"},"coordinates":[2809,2787]},{"type":"Point","properties":{"Station_ID":"IA-DV-7","Station_Nam":"BLOOMFIELD 4.2 WNW, IA","Latitude":"40.77675","Longitude":"-92.48850","Snowdepth":"1.000","Units":"in","Rept_Date":"2019-11-01 12"},"coordinates":[692,1784]},{"type":"Point","properties":{"Station_ID":"IA-DV-1","Station_Nam":"BLOOMFIELD 9.4 NNE, IA","Latitude":"40.87464","Longitude":"-92.35238","Snowdepth":"1.000","Units":"in","Rept_Date":"2019-11-01 12"},"coordinates":[756,1857]},{"type":"Point","properties":{"Station_ID":"IA-AP-8","Station_Nam":"CENTERVILLE 5.6 NE, IA","Latitude":"40.79636","Longitude":"-92.81251","Snowdepth":"1.000","Units":"in","Rept_Date":"2019-11-01 12"},"coordinates":[539,1799]},{"type":"Point","properties":{"Station_ID":"HVAI2","Station_Nam":"HAVANA","Latitude":"40.30300","Longitude":"-90.06470","Snowdepth":"1.000","Units":"in","Rept_Date":"2019-11-01 11"},"coordinates":[1840,1428]},{"type":"Point","properties":{"Station_ID":"HRSM4","Station_Nam":"HARRISVILLE 2NNE","Latitude":"44.68190","Longitude":"-83.28080","Snowdepth":"1.000","Units":"in","Rept_Date":"2019-11-01 12"},"coordinates":[5052,4714]},{"type":"Point","properties":{"Station_ID":"HNPI2","Station_Nam":"HENNEPIN","Latitude":"41.25390","Longitude":"-89.33810","Snowdepth":"1.000","Units":"in","Rept_Date":"2019-11-01 22"},"coordinates":[2184,2142]},{"type":"Point","properties":{"Station_ID":"HALM4","Station_Nam":"LOUD DAM","Latitude":"44.46250","Longitude":"-83.72190","Snowdepth":"1.000","Units":"in","Rept_Date":"2019-11-01 13"},"coordinates":[4843,4549]},{"type":"Point","properties":{"Station_ID":"GGRM4","Station_Nam":"GREEN GARDEN NO.2","Latitude":"46.45330","Longitude":"-87.30380","Snowdepth":"1.000","Units":"in","Rept_Date":"2019-11-01 10"},"coordinates":[3147,6043]},{"type":"Point","properties":{"Station_ID":"GAYM4","Station_Nam":"GAYLORD","Latitude":"45.03320","Longitude":"-84.71130","Snowdepth":"1.000","Units":"in","Rept_Date":"2019-11-01 12"},"coordinates":[4375,4977]},{"type":"Point","properties":{"Station_ID":"FRFI4","Station_Nam":"FAIRFIELD","Latitude":"41.02100","Longitude":"-91.95530","Snowdepth":"1.000","Units":"in","Rept_Date":"2019-11-01 13"},"coordinates":[945,1967]},{"type":"Point","properties":{"Station_ID":"FLOI3","Station_Nam":"FLORA","Latitude":"40.54050","Longitude":"-86.52330","Snowdepth":"1.000","Units":"in","Rept_Date":"2019-11-01 11"},"coordinates":[3517,1607]},{"type":"Point","properties":{"Station_ID":"EZBI2","Station_Nam":"ELIZABETH","Latitude":"42.31620","Longitude":"-90.22690","Snowdepth":"1.000","Units":"in","Rept_Date":"2019-11-01 11"},"coordinates":[1763,2939]},{"type":"Point","properties":{"Station_ID":"DUBI4","Station_Nam":"DUBUQUE #3","Latitude":"42.40870","Longitude":"-90.73250","Snowdepth":"1.000","Units":"in","Rept_Date":"2019-11-02 00"},"coordinates":[1524,3008]},{"type":"Point","properties":{"Station_ID":"DBQ","Station_Nam":"DUBUQUE REGIONAL AIRPORT","Latitude":"42.40310","Longitude":"-90.70920","Snowdepth":"1.000","Units":"in","Rept_Date":"2019-11-02 00"},"coordinates":[1535,3004]},{"type":"Point","properties":{"Station_ID":"CSSM4","Station_Nam":"CASS CITY,MI","Latitude":"43.58330","Longitude":"-83.18330","Snowdepth":"1.000","Units":"in","Rept_Date":"2019-11-01 10"},"coordinates":[5098,3889]},{"type":"Point","properties":{"Station_ID":"CRPI3","Station_Nam":"WASTE WATER FACILITY","Latitude":"41.43330","Longitude":"-87.35000","Snowdepth":"1.000","Units":"in","Rept_Date":"2019-11-01 12"},"coordinates":[3125,2276]},{"type":"Point","properties":{"Station_ID":"CGGI4","Station_Nam":"COGGON","Latitude":"42.27920","Longitude":"-91.52500","Snowdepth":"1.000","Units":"in","Rept_Date":"2019-11-01 11"},"coordinates":[1148,2911]},{"type":"Point","properties":{"Station_ID":"CAN-ON-5","Station_Nam":"OWEN SOUND 1.5 NW - GSCA, CAN","Latitude":"44.57837","Longitude":"-80.95461","Snowdepth":"1.000","Units":"in","Rept_Date":"2019-11-01 12"},"coordinates":[6153,4636]},{"type":"Point","properties":{"Station_ID":"BUNM4","Station_Nam":"BURTON 4N","Latitude":"43.06750","Longitude":"-83.59190","Snowdepth":"1.000","Units":"in","Rept_Date":"2019-11-01 11"},"coordinates":[4905,3502]},{"type":"Point","properties":{"Station_ID":"BRLW3","Station_Nam":"BRILLION,WI","Latitude":"44.18330","Longitude":"-88.06670","Snowdepth":"1.000","Units":"in","Rept_Date":"2019-11-01 11"},"coordinates":[2786,4340]},{"type":"Point","properties":{"Station_ID":"BOUI2","Station_Nam":"BOURBONNAIS,IL","Latitude":"41.16670","Longitude":"-87.91670","Snowdepth":"1.000","Units":"in","Rept_Date":"2019-11-01 12"},"coordinates":[2857,2076]},{"type":"Point","properties":{"Station_ID":"BGGW3","Station_Nam":"GREEN BAY,WI","Latitude":"44.53170","Longitude":"-88.09720","Snowdepth":"1.000","Units":"in","Rept_Date":"2019-11-01 12"},"coordinates":[2771,4601]},{"type":"Point","properties":{"Station_ID":"BABW3","Station_Nam":"BARABOO WWTP","Latitude":"43.48330","Longitude":"-89.63330","Snowdepth":"1.000","Units":"in","Rept_Date":"2019-11-01 12"},"coordinates":[2044,3814]},{"type":"Point","properties":{"Station_ID":"APXM4","Station_Nam":"GAYLORD 9SSW","Latitude":"44.90720","Longitude":"-84.71880","Snowdepth":"1.000","Units":"in","Rept_Date":"2019-11-02 06"},"coordinates":[4371,4883]},{"type":"Point","properties":{"Station_ID":"APPW3","Station_Nam":"APPLETON","Latitude":"44.27690","Longitude":"-88.43770","Snowdepth":"1.000","Units":"in","Rept_Date":"2019-11-01 11"},"coordinates":[2610,4410]},{"type":"Point","properties":{"Station_ID":"APN","Station_Nam":"PHELPS COLLINS FIELD","Latitude":"45.07810","Longitude":"-83.56030","Snowdepth":"1.000","Units":"in","Rept_Date":"2019-11-02 00"},"coordinates":[4920,5011]},