{"type":"Topology","objects":{"snowdepth_geo":{"type":"GeometryCollection","name":"snowdepth","crs":{"type":"name","properties":{"name":"urn:ogc:def:crs:OGC:1.3:CRS84"}},"geometries":[{"type":"Point","properties":{"Station_ID":"PRKM4","Station_Nam":"MUNISING EAST","Latitude":"46.42580","Longitude":"-86.62000","Snowdepth":"76.500","Units":"in","Rept_Date":"2020-03-17 06"},"coordinates":[2749,5621]},{"type":"Point","properties":{"Station_ID":"OGIQ6","Station_Nam":"OGOKI CAMP","Latitude":"50.76680","Longitude":"-87.85820","Snowdepth":"61.100","Units":"in","Rept_Date":"2020-03-17 06"},"coordinates":[2429,9206]},{"type":"Point","properties":{"Station_ID":"HTLN3","Station_Nam":"HERMIT LAKE SNOWPLOT","Latitude":"44.26130","Longitude":"-71.28330","Snowdepth":"61.000","Units":"in","Rept_Date":"2020-03-16 09"},"coordinates":[6720,3833]},{"type":"Point","properties":{"Station_ID":"PDLM4","Station_Nam":"PAINESDALE","Latitude":"47.04160","Longitude":"-88.67170","Snowdepth":"49.000","Units":"in","Rept_Date":"2020-03-16 12"},"coordinates":[2218,6129]},{"type":"Point","properties":{"Station_ID":"CLUM4","Station_Nam":"CALUMET-TAMARACK","Latitude":"47.24550","Longitude":"-88.46790","Snowdepth":"49.000","Units":"in","Rept_Date":"2020-03-16 13"},"coordinates":[2271,6298]},{"type":"Point","properties":{"Station_ID":"AUDQ6","Station_Nam":"AUDEN","Latitude":"48.52600","Longitude":"-82.57570","Snowdepth":"47.640","Units":"in","Rept_Date":"2020-03-17 06"},"coordinates":[3796,7355]},{"type":"Point","properties":{"Station_ID":"DVLQ6","Station_Nam":"DEVIOUS LAKE","Latitude":"49.19890","Longitude":"-87.76440","Snowdepth":"43.460","Units":"in","Rept_Date":"2020-03-17 06"},"coordinates":[2453,7911]},{"type":"Point","properties":{"Station_ID":"KSGM4","Station_Nam":"KEARSARGE","Latitude":"47.27520","Longitude":"-88.41700","Snowdepth":"38.000","Units":"in","Rept_Date":"2020-03-16 12"},"coordinates":[2284,6322]},{"type":"Point","properties":{"Station_ID":"ME-AR-18","Station_Nam":"NEW SWEDEN 4.9 NNW, ME","Latitude":"47.01080","Longitude":"-68.14390","Snowdepth":"37.000","Units":"in","Rept_Date":"2020-03-16 12"},"coordinates":[7533,6104]},{"type":"Point","properties":{"Station_ID":"CAN-NS-39","Station_Nam":"ST. ANNS 2.8 NW, CA","Latitude":"46.25082","Longitude":"-60.64340","Snowdepth":"37.000","Units":"in","Rept_Date":"2020-03-16 12"},"coordinates":[9475,5476]},{"type":"Point","properties":{"Station_ID":"WLFM5","Station_Nam":"WOLF RIDGE ENVIRON LEARNING CENTER","Latitude":"47.38240","Longitude":"-91.19730","Snowdepth":"35.000","Units":"in","Rept_Date":"2020-03-16 12"},"coordinates":[1564,6411]},{"type":"Point","properties":{"Station_ID":"QNCM4","Station_Nam":"QUINCY HILL","Latitude":"47.13640","Longitude":"-88.57950","Snowdepth":"35.000","Units":"in","Rept_Date":"2020-03-16 12"},"coordinates":[2242,6208]},{"type":"Point","properties":{"Station_ID":"MNSM4","Station_Nam":"MUNISING","Latitude":"46.41210","Longitude":"-86.66250","Snowdepth":"35.000","Units":"in","Rept_Date":"2020-03-16 10"},"coordinates":[2738,5609]},{"type":"Point","properties":{"Station_ID":"CAN-NB-105","Station_Nam":"SISSON BROOK 3.8 E, CAN","Latitude":"46.98305","Longitude":"-67.32532","Snowdepth":"33.300","Units":"in","Rept_Date":"2020-03-16 12"},"coordinates":[7745,6081]},{"type":"Point","properties":{"Station_ID":"VANM1","Station_Nam":"VAN BUREN","Latitude":"47.16600","Longitude":"-67.93900","Snowdepth":"33.000","Units":"in","Rept_Date":"2020-03-16 11"},"coordinates":[7586,6232]},{"type":"Point","properties":{"Station_ID":"PTLQ6","Station_Nam":"PORTAGE LAKE","Latitude":"49.06950","Longitude":"-86.65940","Snowdepth":"32.640","Units":"in","Rept_Date":"2020-03-17 06"},"coordinates":[2739,7804]},{"type":"Point","properties":{"Station_ID":"CAN-QC-47","Station_Nam":"SAINTE-FOY 1.8 ENE, CAN","Latitude":"46.76934","Longitude":"-71.27124","Snowdepth":"32.100","Units":"in","Rept_Date":"2020-03-16 12"},"coordinates":[6723,5904]},{"type":"Point","properties":{"Station_ID":"MQT","Station_Nam":"MARQUETTE, MI","Latitude":"46.53140","Longitude":"-87.54920","Snowdepth":"32.000","Units":"in","Rept_Date":"2020-03-17 06"},"coordinates":[2509,5708]},{"type":"Point","properties":{"Station_ID":"FISM1","Station_Nam":"FORT KENT COOP","Latitude":"47.23850","Longitude":"-68.61240","Snowdepth":"32.000","Units":"in","Rept_Date":"2020-03-16 11"},"coordinates":[7412,6292]},{"type":"Point","properties":{"Station_ID":"CAN-NL-65","Station_Nam":"KIPPENS 0.7 NE, CA","Latitude":"48.55436","Longitude":"-58.61850","Snowdepth":"32.000","Units":"in","Rept_Date":"2020-03-16 12"},"coordinates":[9999,7379]},{"type":"Point","properties":{"Station_ID":"CAN-NB-13","Station_Nam":"BATHURST 3.8 NW, CAN","Latitude":"47.64212","Longitude":"-65.68756","Snowdepth":"32.000","Units":"in","Rept_Date":"2020-03-16 09"},"coordinates":[8169,6625]},{"type":"Point","properties":{"Station_ID":"MI-KW-2","Station_Nam":"DELAWARE 5.2 SW, MI","Latitude":"47.36928","Longitude":"-88.17919","Snowdepth":"31.000","Units":"in","Rept_Date":"2020-03-16 09"},"coordinates":[2346,6400]},{"type":"Point","properties":{"Station_ID":"CARM1","Station_Nam":"CARIBOU WFO","Latitude":"46.86810","Longitude":"-68.01250","Snowdepth":"31.000","Units":"in","Rept_Date":"2020-03-17 04"},"coordinates":[7567,5986]},{"type":"Point","properties":{"Station_ID":"MI-BG-3","Station_Nam":"L'ANSE 17.8 SE, MI","Latitude":"46.55730","Longitude":"-88.20770","Snowdepth":"30.700","Units":"in","Rept_Date":"2020-03-16 13"},"coordinates":[2338,5729]},{"type":"Point","properties":{"Station_ID":"STEM4","Station_Nam":"STEUBEN","Latitude":"46.18530","Longitude":"-86.46410","Snowdepth":"30.000","Units":"in","Rept_Date":"2020-03-16 13"},"coordinates":[2790,5422]},{"type":"Point","properties":{"Station_ID":"CAN-NB-11","Station_Nam":"MIRAMICHI 3.3 S, CAN","Latitude":"46.99343","Longitude":"-65.50690","Snowdepth":"30.000","Units":"in","Rept_Date":"2020-03-16 12"},"coordinates":[8216,6089]},{"type":"Point","properties":{"Station_ID":"TWOM5","Station_Nam":"TWO HARBORS,MN","Latitude":"47.12580","Longitude":"-91.70750","Snowdepth":"29.000","Units":"in","Rept_Date":"2020-03-17 00"},"coordinates":[1432,6199]},{"type":"Point","properties":{"Station_ID":"HERM4","Station_Nam":"HERMAN,MI","Latitude":"46.65000","Longitude":"-88.33330","Snowdepth":"29.000","Units":"in","Rept_Date":"2020-03-16 12"},"coordinates":[2306,5806]},{"type":"Point","properties":{"Station_ID":"MI-HG-6","Station_Nam":"CALUMET 5.8 ENE, MI","Latitude":"47.27200","Longitude":"-88.33400","Snowdepth":"28.000","Units":"in","Rept_Date":"2020-03-16 11"},"coordinates":[2305,6320]},{"type":"Point","properties":{"Station_ID":"SVBQ6","Station_Nam":"SAVANT BASE","Latitude":"50.28730","Longitude":"-90.65670","Snowdepth":"27.480","Units":"in","Rept_Date":"2020-03-17 06"},"coordinates":[1704,8810]},{"type":"Point","properties":{"Station_ID":"TRIQ6","Station_Nam":"TRIO LAKE","Latitude":"49.22880","Longitude":"-87.22920","Snowdepth":"27.320","Units":"in","Rept_Date":"2020-03-17 06"},"coordinates":[2592,7936]},{"type":"Point","properties":{"Station_ID":"KISM4","Station_Nam":"K.I. SAWYER WWTP","Latitude":"46.33410","Longitude":"-87.37790","Snowdepth":"27.000","Units":"in","Rept_Date":"2020-03-16 12"},"coordinates":[2553,5545]},{"type":"Point","properties":{"Station_ID":"IBLM5","Station_Nam":"ISABELLA 14W","Latitude":"47.59360","Longitude":"-91.65140","Snowdepth":"27.000","Units":"in","Rept_Date":"2020-03-16 14"},"coordinates":[1447,6585]},{"type":"Point","properties":{"Station_ID":"NWCM4","Station_Nam":"NEWBERRY CITY","Latitude":"46.35720","Longitude":"-85.51780","Snowdepth":"26.000","Units":"in","Rept_Date":"2020-03-16 11"},"coordinates":[3035,5564]},{"type":"Point","properties":{"Station_ID":"SOCQ6","Station_Nam":"SOCKET LAKE","Latitude":"50.77870","Longitude":"-91.79300","Snowdepth":"24.170","Units":"in","Rept_Date":"2020-03-17 06"},"coordinates":[1410,9216]},{"type":"Point","properties":{"Station_ID":"WRPW3","Station_Nam":"WATER PURIFICATION PLANT","Latitude":"44.38800","Longitude":"-89.80550","Snowdepth":"24.000","Units":"in","Rept_Date":"2020-03-16 11"},"coordinates":[1924,3938]},{"type":"Point","properties":{"Station_ID":"CAN-NB-96","Station_Nam":"SAINT-IGNACE 2.6 NE, CAN","Latitude":"46.71424","Longitude":"-65.05609","Snowdepth":"23.600","Units":"in","Rept_Date":"2020-03-16 11"},"coordinates":[8332,5859]},{"type":"Point","properties":{"Station_ID":"KABQ6","Station_Nam":"CAB LAKE","Latitude":"49.59950","Longitude":"-89.17990","Snowdepth":"23.540","Units":"in","Rept_Date":"2020-03-17 06"},"coordinates":[2086,8242]},{"type":"Point","properties":{"Station_ID":"MN-CK-18","Station_Nam":"GRAND MARAIS 4.4 WSW, MN","Latitude":"47.74462","Longitude":"-90.43796","Snowdepth":"23.500","Units":"in","Rept_Date":"2020-03-16 13"},"coordinates":[1761,6710]},{"type":"Point","properties":{"Station_ID":"LILM1","Station_Nam":"LILLE","Latitude":"47.27770","Longitude":"-68.10520","Snowdepth":"23.000","Units":"in","Rept_Date":"2020-03-16 11"},"coordinates":[7543,6324]},{"type":"Point","properties":{"Station_ID":"WI-VL-10","Station_Nam":"LAND O LAKES 4.3 WNW, WI","Latitude":"46.17440","Longitude":"-89.30380","Snowdepth":"22.000","Units":"in","Rept_Date":"2020-03-16 13"},"coordinates":[2054,5413]},{"type":"Point","properties":{"Station_ID":"GNFM5","Station_Nam":"GUNFLINT LAKE","Latitude":"48.16670","Longitude":"-90.88750","Snowdepth":"22.000","Units":"in","Rept_Date":"2020-03-16 12"},"coordinates":[1644,7058]},{"type":"Point","properties":{"Station_ID":"CRVW3","Station_Nam":"CRIVITZ HIGH FALLS","Latitude":"45.35750","Longitude":"-88.19190","Snowdepth":"22.000","Units":"in","Rept_Date":"2020-03-16 12"},"coordinates":[2342,4738]},{"type":"Point","properties":{"Station_ID":"CATQ6","Station_Nam":"CAT LAKE","Latitude":"51.72690","Longitude":"-91.82210","Snowdepth":"21.340","Units":"in","Rept_Date":"2020-03-17 06"},"coordinates":[1402,9999]},{"type":"Point","properties":{"Station_ID":"WI-VL-9","Station_Nam":"LAND O' LAKES 11.7 W, WI","Latitude":"46.19023","Longitude":"-89.45790","Snowdepth":"21.000","Units":"in","Rept_Date":"2020-03-16 13"},"coordinates":[2014,5426]},{"type":"Point","properties":{"Station_ID":"LNOW3","Station_Nam":"LAND O LAKES","Latitude":"46.19000","Longitude":"-89.45700","Snowdepth":"21.000","Units":"in","Rept_Date":"2020-03-16 12"},"coordinates":[2015,5426]},{"type":"Point","properties":{"Station_ID":"INL","Station_Nam":"FALLS INTERNATIONAL ARPT","Latitude":"48.56640","Longitude":"-93.40310","Snowdepth":"21.000","Units":"in","Rept_Date":"2020-03-17 00"},"coordinates":[993,7389]},{"type":"Point","properties":{"Station_ID":"IFSM5","Station_Nam":"INTERNATIONAL FALLS SNOW","Latitude":"48.57780","Longitude":"-93.39640","Snowdepth":"21.000","Units":"in","Rept_Date":"2020-03-16 12"},"coordinates":[995,7398]},{"type":"Point","properties":{"Station_ID":"ANJM4","Station_Nam":"SNOW PAID OBSERVER FOR KANJ","Latitude":"46.48670","Longitude":"-84.40260","Snowdepth":"21.000","Units":"in","Rept_Date":"2020-03-17 06"},"coordinates":[3323,5671]},{"type":"Point","properties":{"Station_ID":"SUAW3","Station_Nam":"SUAMICO","Latitude":"44.60190","Longitude":"-88.09780","Snowdepth":"20.000","Units":"in","Rept_Date":"2020-03-16 11"},"coordinates":[2367,4114]},{"type":"Point","properties":{"Station_ID":"SSMM4","Station_Nam":"SAULT STE MARIE","Latitude":"46.48660","Longitude":"-84.40250","Snowdepth":"20.000","Units":"in","Rept_Date":"2020-03-16 12"},"coordinates":[3323,5671]},{"type":"Point","properties":{"Station_ID":"PDGM4","Station_Nam":"PAULDING","Latitude":"46.39760","Longitude":"-89.17940","Snowdepth":"20.000","Units":"in","Rept_Date":"2020-03-16 13"},"coordinates":[2087,5597]},{"type":"Point","properties":{"Station_ID":"NOHM5","Station_Nam":"NORTHOME","Latitude":"47.83590","Longitude":"-94.25550","Snowdepth":"20.000","Units":"in","Rept_Date":"2020-03-16 12"},"coordinates":[772,6785]},{"type":"Point","properties":{"Station_ID":"MN-IT-23","Station_Nam":"BOVEY 13.4 N, MN","Latitude":"47.48855","Longitude":"-93.43497","Snowdepth":"20.000","Units":"in","Rept_Date":"2020-03-16 13"},"coordinates":[985,6498]},{"type":"Point","properties":{"Station_ID":"ME-PN-45","Station_Nam":"MILLINOCKET 2.7 ESE, ME","Latitude":"45.65002","Longitude":"-68.64472","Snowdepth":"20.000","Units":"in","Rept_Date":"2020-03-16 12"},"coordinates":[7403,4980]},{"type":"Point","properties":{"Station_ID":"GLDM4","Station_Nam":"GLADSTONE NO. 2","Latitude":"45.84330","Longitude":"-87.03910","Snowdepth":"20.000","Units":"in","Rept_Date":"2020-03-16 11"},"coordinates":[2641,5140]},{"type":"Point","properties":{"Station_ID":"EVRW3","Station_Nam":"EAGLE RIVER-4 E","Latitude":"45.91890","Longitude":"-89.15280","Snowdepth":"20.000","Units":"in","Rept_Date":"2020-03-16 12"},"coordinates":[2093,5202]},{"type":"Point","properties":{"Station_ID":"CAN-NB-18","Station_Nam":"MCLEOD HILL 1.1 ENE, CA","Latitude":"46.02725","Longitude":"-66.67460","Snowdepth":"20.000","Units":"in","Rept_Date":"2020-03-16 12"},"coordinates":[7913,5291]},{"type":"Point","properties":{"Station_ID":"BRAM1","Station_Nam":"BRASSUA DAM","Latitude":"45.66020","Longitude":"-69.81190","Snowdepth":"20.000","Units":"in","Rept_Date":"2020-03-16 11"},"coordinates":[7101,4988]},{"type":"Point","properties":{"Station_ID":"ANJ","Station_Nam":"SAULT STE MARIE","Latitude":"46.46670","Longitude":"-84.36670","Snowdepth":"20.000","Units":"in","Rept_Date":"2020-03-17 00"},"coordinates":[3333,5654]},{"type":"Point","properties":{"Station_ID":"MN-IT-17","Station_Nam":"GRAND RAPIDS 6.1 N, MN","Latitude":"47.31165","Longitude":"-93.55036","Snowdepth":"19.500","Units":"in","Rept_Date":"2020-03-16 13"},"coordinates":[955,6352]},{"type":"Point","properties":{"Station_ID":"CAN-ON-220","Station_Nam":"DEEP RIVER 1.5 SE - MNRF, CAN","Latitude":"46.09592","Longitude":"-77.47853","Snowdepth":"19.300","Units":"in","Rept_Date":"2020-03-16 13"},"coordinates":[5116,5348]},{"type":"Point","properties":{"Station_ID":"RLWM5","Station_Nam":"CAMP NORRIS DNR","Latitude":"48.61000","Longitude":"-95.18170","Snowdepth":"19.000","Units":"in","Rept_Date":"2020-03-16 13"},"coordinates":[533,7425]},{"type":"Point","properties":{"Station_ID":"RKWM1","Station_Nam":"MOOSEHEAD LAKE","Latitude":"45.58330","Longitude":"-69.71670","Snowdepth":"19.000","Units":"in","Rept_Date":"2020-03-16 11"},"coordinates":[7126,4925]},{"type":"Point","properties":{"Station_ID":"KABM5","Station_Nam":"KABETOGAMA LAKE VISITOR CTR","Latitude":"48.40880","Longitude":"-93.04840","Snowdepth":"19.000","Units":"in","Rept_Date":"2020-03-16 12"},"coordinates":[1085,7258]},{"type":"Point","properties":{"Station_ID":"IWOM4","Station_Nam":"IRONWOOD#2","Latitude":"46.46520","Longitude":"-90.13820","Snowdepth":"19.000","Units":"in","Rept_Date":"2020-03-16 12"},"coordinates":[1838,5653]},{"type":"Point","properties":{"Station_ID":"ELYM5","Station_Nam":"ELY","Latitude":"47.90560","Longitude":"-91.82830","Snowdepth":"19.000","Units":"in","Rept_Date":"2020-03-16 13"},"coordinates":[1401,6843]},{"type":"Point","properties":{"Station_ID":"CLQM5","Station_Nam":"CLOQUET","Latitude":"46.70470","Longitude":"-92.52530","Snowdepth":"19.000","Units":"in","Rept_Date":"2020-03-16 13"},"coordinates":[1220,5851]},{"type":"Point","properties":{"Station_ID":"CEFM4","Station_Nam":"EXPERIMENT FARM #2","Latitude":"46.33330","Longitude":"-86.91670","Snowdepth":"19.000","Units":"in","Rept_Date":"2020-03-16 12"},"coordinates":[2672,5544]},{"type":"Point","properties":{"Station_ID":"VT-OL-12","Station_Nam":"GREENSBORO 3.9 NNE, VT","Latitude":"44.63100","Longitude":"-72.28000","Snowdepth":"18.500","Units":"in","Rept_Date":"2020-03-16 14"},"coordinates":[6462,4138]},{"type":"Point","properties":{"Station_ID":"WNBM5","Station_Nam":"DAM","Latitude":"47.43060","Longitude":"-94.05000","Snowdepth":"18.000","Units":"in","Rept_Date":"2020-03-16 13"},"coordinates":[826,6451]},{"type":"Point","properties":{"Station_ID":"WI-VL-14","Station_Nam":"BOULDER JUNCTION 1.4 NE, WI","Latitude":"46.12840","Longitude":"-89.62470","Snowdepth":"18.000","Units":"in","Rept_Date":"2020-03-16 13"},"coordinates":[1971,5375]},{"type":"Point","properties":{"Station_ID":"RGNM1","Station_Nam":"RANGELEY 2NW","Latitude":"44.98940","Longitude":"-70.67220","Snowdepth":"18.000","Units":"in","Rept_Date":"2020-03-16 10"},"coordinates":[6878,4434]},{"type":"Point","properties":{"Station_ID":"PRDM4","Station_Nam":"PARADISE","Latitude":"46.60380","Longitude":"-85.03960","Snowdepth":"18.000","Units":"in","Rept_Date":"2020-03-16 10"},"coordinates":[3158,5768]},{"type":"Point","properties":{"Station_ID":"NH-CS-10","Station_Nam":"RANDOLPH 1.4 NE, NH","Latitude":"44.38824","Longitude":"-71.26950","Snowdepth":"18.000","Units":"in","Rept_Date":"2020-03-16 12"},"coordinates":[6724,3938]},{"type":"Point","properties":{"Station_ID":"LVDW3","Station_Nam":"LAC VIEUX DESERT","Latitude":"46.12110","Longitude":"-89.07580","Snowdepth":"18.000","Units":"in","Rept_Date":"2020-03-16 14"},"coordinates":[2113,5369]},{"type":"Point","properties":{"Station_ID":"DFXM1","Station_Nam":"DOVER-FOXCROFT","Latitude":"45.18720","Longitude":"-69.18350","Snowdepth":"18.000","Units":"in","Rept_Date":"2020-03-16 11"},"coordinates":[7264,4598]},{"type":"Point","properties":{"Station_ID":"CSLM5","Station_Nam":"CASS LAKE,MN","Latitude":"47.38470","Longitude":"-94.61470","Snowdepth":"18.000","Units":"in","Rept_Date":"2020-03-16 13"},"coordinates":[679,6413]},{"type":"Point","properties":{"Station_ID":"BBEM4","Station_Nam":"BIG BAY 9SW","Latitude":"46.74620","Longitude":"-87.88160","Snowdepth":"18.000","Units":"in","Rept_Date":"2020-03-16 12"},"coordinates":[2423,5885]},{"type":"Point","properties":{"Station_ID":"CAN-PE-19","Station_Nam":"CHARLOTTETOWN 6.5 NNW, CAN","Latitude":"46.29235","Longitude":"-63.17271","Snowdepth":"17.900","Units":"in","Rept_Date":"2020-03-16 12"},"coordinates":[8820,5510]},{"type":"Point","properties":{"Station_ID":"VT-CL-3","Station_Nam":"GROTON 4.4 WSW, VT","Latitude":"44.19440","Longitude":"-72.28240","Snowdepth":"17.500","Units":"in","Rept_Date":"2020-03-16 11"},"coordinates":[6461,3778]},{"type":"Point","properties":{"Station_ID":"WI-BY-2","Station_Nam":"MELLEN 18.6 SW, WI","Latitude":"46.16937","Longitude":"-90.98090","Snowdepth":"17.000","Units":"in","Rept_Date":"2020-03-16 13"},"coordinates":[1620,5409]},{"type":"Point","properties":{"Station_ID":"STGW3","Station_Nam":"ST GERMAIN","Latitude":"45.91550","Longitude":"-89.48940","Snowdepth":"17.000","Units":"in","Rept_Date":"2020-03-16 11"},"coordinates":[2006,5199]},{"type":"Point","properties":{"Station_ID":"RPDM4","Station_Nam":"RAPID RIVER 4SSE","Latitude":"45.87270","Longitude":"-86.94960","Snowdepth":"17.000","Units":"in","Rept_Date":"2020-03-16 13"},"coordinates":[2664,5164]},{"type":"Point","properties":{"Station_ID":"MNV905PW","Station_Nam":"ROOSEVELT 5.3 N","Latitude":"48.87933","Longitude":"-95.08224","Snowdepth":"17.000","Units":"in","Rept_Date":"2020-03-16 12"},"coordinates":[558,7647]},{"type":"Point","properties":{"Station_ID":"HURW3","Station_Nam":"HURLEY","Latitude":"46.46250","Longitude":"-90.19550","Snowdepth":"17.000","Units":"in","Rept_Date":"2020-03-16 13"},"coordinates":[1824,5651]},{"type":"Point","properties":{"Station_ID":"HRVM4","Station_Nam":"HARVEY","Latitude":"46.49080","Longitude":"-87.35470","Snowdepth":"17.000","Units":"in","Rept_Date":"2020-03-16 11"},"coordinates":[2559,5674]},{"type":"Point","properties":{"Station_ID":"EMBM5","Station_Nam":"EMBARASS,MN","Latitude":"47.65810","Longitude":"-92.19580","Snowdepth":"17.000","Units":"in","Rept_Date":"2020-03-16 11"},"coordinates":[1306,6638]},{"type":"Point","properties":{"Station_ID":"DLHM5","Station_Nam":"DULUTH NWS","Latitude":"46.83680","Longitude":"-92.21080","Snowdepth":"17.000","Units":"in","Rept_Date":"2020-03-17 06"},"coordinates":[1302,5960]},{"type":"Point","properties":{"Station_ID":"DLH","Station_Nam":"DULUTH, MN","Latitude":"46.83690","Longitude":"-92.21030","Snowdepth":"17.000","Units":"in","Rept_Date":"2020-03-17 00"},"coordinates":[1302,5960]},{"type":"Point","properties":{"Station_ID":"CRLM5","Station_Nam":"CROSS LAKE DAM","Latitude":"46.66930","Longitude":"-94.11060","Snowdepth":"17.000","Units":"in","Rept_Date":"2020-03-16 13"},"coordinates":[810,5822]},{"type":"Point","properties":{"Station_ID":"CMKW3","Station_Nam":"CLAM LAKE 4W","Latitude":"46.16940","Longitude":"-90.98080","Snowdepth":"17.000","Units":"in","Rept_Date":"2020-03-16 12"},"coordinates":[1620,5409]},{"type":"Point","properties":{"Station_ID":"CAN-NS-60","Station_Nam":"SYDNEY FORKS, CAN","Latitude":"46.05645","Longitude":"-60.31510","Snowdepth":"17.000","Units":"in","Rept_Date":"2020-03-16 12"},"coordinates":[9560,5316]},{"type":"Point","properties":{"Station_ID":"BNDM5","Station_Nam":"ELY 25E","Latitude":"47.97190","Longitude":"-91.44860","Snowdepth":"17.000","Units":"in","Rept_Date":"2020-03-16 12"},"coordinates":[1499,6898]},{"type":"Point","properties":{"Station_ID":"CAN-MB-298","Station_Nam":"GARDENTON 4.2 W - SRRCD, CAN","Latitude":"49.09480","Longitude":"-96.75446","Snowdepth":"16.900","Units":"in","Rept_Date":"2020-03-16 14"},"coordinates":[125,7825]},{"type":"Point","properties":{"Station_ID":"MN-IT-7","Station_Nam":"GRAND RAPIDS 6.2 SSW, MN","Latitude":"47.13687","Longitude":"-93.56660","Snowdepth":"16.600","Units":"in","Rept_Date":"2020-03-16 12"},"coordinates":[951,6208]},{"type":"Point","properties":{"Station_ID":"MI-CP-14","Station_Nam":"SAULT STE. MARIE 2.2 E, MI","Latitude":"46.48933","Longitude":"-84.31971","Snowdepth":"16.500","Units":"in","Rept_Date":"2020-03-16 12"},"coordinates":[3345,5673]},{"type":"Point","properties":{"Station_ID":"WTNM4","Station_Nam":"WATTON 2WSW","Latitude":"46.52660","Longitude":"-88.64240","Snowdepth":"16.000","Units":"in","Rept_Date":"2020-03-16 12"},"coordinates":[2226,5704]},{"type":"Point","properties":{"Station_ID":"WI-ON-8","Station_Nam":"HAZELHURST 2.1 SSE, WI","Latitude":"45.78186","Longitude":"-89.70330","Snowdepth":"16.000","Units":"in","Rept_Date":"2020-03-16 13"},"coordinates":[1951,5089]},{"type":"Point","properties":{"Station_ID":"WI-BY-22","Station_Nam":"MASON 11.5 WNW, WI","Latitude":"46.50198","Longitude":"-91.28339","Snowdepth":"16.000","Units":"in","Rept_Date":"2020-03-16 14"},"coordinates":[1542,5684]},{"type":"Point","properties":{"Station_ID":"TOGM5","Station_Nam":"CELINA 2E","Latitude":"47.86630","Longitude":"-93.02660","Snowdepth":"16.000","Units":"in","Rept_Date":"2020-03-16 13"},"coordinates":[1091,6810]},{"type":"Point","properties":{"Station_ID":"MN-SL-15","Station_Nam":"CHISHOLM 0.4 WSW, MN","Latitude":"47.48557","Longitude":"-92.88690","Snowdepth":"16.000","Units":"in","Rept_Date":"2020-03-16 13"},"coordinates":[1127,6496]},{"type":"Point","properties":{"Station_ID":"MN-SL-105","Station_Nam":"DULUTH 11.8 NNE, MN","Latitude":"46.94680","Longitude":"-92.03925","Snowdepth":"16.000","Units":"in","Rept_Date":"2020-03-16 13"},"coordinates":[1346,6051]},{"type":"Point","properties":{"Station_ID":"MIEM4","Station_Nam":"MICHIGAMME 3WNW","Latitude":"46.54530","Longitude":"-88.18000","Snowdepth":"16.000","Units":"in","Rept_Date":"2020-03-16 12"},"coordinates":[2345,5719]},{"type":"Point","properties":{"Station_ID":"MI-GG-4","Station_Nam":"WATERSMEET 5.0 SE, MI","Latitude":"46.20333","Longitude":"-89.13170","Snowdepth":"16.000","Units":"in","Rept_Date":"2020-03-16 14"},"coordinates":[2099,5437]},{"type":"Point","properties":{"Station_ID":"LEIM5","Station_Nam":"ORR 3E","Latitude":"48.05810","Longitude":"-92.75220","Snowdepth":"16.000","Units":"in","Rept_Date":"2020-03-16 11"},"coordinates":[1162,6969]},{"type":"Point","properties":{"Station_ID":"JKMM1","Station_Nam":"JACKMAN","Latitude":"45.62600","Longitude":"-70.24600","Snowdepth":"16.000","Units":"in","Rept_Date":"2020-03-16 11"},"coordinates":[6989,4960]},{"type":"Point","properties":{"Station_ID":"INDM5","Station_Nam":"INDUS,MN","Latitude":"48.61670","Longitude":"-93.90000","Snowdepth":"16.000","Units":"in","Rept_Date":"2020-03-16 13"},"coordinates":[864,7430]},{"type":"Point","properties":{"Station_ID":"GGRM4","Station_Nam":"GREEN GARDEN NO.2","Latitude":"46.45330","Longitude":"-87.30380","Snowdepth":"16.000","Units":"in","Rept_Date":"2020-03-16 12"},"coordinates":[2572,5643]},{"type":"Point","properties":{"Station_ID":"CAN-NB-2","Station_Nam":"GRAFTON 2.7 NNE, CA","Latitude":"46.17062","Longitude":"-67.55330","Snowdepth":"16.000","Units":"in","Rept_Date":"2020-03-16 10"},"coordinates":[7686,5410]},{"type":"Point","properties":{"Station_ID":"WI-DG-15","Station_Nam":"SUPERIOR 14.8 S, WI","Latitude":"46.48255","Longitude":"-92.07011","Snowdepth":"15.500","Units":"in","Rept_Date":"2020-03-16 13"},"coordinates":[1338,5667]},{"type":"Point","properties":{"Station_ID":"FTHQ6","Station_Nam":"FORT HOPE","Latitude":"51.55820","Longitude":"-87.90510","Snowdepth":"15.040","Units":"in","Rept_Date":"2020-03-17 06"},"coordinates":[2417,9860]},{"type":"Point","properties":{"Station_ID":"WI-IR-3","Station_Nam":"PENCE 0.1 E, WI","Latitude":"46.41555","Longitude":"-90.27013","Snowdepth":"15.000","Units":"in","Rept_Date":"2020-03-16 13"},"coordinates":[1804,5612]},{"type":"Point","properties":{"Station_ID":"WI-DG-20","Station_Nam":"SOLON SPRINGS 1.2 W, WI","Latitude":"46.35217","Longitude":"-91.84405","Snowdepth":"15.000","Units":"in","Rept_Date":"2020-03-16 13"},"coordinates":[1397,5560]},{"type":"Point","properties":{"Station_ID":"TUPN6","Station_Nam":"TUPPER LAKE SNOW COURSE","Latitude":"44.10560","Longitude":"-74.53440","Snowdepth":"15.000","Units":"in","Rept_Date":"2020-03-16 16"},"coordinates":[5878,3704]},{"type":"Point","properties":{"Station_ID":"THRM5","Station_Nam":"THORHULT,MN","Latitude":"48.21670","Longitude":"-95.25000","Snowdepth":"15.000","Units":"in","Rept_Date":"2020-03-16 22"},"coordinates":[515,7100]},{"type":"Point","properties":{"Station_ID":"MI-DL-1","Station_Nam":"GARDEN CORNERS 0.8 NW, MI","Latitude":"45.89815","Longitude":"-86.54850","Snowdepth":"15.000","Units":"in","Rept_Date":"2020-03-16 13"},"coordinates":[2768,5185]},{"type":"Point","properties":{"Station_ID":"JCBM4","Station_Nam":"JACOBSVILLE","Latitude":"47.00830","Longitude":"-88.43180","Snowdepth":"15.000","Units":"in","Rept_Date":"2020-03-16 11"},"coordinates":[2280,6102]},{"type":"Point","properties":{"Station_ID":"HRSN6","Station_Nam":"HORSESHOE LAKE SNOW COURSE","Latitude":"44.13920","Longitude":"-74.57000","Snowdepth":"15.000","Units":"in","Rept_Date":"2020-03-16 16"},"coordinates":[5869,3732]},{"type":"Point","properties":{"Station_ID":"GHMN3","Station_Nam":"PINKHAM NOTCH","Latitude":"44.25800","Longitude":"-71.25250","Snowdepth":"15.000","Units":"in","Rept_Date":"2020-03-16 10"},"coordinates":[6728,3830]},{"type":"Point","properties":{"Station_ID":"GDCM4","Station_Nam":"GARDEN CORNERS","Latitude":"45.89830","Longitude":"-86.54850","Snowdepth":"15.000","Units":"in","Rept_Date":"2020-03-16 12"},"coordinates":[2768,5185]},{"type":"Point","properties":{"Station_ID":"ERG36","Station_Nam":"NMPS TUPPER LAKE","Latitude":"44.12000","Longitude":"-74.55000","Snowdepth":"15.000","Units":"in","Rept_Date":"2020-03-16 16"},"coordinates":[5874,3716]},{"type":"Point","properties":{"Station_ID":"ERG18","Station_Nam":"NMPS HORSESHOE LAKE","Latitude":"44.15000","Longitude":"-74.60000","Snowdepth":"15.000","Units":"in","Rept_Date":"2020-03-16 16"},"coordinates":[5861,3741]},{"type":"Point","properties":{"Station_ID":"COKM5","Station_Nam":"COOK","Latitude":"47.85060","Longitude":"-92.69250","Snowdepth":"15.000","Units":"in","Rept_Date":"2020-03-16 11"},"coordinates":[1177,6797]},{"type":"Point","properties":{"Station_ID":"CAN-NS-103","Station_Nam":"TRAFALGAR 4.9 WSW, CAN","Latitude":"45.26217","Longitude":"-62.72285","Snowdepth":"15.000","Units":"in","Rept_Date":"2020-03-16 12"},"coordinates":[8936,4660]},{"type":"Point","properties":{"Station_ID":"WI-BY-14","Station_Nam":"ASHLAND 9.8 W, WI","Latitude":"46.59742","Longitude":"-91.07856","Snowdepth":"14.500","Units":"in","Rept_Date":"2020-03-16 12"},"coordinates":[1595,5762]},{"type":"Point","properties":{"Station_ID":"MN-CS-1","Station_Nam":"PILLAGER 5.1 N, MN","Latitude":"46.40250","Longitude":"-94.46310","Snowdepth":"14.500","Units":"in","Rept_Date":"2020-03-16 13"},"coordinates":[719,5601]},{"type":"Point","properties":{"Station_ID":"MN-BK-6","Station_Nam":"LAKE PARK 6.0 S, MN","Latitude":"46.79850","Longitude":"-96.12180","Snowdepth":"14.500","Units":"in","Rept_Date":"2020-03-16 13"},"coordinates":[289,5928]},{"type":"Point","properties":{"Station_ID":"WRSM5","Station_Nam":"WRENSHALL","Latitude":"46.61550","Longitude":"-92.38380","Snowdepth":"14.000","Units":"in","Rept_Date":"2020-03-16 13"},"coordinates":[1257,5777]},{"type":"Point","properties":{"Station_ID":"NSNM1","Station_Nam":"NEW SHARON","Latitude":"44.63330","Longitude":"-70.00000","Snowdepth":"14.000","Units":"in","Rept_Date":"2020-03-16 12"},"coordinates":[7052,4140]},{"type":"Point","properties":{"Station_ID":"MN-SL-108","Station_Nam":"IRON JUNCTION 3.4 NNW, MN","Latitude":"47.46150","Longitude":"-92.63130","Snowdepth":"14.000","Units":"in","Rept_Date":"2020-03-16 13"},"coordinates":[1193,6476]},{"type":"Point","properties":{"Station_ID":"MN-IT-19","Station_Nam":"COHASSET 7.6 NNW, MN","Latitude":"47.34204","Longitude":"-93.69765","Snowdepth":"14.000","Units":"in","Rept_Date":"2020-03-16 13"},"coordinates":[917,6377]},{"type":"Point","properties":{"Station_ID":"MN-IT-1","Station_Nam":"GRAND RAPIDS 2.0 E, MN","Latitude":"47.22266","Longitude":"-93.49600","Snowdepth":"14.000","Units":"in","Rept_Date":"2020-03-16 12"},"coordinates":[969,6279]},{"type":"Point","properties":{"Station_ID":"LPLN6","Station_Nam":"LAKE PLACID 2 S","Latitude":"44.30420","Longitude":"-73.98390","Snowdepth":"14.000","Units":"in","Rept_Date":"2020-03-16 12"},"coordinates":[6021,3868]},{"type":"Point","properties":{"Station_ID":"KMWN","Station_Nam":"MOUNT WASHINGTON","Latitude":"44.26666","Longitude":"-71.30000","Snowdepth":"14.000","Units":"in","Rept_Date":"2020-03-17 06"},"coordinates":[6716,3837]},{"type":"Point","properties":{"Station_ID":"KINM1","Station_Nam":"KINGFIELD","Latitude":"44.95950","Longitude":"-70.17530","Snowdepth":"14.000","Units":"in","Rept_Date":"2020-03-16 11"},"coordinates":[7007,4410]},{"type":"Point","properties":{"Station_ID":"IRMM4","Station_Nam":"WWTP","Latitude":"46.46670","Longitude":"-90.18330","Snowdepth":"14.000","Units":"in","Rept_Date":"2020-03-16 12"},"coordinates":[1827,5654]},{"type":"Point","properties":{"Station_ID":"IMNM4","Station_Nam":"IRON MOUTAIN 5N","Latitude":"45.87580","Longitude":"-88.04030","Snowdepth":"14.000","Units":"in","Rept_Date":"2020-03-17 00"},"coordinates":[2382,5166]},{"type":"Point","properties":{"Station_ID":"FEDM5","Station_Nam":"LEECH LAKE DAM","Latitude":"47.24670","Longitude":"-94.22280","Snowdepth":"14.000","Units":"in","Rept_Date":"2020-03-16 13"},"coordinates":[781,6299]},{"type":"Point","properties":{"Station_ID":"CAN-MB-32","Station_Nam":"PINAWA 1.0 SW, CA","Latitude":"50.14747","Longitude":"-95.89020","Snowdepth":"14.000","Units":"in","Rept_Date":"2020-03-16 13"},"coordinates":[349,8694]},{"type":"Point","properties":{"Station_ID":"AVTW3","Station_Nam":"ARBOR VITAE-JOHNSON LAKE","Latitude":"45.89940","Longitude":"-89.72670","Snowdepth":"14.000","Units":"in","Rept_Date":"2020-03-16 11"},"coordinates":[1945,5186]},{"type":"Point","properties":{"Station_ID":"AMAM4","Station_Nam":"AMASA 1W","Latitude":"46.23470","Longitude":"-88.45440","Snowdepth":"14.000","Units":"in","Rept_Date":"2020-03-16 13"},"coordinates":[2274,5463]},{"type":"Point","properties":{"Station_ID":"CAN-ON-757","Station_Nam":"SAULT STE. MARIE 2.8 ESE - GLFC, CAN","Latitude":"46.50300","Longitude":"-84.30300","Snowdepth":"13.800","Units":"in","Rept_Date":"2020-03-16 13"},"coordinates":[3349,5684]},{"type":"Point","properties":{"Station_ID":"CAN-MB-368","Station_Nam":"WHITESHELL 1.3 NE, CAN","Latitude":"49.74405","Longitude":"-95.19123","Snowdepth":"13.200","Units":"in","Rept_Date":"2020-03-16 14"},"coordinates":[530,8361]},{"type":"Point","properties":{"Station_ID":"CAN-NB-16","Station_Nam":"DORCHESTER 1.0 SSE, CAN","Latitude":"45.89160","Longitude":"-64.51269","Snowdepth":"13.100","Units":"in","Rept_Date":"2020-03-16 11"},"coordinates":[8473,5179]},{"type":"Point","properties":{"Station_ID":"VT-BN-12","Station_Nam":"STAMFORD 5.0 NNE, VT","Latitude":"42.82000","Longitude":"-73.02000","Snowdepth":"13.000","Units":"in","Rept_Date":"2020-03-16 21"},"coordinates":[6270,2642]},{"type":"Point","properties":{"Station_ID":"TAKW3","Station_Nam":"RICE RESERVOIR NO. 2","Latitude":"45.53770","Longitude":"-89.73220","Snowdepth":"13.000","Units":"in","Rept_Date":"2020-03-16 12"},"coordinates":[1943,4887]},{"type":"Point","properties":{"Station_ID":"SUTV1","Station_Nam":"SUTTON","Latitude":"44.61220","Longitude":"-72.04810","Snowdepth":"13.000","Units":"in","Rept_Date":"2020-03-16 12"},"coordinates":[6522,4123]},{"type":"Point","properties":{"Station_ID":"RANM1","Station_Nam":"RANGELEY","Latitude":"44.98910","Longitude":"-70.67190","Snowdepth":"13.000","Units":"in","Rept_Date":"2020-03-16 10"},"coordinates":[6878,4434]},{"type":"Point","properties":{"Station_ID":"NY-ES-6","Station_Nam":"OLMSTEDVILLE 4.6 NNE, NY","Latitude":"43.83350","Longitude":"-73.89780","Snowdepth":"13.000","Units":"in","Rept_Date":"2020-03-16 13"},"coordinates":[6043,3480]},{"type":"Point","properties":{"Station_ID":"MWN","Station_Nam":"MOUNT WASHINGTON","Latitude":"44.26670","Longitude":"-71.30000","Snowdepth":"13.000","Units":"in","Rept_Date":"2020-03-17 04"},"coordinates":[6716,3837]},{"type":"Point","properties":{"Station_ID":"MN6JKRHL","Station_Nam":"TOFTE 0.6 SSW","Latitude":"47.56557","Longitude":"-90.84117","Snowdepth":"13.000","Units":"in","Rept_Date":"2020-03-16 12"},"coordinates":[1656,6562]},{"type":"Point","properties":{"Station_ID":"MN-CK-6","Station_Nam":"GRAND MARAIS 4.4 W, MN","Latitude":"47.74865","Longitude":"-90.43760","Snowdepth":"13.000","Units":"in","Rept_Date":"2020-03-16 13"},"coordinates":[1761,6713]},{"type":"Point","properties":{"Station_ID":"MN-BM-12","Station_Nam":"TURTLE RIVER 3.6 E, MN","Latitude":"47.57983","Longitude":"-94.68242","Snowdepth":"13.000","Units":"in","Rept_Date":"2020-03-16 13"},"coordinates":[662,6574]},{"type":"Point","properties":{"Station_ID":"MI-DL-4","Station_Nam":"GLADSTONE 2.1 SW, MI","Latitude":"45.83218","Longitude":"-87.05727","Snowdepth":"13.000","Units":"in","Rept_Date":"2020-03-16 12"},"coordinates":[2636,5130]},{"type":"Point","properties":{"Station_ID":"GRBM5","Station_Nam":"GRAND RAPIDS 12N","Latitude":"47.39800","Longitude":"-93.51330","Snowdepth":"13.000","Units":"in","Rept_Date":"2020-03-16 12"},"coordinates":[965,6424]},{"type":"Point","properties":{"Station_ID":"ERG06","Station_Nam":"NMPS CARRY FALLS","Latitude":"42.43000","Longitude":"-74.75000","Snowdepth":"13.000","Units":"in","Rept_Date":"2020-03-16 16"},"coordinates":[5822,2320]},{"type":"Point","properties":{"Station_ID":"CLKM4","Station_Nam":"CLARKSBURG","Latitude":"46.49910","Longitude":"-87.84500","Snowdepth":"13.000","Units":"in","Rept_Date":"2020-03-16 11"},"coordinates":[2432,5681]},{"type":"Point","properties":{"Station_ID":"CAN-NB-97","Station_Nam":"NEW MARYLAND 0.6 NW, CAN","Latitude":"45.90112","Longitude":"-66.68739","Snowdepth":"13.000","Units":"in","Rept_Date":"2020-03-16 11"},"coordinates":[7910,5187]},{"type":"Point","properties":{"Station_ID":"CAN-MB-133","Station_Nam":"ST PIERRE JOLYS 2.5 NW, CA","Latitude":"49.45872","Longitude":"-97.00620","Snowdepth":"13.000","Units":"in","Rept_Date":"2020-03-16 14"},"coordinates":[60,8126]},{"type":"Point","properties":{"Station_ID":"CAFN6","Station_Nam":"CARRY FALLS RESERVOIR SNOW COURSE","Latitude":"44.34640","Longitude":"-74.72720","Snowdepth":"13.000","Units":"in","Rept_Date":"2020-03-16 16"},"coordinates":[5828,3903]},{"type":"Point","properties":{"Station_ID":"AURW3","Station_Nam":"AURORA","Latitude":"45.77000","Longitude":"-88.11810","Snowdepth":"13.000","Units":"in","Rept_Date":"2020-03-16 12"},"coordinates":[2361,5079]},{"type":"Point","properties":{"Station_ID":"AGNW3","Station_Nam":"ARGONNE-1.5 NW","Latitude":"45.67360","Longitude":"-88.90380","Snowdepth":"13.000","Units":"in","Rept_Date":"2020-03-16 12"},"coordinates":[2158,4999]},{"type":"Point","properties":{"Station_ID":"NH-CR-15","Station_Nam":"JACKSON 3.7 NW, NH","Latitude":"44.19069","Longitude":"-71.22598","Snowdepth":"12.500","Units":"in","Rept_Date":"2020-03-16 12"},"coordinates":[6735,3775]},{"type":"Point","properties":{"Station_ID":"MN-IT-11","Station_Nam":"NASHWAUK 11.5 N, MN","Latitude":"47.54496","Longitude":"-93.19420","Snowdepth":"12.500","Units":"in","Rept_Date":"2020-03-16 13"},"coordinates":[1047,6545]},{"type":"Point","properties":{"Station_ID":"ZNOM4","Station_Nam":"NORWAY","Latitude":"45.77810","Longitude":"-87.89560","Snowdepth":"12.000","Units":"in","Rept_Date":"2020-03-16 12"},"coordinates":[2419,5086]},{"type":"Point","properties":{"Station_ID":"WI-TY-3","Station_Nam":"MEDFORD 0.8 ENE, WI","Latitude":"45.14421","Longitude":"-90.33349","Snowdepth":"12.000","Units":"in","Rept_Date":"2020-03-16 14"},"coordinates":[1788,4562]},{"type":"Point","properties":{"Station_ID":"PTBN3","Station_Nam":"PITTSBURG RESERVOIR","Latitude":"45.04690","Longitude":"-71.38300","Snowdepth":"12.000","Units":"in","Rept_Date":"2020-03-16 12"},"coordinates":[6694,4482]},{"type":"Point","properties":{"Station_ID":"PRNW3","Station_Nam":"PRENTICE,WI","Latitude":"45.54780","Longitude":"-90.30000","Snowdepth":"12.000","Units":"in","Rept_Date":"2020-03-16 13"},"coordinates":[1796,4895]},{"type":"Point","properties":{"Station_ID":"PKGM5","Station_Nam":"POKEGANA LK DAM","Latitude":"47.25080","Longitude":"-93.58610","Snowdepth":"12.000","Units":"in","Rept_Date":"2020-03-16 13"},"coordinates":[946,6302]},{"type":"Point","properties":{"Station_ID":"MRAM4","Station_Nam":"MORAN","Latitude":"45.99030","Longitude":"-84.83610","Snowdepth":"12.000","Units":"in","Rept_Date":"2020-03-16 12"},"coordinates":[3211,5261]},{"type":"Point","properties":{"Station_ID":"ME-FR-4","Station_Nam":"NEW SHARON 2.0 NW, ME","Latitude":"44.66582","Longitude":"-70.02720","Snowdepth":"12.000","Units":"in","Rept_Date":"2020-03-16 12"},"coordinates":[7045,4167]},{"type":"Point","properties":{"Station_ID":"LBKV1","Station_Nam":"LYE BROOK","Latitude":"43.05000","Longitude":"-73.03330","Snowdepth":"12.000","Units":"in","Rept_Date":"2020-03-17 06"},"coordinates":[6267,2832]},{"type":"Point","properties":{"Station_ID":"GALN6","Station_Nam":"GALE SNOW COURSE","Latitude":"44.27220","Longitude":"-74.62970","Snowdepth":"12.000","Units":"in","Rept_Date":"2020-03-16 16"},"coordinates":[5854,3842]},{"type":"Point","properties":{"Station_ID":"ERG16","Station_Nam":"NMPS GALE","Latitude":"44.27000","Longitude":"-74.63000","Snowdepth":"12.000","Units":"in","Rept_Date":"2020-03-16 16"},"coordinates":[5854,3840]},{"type":"Point","properties":{"Station_ID":"CAN-PE-3","Station_Nam":"WELLINGTON 1.6 NE, CA","Latitude":"46.46672","Longitude":"-63.98920","Snowdepth":"12.000","Units":"in","Rept_Date":"2020-03-16 11"},"coordinates":[8608,5654]},{"type":"Point","properties":{"Station_ID":"AVLV1","Station_Nam":"AVERILL","Latitude":"45.00570","Longitude":"-71.69030","Snowdepth":"12.000","Units":"in","Rept_Date":"2020-03-16 12"},"coordinates":[6615,4448]},{"type":"Point","properties":{"Station_ID":"MN-PK-15","Station_Nam":"MENTOR 2.5 SSW, MN","Latitude":"47.66625","Longitude":"-96.17328","Snowdepth":"11.500","Units":"in","Rept_Date":"2020-03-16 13"},"coordinates":[276,6645]},{"type":"Point","properties":{"Station_ID":"MN-CW-22","Station_Nam":"FORT RIPLEY 0.8 N, MN","Latitude":"46.18089","Longitude":"-94.36510","Snowdepth":"11.500","Units":"in","Rept_Date":"2020-03-16 13"},"coordinates":[744,5418]},{"type":"Point","properties":{"Station_ID":"MN-AT-4","Station_Nam":"MCGREGOR 7.3 N, MN","Latitude":"46.71375","Longitude":"-93.28850","Snowdepth":"11.500","Units":"in","Rept_Date":"2020-03-16 13"},"coordinates":[1023,5858]},{"type":"Point","properties":{"Station_ID":"MI-AT-6","Station_Nam":"MANCELONA 0.5 ESE, MI","Latitude":"44.89981","Longitude":"-85.05100","Snowdepth":"11.500","Units":"in","Rept_Date":"2020-03-16 13"},"coordinates":[3155,4360]},{"type":"Point","properties":{"Station_ID":"WTRM4","Station_Nam":"WATERSMEET 12WSW","Latitude":"46.22310","Longitude":"-89.40850","Snowdepth":"11.000","Units":"in","Rept_Date":"2020-03-16 11"},"coordinates":[2027,5453]},{"type":"Point","properties":{"Station_ID":"WI-SR-1","Station_Nam":"HAYWARD 9.2 NNE, WI","Latitude":"46.13255","Longitude":"-91.40500","Snowdepth":"11.000","Units":"in","Rept_Date":"2020-03-16 12"},"coordinates":[1510,5378]},{"type":"Point","properties":{"Station_ID":"VT-WS-15","Station_Nam":"EAST CALAIS 1.5 SW, VT","Latitude":"44.35523","Longitude":"-72.45540","Snowdepth":"11.000","Units":"in","Rept_Date":"2020-03-16 12"},"coordinates":[6417,3910]},{"type":"Point","properties":{"Station_ID":"RHIW3","Station_Nam":"RHINELANDER","Latitude":"45.59860","Longitude":"-89.45080","Snowdepth":"11.000","Units":"in","Rept_Date":"2020-03-16 12"},"coordinates":[2016,4937]},{"type":"Point","properties":{"Station_ID":"MN7M8EBJ","Station_Nam":"LUTSEN 15.7 NNW","Latitude":"47.85324","Longitude":"-89.92908","Snowdepth":"11.000","Units":"in","Rept_Date":"2020-03-16 13"},"coordinates":[1892,6800]},{"type":"Point","properties":{"Station_ID":"MI-OT-17","Station_Nam":"GAYLORD 4.1 S, MI","Latitude":"44.96388","Longitude":"-84.68467","Snowdepth":"11.000","Units":"in","Rept_Date":"2020-03-16 12"},"coordinates":[3250,4413]},{"type":"Point","properties":{"Station_ID":"LTPN6","Station_Nam":"LITTLE TUPPER LAKE","Latitude":"44.06670","Longitude":"-74.63330","Snowdepth":"11.000","Units":"in","Rept_Date":"2020-03-16 16"},"coordinates":[5853,3672]},{"type":"Point","properties":{"Station_ID":"LBRM5","Station_Nam":"LAKE BRONSON DAM","Latitude":"48.72410","Longitude":"-96.62180","Snowdepth":"11.000","Units":"in","Rept_Date":"2020-03-16 13"},"coordinates":[160,7519]},{"type":"Point","properties":{"Station_ID":"INDN6","Station_Nam":"INDIAN LAKE","Latitude":"43.75500","Longitude":"-74.27560","Snowdepth":"11.000","Units":"in","Rept_Date":"2020-03-16 12"},"coordinates":[5945,3415]},{"type":"Point","properties":{"Station_ID":"GRFN8","Station_Nam":"UNIVERSITY","Latitude":"47.93330","Longitude":"-97.08330","Snowdepth":"11.000","Units":"in","Rept_Date":"2020-03-17 05"},"coordinates":[40,6866]},{"type":"Point","properties":{"Station_ID":"ERG19","Station_Nam":"NMPS LITTLE TUPPER LAKE","Latitude":"44.07000","Longitude":"-74.63000","Snowdepth":"11.000","Units":"in","Rept_Date":"2020-03-16 16"},"coordinates":[5854,3675]},{"type":"Point","properties":{"Station_ID":"BTLN3","Station_Nam":"BARTLETT","Latitude":"44.08380","Longitude":"-71.29340","Snowdepth":"11.000","Units":"in","Rept_Date":"2020-03-16 11"},"coordinates":[6717,3686]},{"type":"Point","properties":{"Station_ID":"WI-PR-2","Station_Nam":"BUTTERNUT 5.9 SW, WI","Latitude":"45.96501","Longitude":"-90.59750","Snowdepth":"10.500","Units":"in","Rept_Date":"2020-03-16 12"},"coordinates":[1719,5240]},{"type":"Point","properties":{"Station_ID":"WI-ON-6","Station_Nam":"RHINELANDER 5.2 N, WI","Latitude":"45.71388","Longitude":"-89.42150","Snowdepth":"10.500","Units":"in","Rept_Date":"2020-03-16 15"},"coordinates":[2024,5033]},{"type":"Point","properties":{"Station_ID":"WI-BN-6","Station_Nam":"SUAMICO 4.4 WNW, WI","Latitude":"44.66111","Longitude":"-88.11780","Snowdepth":"10.000","Units":"in","Rept_Date":"2020-03-16 12"},"coordinates":[2361,4163]},{"type":"Point","properties":{"Station_ID":"VT-WS-7","Station_Nam":"MIDDLESEX 3.1 ENE, VT","Latitude":"44.31799","Longitude":"-72.62650","Snowdepth":"10.000","Units":"in","Rept_Date":"2020-03-16 13"},"coordinates":[6372,3880]},{"type":"Point","properties":{"Station_ID":"VT-OL-1","Station_Nam":"WESTFIELD 0.7 WNW, VT","Latitude":"44.89160","Longitude":"-72.44350","Snowdepth":"10.000","Units":"in","Rept_Date":"2020-03-16 13"},"coordinates":[6420,4353]},{"type":"Point","properties":{"Station_ID":"SDYM5","Station_Nam":"DAM","Latitude":"46.81670","Longitude":"-93.36670","Snowdepth":"10.000","Units":"in","Rept_Date":"2020-03-16 13"},"coordinates":[1002,5943]},{"type":"Point","properties":{"Station_ID":"RQLN6","Station_Nam":"RAQUETTE LAKE","Latitude":"43.80000","Longitude":"-74.66670","Snowdepth":"10.000","Units":"in","Rept_Date":"2020-03-16 16"},"coordinates":[5844,3452]},{"type":"Point","properties":{"Station_ID":"MWTM1","Station_Nam":"MILLINOCKET WWTP","Latitude":"45.64030","Longitude":"-68.67480","Snowdepth":"10.000","Units":"in","Rept_Date":"2020-03-16 10"},"coordinates":[7395,4972]},{"type":"Point","properties":{"Station_ID":"MNTI8PGA","Station_Nam":"GRYGLA 0.4 WNW","Latitude":"48.30355","Longitude":"-95.61746","Snowdepth":"10.000","Units":"in","Rept_Date":"2020-03-16 13"},"coordinates":[420,7172]},{"type":"Point","properties":{"Station_ID":"MN-BK-10","Station_Nam":"DETROIT LAKES 5.7 N, MN","Latitude":"46.88666","Longitude":"-95.84444","Snowdepth":"10.000","Units":"in","Rept_Date":"2020-03-16 10"},"coordinates":[361,6001]},{"type":"Point","properties":{"Station_ID":"LNKM1","Station_Nam":"LINCOLN SANITARY DISTRICT/WTP","Latitude":"45.37520","Longitude":"-68.50820","Snowdepth":"10.000","Units":"in","Rept_Date":"2020-03-16 11"},"coordinates":[7438,4753]},{"type":"Point","properties":{"Station_ID":"LLKN6","Station_Nam":"LONG LAKE","Latitude":"43.98330","Longitude":"-74.45000","Snowdepth":"10.000","Units":"in","Rept_Date":"2020-03-16 16"},"coordinates":[5900,3603]},{"type":"Point","properties":{"Station_ID":"ERG29","Station_Nam":"NMPS RAQUETTE LAKE","Latitude":"44.23000","Longitude":"-74.75000","Snowdepth":"10.000","Units":"in","Rept_Date":"2020-03-16 16"},"coordinates":[5822,3807]},{"type":"Point","properties":{"Station_ID":"ERG20","Station_Nam":"NMPS LONG LAKE","Latitude":"43.98000","Longitude":"-74.45000","Snowdepth":"10.000","Units":"in","Rept_Date":"2020-03-16 16"},"coordinates":[5900,3601]},{"type":"Point","properties":{"Station_ID":"CORV1","Station_Nam":"CORINTH","Latitude":"44.00690","Longitude":"-72.31940","Snowdepth":"10.000","Units":"in","Rept_Date":"2020-03-16 11"},"coordinates":[6452,3623]},{"type":"Point","properties":{"Station_ID":"BRAM5","Station_Nam":"BRAINERD","Latitude":"46.34320","Longitude":"-94.20900","Snowdepth":"10.000","Units":"in","Rept_Date":"2020-03-16 12"},"coordinates":[784,5552]},{"type":"Point","properties":{"Station_ID":"BMON6","Station_Nam":"BIG MOOSE 3SE","Latitude":"43.80000","Longitude":"-74.86670","Snowdepth":"10.000","Units":"in","Rept_Date":"2020-03-16 12"},"coordinates":[5792,3452]},{"type":"Point","properties":{"Station_ID":"CAN-PE-7","Station_Nam":"MORELL 1.4 NNW, CA","Latitude":"46.42741","Longitude":"-62.70870","Snowdepth":"9.900","Units":"in","Rept_Date":"2020-03-16 11"},"coordinates":[8940,5622]},{"type":"Point","properties":{"Station_ID":"CAN-NB-1","Station_Nam":"FREDERICTON 4.0 SSE, CA","Latitude":"45.92897","Longitude":"-66.62830","Snowdepth":"9.800","Units":"in","Rept_Date":"2020-03-16 12"},"coordinates":[7925,5210]},{"type":"Point","properties":{"Station_ID":"VT-CL-18","Station_Nam":"WHEELOCK 1.6 S, VT","Latitude":"44.56491","Longitude":"-72.08830","Snowdepth":"9.500","Units":"in","Rept_Date":"2020-03-16 12"},"coordinates":[6512,4084]},{"type":"Point","properties":{"Station_ID":"NH-CR-11","Station_Nam":"NORTH CONWAY 1.4 SSW, NH","Latitude":"44.03556","Longitude":"-71.14010","Snowdepth":"9.500","Units":"in","Rept_Date":"2020-03-16 12"},"coordinates":[6757,3646]},{"type":"Point","properties":{"Station_ID":"MN-BM-15","Station_Nam":"BEMIDJI 7.8 ENE, MN","Latitude":"47.52043","Longitude":"-94.72121","Snowdepth":"9.500","Units":"in","Rept_Date":"2020-03-16 13"},"coordinates":[652,6525]},{"type":"Point","properties":{"Station_ID":"MI-OT-16","Station_Nam":"GAYLORD 2.2 SSE, MI","Latitude":"44.99441","Longitude":"-84.65820","Snowdepth":"9.500","Units":"in","Rept_Date":"2020-03-16 11"},"coordinates":[3257,4438]},{"type":"Point","properties":{"Station_ID":"ME-OX-2","Station_Nam":"HARTFORD 1.4 N, ME","Latitude":"44.39318","Longitude":"-70.34760","Snowdepth":"9.500","Units":"in","Rept_Date":"2020-03-16 12"},"coordinates":[6962,3942]},{"type":"Point","properties":{"Station_ID":"CAN-NS-163","Station_Nam":"SYDNEY MINES 2.2 WNW, CAN","Latitude":"46.24851","Longitude":"-60.25161","Snowdepth":"9.400","Units":"in","Rept_Date":"2020-03-16 12"},"coordinates":[9576,5474]},{"type":"Point","properties":{"Station_ID":"WLKW3","Station_Nam":"WHITE LAKE 1 SE","Latitude":"45.14520","Longitude":"-88.74160","Snowdepth":"9.000","Units":"in","Rept_Date":"2020-03-16 13"},"coordinates":[2200,4563]},{"type":"Point","properties":{"Station_ID":"VANM4","Station_Nam":"VANDERBILT 11ENE","Latitude":"45.17020","Longitude":"-84.43970","Snowdepth":"9.000","Units":"in","Rept_Date":"2020-03-16 12"},"coordinates":[3314,4584]},{"type":"Point","properties":{"Station_ID":"PELW3","Station_Nam":"PELLA 3SE","Latitude":"44.73580","Longitude":"-88.73780","Snowdepth":"9.000","Units":"in","Rept_Date":"2020-03-16 10"},"coordinates":[2201,4225]},{"type":"Point","properties":{"Station_ID":"PBAN8","Station_Nam":"SITE 1-3MI.N","Latitude":"48.97420","Longitude":"-97.23860","Snowdepth":"9.000","Units":"in","Rept_Date":"2020-03-16 12"},"coordinates":[0,7725]},{"type":"Point","properties":{"Station_ID":"OLMN6","Station_Nam":"OLD FORGE - MOOSE","Latitude":"43.71270","Longitude":"-74.96930","Snowdepth":"9.000","Units":"in","Rept_Date":"2020-03-16 12"},"coordinates":[5766,3380]},{"type":"Point","properties":{"Station_ID":"NH-CR-26","Station_Nam":"CENTER SANDWICH 4.9 E, NH","Latitude":"43.80976","Longitude":"-71.34150","Snowdepth":"9.000","Units":"in","Rept_Date":"2020-03-16 11"},"coordinates":[6705,3460]},{"type":"Point","properties":{"Station_ID":"MN-OT-3","Station_Nam":"BATTLE LAKE 2S, MN","Latitude":"46.25833","Longitude":"-95.71470","Snowdepth":"9.000","Units":"in","Rept_Date":"2020-03-16 13"},"coordinates":[395,5482]},{"type":"Point","properties":{"Station_ID":"HOKN6","Station_Nam":"HOOKER 12 NNW","Latitude":"43.85240","Longitude":"-75.71580","Snowdepth":"9.000","Units":"in","Rept_Date":"2020-03-16 10"},"coordinates":[5572,3495]},{"type":"Point","properties":{"Station_ID":"ESGM1","Station_Nam":"EAST SANGERVILLE","Latitude":"45.13690","Longitude":"-69.28060","Snowdepth":"9.000","Units":"in","Rept_Date":"2020-03-16 11"},"coordinates":[7239,4556]},{"type":"Point","properties":{"Station_ID":"ESDN3","Station_Nam":"EAST SANDWICH","Latitude":"43.80990","Longitude":"-71.34250","Snowdepth":"9.000","Units":"in","Rept_Date":"2020-03-16 10"},"coordinates":[6705,3460]},{"type":"Point","properties":{"Station_ID":"EGRW3","Station_Nam":"EAGLE RIVER-SOUTH","Latitude":"45.91360","Longitude":"-89.24360","Snowdepth":"9.000","Units":"in","Rept_Date":"2020-03-16 12"},"coordinates":[2070,5198]},{"type":"Point","properties":{"Station_ID":"BREW3","Station_Nam":"SURING","Latitude":"44.99580","Longitude":"-88.37860","Snowdepth":"9.000","Units":"in","Rept_Date":"2020-03-16 12"},"coordinates":[2294,4440]},{"type":"Point","properties":{"Station_ID":"CAN-NB-98","Station_Nam":"HOYT 4.2 S, CAN","Latitude":"45.54763","Longitude":"-66.55440","Snowdepth":"8.700","Units":"in","Rept_Date":"2020-03-16 11"},"coordinates":[7944,4895]},{"type":"Point","properties":{"Station_ID":"VT-OL-9","Station_Nam":"GREENSBORO 2.1 NNW, VT","Latitude":"44.60528","Longitude":"-72.30940","Snowdepth":"8.500","Units":"in","Rept_Date":"2020-03-16 12"},"coordinates":[6454,4117]},{"type":"Point","properties":{"Station_ID":"NH-GR-49","Station_Nam":"PLYMOUTH 3.7 N, NH","Latitude":"43.79048","Longitude":"-71.68413","Snowdepth":"8.500","Units":"in","Rept_Date":"2020-03-16 12"},"coordinates":[6616,3444]},{"type":"Point","properties":{"Station_ID":"ME-FR-22","Station_Nam":"FARMINGTON 4.8 NNW, ME","Latitude":"44.73396","Longitude":"-70.18007","Snowdepth":"8.500","Units":"in","Rept_Date":"2020-03-16 14"},"coordinates":[7006,4223]},{"type":"Point","properties":{"Station_ID":"WLDV1","Station_Nam":"WILDCAT ROAD","Latitude":"43.69250","Longitude":"-72.87420","Snowdepth":"8.000","Units":"in","Rept_Date":"2020-03-16 16"},"coordinates":[6308,3363]},{"type":"Point","properties":{"Station_ID":"TOPM1","Station_Nam":"TOPSFIELD","Latitude":"45.43470","Longitude":"-67.72020","Snowdepth":"8.000","Units":"in","Rept_Date":"2020-03-16 11"},"coordinates":[7643,4802]},{"type":"Point","properties":{"Station_ID":"STMM4","Station_Nam":"STAMBAUGH 2SSE","Latitude":"46.05550","Longitude":"-88.62780","Snowdepth":"8.000","Units":"in","Rept_Date":"2020-03-16 12"},"coordinates":[2229,5315]},{"type":"Point","properties":{"Station_ID":"SEVN6","Station_Nam":"SEVEY SNOW COURSE","Latitude":"44.25670","Longitude":"-74.75030","Snowdepth":"8.000","Units":"in","Rept_Date":"2020-03-16 16"},"coordinates":[5822,3829]},{"type":"Point","properties":{"Station_ID":"RRVM4","Station_Nam":"RAPID RIVER 9S","Latitude":"45.78750","Longitude":"-86.93920","Snowdepth":"8.000","Units":"in","Rept_Date":"2020-03-16 15"},"coordinates":[2667,5093]},{"type":"Point","properties":{"Station_ID":"OTTM5","Station_Nam":"OTTERTAIL,MN","Latitude":"46.41670","Longitude":"-95.56670","Snowdepth":"8.000","Units":"in","Rept_Date":"2020-03-16 12"},"coordinates":[433,5613]},{"type":"Point","properties":{"Station_ID":"NUMN3","Station_Nam":"NORTHUMBERLAND","Latitude":"44.52830","Longitude":"-71.50440","Snowdepth":"8.000","Units":"in","Rept_Date":"2020-03-16 12"},"coordinates":[6663,4053]},{"type":"Point","properties":{"Station_ID":"MN-AT-5","Station_Nam":"TAMARACK 1.4 SW, MN","Latitude":"46.63760","Longitude":"-93.14554","Snowdepth":"8.000","Units":"in","Rept_Date":"2020-03-16 13"},"coordinates":[1060,5796]},{"type":"Point","properties":{"Station_ID":"LNGM5","Station_Nam":"LONG PRAIRIE","Latitude":"45.96460","Longitude":"-94.88920","Snowdepth":"8.000","Units":"in","Rept_Date":"2020-03-16 11"},"coordinates":[608,5240]},{"type":"Point","properties":{"Station_ID":"ERG32","Station_Nam":"NMPS SEVEY","Latitude":"44.30000","Longitude":"-74.72000","Snowdepth":"8.000","Units":"in","Rept_Date":"2020-03-16 16"},"coordinates":[5830,3865]},{"type":"Point","properties":{"Station_ID":"ERG11","Station_Nam":"NMPS CONIFER","Latitude":"44.22000","Longitude":"-74.62000","Snowdepth":"8.000","Units":"in","Rept_Date":"2020-03-16 16"},"coordinates":[5856,3799]},{"type":"Point","properties":{"Station_ID":"COUW3","Station_Nam":"COUDERAY,WI","Latitude":"45.86670","Longitude":"-91.45000","Snowdepth":"8.000","Units":"in","Rept_Date":"2020-03-16 21"},"coordinates":[1499,5159]},{"type":"Point","properties":{"Station_ID":"CNFN6","Station_Nam":"CONIFER SNOW COURSE","Latitude":"44.21670","Longitude":"-74.61670","Snowdepth":"8.000","Units":"in","Rept_Date":"2020-03-16 16"},"coordinates":[5857,3796]},{"type":"Point","properties":{"Station_ID":"BRUM5","Station_Nam":"BRUNO,MN","Latitude":"46.28330","Longitude":"-92.50000","Snowdepth":"8.000","Units":"in","Rept_Date":"2020-03-16 13"},"coordinates":[1227,5503]},{"type":"Point","properties":{"Station_ID":"BAGM4","Station_Nam":"BARAGA 7NW","Latitude":"46.82100","Longitude":"-88.60590","Snowdepth":"8.000","Units":"in","Rept_Date":"2020-03-16 12"},"coordinates":[2235,5947]},{"type":"Point","properties":{"Station_ID":"NY-HR-18","Station_Nam":"SALISBURY CENTER 1.8 NW, NY","Latitude":"43.16260","Longitude":"-74.80880","Snowdepth":"7.500","Units":"in","Rept_Date":"2020-03-16 11"},"coordinates":[5807,2925]},{"type":"Point","properties":{"Station_ID":"MI-CX-7","Station_Nam":"EAST JORDAN 2.1 NNW, MI","Latitude":"45.18639","Longitude":"-85.14750","Snowdepth":"7.500","Units":"in","Rept_Date":"2020-03-16 13"},"coordinates":[3130,4597]},{"type":"Point","properties":{"Station_ID":"CAN-PE-10","Station_Nam":"NEW LONDON 1.6 ENE, CA","Latitude":"46.46985","Longitude":"-63.49200","Snowdepth":"7.500","Units":"in","Rept_Date":"2020-03-16 12"},"coordinates":[8737,5657]},{"type":"Point","properties":{"Station_ID":"WI-RS-1","Station_Nam":"LADYSMITH 2.8 WNW, WI","Latitude":"45.48180","Longitude":"-91.14680","Snowdepth":"7.000","Units":"in","Rept_Date":"2020-03-16 13"},"coordinates":[1577,4841]},{"type":"Point","properties":{"Station_ID":"WI-PR-6","Station_Nam":"PHILLIPS 1.3 S, WI","Latitude":"45.67677","Longitude":"-90.39543","Snowdepth":"7.000","Units":"in","Rept_Date":"2020-03-16 12"},"coordinates":[1772,5002]},{"type":"Point","properties":{"Station_ID":"WI-MT-14","Station_Nam":"MOSINEE 2.7 WSW, WI","Latitude":"44.77240","Longitude":"-89.73441","Snowdepth":"7.000","Units":"in","Rept_Date":"2020-03-16 13"},"coordinates":[1943,4255]},{"type":"Point","properties":{"Station_ID":"VT-WS-30","Station_Nam":"WOODBURY 3.4 NNW, VT","Latitude":"44.48825","Longitude":"-72.43258","Snowdepth":"7.000","Units":"in","Rept_Date":"2020-03-16 12"},"coordinates":[6422,4020]},{"type":"Point","properties":{"Station_ID":"RSTW3","Station_Nam":"ROSHOLT","Latitude":"44.62710","Longitude":"-89.30600","Snowdepth":"7.000","Units":"in","Rept_Date":"2020-03-16 13"},"coordinates":[2054,4135]},{"type":"Point","properties":{"Station_ID":"ND-CS-25","Station_Nam":"FARGO 2.1 N, ND","Latitude":"46.90816","Longitude":"-96.77937","Snowdepth":"7.000","Units":"in","Rept_Date":"2020-03-16 14"},"coordinates":[119,6019]},{"type":"Point","properties":{"Station_ID":"ND-CS-1","Station_Nam":"WEST FARGO 3.8 SSE, ND","Latitude":"46.82750","Longitude":"-96.85280","Snowdepth":"7.000","Units":"in","Rept_Date":"2020-03-16 13"},"coordinates":[100,5952]},{"type":"Point","properties":{"Station_ID":"MQRW3","Station_Nam":"MINOCQUA","Latitude":"45.88630","Longitude":"-89.73220","Snowdepth":"7.000","Units":"in","Rept_Date":"2020-03-16 11"},"coordinates":[1943,5175]},{"type":"Point","properties":{"Station_ID":"MI-OT-4","Station_Nam":"GAYLORD 1.7 WNW, MI","Latitude":"45.03280","Longitude":"-84.71090","Snowdepth":"7.000","Units":"in","Rept_Date":"2020-03-16 13"},"coordinates":[3244,4470]},{"type":"Point","properties":{"Station_ID":"KGFK","Station_Nam":"GRAND FORKS INTERNATIONAL","Latitude":"47.95000","Longitude":"-97.18333","Snowdepth":"7.000","Units":"in","Rept_Date":"2020-03-17 05"},"coordinates":[14,6880]},{"type":"Point","properties":{"Station_ID":"ISLV1","Station_Nam":"ISLAND POND","Latitude":"44.81280","Longitude":"-71.89020","Snowdepth":"7.000","Units":"in","Rept_Date":"2020-03-16 13"},"coordinates":[6563,4288]},{"type":"Point","properties":{"Station_ID":"HOLW3","Station_Nam":"HOLCOMBE","Latitude":"45.22370","Longitude":"-91.12700","Snowdepth":"7.000","Units":"in","Rept_Date":"2020-03-16 12"},"coordinates":[1582,4628]},{"type":"Point","properties":{"Station_ID":"GFK","Station_Nam":"GRAND FORKS INTERNATIONAL AIRPORT","Latitude":"47.94920","Longitude":"-97.17610","Snowdepth":"7.000","Units":"in","Rept_Date":"2020-03-17 00"},"coordinates":[16,6879]},{"type":"Point","properties":{"Station_ID":"GAYM4","Station_Nam":"GAYLORD","Latitude":"45.03320","Longitude":"-84.71130","Snowdepth":"7.000","Units":"in","Rept_Date":"2020-03-16 12"},"coordinates":[3243,4470]},{"type":"Point","properties":{"Station_ID":"ENGM4","Station_Nam":"ENGADINE MDOT","Latitude":"46.12800","Longitude":"-85.56960","Snowdepth":"7.000","Units":"in","Rept_Date":"2020-03-16 11"},"coordinates":[3021,5375]},{"type":"Point","properties":{"Station_ID":"EJNM4","Station_Nam":"EAST JORDAN 2NW","Latitude":"45.18630","Longitude":"-85.14770","Snowdepth":"7.000","Units":"in","Rept_Date":"2020-03-16 12"},"coordinates":[3130,4597]},{"type":"Point","properties":{"Station_ID":"BFHW3","Station_Nam":"BAYFIELD FISH HATCHERY","Latitude":"46.78670","Longitude":"-90.86420","Snowdepth":"7.000","Units":"in","Rept_Date":"2020-03-16 13"},"coordinates":[1650,5919]},{"type":"Point","properties":{"Station_ID":"AROM4","Station_Nam":"ARNOLD,MI","Latitude":"46.06670","Longitude":"-87.48330","Snowdepth":"7.000","Units":"in","Rept_Date":"2020-03-16 12"},"coordinates":[2526,5324]},{"type":"Point","properties":{"Station_ID":"WI-AS-4","Station_Nam":"ASHLAND 0.5 WNW, WI","Latitude":"46.58240","Longitude":"-90.88390","Snowdepth":"6.500","Units":"in","Rept_Date":"2020-03-16 13"},"coordinates":[1645,5750]},{"type":"Point","properties":{"Station_ID":"WILW3","Station_Nam":"RESERVOIR","Latitude":"45.70000","Longitude":"-89.83330","Snowdepth":"6.000","Units":"in","Rept_Date":"2020-03-16 11"},"coordinates":[1917,5021]},{"type":"Point","properties":{"Station_ID":"WHFN6","Station_Nam":"WILMINGTON 2W","Latitude":"44.39310","Longitude":"-73.85890","Snowdepth":"6.000","Units":"in","Rept_Date":"2020-03-16 12"},"coordinates":[6053,3942]},{"type":"Point","properties":{"Station_ID":"VT-WR-2","Station_Nam":"POMFRET 2.6 N, VT","Latitude":"43.74230","Longitude":"-72.52550","Snowdepth":"6.000","Units":"in","Rept_Date":"2020-03-16 12"},"coordinates":[6398,3404]},{"type":"Point","properties":{"Station_ID":"VT-ES-3","Station_Nam":"LUNENBURG 2.3 NNW, VT","Latitude":"44.49324","Longitude":"-71.70446","Snowdepth":"6.000","Units":"in","Rept_Date":"2020-03-16 11"},"coordinates":[6611,4024]},{"type":"Point","properties":{"Station_ID":"VT-BN-3","Station_Nam":"LANDGROVE 1.1 NNE, VT","Latitude":"43.29092","Longitude":"-72.83260","Snowdepth":"6.000","Units":"in","Rept_Date":"2020-03-16 11"},"coordinates":[6319,3031]},{"type":"Point","properties":{"Station_ID":"TMWN3","Station_Nam":"TAMWORTH 4","Latitude":"43.86390","Longitude":"-71.26610","Snowdepth":"6.000","Units":"in","Rept_Date":"2020-03-16 11"},"coordinates":[6724,3505]},{"type":"Point","properties":{"Station_ID":"STAN6","Station_Nam":"STAR LAKE SNOW COURSE","Latitude":"44.16470","Longitude":"-75.04530","Snowdepth":"6.000","Units":"in","Rept_Date":"2020-03-16 16"},"coordinates":[5746,3753]},{"type":"Point","properties":{"Station_ID":"SBNM5","Station_Nam":"SABIN","Latitude":"46.77690","Longitude":"-96.65610","Snowdepth":"6.000","Units":"in","Rept_Date":"2020-03-16 13"},"coordinates":[151,5911]},{"type":"Point","properties":{"Station_ID":"RHRW3","Station_Nam":"RHINELANDER WJFW TV-12","Latitude":"45.62220","Longitude":"-89.41000","Snowdepth":"6.000","Units":"in","Rept_Date":"2020-03-17 03"},"coordinates":[2027,4957]},{"type":"Point","properties":{"Station_ID":"RHI","Station_Nam":"RHINELANDER-ONEIDA COUNTY AIRPORT","Latitude":"45.63080","Longitude":"-89.46530","Snowdepth":"6.000","Units":"in","Rept_Date":"2020-03-17 00"},"coordinates":[2013,4964]},{"type":"Point","properties":{"Station_ID":"NYMM5","Station_Nam":"NEW YORK MILLS","Latitude":"46.50920","Longitude":"-95.37990","Snowdepth":"6.000","Units":"in","Rept_Date":"2020-03-16 12"},"coordinates":[481,5689]},{"type":"Point","properties":{"Station_ID":"NY-ES-11","Station_Nam":"VERMONTVILLE 2.8 S, NY","Latitude":"44.41205","Longitude":"-74.06760","Snowdepth":"6.000","Units":"in","Rept_Date":"2020-03-16 12"},"coordinates":[5999,3957]},{"type":"Point","properties":{"Station_ID":"NH-CR-27","Station_Nam":"TAMWORTH 0.4 NNW, NH","Latitude":"43.86449","Longitude":"-71.26610","Snowdepth":"6.000","Units":"in","Rept_Date":"2020-03-16 12"},"coordinates":[6724,3505]},{"type":"Point","properties":{"Station_ID":"LEFV1","Station_Nam":"LEFFERTS GATE","Latitude":"43.71580","Longitude":"-72.90670","Snowdepth":"6.000","Units":"in","Rept_Date":"2020-03-16 16"},"coordinates":[6300,3382]},{"type":"Point","properties":{"Station_ID":"KSEM4","Station_Nam":"KALKASKA 11SE","Latitude":"44.58970","Longitude":"-85.04860","Snowdepth":"6.000","Units":"in","Rept_Date":"2020-03-16 12"},"coordinates":[3156,4104]},{"type":"Point","properties":{"Station_ID":"FARM1","Station_Nam":"FARMINGTON","Latitude":"44.68930","Longitude":"-70.15640","Snowdepth":"6.000","Units":"in","Rept_Date":"2020-03-16 12"},"coordinates":[7012,4186]},{"type":"Point","properties":{"Station_ID":"ERG34","Station_Nam":"NMPS STAR LAKE","Latitude":"44.17000","Longitude":"-75.05000","Snowdepth":"6.000","Units":"in","Rept_Date":"2020-03-16 16"},"coordinates":[5745,3757]},{"type":"Point","properties":{"Station_ID":"ERG13","Station_Nam":"NMPS CRANBERRY LAKE","Latitude":"44.22000","Longitude":"-74.85000","Snowdepth":"6.000","Units":"in","Rept_Date":"2020-03-16 16"},"coordinates":[5797,3799]},{"type":"Point","properties":{"Station_ID":"CRBN6","Station_Nam":"CRANBERRY LAKE SNOW COURSE","Latitude":"44.21810","Longitude":"-74.85360","Snowdepth":"6.000","Units":"in","Rept_Date":"2020-03-16 16"},"coordinates":[5796,3797]},{"type":"Point","properties":{"Station_ID":"BGFW3","Station_Nam":"BIG FALLS HYDRO","Latitude":"45.55560","Longitude":"-90.95920","Snowdepth":"6.000","Units":"in","Rept_Date":"2020-03-16 12"},"coordinates":[1626,4902]},{"type":"Point","properties":{"Station_ID":"AWXW3","Station_Nam":"ASHLAND","Latitude":"46.58240","Longitude":"-90.88390","Snowdepth":"6.000","Units":"in","Rept_Date":"2020-03-16 12"},"coordinates":[1645,5750]},{"type":"Point","properties":{"Station_ID":"APXM4","Station_Nam":"GAYLORD 9SSW","Latitude":"44.90720","Longitude":"-84.71880","Snowdepth":"6.000","Units":"in","Rept_Date":"2020-03-17 06"},"coordinates":[3241,4366]},{"type":"Point","properties":{"Station_ID":"ALXM5","Station_Nam":"ALEXANDRIA","Latitude":"45.87820","Longitude":"-95.38270","Snowdepth":"6.000","Units":"in","Rept_Date":"2020-03-16 11"},"coordinates":[481,5168]},{"type":"Point","properties":{"Station_ID":"CAN-ON-42","Station_Nam":"VANKLEEK HILL 3.4 S, CA","Latitude":"45.48987","Longitude":"-74.64570","Snowdepth":"5.500","Units":"in","Rept_Date":"2020-03-16 12"},"coordinates":[5849,4848]},{"type":"Point","properties":{"Station_ID":"WI-PR-8","Station_Nam":"PHILLIPS 0.4 SSW, WI","Latitude":"45.69086","Longitude":"-90.40200","Snowdepth":"5.000","Units":"in","Rept_Date":"2020-03-16 13"},"coordinates":[1770,5014]},{"type":"Point","properties":{"Station_ID":"WI-MT-4","Station_Nam":"WAUSAU 1.7 ENE, WI","Latitude":"44.96943","Longitude":"-89.61090","Snowdepth":"5.000","Units":"in","Rept_Date":"2020-03-16 13"},"coordinates":[1975,4418]},{"type":"Point","properties":{"Station_ID":"WI-BT-14","Station_Nam":"OAKLAND 9.0 ENE, WI","Latitude":"45.95184","Longitude":"-92.21653","Snowdepth":"5.000","Units":"in","Rept_Date":"2020-03-16 13"},"coordinates":[1300,5229]},{"type":"Point","properties":{"Station_ID":"TOHM5","Station_Nam":"TWO HARBORS WWTP","Latitude":"47.01760","Longitude":"-91.66480","Snowdepth":"5.000","Units":"in","Rept_Date":"2020-03-16 12"},"coordinates":[1443,6109]},{"type":"Point","properties":{"Station_ID":"SULW3","Station_Nam":"SUMMIT LAKE","Latitude":"45.37880","Longitude":"-89.19410","Snowdepth":"5.000","Units":"in","Rept_Date":"2020-03-16 10"},"coordinates":[2083,4756]},{"type":"Point","properties":{"Station_ID":"STRN6","Station_Nam":"STILLWATER RESERVOIR","Latitude":"43.89140","Longitude":"-75.03610","Snowdepth":"5.000","Units":"in","Rept_Date":"2020-03-16 12"},"coordinates":[5748,3527]},{"type":"Point","properties":{"Station_ID":"RLKW3","Station_Nam":"REST LAKE","Latitude":"46.12220","Longitude":"-89.87720","Snowdepth":"5.000","Units":"in","Rept_Date":"2020-03-16 13"},"coordinates":[1906,5370]},{"type":"Point","properties":{"Station_ID":"NCKN6","Station_Nam":"NORTH CREEK 5 SE","Latitude":"43.66110","Longitude":"-73.89690","Snowdepth":"5.000","Units":"in","Rept_Date":"2020-03-16 11"},"coordinates":[6043,3337]},{"type":"Point","properties":{"Station_ID":"MTQM4","Station_Nam":"MANISTIQUE WWTP","Latitude":"45.95120","Longitude":"-86.25130","Snowdepth":"5.000","Units":"in","Rept_Date":"2020-03-16 11"},"coordinates":[2845,5229]},{"type":"Point","properties":{"Station_ID":"MN-CY-1","Station_Nam":"MOORHEAD 2.0 N, MN","Latitude":"46.88766","Longitude":"-96.74800","Snowdepth":"5.000","Units":"in","Rept_Date":"2020-03-16 13"},"coordinates":[127,6002]},{"type":"Point","properties":{"Station_ID":"HMYM1","Station_Nam":"HARMONY","Latitude":"44.94660","Longitude":"-69.54560","Snowdepth":"5.000","Units":"in","Rept_Date":"2020-03-16 11"},"coordinates":[7170,4399]},{"type":"Point","properties":{"Station_ID":"FLDM5","Station_Nam":"FLOODWOOD,MN","Latitude":"47.00000","Longitude":"-92.91670","Snowdepth":"5.000","Units":"in","Rept_Date":"2020-03-16 13"},"coordinates":[1119,6095]},{"type":"Point","properties":{"Station_ID":"FDRN8","Station_Nam":"FARGO 3S","Latitude":"46.82930","Longitude":"-96.79620","Snowdepth":"5.000","Units":"in","Rept_Date":"2020-03-17 00"},"coordinates":[115,5954]},{"type":"Point","properties":{"Station_ID":"FAR","Station_Nam":"HECTOR INTERNATIONAL ARPT","Latitude":"46.91560","Longitude":"-96.81440","Snowdepth":"5.000","Units":"in","Rept_Date":"2020-03-16 12"},"coordinates":[110,6025]},{"type":"Point","properties":{"Station_ID":"DTVM4","Station_Nam":"DETOUR VILLAGE","Latitude":"45.99830","Longitude":"-83.90130","Snowdepth":"5.000","Units":"in","Rept_Date":"2020-03-16 12"},"coordinates":[3453,5268]},{"type":"Point","properties":{"Station_ID":"CLKV1","Station_Nam":"CLARKS CAMP","Latitude":"43.70500","Longitude":"-72.88830","Snowdepth":"5.000","Units":"in","Rept_Date":"2020-03-16 16"},"coordinates":[6304,3373]},{"type":"Point","properties":{"Station_ID":"BRLN3","Station_Nam":"BERLIN","Latitude":"44.45350","Longitude":"-71.18540","Snowdepth":"5.000","Units":"in","Rept_Date":"2020-03-16 11"},"coordinates":[6745,3992]},{"type":"Point","properties":{"Station_ID":"AMDW3","Station_Nam":"ALMOND-5 NE","Latitude":"44.30830","Longitude":"-89.34640","Snowdepth":"5.000","Units":"in","Rept_Date":"2020-03-16 13"},"coordinates":[2043,3872]},{"type":"Point","properties":{"Station_ID":"CAN-ON-208","Station_Nam":"PAKENHAM 7.8 NNW, CAN","Latitude":"45.39166","Longitude":"-76.34111","Snowdepth":"4.500","Units":"in","Rept_Date":"2020-03-16 12"},"coordinates":[5411,4766]},{"type":"Point","properties":{"Station_ID":"VT-OL-2","Station_Nam":"BARTON 3.0 ENE, VT","Latitude":"44.75863","Longitude":"-72.11680","Snowdepth":"4.000","Units":"in","Rept_Date":"2020-03-16 12"},"coordinates":[6504,4244]},{"type":"Point","properties":{"Station_ID":"VT-OG-11","Station_Nam":"VERSHIRE 1.5 ESE, VT","Latitude":"43.96138","Longitude":"-72.29777","Snowdepth":"4.000","Units":"in","Rept_Date":"2020-03-16 13"},"coordinates":[6457,3585]},{"type":"Point","properties":{"Station_ID":"SAUW3","Station_Nam":"WAUSAU WSAW TV","Latitude":"44.94630","Longitude":"-89.62220","Snowdepth":"4.000","Units":"in","Rept_Date":"2020-03-17 02"},"coordinates":[1972,4399]},{"type":"Point","properties":{"Station_ID":"PEKN6","Station_Nam":"PECK LAKE","Latitude":"43.11500","Longitude":"-74.42360","Snowdepth":"4.000","Units":"in","Rept_Date":"2020-03-16 11"},"coordinates":[5907,2886]},{"type":"Point","properties":{"Station_ID":"PARM4","Station_Nam":"PARENT BAY","Latitude":"45.79610","Longitude":"-86.40110","Snowdepth":"4.000","Units":"in","Rept_Date":"2020-03-16 18"},"coordinates":[2806,5101]},{"type":"Point","properties":{"Station_ID":"MN1867TA","Station_Nam":"LAKE FREMONT 0.9 NW","Latitude":"45.45049","Longitude":"-93.60337","Snowdepth":"4.000","Units":"in","Rept_Date":"2020-03-16 12"},"coordinates":[941,4815]},{"type":"Point","properties":{"Station_ID":"MN-MR-4","Station_Nam":"LITTLE FALLS 1.2 SW, MN","Latitude":"45.96886","Longitude":"-94.37720","Snowdepth":"4.000","Units":"in","Rept_Date":"2020-03-16 13"},"coordinates":[741,5243]},{"type":"Point","properties":{"Station_ID":"MCLN8","Station_Nam":"MC LEOD,ND","Latitude":"46.40250","Longitude":"-97.23810","Snowdepth":"4.000","Units":"in","Rept_Date":"2020-03-16 13"},"coordinates":[0,5601]},{"type":"Point","properties":{"Station_ID":"CLGM5","Station_Nam":"COLLEGEVILLE ST JOHN","Latitude":"45.57940","Longitude":"-94.39200","Snowdepth":"4.000","Units":"in","Rept_Date":"2020-03-16 23"},"coordinates":[737,4922]},{"type":"Point","properties":{"Station_ID":"BETM1","Station_Nam":"BETHEL 6 SSE","Latitude":"44.32000","Longitude":"-70.75680","Snowdepth":"4.000","Units":"in","Rept_Date":"2020-03-16 11"},"coordinates":[6856,3881]},{"type":"Point","properties":{"Station_ID":"AUW","Station_Nam":"WAUSAU MUNICIPAL AIRPORT","Latitude":"44.92580","Longitude":"-89.62560","Snowdepth":"4.000","Units":"in","Rept_Date":"2020-03-17 00"},"coordinates":[1971,4382]},{"type":"Point","properties":{"Station_ID":"CAN-ON-5","Station_Nam":"OWEN SOUND 1.5 NW - GSCA, CAN","Latitude":"44.57837","Longitude":"-80.95461","Snowdepth":"3.500","Units":"in","Rept_Date":"2020-03-16 13"},"coordinates":[4216,4095]},{"type":"Point","properties":{"Station_ID":"CAN-ON-109","Station_Nam":"MILDMAY 5.9 SSE, CA","Latitude":"43.98733","Longitude":"-81.10330","Snowdepth":"3.500","Units":"in","Rept_Date":"2020-03-16 13"},"coordinates":[4178,3607]},{"type":"Point","properties":{"Station_ID":"WUNW3","Station_Nam":"WAUSAU-NORTHEAST","Latitude":"44.97310","Longitude":"-89.61690","Snowdepth":"3.000","Units":"in","Rept_Date":"2020-03-16 11"},"coordinates":[1973,4421]},{"type":"Point","properties":{"Station_ID":"WRTS2","Station_Nam":"WATERTOWN,SD","Latitude":"44.90280","Longitude":"-97.11360","Snowdepth":"3.000","Units":"in","Rept_Date":"2020-03-16 14"},"coordinates":[32,4363]},{"type":"Point","properties":{"Station_ID":"WESN1","Station_Nam":"WESTON 3NW","Latitude":"41.22110","Longitude":"-96.77750","Snowdepth":"3.000","Units":"in","Rept_Date":"2020-03-16 13"},"coordinates":[119,1322]},{"type":"Point","properties":{"Station_ID":"WAWN6","Station_Nam":"WAWBEEK","Latitude":"44.24440","Longitude":"-74.36060","Snowdepth":"3.000","Units":"in","Rept_Date":"2020-03-16 16"},"coordinates":[5923,3819]},{"type":"Point","properties":{"Station_ID":"RFDM1","Station_Nam":"RUMFORD 7SW","Latitude":"44.49470","Longitude":"-70.65640","Snowdepth":"3.000","Units":"in","Rept_Date":"2020-03-16 14"},"coordinates":[6882,4026]},{"type":"Point","properties":{"Station_ID":"NWSM1","Station_Nam":"NEW SHARON","Latitude":"44.63520","Longitude":"-70.00020","Snowdepth":"3.000","Units":"in","Rept_Date":"2020-03-16 11"},"coordinates":[7052,4142]},{"type":"Point","properties":{"Station_ID":"MYOM4","Station_Nam":"MIO WWTP","Latitude":"44.64660","Longitude":"-84.11580","Snowdepth":"3.000","Units":"in","Rept_Date":"2020-03-16 12"},"coordinates":[3398,4151]},{"type":"Point","properties":{"Station_ID":"MTNV1","Station_Nam":"MOUNTAIN TOP ROAD","Latitude":"43.73640","Longitude":"-72.93670","Snowdepth":"3.000","Units":"in","Rept_Date":"2020-03-16 16"},"coordinates":[6292,3399]},{"type":"Point","properties":{"Station_ID":"MN-MR-13","Station_Nam":"LITTLE FALLS 8.0 NE, MN","Latitude":"46.06785","Longitude":"-94.24789","Snowdepth":"3.000","Units":"in","Rept_Date":"2020-03-16 13"},"coordinates":[774,5325]},{"type":"Point","properties":{"Station_ID":"LNCM1","Station_Nam":"LINCOLN WATER DISTRICT","Latitude":"45.32410","Longitude":"-68.58300","Snowdepth":"3.000","Units":"in","Rept_Date":"2020-03-16 12"},"coordinates":[7419,4711]},{"type":"Point","properties":{"Station_ID":"JEFN3","Station_Nam":"JEFFERSON","Latitude":"44.41690","Longitude":"-71.50080","Snowdepth":"3.000","Units":"in","Rept_Date":"2020-03-16 11"},"coordinates":[6664,3961]},{"type":"Point","properties":{"Station_ID":"ISEM5","Station_Nam":"ISLE 12N","Latitude":"46.31970","Longitude":"-93.50140","Snowdepth":"3.000","Units":"in","Rept_Date":"2020-03-16 13"},"coordinates":[968,5533]},{"type":"Point","properties":{"Station_ID":"HRTM1","Station_Nam":"HARTFORD","Latitude":"44.37440","Longitude":"-70.31620","Snowdepth":"3.000","Units":"in","Rept_Date":"2020-03-16 11"},"coordinates":[6970,3926]},{"type":"Point","properties":{"Station_ID":"GFDN6","Station_Nam":"CHASES LAKE","Latitude":"43.75920","Longitude":"-75.29980","Snowdepth":"3.000","Units":"in","Rept_Date":"2020-03-16 10"},"coordinates":[5680,3418]},{"type":"Point","properties":{"Station_ID":"FLAM4","Station_Nam":"FIFE LAKE 2WNW","Latitude":"44.58480","Longitude":"-85.36530","Snowdepth":"3.000","Units":"in","Rept_Date":"2020-03-16 11"},"coordinates":[3074,4100]},{"type":"Point","properties":{"Station_ID":"ERH20","Station_Nam":"NMPS WAWBEEK","Latitude":"44.25000","Longitude":"-74.33000","Snowdepth":"3.000","Units":"in","Rept_Date":"2020-03-16 16"},"coordinates":[5931,3824]},{"type":"Point","properties":{"Station_ID":"EPTW3","Station_Nam":"EAU PLEINE TENDER","Latitude":"44.77220","Longitude":"-89.76720","Snowdepth":"3.000","Units":"in","Rept_Date":"2020-03-16 12"},"coordinates":[1934,4255]},{"type":"Point","properties":{"Station_ID":"CVZW3","Station_Nam":"WISCONSIN PUBLIC SERVICE","Latitude":"45.23530","Longitude":"-88.01360","Snowdepth":"3.000","Units":"in","Rept_Date":"2020-03-16 13"},"coordinates":[2388,4637]},{"type":"Point","properties":{"Station_ID":"CORM1","Station_Nam":"CORINNA","Latitude":"44.91980","Longitude":"-69.24180","Snowdepth":"3.000","Units":"in","Rept_Date":"2020-03-16 10"},"coordinates":[7249,4377]},{"type":"Point","properties":{"Station_ID":"ABGW3","Station_Nam":"AMBERG 9 E","Latitude":"45.48250","Longitude":"-87.81190","Snowdepth":"3.000","Units":"in","Rept_Date":"2020-03-16 11"},"coordinates":[2441,4842]},{"type":"Point","properties":{"Station_ID":"VT-WS-19","Station_Nam":"WATERBURY 3.0 NW, VT","Latitude":"44.36060","Longitude":"-72.80770","Snowdepth":"2.500","Units":"in","Rept_Date":"2020-03-16 11"},"coordinates":[6325,3915]},{"type":"Point","properties":{"Station_ID":"NH-MR-60","Station_Nam":"SOUTH SUTTON 1.3 SE, NH","Latitude":"43.29531","Longitude":"-71.90238","Snowdepth":"2.500","Units":"in","Rept_Date":"2020-03-16 13"},"coordinates":[6560,3035]},{"type":"Point","properties":{"Station_ID":"WI-LN-2","Station_Nam":"MERRILL 7.0 W, WI","Latitude":"45.17746","Longitude":"-89.84820","Snowdepth":"2.000","Units":"in","Rept_Date":"2020-03-16 12"},"coordinates":[1913,4590]},{"type":"Point","properties":{"Station_ID":"WI-DR-5","Station_Nam":"ELLISON BAY 2.2 E, WI","Latitude":"45.25750","Longitude":"-87.02670","Snowdepth":"2.000","Units":"in","Rept_Date":"2020-03-16 13"},"coordinates":[2644,4656]},{"type":"Point","properties":{"Station_ID":"WENN3","Station_Nam":"P.O. BOX 197 WENTWORTH, NH","Latitude":"43.95190","Longitude":"-71.91560","Snowdepth":"2.000","Units":"in","Rept_Date":"2020-03-16 11"},"coordinates":[6556,3577]},{"type":"Point","properties":{"Station_ID":"VT-LM-7","Station_Nam":"HYDE PARK 2.9 NE, VT","Latitude":"44.62080","Longitude":"-72.57250","Snowdepth":"2.000","Units":"in","Rept_Date":"2020-03-16 12"},"coordinates":[6386,4130]},{"type":"Point","properties":{"Station_ID":"STRW3","Station_Nam":"STRATFORD 1NW","Latitude":"44.81750","Longitude":"-90.08990","Snowdepth":"2.000","Units":"in","Rept_Date":"2020-03-16 12"},"coordinates":[1851,4292]},{"type":"Point","properties":{"Station_ID":"SPOW3","Station_Nam":"SPOONER,WI","Latitude":"45.82360","Longitude":"-91.70000","Snowdepth":"2.000","Units":"in","Rept_Date":"2020-03-16 13"},"coordinates":[1434,5123]},{"type":"Point","properties":{"Station_ID":"RCEM5","Station_Nam":"RICE","Latitude":"45.75760","Longitude":"-94.20720","Snowdepth":"2.000","Units":"in","Rept_Date":"2020-03-16 12"},"coordinates":[785,5069]},{"type":"Point","properties":{"Station_ID":"MN0GWSNW","Station_Nam":"LAKE ELMO 2.9 SE","Latitude":"44.97220","Longitude":"-92.83065","Snowdepth":"2.000","Units":"in","Rept_Date":"2020-03-16 12"},"coordinates":[1141,4420]},{"type":"Point","properties":{"Station_ID":"MN-SH-10","Station_Nam":"BIG LAKE 5.6 NNE, MN","Latitude":"45.41409","Longitude":"-93.69190","Snowdepth":"2.000","Units":"in","Rept_Date":"2020-03-16 13"},"coordinates":[918,4785]},{"type":"Point","properties":{"Station_ID":"MLLW3","Station_Nam":"MERRILL 8W","Latitude":"45.17810","Longitude":"-89.84810","Snowdepth":"2.000","Units":"in","Rept_Date":"2020-03-16 11"},"coordinates":[1913,4590]},{"type":"Point","properties":{"Station_ID":"ME-SM-3","Station_Nam":"PALMYRA 3.5 NW, ME","Latitude":"44.87180","Longitude":"-69.41952","Snowdepth":"2.000","Units":"in","Rept_Date":"2020-03-16 12"},"coordinates":[7203,4337]},{"type":"Point","properties":{"Station_ID":"BKEM5","Station_Nam":"BRECKENRIDGE 4NE","Latitude":"46.30470","Longitude":"-96.52170","Snowdepth":"2.000","Units":"in","Rept_Date":"2020-03-16 12"},"coordinates":[186,5521]},{"type":"Point","properties":{"Station_ID":"ANTW3","Station_Nam":"ANTIGO,WI","Latitude":"45.13330","Longitude":"-89.15000","Snowdepth":"2.000","Units":"in","Rept_Date":"2020-03-16 13"},"coordinates":[2094,4553]},{"type":"Point","properties":{"Station_ID":"CAN-MB-90","Station_Nam":"STE ANNE 4.8 E, CA","Latitude":"49.67252","Longitude":"-96.58140","Snowdepth":"1.600","Units":"in","Rept_Date":"2020-03-16 14"},"coordinates":[170,8302]},{"type":"Point","properties":{"Station_ID":"SD-MH-1","Station_Nam":"SIOUX FALLS 5.0 SE ARPT, SD","Latitude":"43.52360","Longitude":"-96.66780","Snowdepth":"1.500","Units":"in","Rept_Date":"2020-03-16 13"},"coordinates":[148,3224]},{"type":"Point","properties":{"Station_ID":"NH-MR-45","Station_Nam":"NORTHFIELD 2.8 E, NH","Latitude":"43.43945","Longitude":"-71.53730","Snowdepth":"1.500","Units":"in","Rept_Date":"2020-03-16 11"},"coordinates":[6654,3154]},{"type":"Point","properties":{"Station_ID":"NH-MR-41","Station_Nam":"NEWBURY 1.6 NW, NH","Latitude":"43.33667","Longitude":"-72.06060","Snowdepth":"1.500","Units":"in","Rept_Date":"2020-03-16 11"},"coordinates":[6519,3069]},{"type":"Point","properties":{"Station_ID":"NE-SW-7","Station_Nam":"SEWARD 0.5 NE, NE","Latitude":"40.91689","Longitude":"-97.08981","Snowdepth":"1.500","Units":"in","Rept_Date":"2020-03-16 13"},"coordinates":[39,1071]},{"type":"Point","properties":{"Station_ID":"MN-AA-76","Station_Nam":"NOWTHEN 2.9 SSE, MN","Latitude":"45.30360","Longitude":"-93.42620","Snowdepth":"1.500","Units":"in","Rept_Date":"2020-03-16 13"},"coordinates":[987,4694]},{"type":"Point","properties":{"Station_ID":"MD-GR-12","Station_Nam":"ACCIDENT 3.9 E, MD","Latitude":"39.62069","Longitude":"-79.24750","Snowdepth":"1.500","Units":"in","Rept_Date":"2020-03-16 12"},"coordinates":[4658,0]},{"type":"Point","properties":{"Station_ID":"ME-CM-54","Station_Nam":"WINDHAM 3.9 NW, ME","Latitude":"43.85787","Longitude":"-70.46200","Snowdepth":"1.400","Units":"in","Rept_Date":"2020-03-16 12"},"coordinates":[6933,3500]},{"type":"Point","properties":{"Station_ID":"CAN-NB-5","Station_Nam":"OAK POINT 0.9 SSW, CA","Latitude":"45.50752","Longitude":"-66.09860","Snowdepth":"1.200","Units":"in","Rept_Date":"2020-03-16 12"},"coordinates":[8062,4862]},{"type":"Point","properties":{"Station_ID":"WSFW3","Station_Nam":"TOWN OF WESTFORD","Latitude":"43.47190","Longitude":"-88.88250","Snowdepth":"1.000","Units":"in","Rept_Date":"2020-03-16 12"},"coordinates":[2163,3181]},{"type":"Point","properties":{"Station_ID":"WORV1","Station_Nam":"WORCESTER 2 W","Latitude":"44.37470","Longitude":"-72.58220","Snowdepth":"1.000","Units":"in","Rept_Date":"2020-03-16 11"},"coordinates":[6384,3927]},{"type":"Point","properties":{"Station_ID":"WNDM1","Station_Nam":"WINDHAM 2NW","Latitude":"43.85670","Longitude":"-70.46630","Snowdepth":"1.000","Units":"in","Rept_Date":"2020-03-16 11"},"coordinates":[6932,3499]},{"type":"Point","properties":{"Station_ID":"WMRM5","Station_Nam":"WILLMAR 5N","Latitude":"45.19010","Longitude":"-95.05860","Snowdepth":"1.000","Units":"in","Rept_Date":"2020-03-16 11"},"coordinates":[564,4600]},{"type":"Point","properties":{"Station_ID":"WI-WN-9","Station_Nam":"NEENAH 1.1 ENE, WI","Latitude":"44.17370","Longitude":"-88.45130","Snowdepth":"1.000","Units":"in","Rept_Date":"2020-03-16 13"},"coordinates":[2275,3761]},{"type":"Point","properties":{"Station_ID":"WI-WD-2","Station_Nam":"WISCONSIN RAPIDS 4.6 SSE, WI","Latitude":"44.33823","Longitude":"-89.78200","Snowdepth":"1.000","Units":"in","Rept_Date":"2020-03-16 13"},"coordinates":[1931,3896]},{"type":"Point","properties":{"Station_ID":"WI-DD-16","Station_Nam":"BEAVER DAM 2.4 WNW, WI","Latitude":"43.47210","Longitude":"-88.88280","Snowdepth":"1.000","Units":"in","Rept_Date":"2020-03-16 13"},"coordinates":[2163,3181]},{"type":"Point","properties":{"Station_ID":"WHTM5","Station_Nam":"WHEATON,MN","Latitude":"45.80000","Longitude":"-96.48330","Snowdepth":"1.000","Units":"in","Rept_Date":"2020-03-16 13"},"coordinates":[196,5104]},{"type":"Point","properties":{"Station_ID":"VT-WS-10","Station_Nam":"NORTHFIELD 1.5 N, VT","Latitude":"44.16986","Longitude":"-72.65200","Snowdepth":"1.000","Units":"in","Rept_Date":"2020-03-16 12"},"coordinates":[6366,3757]},{"type":"Point","properties":{"Station_ID":"VT-LM-1","Station_Nam":"STOWE 0.2 SW, VT","Latitude":"44.46399","Longitude":"-72.69070","Snowdepth":"1.000","Units":"in","Rept_Date":"2020-03-16 12"},"coordinates":[6356,4000]},{"type":"Point","properties":{"Station_ID":"VT-AD-20","Station_Nam":"HANCOCK 0.3 S, VT","Latitude":"43.92166","Longitude":"-72.84042","Snowdepth":"1.000","Units":"in","Rept_Date":"2020-03-16 12"},"coordinates":[6317,3552]},{"type":"Point","properties":{"Station_ID":"THLM5","Station_Nam":"THEILMAN 1SSW","Latitude":"44.28130","Longitude":"-92.19430","Snowdepth":"1.000","Units":"in","Rept_Date":"2020-03-16 12"},"coordinates":[1306,3849]},{"type":"Point","properties":{"Station_ID":"ROWM3","Station_Nam":"ROWE 3NE","Latitude":"42.73500","Longitude":"-72.86920","Snowdepth":"1.000","Units":"in","Rept_Date":"2020-03-16 11"},"coordinates":[6309,2572]},{"type":"Point","properties":{"Station_ID":"ROBM1","Station_Nam":"ROBBINSTON","Latitude":"45.08520","Longitude":"-67.12050","Snowdepth":"1.000","Units":"in","Rept_Date":"2020-03-17 04"},"coordinates":[7798,4513]},{"type":"Point","properties":{"Station_ID":"RDFN6","Station_Nam":"REDFIELD 8N","Latitude":"43.64130","Longitude":"-75.88400","Snowdepth":"1.000","Units":"in","Rept_Date":"2020-03-16 11"},"coordinates":[5529,3321]},{"type":"Point","properties":{"Station_ID":"PSHW3","Station_Nam":"PESHTIGO","Latitude":"45.02810","Longitude":"-87.73560","Snowdepth":"1.000","Units":"in","Rept_Date":"2020-03-16 12"},"coordinates":[2460,4466]},{"type":"Point","properties":{"Station_ID":"PLFV1","Station_Nam":"PLAINFIELD","Latitude":"44.27610","Longitude":"-72.41500","Snowdepth":"1.000","Units":"in","Rept_Date":"2020-03-16 11"},"coordinates":[6427,3845]},{"type":"Point","properties":{"Station_ID":"ORAN3","Station_Nam":"ORANGE","Latitude":"43.66880","Longitude":"-71.94830","Snowdepth":"1.000","Units":"in","Rept_Date":"2020-03-16 11"},"coordinates":[6548,3343]},{"type":"Point","properties":{"Station_ID":"NUMM5","Station_Nam":"NEW ULM 3SE","Latitude":"44.29450","Longitude":"-94.40840","Snowdepth":"1.000","Units":"in","Rept_Date":"2020-03-16 10"},"coordinates":[733,3860]},{"type":"Point","properties":{"Station_ID":"NH-MR-6","Station_Nam":"DANBURY 2.2 ESE, NH","Latitude":"43.52000","Longitude":"-71.81900","Snowdepth":"1.000","Units":"in","Rept_Date":"2020-03-16 13"},"coordinates":[6581,3221]},{"type":"Point","properties":{"Station_ID":"NE-SY-9","Station_Nam":"GRETNA 0.1 SSE, NE","Latitude":"41.12710","Longitude":"-96.24740","Snowdepth":"1.000","Units":"in","Rept_Date":"2020-03-16 14"},"coordinates":[257,1244]},{"type":"Point","properties":{"Station_ID":"NE-LA-19","Station_Nam":"LINCOLN 6.8 SE, NE","Latitude":"40.74944","Longitude":"-96.59280","Snowdepth":"1.000","Units":"in","Rept_Date":"2020-03-16 13"},"coordinates":[167,932]},{"type":"Point","properties":{"Station_ID":"MONS2","Station_Nam":"MONTROSE","Latitude":"43.70500","Longitude":"-97.18780","Snowdepth":"1.000","Units":"in","Rept_Date":"2020-03-16 13"},"coordinates":[13,3373]},{"type":"Point","properties":{"Station_ID":"MNF74YNU","Station_Nam":"NEW ULM 3.3 ESE","Latitude":"44.29029","Longitude":"-94.40196","Snowdepth":"1.000","Units":"in","Rept_Date":"2020-03-16 10"},"coordinates":[734,3857]},{"type":"Point","properties":{"Station_ID":"MNEY8CTB","Station_Nam":"MIDLAND JUNCTION 2.2 ENE","Latitude":"44.33041","Longitude":"-91.95891","Snowdepth":"1.000","Units":"in","Rept_Date":"2020-03-16 13"},"coordinates":[1367,3890]},{"type":"Point","properties":{"Station_ID":"MLRM5","Station_Nam":"MELROSE","Latitude":"45.67710","Longitude":"-94.80200","Snowdepth":"1.000","Units":"in","Rept_Date":"2020-03-16 12"},"coordinates":[631,5002]},{"type":"Point","properties":{"Station_ID":"MIAM5","Station_Nam":"MILAN 1NW","Latitude":"45.12190","Longitude":"-95.92690","Snowdepth":"1.000","Units":"in","Rept_Date":"2020-03-16 23"},"coordinates":[340,4544]},{"type":"Point","properties":{"Station_ID":"MI-GT-21","Station_Nam":"KINGSLEY 2.7 ENE, MI","Latitude":"44.59871","Longitude":"-85.48426","Snowdepth":"1.000","Units":"in","Rept_Date":"2020-03-16 13"},"coordinates":[3043,4112]},{"type":"Point","properties":{"Station_ID":"MI-BZ-1","Station_Nam":"BENZONIA 5.3 S, MI","Latitude":"44.53976","Longitude":"-86.10650","Snowdepth":"1.000","Units":"in","Rept_Date":"2020-03-16 14"},"coordinates":[2882,4063]},{"type":"Point","properties":{"Station_ID":"ME-CM-125","Station_Nam":"CUMBERLAND CENTER 4.4 NW, ME","Latitude":"43.84640","Longitude":"-70.31340","Snowdepth":"1.000","Units":"in","Rept_Date":"2020-03-16 12"},"coordinates":[6971,3490]},{"type":"Point","properties":{"Station_ID":"LANC007","Station_Nam":"DAVEY 1.2 NNW, NE","Latitude":"41.00320","Longitude":"-96.67630","Snowdepth":"1.000","Units":"in","Rept_Date":"2020-03-16 13"},"coordinates":[146,1142]},{"type":"Point","properties":{"Station_ID":"HLSI4","Station_Nam":"HOLSTEIN 5 NNW","Latitude":"42.54630","Longitude":"-95.61100","Snowdepth":"1.000","Units":"in","Rept_Date":"2020-03-16 12"},"coordinates":[421,2416]},{"type":"Point","properties":{"Station_ID":"FSD","Station_Nam":"SIOUX FALLS, SD","Latitude":"43.58750","Longitude":"-96.72940","Snowdepth":"1.000","Units":"in","Rept_Date":"2020-03-16 12"},"coordinates":[132,3276]},{"type":"Point","properties":{"Station_ID":"FRSM2","Station_Nam":"FROSTBURG 2 COOP","Latitude":"39.66000","Longitude":"-78.93580","Snowdepth":"1.000","Units":"in","Rept_Date":"2020-03-16 11"},"coordinates":[4739,32]},{"type":"Point","properties":{"Station_ID":"FORM5","Station_Nam":"FOREST LAKE 5NE","Latitude":"45.33170","Longitude":"-92.89820","Snowdepth":"1.000","Units":"in","Rept_Date":"2020-03-16 12"},"coordinates":[1124,4717]},{"type":"Point","properties":{"Station_ID":"FISW3","Station_Nam":"FISH CREEK 1 E WWTP","Latitude":"45.12420","Longitude":"-87.22920","Snowdepth":"1.000","Units":"in","Rept_Date":"2020-03-16 12"},"coordinates":[2592,4546]},{"type":"Point","properties":{"Station_ID":"FCLN1","Station_Nam":"FT CALHOUN 4W","Latitude":"41.44670","Longitude":"-96.09190","Snowdepth":"1.000","Units":"in","Rept_Date":"2020-03-16 12"},"coordinates":[297,1508]},{"type":"Point","properties":{"Station_ID":"CTEN1","Station_Nam":"DOANE COLLEGE","Latitude":"40.61670","Longitude":"-96.95000","Snowdepth":"1.000","Units":"in","Rept_Date":"2020-03-16 12"},"coordinates":[75,823]},{"type":"Point","properties":{"Station_ID":"CNNS2","Station_Nam":"CANTON","Latitude":"43.31120","Longitude":"-96.58770","Snowdepth":"1.000","Units":"in","Rept_Date":"2020-03-16 12"},"coordinates":[169,3048]}]}},"arcs":[],"transform":{"scale":[0.003862396239623963,0.0012107420742074203],"translate":[-97.2386,39.62069]}}