{"type":"Topology","objects":{"snowdepth_geo":{"type":"GeometryCollection","name":"snowdepth","crs":{"type":"name","properties":{"name":"urn:ogc:def:crs:OGC:1.3:CRS84"}},"geometries":[{"type":"Point","properties":{"Station_ID":"MMSV1","Station_Nam":"MOUNT MANSFIELD","Latitude":"44.53330","Longitude":"-72.83330","Snowdepth":"88.000","Units":"in","Rept_Date":"2019-12-16 05"},"coordinates":[5728,5524]},{"type":"Point","properties":{"Station_ID":"PRKM4","Station_Nam":"MUNISING EAST","Latitude":"46.42580","Longitude":"-86.62000","Snowdepth":"76.500","Units":"in","Rept_Date":"2019-12-16 06"},"coordinates":[2492,6701]},{"type":"Point","properties":{"Station_ID":"OGIQ6","Station_Nam":"OGOKI CAMP","Latitude":"50.76680","Longitude":"-87.85820","Snowdepth":"61.100","Units":"in","Rept_Date":"2019-12-16 06"},"coordinates":[2202,9402]},{"type":"Point","properties":{"Station_ID":"AUDQ6","Station_Nam":"AUDEN","Latitude":"48.52600","Longitude":"-82.57570","Snowdepth":"47.640","Units":"in","Rept_Date":"2019-12-16 06"},"coordinates":[3441,8008]},{"type":"Point","properties":{"Station_ID":"PDLM4","Station_Nam":"PAINESDALE","Latitude":"47.04160","Longitude":"-88.67170","Snowdepth":"44.000","Units":"in","Rept_Date":"2019-12-15 13"},"coordinates":[2011,7084]},{"type":"Point","properties":{"Station_ID":"DVLQ6","Station_Nam":"DEVIOUS LAKE","Latitude":"49.19890","Longitude":"-87.76440","Snowdepth":"43.460","Units":"in","Rept_Date":"2019-12-16 06"},"coordinates":[2224,8426]},{"type":"Point","properties":{"Station_ID":"IWOM4","Station_Nam":"IRONWOOD#2","Latitude":"46.46520","Longitude":"-90.13820","Snowdepth":"38.000","Units":"in","Rept_Date":"2019-12-15 13"},"coordinates":[1666,6725]},{"type":"Point","properties":{"Station_ID":"MI-HG-18","Station_Nam":"CALUMET 0.7 W (TAMARACK), MI","Latitude":"47.24560","Longitude":"-88.46791","Snowdepth":"36.000","Units":"in","Rept_Date":"2019-12-15 13"},"coordinates":[2058,7211]},{"type":"Point","properties":{"Station_ID":"HURW3","Station_Nam":"HURLEY","Latitude":"46.46250","Longitude":"-90.19550","Snowdepth":"36.000","Units":"in","Rept_Date":"2019-12-15 14"},"coordinates":[1653,6724]},{"type":"Point","properties":{"Station_ID":"GMSM4","Station_Nam":"GRAND MARAIS 10S","Latitude":"46.50940","Longitude":"-85.96310","Snowdepth":"35.000","Units":"in","Rept_Date":"2019-12-15 13"},"coordinates":[2646,6753]},{"type":"Point","properties":{"Station_ID":"SWTW3","Station_Nam":"SUPERIOR WWTP","Latitude":"46.72700","Longitude":"-92.07200","Snowdepth":"34.000","Units":"in","Rept_Date":"2019-12-16 06"},"coordinates":[1213,6888]},{"type":"Point","properties":{"Station_ID":"UPSW3","Station_Nam":"UPSON,WI","Latitude":"46.36780","Longitude":"-90.41220","Snowdepth":"33.000","Units":"in","Rept_Date":"2019-12-16 00"},"coordinates":[1602,6665]},{"type":"Point","properties":{"Station_ID":"KSGM4","Station_Nam":"KEARSARGE","Latitude":"47.27520","Longitude":"-88.41700","Snowdepth":"33.000","Units":"in","Rept_Date":"2019-12-15 13"},"coordinates":[2070,7229]},{"type":"Point","properties":{"Station_ID":"GNLM4","Station_Nam":"GREENLAND 6N","Latitude":"46.87360","Longitude":"-89.10060","Snowdepth":"32.000","Units":"in","Rept_Date":"2019-12-15 13"},"coordinates":[1910,6980]},{"type":"Point","properties":{"Station_ID":"WI-IR-3","Station_Nam":"PENCE 0.1 E, WI","Latitude":"46.41555","Longitude":"-90.27013","Snowdepth":"30.500","Units":"in","Rept_Date":"2019-12-15 13"},"coordinates":[1635,6695]},{"type":"Point","properties":{"Station_ID":"WLFM5","Station_Nam":"WOLF RIDGE ENVIRON LEARNING CENTER","Latitude":"47.38240","Longitude":"-91.19730","Snowdepth":"29.000","Units":"in","Rept_Date":"2019-12-15 13"},"coordinates":[1418,7296]},{"type":"Point","properties":{"Station_ID":"MQT","Station_Nam":"MARQUETTE, MI","Latitude":"46.53140","Longitude":"-87.54920","Snowdepth":"29.000","Units":"in","Rept_Date":"2019-12-16 06"},"coordinates":[2274,6767]},{"type":"Point","properties":{"Station_ID":"WI-BY-1","Station_Nam":"BAYFIELD 8.8 N, WI","Latitude":"46.93855","Longitude":"-90.83490","Snowdepth":"28.000","Units":"in","Rept_Date":"2019-12-15 13"},"coordinates":[1503,7020]},{"type":"Point","properties":{"Station_ID":"QNCM4","Station_Nam":"QUINCY HILL","Latitude":"47.13640","Longitude":"-88.57950","Snowdepth":"28.000","Units":"in","Rept_Date":"2019-12-15 12"},"coordinates":[2032,7143]},{"type":"Point","properties":{"Station_ID":"PDGM4","Station_Nam":"PAULDING","Latitude":"46.39760","Longitude":"-89.17940","Snowdepth":"28.000","Units":"in","Rept_Date":"2019-12-15 14"},"coordinates":[1891,6683]},{"type":"Point","properties":{"Station_ID":"MI-HG-11","Station_Nam":"HOUGHTON 3.0 SSW, MI","Latitude":"47.07704","Longitude":"-88.59680","Snowdepth":"28.000","Units":"in","Rept_Date":"2019-12-15 13"},"coordinates":[2028,7106]},{"type":"Point","properties":{"Station_ID":"MI-BG-3","Station_Nam":"L'ANSE 17.8 SE, MI","Latitude":"46.55730","Longitude":"-88.20770","Snowdepth":"28.000","Units":"in","Rept_Date":"2019-12-15 13"},"coordinates":[2119,6783]},{"type":"Point","properties":{"Station_ID":"ASXW3","Station_Nam":"ASHLAND,WI","Latitude":"46.55220","Longitude":"-90.91610","Snowdepth":"28.000","Units":"in","Rept_Date":"2019-12-15 14"},"coordinates":[1484,6780]},{"type":"Point","properties":{"Station_ID":"QOU","Station_Nam":"QOU","Latitude":"50.79250","Longitude":"-69.67470","Snowdepth":"27.244","Units":"in","Rept_Date":"2019-12-15 12"},"coordinates":[6469,9418]},{"type":"Point","properties":{"Station_ID":"WI-VL-10","Station_Nam":"LAND O LAKES 4.3 WNW, WI","Latitude":"46.17440","Longitude":"-89.30380","Snowdepth":"27.000","Units":"in","Rept_Date":"2019-12-15 13"},"coordinates":[1862,6545]},{"type":"Point","properties":{"Station_ID":"QMD","Station_Nam":"QMD","Latitude":"49.29060","Longitude":"-75.84500","Snowdepth":"26.732","Units":"in","Rept_Date":"2019-12-15 12"},"coordinates":[5021,8483]},{"type":"Point","properties":{"Station_ID":"QLB","Station_Nam":"QLB","Latitude":"50.72360","Longitude":"-75.10000","Snowdepth":"26.614","Units":"in","Rept_Date":"2019-12-15 12"},"coordinates":[5196,9375]},{"type":"Point","properties":{"Station_ID":"WRSM5","Station_Nam":"WRENSHALL","Latitude":"46.61550","Longitude":"-92.38380","Snowdepth":"26.000","Units":"in","Rept_Date":"2019-12-15 14"},"coordinates":[1139,6819]},{"type":"Point","properties":{"Station_ID":"PHEW3","Station_Nam":"PHELPS","Latitude":"46.06630","Longitude":"-89.07520","Snowdepth":"26.000","Units":"in","Rept_Date":"2019-12-15 13"},"coordinates":[1916,6477]},{"type":"Point","properties":{"Station_ID":"MI-HG-17","Station_Nam":"CALUMET 0.5 NE (CALUMET LAKE), MI","Latitude":"47.25300","Longitude":"-88.44652","Snowdepth":"26.000","Units":"in","Rept_Date":"2019-12-15 13"},"coordinates":[2063,7216]},{"type":"Point","properties":{"Station_ID":"MAIW3","Station_Nam":"MADELINE ISLAND","Latitude":"46.78330","Longitude":"-90.76670","Snowdepth":"26.000","Units":"in","Rept_Date":"2019-12-15 14"},"coordinates":[1519,6923]},{"type":"Point","properties":{"Station_ID":"IBLM5","Station_Nam":"ISABELLA 14W","Latitude":"47.59360","Longitude":"-91.65140","Snowdepth":"26.000","Units":"in","Rept_Date":"2019-12-15 15"},"coordinates":[1311,7428]},{"type":"Point","properties":{"Station_ID":"QCU","Station_Nam":"QCU","Latitude":"47.82750","Longitude":"-76.59830","Snowdepth":"25.354","Units":"in","Rept_Date":"2019-12-15 12"},"coordinates":[4844,7573]},{"type":"Point","properties":{"Station_ID":"WRPW3","Station_Nam":"WATER PURIFICATION PLANT","Latitude":"44.38800","Longitude":"-89.80550","Snowdepth":"25.000","Units":"in","Rept_Date":"2019-12-15 12"},"coordinates":[1744,5433]},{"type":"Point","properties":{"Station_ID":"WTRM4","Station_Nam":"WATERSMEET 12WSW","Latitude":"46.22310","Longitude":"-89.40850","Snowdepth":"24.000","Units":"in","Rept_Date":"2019-12-15 12"},"coordinates":[1838,6575]},{"type":"Point","properties":{"Station_ID":"WI-VL-9","Station_Nam":"LAND O' LAKES 11.7 W, WI","Latitude":"46.19023","Longitude":"-89.45790","Snowdepth":"24.000","Units":"in","Rept_Date":"2019-12-15 13"},"coordinates":[1826,6554]},{"type":"Point","properties":{"Station_ID":"WI-BY-14","Station_Nam":"ASHLAND 9.8 W, WI","Latitude":"46.59742","Longitude":"-91.07856","Snowdepth":"24.000","Units":"in","Rept_Date":"2019-12-15 13"},"coordinates":[1446,6808]},{"type":"Point","properties":{"Station_ID":"MI-HG-14","Station_Nam":"HOUGHTON 0.6 SE, MI","Latitude":"47.10847","Longitude":"-88.55235","Snowdepth":"24.000","Units":"in","Rept_Date":"2019-12-15 13"},"coordinates":[2039,7126]},{"type":"Point","properties":{"Station_ID":"LNOW3","Station_Nam":"LAND O LAKES","Latitude":"46.19000","Longitude":"-89.45700","Snowdepth":"24.000","Units":"in","Rept_Date":"2019-12-15 13"},"coordinates":[1826,6554]},{"type":"Point","properties":{"Station_ID":"IRMM4","Station_Nam":"WWTP","Latitude":"46.46670","Longitude":"-90.18330","Snowdepth":"24.000","Units":"in","Rept_Date":"2019-12-15 13"},"coordinates":[1656,6726]},{"type":"Point","properties":{"Station_ID":"HERM4","Station_Nam":"HERMAN,MI","Latitude":"46.65000","Longitude":"-88.33330","Snowdepth":"24.000","Units":"in","Rept_Date":"2019-12-15 13"},"coordinates":[2090,6840]},{"type":"Point","properties":{"Station_ID":"QGO","Station_Nam":"QGO","Latitude":"48.85500","Longitude":"-74.20640","Snowdepth":"23.858","Units":"in","Rept_Date":"2019-12-15 12"},"coordinates":[5405,8212]},{"type":"Point","properties":{"Station_ID":"QFT","Station_Nam":"QFT","Latitude":"50.83280","Longitude":"-74.40390","Snowdepth":"23.031","Units":"in","Rept_Date":"2019-12-15 12"},"coordinates":[5359,9443]},{"type":"Point","properties":{"Station_ID":"WI-DG-20","Station_Nam":"SOLON SPRINGS 1.2 W, WI","Latitude":"46.35217","Longitude":"-91.84405","Snowdepth":"23.000","Units":"in","Rept_Date":"2019-12-15 13"},"coordinates":[1266,6655]},{"type":"Point","properties":{"Station_ID":"WI-BY-2","Station_Nam":"MELLEN 18.6 SW, WI","Latitude":"46.16937","Longitude":"-90.98090","Snowdepth":"23.000","Units":"in","Rept_Date":"2019-12-15 13"},"coordinates":[1469,6541]},{"type":"Point","properties":{"Station_ID":"MI-HG-12","Station_Nam":"DOLLAR BAY 0.2 ENE, MI","Latitude":"47.12067","Longitude":"-88.49895","Snowdepth":"23.000","Units":"in","Rept_Date":"2019-12-15 13"},"coordinates":[2051,7133]},{"type":"Point","properties":{"Station_ID":"CMKW3","Station_Nam":"CLAM LAKE 4W","Latitude":"46.16940","Longitude":"-90.98080","Snowdepth":"23.000","Units":"in","Rept_Date":"2019-12-15 13"},"coordinates":[1469,6541]},{"type":"Point","properties":{"Station_ID":"SUAW3","Station_Nam":"SUAMICO","Latitude":"44.60190","Longitude":"-88.09780","Snowdepth":"22.000","Units":"in","Rept_Date":"2019-12-15 12"},"coordinates":[2145,5566]},{"type":"Point","properties":{"Station_ID":"MNSM4","Station_Nam":"MUNISING","Latitude":"46.41210","Longitude":"-86.66250","Snowdepth":"22.000","Units":"in","Rept_Date":"2019-12-15 11"},"coordinates":[2482,6692]},{"type":"Point","properties":{"Station_ID":"MN4DC1DW","Station_Nam":"FOUR CORNERS 3.6 E","Latitude":"46.84373","Longitude":"-92.20633","Snowdepth":"22.000","Units":"in","Rept_Date":"2019-12-15 12"},"coordinates":[1181,6961]},{"type":"Point","properties":{"Station_ID":"MI-MQ-2","Station_Nam":"MARQUETTE 6.5 SSE, MI","Latitude":"46.46461","Longitude":"-87.34064","Snowdepth":"22.000","Units":"in","Rept_Date":"2019-12-15 14"},"coordinates":[2323,6725]},{"type":"Point","properties":{"Station_ID":"MI-MQ-19","Station_Nam":"ISHPEMING 7.2 SW, MI","Latitude":"46.40550","Longitude":"-87.75670","Snowdepth":"22.000","Units":"in","Rept_Date":"2019-12-15 11"},"coordinates":[2225,6688]},{"type":"Point","properties":{"Station_ID":"MI-HG-1","Station_Nam":"HOUGHTON 1.6 ESE, MI","Latitude":"47.10774","Longitude":"-88.52940","Snowdepth":"22.000","Units":"in","Rept_Date":"2019-12-15 13"},"coordinates":[2044,7125]},{"type":"Point","properties":{"Station_ID":"ILIM5","Station_Nam":"ISLAND LAKE","Latitude":"47.02400","Longitude":"-92.07000","Snowdepth":"22.000","Units":"in","Rept_Date":"2019-12-15 15"},"coordinates":[1213,7073]},{"type":"Point","properties":{"Station_ID":"GGRM4","Station_Nam":"GREEN GARDEN NO.2","Latitude":"46.45330","Longitude":"-87.30380","Snowdepth":"22.000","Units":"in","Rept_Date":"2019-12-15 13"},"coordinates":[2332,6718]},{"type":"Point","properties":{"Station_ID":"EVRW3","Station_Nam":"EAGLE RIVER-4 E","Latitude":"45.91890","Longitude":"-89.15280","Snowdepth":"22.000","Units":"in","Rept_Date":"2019-12-15 13"},"coordinates":[1898,6386]},{"type":"Point","properties":{"Station_ID":"DLHM5","Station_Nam":"DULUTH NWS","Latitude":"46.83680","Longitude":"-92.21080","Snowdepth":"22.000","Units":"in","Rept_Date":"2019-12-16 06"},"coordinates":[1180,6957]},{"type":"Point","properties":{"Station_ID":"DLH","Station_Nam":"DULUTH, MN","Latitude":"46.83690","Longitude":"-92.21030","Snowdepth":"22.000","Units":"in","Rept_Date":"2019-12-16 00"},"coordinates":[1180,6957]},{"type":"Point","properties":{"Station_ID":"AURW3","Station_Nam":"AURORA","Latitude":"45.77000","Longitude":"-88.11810","Snowdepth":"22.000","Units":"in","Rept_Date":"2019-12-15 13"},"coordinates":[2141,6293]},{"type":"Point","properties":{"Station_ID":"QGD","Station_Nam":"QGD","Latitude":"51.11140","Longitude":"-67.13940","Snowdepth":"21.850","Units":"in","Rept_Date":"2019-12-15 12"},"coordinates":[7064,9616]},{"type":"Point","properties":{"Station_ID":"MLZ","Station_Nam":"MLZ","Latitude":"50.66170","Longitude":"-68.82360","Snowdepth":"21.535","Units":"in","Rept_Date":"2019-12-15 12"},"coordinates":[6669,9336]},{"type":"Point","properties":{"Station_ID":"WI-BY-6","Station_Nam":"BARNES 2.2 S, WI","Latitude":"46.30264","Longitude":"-91.50320","Snowdepth":"21.000","Units":"in","Rept_Date":"2019-12-15 13"},"coordinates":[1346,6624]},{"type":"Point","properties":{"Station_ID":"PRDM4","Station_Nam":"PARADISE","Latitude":"46.60380","Longitude":"-85.03960","Snowdepth":"21.000","Units":"in","Rept_Date":"2019-12-15 12"},"coordinates":[2863,6812]},{"type":"Point","properties":{"Station_ID":"MI-HG-13","Station_Nam":"HOUGHTON 1.2 WNW, MI","Latitude":"47.12035","Longitude":"-88.58525","Snowdepth":"21.000","Units":"in","Rept_Date":"2019-12-15 13"},"coordinates":[2031,7133]},{"type":"Point","properties":{"Station_ID":"EGRW3","Station_Nam":"EAGLE RIVER-SOUTH","Latitude":"45.91360","Longitude":"-89.24360","Snowdepth":"21.000","Units":"in","Rept_Date":"2019-12-15 13"},"coordinates":[1876,6382]},{"type":"Point","properties":{"Station_ID":"QCX","Station_Nam":"QCX","Latitude":"51.32830","Longitude":"-70.08060","Snowdepth":"20.905","Units":"in","Rept_Date":"2019-12-15 12"},"coordinates":[6374,9751]},{"type":"Point","properties":{"Station_ID":"WI-VL-14","Station_Nam":"BOULDER JUNCTION 1.4 NE, WI","Latitude":"46.12840","Longitude":"-89.62470","Snowdepth":"20.500","Units":"in","Rept_Date":"2019-12-15 13"},"coordinates":[1787,6516]},{"type":"Point","properties":{"Station_ID":"HTLN3","Station_Nam":"HERMIT LAKE SNOWPLOT","Latitude":"44.26130","Longitude":"-71.28330","Snowdepth":"20.000","Units":"in","Rept_Date":"2019-12-15 10"},"coordinates":[6092,5354]},{"type":"Point","properties":{"Station_ID":"GLDM4","Station_Nam":"GLADSTONE NO. 2","Latitude":"45.84330","Longitude":"-87.03910","Snowdepth":"20.000","Units":"in","Rept_Date":"2019-12-15 12"},"coordinates":[2394,6339]},{"type":"Point","properties":{"Station_ID":"CRVW3","Station_Nam":"CRIVITZ HIGH FALLS","Latitude":"45.35750","Longitude":"-88.19190","Snowdepth":"20.000","Units":"in","Rept_Date":"2019-12-15 13"},"coordinates":[2123,6036]},{"type":"Point","properties":{"Station_ID":"MN-LK-4","Station_Nam":"TWO HARBORS 3.6 WNW, MN","Latitude":"47.04118","Longitude":"-91.75280","Snowdepth":"19.500","Units":"in","Rept_Date":"2019-12-15 13"},"coordinates":[1287,7084]},{"type":"Point","properties":{"Station_ID":"STMM4","Station_Nam":"STAMBAUGH 2SSE","Latitude":"46.05550","Longitude":"-88.62780","Snowdepth":"19.000","Units":"in","Rept_Date":"2019-12-15 13"},"coordinates":[2021,6471]},{"type":"Point","properties":{"Station_ID":"COUW3","Station_Nam":"COUDERAY,WI","Latitude":"45.86670","Longitude":"-91.45000","Snowdepth":"19.000","Units":"in","Rept_Date":"2019-12-15 22"},"coordinates":[1359,6353]},{"type":"Point","properties":{"Station_ID":"BGBM4","Station_Nam":"BIG BAY 1NW","Latitude":"46.83250","Longitude":"-87.75040","Snowdepth":"19.000","Units":"in","Rept_Date":"2019-12-15 13"},"coordinates":[2227,6954]},{"type":"Point","properties":{"Station_ID":"BABM5","Station_Nam":"BABBITT","Latitude":"47.71210","Longitude":"-91.95330","Snowdepth":"19.000","Units":"in","Rept_Date":"2019-12-15 13"},"coordinates":[1240,7501]},{"type":"Point","properties":{"Station_ID":"ABGW3","Station_Nam":"AMBERG 9 E","Latitude":"45.48250","Longitude":"-87.81190","Snowdepth":"19.000","Units":"in","Rept_Date":"2019-12-15 12"},"coordinates":[2212,6114]},{"type":"Point","properties":{"Station_ID":"QYR","Station_Nam":"QYR","Latitude":"48.87220","Longitude":"-75.61470","Snowdepth":"18.543","Units":"in","Rept_Date":"2019-12-15 12"},"coordinates":[5075,8223]},{"type":"Point","properties":{"Station_ID":"WI-WB-16","Station_Nam":"SARONA 4.5 NNE, WI","Latitude":"45.77030","Longitude":"-91.76890","Snowdepth":"18.000","Units":"in","Rept_Date":"2019-12-15 13"},"coordinates":[1284,6293]},{"type":"Point","properties":{"Station_ID":"WI-PR-2","Station_Nam":"BUTTERNUT 5.9 SW, WI","Latitude":"45.96501","Longitude":"-90.59750","Snowdepth":"18.000","Units":"in","Rept_Date":"2019-12-15 12"},"coordinates":[1559,6414]},{"type":"Point","properties":{"Station_ID":"RRVM4","Station_Nam":"RAPID RIVER 9S","Latitude":"45.78750","Longitude":"-86.93920","Snowdepth":"18.000","Units":"in","Rept_Date":"2019-12-15 16"},"coordinates":[2417,6304]},{"type":"Point","properties":{"Station_ID":"RLKW3","Station_Nam":"REST LAKE","Latitude":"46.12220","Longitude":"-89.87720","Snowdepth":"18.000","Units":"in","Rept_Date":"2019-12-15 20"},"coordinates":[1728,6512]},{"type":"Point","properties":{"Station_ID":"RHIW3","Station_Nam":"RHINELANDER","Latitude":"45.59860","Longitude":"-89.45080","Snowdepth":"18.000","Units":"in","Rept_Date":"2019-12-15 13"},"coordinates":[1828,6186]},{"type":"Point","properties":{"Station_ID":"MN-SL-15","Station_Nam":"CHISHOLM 0.4 WSW, MN","Latitude":"47.48557","Longitude":"-92.88690","Snowdepth":"18.000","Units":"in","Rept_Date":"2019-12-15 13"},"coordinates":[1021,7360]},{"type":"Point","properties":{"Station_ID":"MI-HG-16","Station_Nam":"SOUTH RANGE 12.6 WSW, MI","Latitude":"47.02452","Longitude":"-88.90350","Snowdepth":"18.000","Units":"in","Rept_Date":"2019-12-15 13"},"coordinates":[1956,7073]},{"type":"Point","properties":{"Station_ID":"IMNM4","Station_Nam":"IRON MOUTAIN 5N","Latitude":"45.87580","Longitude":"-88.04030","Snowdepth":"18.000","Units":"in","Rept_Date":"2019-12-15 13"},"coordinates":[2159,6359]},{"type":"Point","properties":{"Station_ID":"CLKM4","Station_Nam":"CLARKSBURG","Latitude":"46.49910","Longitude":"-87.84500","Snowdepth":"18.000","Units":"in","Rept_Date":"2019-12-15 12"},"coordinates":[2205,6747]},{"type":"Point","properties":{"Station_ID":"CLGM5","Station_Nam":"COLLEGEVILLE ST JOHN","Latitude":"45.57940","Longitude":"-94.39200","Snowdepth":"18.000","Units":"in","Rept_Date":"2019-12-16 00"},"coordinates":[668,6174]},{"type":"Point","properties":{"Station_ID":"BNDM5","Station_Nam":"ELY 25E","Latitude":"47.97190","Longitude":"-91.44860","Snowdepth":"18.000","Units":"in","Rept_Date":"2019-12-15 13"},"coordinates":[1359,7663]},{"type":"Point","properties":{"Station_ID":"QCO","Station_Nam":"QCO","Latitude":"51.45280","Longitude":"-72.20110","Snowdepth":"17.638","Units":"in","Rept_Date":"2019-12-15 12"},"coordinates":[5876,9828]},{"type":"Point","properties":{"Station_ID":"WI-SR-5","Station_Nam":"HAYWARD 9.7 NE, WI","Latitude":"46.12030","Longitude":"-91.35370","Snowdepth":"17.500","Units":"in","Rept_Date":"2019-12-15 14"},"coordinates":[1381,6511]},{"type":"Point","properties":{"Station_ID":"WI-ON-8","Station_Nam":"HAZELHURST 2.1 SSE, WI","Latitude":"45.78186","Longitude":"-89.70330","Snowdepth":"17.500","Units":"in","Rept_Date":"2019-12-15 13"},"coordinates":[1768,6300]},{"type":"Point","properties":{"Station_ID":"WILW3","Station_Nam":"RESERVOIR","Latitude":"45.70000","Longitude":"-89.83330","Snowdepth":"17.000","Units":"in","Rept_Date":"2019-12-15 12"},"coordinates":[1738,6249]},{"type":"Point","properties":{"Station_ID":"WI-PR-6","Station_Nam":"PHILLIPS 1.3 S, WI","Latitude":"45.67677","Longitude":"-90.39543","Snowdepth":"17.000","Units":"in","Rept_Date":"2019-12-15 12"},"coordinates":[1606,6235]},{"type":"Point","properties":{"Station_ID":"WI-BT-14","Station_Nam":"OAKLAND 9.0 ENE, WI","Latitude":"45.95184","Longitude":"-92.21653","Snowdepth":"17.000","Units":"in","Rept_Date":"2019-12-15 13"},"coordinates":[1179,6406]},{"type":"Point","properties":{"Station_ID":"RPDM4","Station_Nam":"RAPID RIVER 4SSE","Latitude":"45.87270","Longitude":"-86.94960","Snowdepth":"17.000","Units":"in","Rept_Date":"2019-12-15 14"},"coordinates":[2415,6357]},{"type":"Point","properties":{"Station_ID":"NCFM4","Station_Nam":"NEWBERRY CORRECTIONAL FACILITY","Latitude":"46.32850","Longitude":"-85.50360","Snowdepth":"17.000","Units":"in","Rept_Date":"2019-12-15 14"},"coordinates":[2754,6640]},{"type":"Point","properties":{"Station_ID":"JCBM4","Station_Nam":"JACOBSVILLE","Latitude":"47.00830","Longitude":"-88.43180","Snowdepth":"17.000","Units":"in","Rept_Date":"2019-12-15 12"},"coordinates":[2067,7063]},{"type":"Point","properties":{"Station_ID":"AVTW3","Station_Nam":"ARBOR VITAE-JOHNSON LAKE","Latitude":"45.89940","Longitude":"-89.72670","Snowdepth":"17.000","Units":"in","Rept_Date":"2019-12-15 12"},"coordinates":[1763,6373]},{"type":"Point","properties":{"Station_ID":"AGNW3","Station_Nam":"ARGONNE-1.5 NW","Latitude":"45.67360","Longitude":"-88.90380","Snowdepth":"17.000","Units":"in","Rept_Date":"2019-12-15 13"},"coordinates":[1956,6233]},{"type":"Point","properties":{"Station_ID":"WI-PR-8","Station_Nam":"PHILLIPS 0.4 SSW, WI","Latitude":"45.69086","Longitude":"-90.40200","Snowdepth":"16.500","Units":"in","Rept_Date":"2019-12-15 13"},"coordinates":[1605,6244]},{"type":"Point","properties":{"Station_ID":"QLI","Station_Nam":"QLI","Latitude":"50.27080","Longitude":"-73.92280","Snowdepth":"16.063","Units":"in","Rept_Date":"2019-12-15 12"},"coordinates":[5472,9093]},{"type":"Point","properties":{"Station_ID":"ZNOM4","Station_Nam":"NORWAY","Latitude":"45.77810","Longitude":"-87.89560","Snowdepth":"16.000","Units":"in","Rept_Date":"2019-12-16 01"},"coordinates":[2193,6298]},{"type":"Point","properties":{"Station_ID":"WTNM4","Station_Nam":"WATTON 2WSW","Latitude":"46.52660","Longitude":"-88.64240","Snowdepth":"16.000","Units":"in","Rept_Date":"2019-12-15 13"},"coordinates":[2017,6764]},{"type":"Point","properties":{"Station_ID":"WI-RS-1","Station_Nam":"LADYSMITH 2.8 WNW, WI","Latitude":"45.48180","Longitude":"-91.14680","Snowdepth":"16.000","Units":"in","Rept_Date":"2019-12-15 13"},"coordinates":[1430,6114]},{"type":"Point","properties":{"Station_ID":"RHLW3","Station_Nam":"RHINELANDER 4NE","Latitude":"45.65270","Longitude":"-89.30740","Snowdepth":"16.000","Units":"in","Rept_Date":"2019-12-15 12"},"coordinates":[1861,6220]},{"type":"Point","properties":{"Station_ID":"MN-SL-139","Station_Nam":"DULUTH 1.2 SE, MN","Latitude":"46.77000","Longitude":"-92.08826","Snowdepth":"16.000","Units":"in","Rept_Date":"2019-12-15 12"},"coordinates":[1209,6915]},{"type":"Point","properties":{"Station_ID":"MMNV1","Station_Nam":"MT. MANSFIELD","Latitude":"44.52480","Longitude":"-72.81540","Snowdepth":"16.000","Units":"in","Rept_Date":"2019-12-15 21"},"coordinates":[5732,5518]},{"type":"Point","properties":{"Station_ID":"JMPW3","Station_Nam":"JUMP RIVER 1 NW","Latitude":"45.35610","Longitude":"-90.80250","Snowdepth":"16.000","Units":"in","Rept_Date":"2019-12-15 13"},"coordinates":[1511,6035]},{"type":"Point","properties":{"Station_ID":"EMBM5","Station_Nam":"EMBARASS,MN","Latitude":"47.65810","Longitude":"-92.19580","Snowdepth":"16.000","Units":"in","Rept_Date":"2019-12-15 14"},"coordinates":[1184,7468]},{"type":"Point","properties":{"Station_ID":"QTM","Station_Nam":"QTM","Latitude":"51.05780","Longitude":"-72.57190","Snowdepth":"15.591","Units":"in","Rept_Date":"2019-12-15 12"},"coordinates":[5789,9583]},{"type":"Point","properties":{"Station_ID":"QTV","Station_Nam":"QTV","Latitude":"49.66000","Longitude":"-69.35690","Snowdepth":"15.276","Units":"in","Rept_Date":"2019-12-15 12"},"coordinates":[6544,8713]},{"type":"Point","properties":{"Station_ID":"MFU","Station_Nam":"MFU","Latitude":"51.52170","Longitude":"-66.91110","Snowdepth":"15.236","Units":"in","Rept_Date":"2019-12-15 12"},"coordinates":[7118,9871]},{"type":"Point","properties":{"Station_ID":"WI-ON-6","Station_Nam":"RHINELANDER 5.2 N, WI","Latitude":"45.71388","Longitude":"-89.42150","Snowdepth":"15.000","Units":"in","Rept_Date":"2019-12-15 14"},"coordinates":[1835,6258]},{"type":"Point","properties":{"Station_ID":"TOGM5","Station_Nam":"CELINA 2E","Latitude":"47.86630","Longitude":"-93.02660","Snowdepth":"15.000","Units":"in","Rept_Date":"2019-12-15 14"},"coordinates":[989,7597]},{"type":"Point","properties":{"Station_ID":"TAKW3","Station_Nam":"RICE RESERVOIR NO. 2","Latitude":"45.53770","Longitude":"-89.73220","Snowdepth":"15.000","Units":"in","Rept_Date":"2019-12-15 13"},"coordinates":[1762,6148]},{"type":"Point","properties":{"Station_ID":"NYMM5","Station_Nam":"NEW YORK MILLS","Latitude":"46.50920","Longitude":"-95.37990","Snowdepth":"15.000","Units":"in","Rept_Date":"2019-12-15 13"},"coordinates":[436,6753]},{"type":"Point","properties":{"Station_ID":"MQRW3","Station_Nam":"MINOCQUA","Latitude":"45.88630","Longitude":"-89.73220","Snowdepth":"15.000","Units":"in","Rept_Date":"2019-12-15 12"},"coordinates":[1762,6365]},{"type":"Point","properties":{"Station_ID":"MN-IT-23","Station_Nam":"BOVEY 13.4 N, MN","Latitude":"47.48855","Longitude":"-93.43497","Snowdepth":"15.000","Units":"in","Rept_Date":"2019-12-15 13"},"coordinates":[893,7362]},{"type":"Point","properties":{"Station_ID":"HVCN3","Station_Nam":"HARVARD CABIN SNOWPLOT","Latitude":"44.26630","Longitude":"-71.27790","Snowdepth":"15.000","Units":"in","Rept_Date":"2019-12-15 10"},"coordinates":[6093,5357]},{"type":"Point","properties":{"Station_ID":"ELYM5","Station_Nam":"ELY","Latitude":"47.90560","Longitude":"-91.82830","Snowdepth":"15.000","Units":"in","Rept_Date":"2019-12-15 14"},"coordinates":[1270,7622]},{"type":"Point","properties":{"Station_ID":"BALW3","Station_Nam":"BALDWIN","Latitude":"44.96330","Longitude":"-92.39050","Snowdepth":"15.000","Units":"in","Rept_Date":"2019-12-15 13"},"coordinates":[1138,5791]},{"type":"Point","properties":{"Station_ID":"CAN-ON-526","Station_Nam":"HILTON BEACH 0.7 SW - MNRF, CAN","Latitude":"46.25357","Longitude":"-83.90014","Snowdepth":"14.600","Units":"in","Rept_Date":"2019-12-15 12"},"coordinates":[3130,6594]},{"type":"Point","properties":{"Station_ID":"CAN-NB-50","Station_Nam":"DOYLEVILLE 2.4 WNW, CAN","Latitude":"47.90803","Longitude":"-66.13279","Snowdepth":"14.400","Units":"in","Rept_Date":"2019-12-15 13"},"coordinates":[7300,7623]},{"type":"Point","properties":{"Station_ID":"WLKW3","Station_Nam":"WHITE LAKE 1 SE","Latitude":"45.14520","Longitude":"-88.74160","Snowdepth":"14.000","Units":"in","Rept_Date":"2019-12-15 14"},"coordinates":[1994,5904]},{"type":"Point","properties":{"Station_ID":"WI-LN-2","Station_Nam":"MERRILL 7.0 W, WI","Latitude":"45.17746","Longitude":"-89.84820","Snowdepth":"14.000","Units":"in","Rept_Date":"2019-12-15 12"},"coordinates":[1734,5924]},{"type":"Point","properties":{"Station_ID":"WI-CH-3","Station_Nam":"CORNELL 4.1 W, WI","Latitude":"45.17024","Longitude":"-91.23610","Snowdepth":"14.000","Units":"in","Rept_Date":"2019-12-15 14"},"coordinates":[1409,5920]},{"type":"Point","properties":{"Station_ID":"WASW3","Station_Nam":"WASHINGTON IS","Latitude":"45.35800","Longitude":"-86.89110","Snowdepth":"14.000","Units":"in","Rept_Date":"2019-12-15 13"},"coordinates":[2428,6037]},{"type":"Point","properties":{"Station_ID":"SULW3","Station_Nam":"SUMMIT LAKE","Latitude":"45.37880","Longitude":"-89.19410","Snowdepth":"14.000","Units":"in","Rept_Date":"2019-12-15 11"},"coordinates":[1888,6050]},{"type":"Point","properties":{"Station_ID":"SAUW3","Station_Nam":"WAUSAU WSAW TV","Latitude":"44.94630","Longitude":"-89.62220","Snowdepth":"14.000","Units":"in","Rept_Date":"2019-12-16 05"},"coordinates":[1788,5781]},{"type":"Point","properties":{"Station_ID":"RHI","Station_Nam":"RHINELANDER-ONEIDA COUNTY AIRPORT","Latitude":"45.63080","Longitude":"-89.46530","Snowdepth":"14.000","Units":"in","Rept_Date":"2019-12-16 00"},"coordinates":[1824,6206]},{"type":"Point","properties":{"Station_ID":"MN-CK-6","Station_Nam":"GRAND MARAIS 4.4 W, MN","Latitude":"47.74865","Longitude":"-90.43760","Snowdepth":"14.000","Units":"in","Rept_Date":"2019-12-15 13"},"coordinates":[1596,7524]},{"type":"Point","properties":{"Station_ID":"MLLW3","Station_Nam":"MERRILL 8W","Latitude":"45.17810","Longitude":"-89.84810","Snowdepth":"14.000","Units":"in","Rept_Date":"2019-12-15 12"},"coordinates":[1735,5925]},{"type":"Point","properties":{"Station_ID":"MI-DL-1","Station_Nam":"GARDEN CORNERS 0.8 NW, MI","Latitude":"45.89815","Longitude":"-86.54850","Snowdepth":"14.000","Units":"in","Rept_Date":"2019-12-15 13"},"coordinates":[2509,6373]},{"type":"Point","properties":{"Station_ID":"GDCM4","Station_Nam":"GARDEN CORNERS","Latitude":"45.89830","Longitude":"-86.54850","Snowdepth":"14.000","Units":"in","Rept_Date":"2019-12-15 13"},"coordinates":[2509,6373]},{"type":"Point","properties":{"Station_ID":"DTVM4","Station_Nam":"DETOUR VILLAGE","Latitude":"45.99830","Longitude":"-83.90130","Snowdepth":"14.000","Units":"in","Rept_Date":"2019-12-15 13"},"coordinates":[3130,6435]},{"type":"Point","properties":{"Station_ID":"BRAM5","Station_Nam":"BRAINERD","Latitude":"46.34320","Longitude":"-94.20900","Snowdepth":"14.000","Units":"in","Rept_Date":"2019-12-15 13"},"coordinates":[711,6650]},{"type":"Point","properties":{"Station_ID":"AUW","Station_Nam":"WAUSAU MUNICIPAL AIRPORT","Latitude":"44.92580","Longitude":"-89.62560","Snowdepth":"14.000","Units":"in","Rept_Date":"2019-12-16 00"},"coordinates":[1787,5768]},{"type":"Point","properties":{"Station_ID":"QMA","Station_Nam":"QMA","Latitude":"50.10330","Longitude":"-70.47190","Snowdepth":"13.937","Units":"in","Rept_Date":"2019-12-15 12"},"coordinates":[6282,8989]},{"type":"Point","properties":{"Station_ID":"QWE","Station_Nam":"QWE","Latitude":"47.84610","Longitude":"-73.80670","Snowdepth":"13.740","Units":"in","Rept_Date":"2019-12-15 12"},"coordinates":[5499,7585]},{"type":"Point","properties":{"Station_ID":"QLM","Station_Nam":"QLM","Latitude":"48.92030","Longitude":"-70.25280","Snowdepth":"13.701","Units":"in","Rept_Date":"2019-12-15 12"},"coordinates":[6333,8253]},{"type":"Point","properties":{"Station_ID":"SVBQ6","Station_Nam":"SAVANT BASE","Latitude":"50.28730","Longitude":"-90.65670","Snowdepth":"13.540","Units":"in","Rept_Date":"2019-12-16 06"},"coordinates":[1545,9103]},{"type":"Point","properties":{"Station_ID":"WI-DN-1","Station_Nam":"BOYCEVILLE 3.3 N, WI","Latitude":"45.08913","Longitude":"-92.02760","Snowdepth":"13.000","Units":"in","Rept_Date":"2019-12-15 13"},"coordinates":[1223,5869]},{"type":"Point","properties":{"Station_ID":"STRW3","Station_Nam":"STRATFORD 1NW","Latitude":"44.81750","Longitude":"-90.08990","Snowdepth":"13.000","Units":"in","Rept_Date":"2019-12-15 13"},"coordinates":[1678,5700]},{"type":"Point","properties":{"Station_ID":"RHRW3","Station_Nam":"RHINELANDER WJFW TV-12","Latitude":"45.62220","Longitude":"-89.41000","Snowdepth":"13.000","Units":"in","Rept_Date":"2019-12-16 05"},"coordinates":[1837,6201]},{"type":"Point","properties":{"Station_ID":"MN-SL-115","Station_Nam":"COTTON 5.7 ESE, MN","Latitude":"47.15142","Longitude":"-92.35772","Snowdepth":"13.000","Units":"in","Rept_Date":"2019-12-15 14"},"coordinates":[1146,7152]},{"type":"Point","properties":{"Station_ID":"MN-SL-108","Station_Nam":"IRON JUNCTION 3.4 NNW, MN","Latitude":"47.46150","Longitude":"-92.63130","Snowdepth":"13.000","Units":"in","Rept_Date":"2019-12-15 13"},"coordinates":[1081,7345]},{"type":"Point","properties":{"Station_ID":"MN-CK-18","Station_Nam":"GRAND MARAIS 4.4 WSW, MN","Latitude":"47.74462","Longitude":"-90.43796","Snowdepth":"13.000","Units":"in","Rept_Date":"2019-12-15 13"},"coordinates":[1596,7521]},{"type":"Point","properties":{"Station_ID":"MIEM4","Station_Nam":"MICHIGAMME 3WNW","Latitude":"46.54530","Longitude":"-88.18000","Snowdepth":"13.000","Units":"in","Rept_Date":"2019-12-15 13"},"coordinates":[2126,6775]},{"type":"Point","properties":{"Station_ID":"MI-DL-4","Station_Nam":"GLADSTONE 2.1 SW, MI","Latitude":"45.83218","Longitude":"-87.05727","Snowdepth":"13.000","Units":"in","Rept_Date":"2019-12-15 12"},"coordinates":[2389,6332]},{"type":"Point","properties":{"Station_ID":"MCLN8","Station_Nam":"MC LEOD,ND","Latitude":"46.40250","Longitude":"-97.23810","Snowdepth":"13.000","Units":"in","Rept_Date":"2019-12-15 14"},"coordinates":[0,6686]},{"type":"Point","properties":{"Station_ID":"KGFK","Station_Nam":"GRAND FORKS INTERNATIONAL","Latitude":"47.95000","Longitude":"-97.18333","Snowdepth":"13.000","Units":"in","Rept_Date":"2019-12-16 06"},"coordinates":[13,7649]},{"type":"Point","properties":{"Station_ID":"GFK","Station_Nam":"GRAND FORKS INTERNATIONAL AIRPORT","Latitude":"47.94920","Longitude":"-97.17610","Snowdepth":"13.000","Units":"in","Rept_Date":"2019-12-16 00"},"coordinates":[15,7649]},{"type":"Point","properties":{"Station_ID":"PTLQ6","Station_Nam":"PORTAGE LAKE","Latitude":"49.06950","Longitude":"-86.65940","Snowdepth":"12.990","Units":"in","Rept_Date":"2019-12-16 06"},"coordinates":[2483,8346]},{"type":"Point","properties":{"Station_ID":"MN-IT-21","Station_Nam":"BOVEY 15.9 N, MN","Latitude":"47.52679","Longitude":"-93.40270","Snowdepth":"12.500","Units":"in","Rept_Date":"2019-12-15 13"},"coordinates":[900,7386]},{"type":"Point","properties":{"Station_ID":"MN-IT-1","Station_Nam":"GRAND RAPIDS 2.0 E, MN","Latitude":"47.22266","Longitude":"-93.49600","Snowdepth":"12.500","Units":"in","Rept_Date":"2019-12-15 15"},"coordinates":[878,7197]},{"type":"Point","properties":{"Station_ID":"WLDM5","Station_Nam":"WILD RIVER STATE PARK","Latitude":"45.52310","Longitude":"-92.74890","Snowdepth":"12.000","Units":"in","Rept_Date":"2019-12-15 14"},"coordinates":[1054,6139]},{"type":"Point","properties":{"Station_ID":"WI-BR-2","Station_Nam":"CHETEK 2.0 SE, WI","Latitude":"45.29427","Longitude":"-91.62470","Snowdepth":"12.000","Units":"in","Rept_Date":"2019-12-15 13"},"coordinates":[1318,5997]},{"type":"Point","properties":{"Station_ID":"SEBM5","Station_Nam":"SEBEKA","Latitude":"46.62540","Longitude":"-95.09670","Snowdepth":"12.000","Units":"in","Rept_Date":"2019-12-15 13"},"coordinates":[503,6825]},{"type":"Point","properties":{"Station_ID":"RRLW3","Station_Nam":"MERRILL,WI","Latitude":"45.17860","Longitude":"-89.66170","Snowdepth":"12.000","Units":"in","Rept_Date":"2019-12-15 14"},"coordinates":[1778,5925]},{"type":"Point","properties":{"Station_ID":"MRAM4","Station_Nam":"MORAN","Latitude":"45.99030","Longitude":"-84.83610","Snowdepth":"12.000","Units":"in","Rept_Date":"2019-12-15 13"},"coordinates":[2911,6430]},{"type":"Point","properties":{"Station_ID":"MN-SR-29","Station_Nam":"ALBANY 3.8 S, MN","Latitude":"45.57441","Longitude":"-94.55543","Snowdepth":"12.000","Units":"in","Rept_Date":"2019-12-15 13"},"coordinates":[630,6171]},{"type":"Point","properties":{"Station_ID":"MN-IT-10","Station_Nam":"DEER RIVER 3.7 W, MN","Latitude":"47.33564","Longitude":"-93.87514","Snowdepth":"12.000","Units":"in","Rept_Date":"2019-12-15 14"},"coordinates":[789,7267]},{"type":"Point","properties":{"Station_ID":"MN-CW-22","Station_Nam":"FORT RIPLEY 0.8 N, MN","Latitude":"46.18089","Longitude":"-94.36510","Snowdepth":"12.000","Units":"in","Rept_Date":"2019-12-15 13"},"coordinates":[674,6549]},{"type":"Point","properties":{"Station_ID":"MLCM5","Station_Nam":"MILACA","Latitude":"45.75320","Longitude":"-93.66170","Snowdepth":"12.000","Units":"in","Rept_Date":"2019-12-15 13"},"coordinates":[839,6283]},{"type":"Point","properties":{"Station_ID":"LEIM5","Station_Nam":"ORR 3E","Latitude":"48.05810","Longitude":"-92.75220","Snowdepth":"12.000","Units":"in","Rept_Date":"2019-12-15 12"},"coordinates":[1053,7716]},{"type":"Point","properties":{"Station_ID":"GRBM5","Station_Nam":"GRAND RAPIDS 12N","Latitude":"47.39800","Longitude":"-93.51330","Snowdepth":"12.000","Units":"in","Rept_Date":"2019-12-15 14"},"coordinates":[874,7306]},{"type":"Point","properties":{"Station_ID":"EPTW3","Station_Nam":"EAU PLEINE TENDER","Latitude":"44.77220","Longitude":"-89.76720","Snowdepth":"12.000","Units":"in","Rept_Date":"2019-12-15 13"},"coordinates":[1753,5672]},{"type":"Point","properties":{"Station_ID":"SOCQ6","Station_Nam":"SOCKET LAKE","Latitude":"50.77870","Longitude":"-91.79300","Snowdepth":"11.730","Units":"in","Rept_Date":"2019-12-16 06"},"coordinates":[1278,9409]},{"type":"Point","properties":{"Station_ID":"ND-CS-4","Station_Nam":"FARGO 3.0 NE, ND","Latitude":"46.91101","Longitude":"-96.77970","Snowdepth":"11.700","Units":"in","Rept_Date":"2019-12-15 14"},"coordinates":[108,7003]},{"type":"Point","properties":{"Station_ID":"TRIQ6","Station_Nam":"TRIO LAKE","Latitude":"49.22880","Longitude":"-87.22920","Snowdepth":"11.540","Units":"in","Rept_Date":"2019-12-16 06"},"coordinates":[2349,8445]},{"type":"Point","properties":{"Station_ID":"QGA","Station_Nam":"QGA","Latitude":"47.25640","Longitude":"-73.73810","Snowdepth":"11.299","Units":"in","Rept_Date":"2019-12-15 12"},"coordinates":[5515,7218]},{"type":"Point","properties":{"Station_ID":"WI-MT-14","Station_Nam":"MOSINEE 2.7 WSW, WI","Latitude":"44.77240","Longitude":"-89.73441","Snowdepth":"11.000","Units":"in","Rept_Date":"2019-12-15 13"},"coordinates":[1761,5672]},{"type":"Point","properties":{"Station_ID":"STIM4","Station_Nam":"ST IGNACE","Latitude":"45.86080","Longitude":"-84.71960","Snowdepth":"11.000","Units":"in","Rept_Date":"2019-12-15 12"},"coordinates":[2938,6349]},{"type":"Point","properties":{"Station_ID":"SSMM4","Station_Nam":"SAULT STE MARIE","Latitude":"46.48660","Longitude":"-84.40250","Snowdepth":"11.000","Units":"in","Rept_Date":"2019-12-15 13"},"coordinates":[3013,6739]},{"type":"Point","properties":{"Station_ID":"OTTM5","Station_Nam":"OTTERTAIL,MN","Latitude":"46.41670","Longitude":"-95.56670","Snowdepth":"11.000","Units":"in","Rept_Date":"2019-12-15 13"},"coordinates":[392,6695]},{"type":"Point","properties":{"Station_ID":"NY-ER-77","Station_Nam":"COLDEN 2.4 ENE, NY","Latitude":"42.65088","Longitude":"-78.61060","Snowdepth":"11.000","Units":"in","Rept_Date":"2019-12-15 13"},"coordinates":[4372,4352]},{"type":"Point","properties":{"Station_ID":"NOHM5","Station_Nam":"NORTHOME","Latitude":"47.83590","Longitude":"-94.25550","Snowdepth":"11.000","Units":"in","Rept_Date":"2019-12-15 13"},"coordinates":[700,7578]},{"type":"Point","properties":{"Station_ID":"MN-BM-15","Station_Nam":"BEMIDJI 7.8 ENE, MN","Latitude":"47.52043","Longitude":"-94.72121","Snowdepth":"11.000","Units":"in","Rept_Date":"2019-12-15 13"},"coordinates":[591,7382]},{"type":"Point","properties":{"Station_ID":"MI-MC-4","Station_Nam":"ST. IGNACE 0.5SE, MI","Latitude":"45.86057","Longitude":"-84.71980","Snowdepth":"11.000","Units":"in","Rept_Date":"2019-12-15 12"},"coordinates":[2938,6349]},{"type":"Point","properties":{"Station_ID":"JIMW3","Station_Nam":"JIM FALLS 3NW","Latitude":"45.08270","Longitude":"-91.33130","Snowdepth":"11.000","Units":"in","Rept_Date":"2019-12-15 12"},"coordinates":[1386,5865]},{"type":"Point","properties":{"Station_ID":"EAU","Station_Nam":"CHIPPEWA VALLEY REGIONAL AIRPORT","Latitude":"44.86650","Longitude":"-91.48790","Snowdepth":"11.000","Units":"in","Rept_Date":"2019-12-16 00"},"coordinates":[1350,5731]},{"type":"Point","properties":{"Station_ID":"BREW3","Station_Nam":"SURING","Latitude":"44.99580","Longitude":"-88.37860","Snowdepth":"11.000","Units":"in","Rept_Date":"2019-12-15 12"},"coordinates":[2079,5811]},{"type":"Point","properties":{"Station_ID":"ANJM4","Station_Nam":"SNOW PAID OBSERVER FOR KANJ","Latitude":"46.48670","Longitude":"-84.40260","Snowdepth":"11.000","Units":"in","Rept_Date":"2019-12-16 06"},"coordinates":[3013,6739]},{"type":"Point","properties":{"Station_ID":"ANJ","Station_Nam":"SAULT STE MARIE","Latitude":"46.46670","Longitude":"-84.36670","Snowdepth":"11.000","Units":"in","Rept_Date":"2019-12-16 00"},"coordinates":[3021,6726]},{"type":"Point","properties":{"Station_ID":"QIQ","Station_Nam":"QIQ","Latitude":"49.82390","Longitude":"-68.54310","Snowdepth":"10.551","Units":"in","Rept_Date":"2019-12-15 12"},"coordinates":[6735,8815]},{"type":"Point","properties":{"Station_ID":"MN-IT-7","Station_Nam":"GRAND RAPIDS 6.2 SSW, MN","Latitude":"47.13687","Longitude":"-93.56660","Snowdepth":"10.500","Units":"in","Rept_Date":"2019-12-15 12"},"coordinates":[862,7143]},{"type":"Point","properties":{"Station_ID":"MN-IT-17","Station_Nam":"GRAND RAPIDS 6.1 N, MN","Latitude":"47.31165","Longitude":"-93.55036","Snowdepth":"10.500","Units":"in","Rept_Date":"2019-12-15 13"},"coordinates":[866,7252]},{"type":"Point","properties":{"Station_ID":"MN-CW-29","Station_Nam":"BRAINERD 7.7 SSE, MN","Latitude":"46.24996","Longitude":"-94.14576","Snowdepth":"10.500","Units":"in","Rept_Date":"2019-12-15 13"},"coordinates":[726,6592]},{"type":"Point","properties":{"Station_ID":"WI-SC-44","Station_Nam":"NEW RICHMOND 4.4 SW, WI","Latitude":"45.08201","Longitude":"-92.60651","Snowdepth":"10.000","Units":"in","Rept_Date":"2019-12-15 14"},"coordinates":[1087,5865]},{"type":"Point","properties":{"Station_ID":"WI-PC-5","Station_Nam":"RIVER FALLS 1.2 SSW, WI","Latitude":"44.84032","Longitude":"-92.63500","Snowdepth":"10.000","Units":"in","Rept_Date":"2019-12-15 13"},"coordinates":[1080,5715]},{"type":"Point","properties":{"Station_ID":"MN-SH-10","Station_Nam":"BIG LAKE 5.6 NNE, MN","Latitude":"45.41409","Longitude":"-93.69190","Snowdepth":"10.000","Units":"in","Rept_Date":"2019-12-15 13"},"coordinates":[832,6072]},{"type":"Point","properties":{"Station_ID":"MN-MR-4","Station_Nam":"LITTLE FALLS 1.2 SW, MN","Latitude":"45.96886","Longitude":"-94.37720","Snowdepth":"10.000","Units":"in","Rept_Date":"2019-12-15 13"},"coordinates":[672,6417]},{"type":"Point","properties":{"Station_ID":"MI-CP-7","Station_Nam":"DRUMMOND 2.9 NE, MI","Latitude":"46.05329","Longitude":"-83.69060","Snowdepth":"10.000","Units":"in","Rept_Date":"2019-12-15 14"},"coordinates":[3180,6469]},{"type":"Point","properties":{"Station_ID":"MEDW3","Station_Nam":"MEDFORD","Latitude":"45.13080","Longitude":"-90.34390","Snowdepth":"10.000","Units":"in","Rept_Date":"2019-12-15 14"},"coordinates":[1618,5895]},{"type":"Point","properties":{"Station_ID":"LNGM5","Station_Nam":"LONG PRAIRIE","Latitude":"45.96460","Longitude":"-94.88920","Snowdepth":"10.000","Units":"in","Rept_Date":"2019-12-15 12"},"coordinates":[551,6414]},{"type":"Point","properties":{"Station_ID":"KABM5","Station_Nam":"KABETOGAMA LAKE VISITOR CTR","Latitude":"48.40880","Longitude":"-93.04840","Snowdepth":"10.000","Units":"in","Rept_Date":"2019-12-15 13"},"coordinates":[983,7935]},{"type":"Point","properties":{"Station_ID":"FORM5","Station_Nam":"FOREST LAKE 5NE","Latitude":"45.33170","Longitude":"-92.89820","Snowdepth":"10.000","Units":"in","Rept_Date":"2019-12-15 13"},"coordinates":[1019,6020]},{"type":"Point","properties":{"Station_ID":"COKM5","Station_Nam":"COOK","Latitude":"47.85060","Longitude":"-92.69250","Snowdepth":"10.000","Units":"in","Rept_Date":"2019-12-15 12"},"coordinates":[1067,7587]},{"type":"Point","properties":{"Station_ID":"CHPW3","Station_Nam":"CHIPPEWA FALLS","Latitude":"44.92770","Longitude":"-91.40810","Snowdepth":"10.000","Units":"in","Rept_Date":"2019-12-15 14"},"coordinates":[1368,5769]},{"type":"Point","properties":{"Station_ID":"QWG","Station_Nam":"QWG","Latitude":"48.48890","Longitude":"-73.45940","Snowdepth":"9.567","Units":"in","Rept_Date":"2019-12-15 12"},"coordinates":[5581,7985]},{"type":"Point","properties":{"Station_ID":"WI-DR-5","Station_Nam":"ELLISON BAY 2.2 E, WI","Latitude":"45.25750","Longitude":"-87.02670","Snowdepth":"9.500","Units":"in","Rept_Date":"2019-12-15 13"},"coordinates":[2397,5974]},{"type":"Point","properties":{"Station_ID":"MN-MR-13","Station_Nam":"LITTLE FALLS 8.0 NE, MN","Latitude":"46.06785","Longitude":"-94.24789","Snowdepth":"9.500","Units":"in","Rept_Date":"2019-12-15 13"},"coordinates":[702,6478]},{"type":"Point","properties":{"Station_ID":"ME-AR-23","Station_Nam":"MADAWASKA 2.5 E, ME","Latitude":"47.34933","Longitude":"-68.28141","Snowdepth":"9.500","Units":"in","Rept_Date":"2019-12-15 12"},"coordinates":[6796,7276]},{"type":"Point","properties":{"Station_ID":"CATQ6","Station_Nam":"CAT LAKE","Latitude":"51.72690","Longitude":"-91.82210","Snowdepth":"9.330","Units":"in","Rept_Date":"2019-12-16 06"},"coordinates":[1271,9999]},{"type":"Point","properties":{"Station_ID":"KABQ6","Station_Nam":"CAB LAKE","Latitude":"49.59950","Longitude":"-89.17990","Snowdepth":"9.170","Units":"in","Rept_Date":"2019-12-16 06"},"coordinates":[1891,8675]},{"type":"Point","properties":{"Station_ID":"CAN-ON-757","Station_Nam":"SAULT STE. MARIE 2.8 ESE - GLFC, CAN","Latitude":"46.50300","Longitude":"-84.30300","Snowdepth":"9.100","Units":"in","Rept_Date":"2019-12-15 13"},"coordinates":[3036,6749]},{"type":"Point","properties":{"Station_ID":"SIBI4","Station_Nam":"SIBLEY","Latitude":"43.40470","Longitude":"-95.74830","Snowdepth":"9.000","Units":"in","Rept_Date":"2019-12-15 13"},"coordinates":[350,4821]},{"type":"Point","properties":{"Station_ID":"SHHW3","Station_Nam":"SHAWANO 2SSW","Latitude":"44.76310","Longitude":"-88.61830","Snowdepth":"9.000","Units":"in","Rept_Date":"2019-12-15 14"},"coordinates":[2023,5667]},{"type":"Point","properties":{"Station_ID":"SGVN6","Station_Nam":"SPRINGVILLE","Latitude":"42.54970","Longitude":"-78.57670","Snowdepth":"9.000","Units":"in","Rept_Date":"2019-12-16 01"},"coordinates":[4380,4289]},{"type":"Point","properties":{"Station_ID":"SCSM5","Station_Nam":"ST CLOUD STATE","Latitude":"45.55100","Longitude":"-94.14950","Snowdepth":"9.000","Units":"in","Rept_Date":"2019-12-15 12"},"coordinates":[725,6157]},{"type":"Point","properties":{"Station_ID":"RSTW3","Station_Nam":"ROSHOLT","Latitude":"44.62710","Longitude":"-89.30600","Snowdepth":"9.000","Units":"in","Rept_Date":"2019-12-15 14"},"coordinates":[1862,5582]},{"type":"Point","properties":{"Station_ID":"RCEM5","Station_Nam":"RICE","Latitude":"45.75760","Longitude":"-94.20720","Snowdepth":"9.000","Units":"in","Rept_Date":"2019-12-15 13"},"coordinates":[711,6285]},{"type":"Point","properties":{"Station_ID":"PSHW3","Station_Nam":"PESHTIGO","Latitude":"45.02810","Longitude":"-87.73560","Snowdepth":"9.000","Units":"in","Rept_Date":"2019-12-15 13"},"coordinates":[2230,5831]},{"type":"Point","properties":{"Station_ID":"PARM4","Station_Nam":"PARENT BAY","Latitude":"45.79610","Longitude":"-86.40110","Snowdepth":"9.000","Units":"in","Rept_Date":"2019-12-15 19"},"coordinates":[2543,6309]},{"type":"Point","properties":{"Station_ID":"MRIW3","Station_Nam":"MARINETTE","Latitude":"45.09830","Longitude":"-87.62360","Snowdepth":"9.000","Units":"in","Rept_Date":"2019-12-15 12"},"coordinates":[2257,5875]},{"type":"Point","properties":{"Station_ID":"MN228YHJ","Station_Nam":"RICE 2.8 ESE","Latitude":"45.73609","Longitude":"-94.17230","Snowdepth":"9.000","Units":"in","Rept_Date":"2019-12-15 13"},"coordinates":[720,6272]},{"type":"Point","properties":{"Station_ID":"MN-AA-76","Station_Nam":"NOWTHEN 2.9 SSE, MN","Latitude":"45.30360","Longitude":"-93.42620","Snowdepth":"9.000","Units":"in","Rept_Date":"2019-12-15 13"},"coordinates":[895,6003]},{"type":"Point","properties":{"Station_ID":"MI-CP-14","Station_Nam":"SAULT STE. MARIE 2.2 E, MI","Latitude":"46.48933","Longitude":"-84.31971","Snowdepth":"9.000","Units":"in","Rept_Date":"2019-12-15 12"},"coordinates":[3032,6740]},{"type":"Point","properties":{"Station_ID":"IFSM5","Station_Nam":"INTERNATIONAL FALLS SNOW","Latitude":"48.57780","Longitude":"-93.39640","Snowdepth":"9.000","Units":"in","Rept_Date":"2019-12-16 06"},"coordinates":[902,8040]},{"type":"Point","properties":{"Station_ID":"GRFN8","Station_Nam":"UNIVERSITY","Latitude":"47.93330","Longitude":"-97.08330","Snowdepth":"9.000","Units":"in","Rept_Date":"2019-12-16 06"},"coordinates":[36,7639]},{"type":"Point","properties":{"Station_ID":"EPMW3","Station_Nam":"EPHRAIM-1 NE WWTP","Latitude":"45.17080","Longitude":"-87.15360","Snowdepth":"9.000","Units":"in","Rept_Date":"2019-12-15 14"},"coordinates":[2367,5920]},{"type":"Point","properties":{"Station_ID":"BMRW3","Station_Nam":"BLOOMER","Latitude":"45.09070","Longitude":"-91.48640","Snowdepth":"9.000","Units":"in","Rept_Date":"2019-12-15 14"},"coordinates":[1350,5870]},{"type":"Point","properties":{"Station_ID":"NY-ER-65","Station_Nam":"BOSTON 1.5 NE, NY","Latitude":"42.65470","Longitude":"-78.72010","Snowdepth":"8.700","Units":"in","Rept_Date":"2019-12-15 12"},"coordinates":[4346,4355]},{"type":"Point","properties":{"Station_ID":"ND-CS-1","Station_Nam":"WEST FARGO 3.8 SSE, ND","Latitude":"46.82750","Longitude":"-96.85280","Snowdepth":"8.500","Units":"in","Rept_Date":"2019-12-15 13"},"coordinates":[91,6951]},{"type":"Point","properties":{"Station_ID":"MN-SH-29","Station_Nam":"PRINCETON 4.4 SE, MN","Latitude":"45.52553","Longitude":"-93.51771","Snowdepth":"8.500","Units":"in","Rept_Date":"2019-12-15 16"},"coordinates":[873,6141]},{"type":"Point","properties":{"Station_ID":"MN-HN-181","Station_Nam":"MINNEAPOLIS 0.4 NE, MN","Latitude":"44.96708","Longitude":"-93.26222","Snowdepth":"8.500","Units":"in","Rept_Date":"2019-12-15 13"},"coordinates":[933,5793]},{"type":"Point","properties":{"Station_ID":"MN-BK-10","Station_Nam":"DETROIT LAKES 5.7 N, MN","Latitude":"46.88666","Longitude":"-95.84444","Snowdepth":"8.500","Units":"in","Rept_Date":"2019-12-15 11"},"coordinates":[327,6988]},{"type":"Point","properties":{"Station_ID":"MI-OT-17","Station_Nam":"GAYLORD 4.1 S, MI","Latitude":"44.96388","Longitude":"-84.68467","Snowdepth":"8.500","Units":"in","Rept_Date":"2019-12-15 12"},"coordinates":[2946,5791]},{"type":"Point","properties":{"Station_ID":"KS-CY-8","Station_Nam":"WAKEFIELD 0.2 NW, KS","Latitude":"39.21900","Longitude":"-97.02000","Snowdepth":"8.500","Units":"in","Rept_Date":"2019-12-16 00"},"coordinates":[51,2217]},{"type":"Point","properties":{"Station_ID":"WRSN6","Station_Nam":"WARSAW 6SW","Latitude":"42.68550","Longitude":"-78.22020","Snowdepth":"8.000","Units":"in","Rept_Date":"2019-12-15 12"},"coordinates":[4463,4374]},{"type":"Point","properties":{"Station_ID":"WMRM5","Station_Nam":"WILLMAR 5N","Latitude":"45.19010","Longitude":"-95.05860","Snowdepth":"8.000","Units":"in","Rept_Date":"2019-12-15 12"},"coordinates":[512,5932]},{"type":"Point","properties":{"Station_ID":"WI-PT-8","Station_Nam":"RUDOLPH 2.1 NNE, WI","Latitude":"44.52553","Longitude":"-89.78677","Snowdepth":"8.000","Units":"in","Rept_Date":"2019-12-15 11"},"coordinates":[1749,5519]},{"type":"Point","properties":{"Station_ID":"WI-PC-10","Station_Nam":"RIVER FALLS 1.4 S, WI","Latitude":"44.83580","Longitude":"-92.62100","Snowdepth":"8.000","Units":"in","Rept_Date":"2019-12-15 13"},"coordinates":[1084,5712]},{"type":"Point","properties":{"Station_ID":"WABM5","Station_Nam":"WABASHA","Latitude":"44.38500","Longitude":"-92.04860","Snowdepth":"8.000","Units":"in","Rept_Date":"2019-12-15 13"},"coordinates":[1218,5431]},{"type":"Point","properties":{"Station_ID":"SBNM5","Station_Nam":"SABIN","Latitude":"46.77690","Longitude":"-96.65610","Snowdepth":"8.000","Units":"in","Rept_Date":"2019-12-15 13"},"coordinates":[137,6919]},{"type":"Point","properties":{"Station_ID":"MNHZK4CP","Station_Nam":"WATERTOWN 0.8 NW","Latitude":"44.97073","Longitude":"-93.85906","Snowdepth":"8.000","Units":"in","Rept_Date":"2019-12-15 13"},"coordinates":[793,5796]},{"type":"Point","properties":{"Station_ID":"MNEY8CTB","Station_Nam":"MIDLAND JUNCTION 2.2 ENE","Latitude":"44.33041","Longitude":"-91.95891","Snowdepth":"8.000","Units":"in","Rept_Date":"2019-12-15 14"},"coordinates":[1239,5397]},{"type":"Point","properties":{"Station_ID":"MN-MC-16","Station_Nam":"HUTCHINSON 0.1 ENE, MN","Latitude":"44.88633","Longitude":"-94.37503","Snowdepth":"8.000","Units":"in","Rept_Date":"2019-12-15 13"},"coordinates":[672,5743]},{"type":"Point","properties":{"Station_ID":"MN-HN-6","Station_Nam":"LONG LAKE 0.2 WSW, MN","Latitude":"44.98290","Longitude":"-93.57360","Snowdepth":"8.000","Units":"in","Rept_Date":"2019-12-15 13"},"coordinates":[860,5803]},{"type":"Point","properties":{"Station_ID":"MN-DK-70","Station_Nam":"EAGAN 2.0 NNW, MN","Latitude":"44.84322","Longitude":"-93.17899","Snowdepth":"8.000","Units":"in","Rept_Date":"2019-12-15 14"},"coordinates":[953,5716]},{"type":"Point","properties":{"Station_ID":"MN-CV-8","Station_Nam":"WATERTOWN 0.5 NNW, MN","Latitude":"44.96631","Longitude":"-93.84890","Snowdepth":"8.000","Units":"in","Rept_Date":"2019-12-15 11"},"coordinates":[796,5793]},{"type":"Point","properties":{"Station_ID":"MN-CV-22","Station_Nam":"VICTORIA 1.6 WSW, MN","Latitude":"44.85670","Longitude":"-93.68640","Snowdepth":"8.000","Units":"in","Rept_Date":"2019-12-15 13"},"coordinates":[834,5725]},{"type":"Point","properties":{"Station_ID":"MN-CG-16","Station_Nam":"NORTH BRANCH 1.3 NNW, MN","Latitude":"45.53121","Longitude":"-92.97110","Snowdepth":"8.000","Units":"in","Rept_Date":"2019-12-15 12"},"coordinates":[1002,6144]},{"type":"Point","properties":{"Station_ID":"MI-AT-6","Station_Nam":"MANCELONA 0.5 ESE, MI","Latitude":"44.89981","Longitude":"-85.05100","Snowdepth":"8.000","Units":"in","Rept_Date":"2019-12-15 13"},"coordinates":[2860,5752]},{"type":"Point","properties":{"Station_ID":"LGRN8","Station_Nam":"LIDGERWOOD,ND","Latitude":"46.06670","Longitude":"-97.16670","Snowdepth":"8.000","Units":"in","Rept_Date":"2019-12-15 13"},"coordinates":[17,6478]},{"type":"Point","properties":{"Station_ID":"KIMM5","Station_Nam":"KIMBALL 3N","Latitude":"45.35330","Longitude":"-94.30560","Snowdepth":"8.000","Units":"in","Rept_Date":"2019-12-15 12"},"coordinates":[688,6034]},{"type":"Point","properties":{"Station_ID":"JUDW3","Station_Nam":"FISH CREEK 3S - JUDDVILLE","Latitude":"45.08920","Longitude":"-87.25890","Snowdepth":"8.000","Units":"in","Rept_Date":"2019-12-15 14"},"coordinates":[2342,5869]},{"type":"Point","properties":{"Station_ID":"INL","Station_Nam":"FALLS INTERNATIONAL ARPT","Latitude":"48.56640","Longitude":"-93.40310","Snowdepth":"8.000","Units":"in","Rept_Date":"2019-12-16 00"},"coordinates":[900,8033]},{"type":"Point","properties":{"Station_ID":"FDRN8","Station_Nam":"FARGO 3S","Latitude":"46.82930","Longitude":"-96.79620","Snowdepth":"8.000","Units":"in","Rept_Date":"2019-12-15 18"},"coordinates":[104,6952]},{"type":"Point","properties":{"Station_ID":"FAR","Station_Nam":"HECTOR INTERNATIONAL ARPT","Latitude":"46.91560","Longitude":"-96.81440","Snowdepth":"8.000","Units":"in","Rept_Date":"2019-12-16 00"},"coordinates":[100,7006]},{"type":"Point","properties":{"Station_ID":"ETTW3","Station_Nam":"ETTRICK 4WNW","Latitude":"44.19000","Longitude":"-91.34240","Snowdepth":"8.000","Units":"in","Rept_Date":"2019-12-15 14"},"coordinates":[1384,5310]},{"type":"Point","properties":{"Station_ID":"DRDW3","Station_Nam":"DURAND","Latitude":"44.61970","Longitude":"-91.97950","Snowdepth":"8.000","Units":"in","Rept_Date":"2019-12-15 14"},"coordinates":[1234,5577]},{"type":"Point","properties":{"Station_ID":"QLP","Station_Nam":"QLP","Latitude":"48.13920","Longitude":"-72.63830","Snowdepth":"7.638","Units":"in","Rept_Date":"2019-12-15 12"},"coordinates":[5774,7767]},{"type":"Point","properties":{"Station_ID":"FTHQ6","Station_Nam":"FORT HOPE","Latitude":"51.55820","Longitude":"-87.90510","Snowdepth":"7.440","Units":"in","Rept_Date":"2019-12-16 06"},"coordinates":[2191,9894]},{"type":"Point","properties":{"Station_ID":"WYON6","Station_Nam":"WYOMING 3W","Latitude":"42.82060","Longitude":"-78.14810","Snowdepth":"7.000","Units":"in","Rept_Date":"2019-12-15 12"},"coordinates":[4480,4458]},{"type":"Point","properties":{"Station_ID":"STPW3","Station_Nam":"STEVENS POINT","Latitude":"44.51130","Longitude":"-89.58550","Snowdepth":"7.000","Units":"in","Rept_Date":"2019-12-15 13"},"coordinates":[1796,5510]},{"type":"Point","properties":{"Station_ID":"ROBW3","Station_Nam":"ROBERTS WWTP","Latitude":"44.97070","Longitude":"-92.56200","Snowdepth":"7.000","Units":"in","Rept_Date":"2019-12-15 14"},"coordinates":[1098,5796]},{"type":"Point","properties":{"Station_ID":"PELW3","Station_Nam":"PELLA 3SE","Latitude":"44.73580","Longitude":"-88.73780","Snowdepth":"7.000","Units":"in","Rept_Date":"2019-12-15 11"},"coordinates":[1995,5650]},{"type":"Point","properties":{"Station_ID":"OCON6","Station_Nam":"OSCEOLA","Latitude":"43.49910","Longitude":"-75.71210","Snowdepth":"7.000","Units":"in","Rept_Date":"2019-12-15 12"},"coordinates":[5052,4880]},{"type":"Point","properties":{"Station_ID":"NY-WY-10","Station_Nam":"WYOMING COOP, NY","Latitude":"42.82060","Longitude":"-78.14810","Snowdepth":"7.000","Units":"in","Rept_Date":"2019-12-15 12"},"coordinates":[4480,4458]},{"type":"Point","properties":{"Station_ID":"NY-OD-2","Station_Nam":"POINT ROCK 0.6 SE, NY","Latitude":"43.37335","Longitude":"-75.53840","Snowdepth":"7.000","Units":"in","Rept_Date":"2019-12-15 13"},"coordinates":[5093,4802]},{"type":"Point","properties":{"Station_ID":"MTQM4","Station_Nam":"MANISTIQUE WWTP","Latitude":"45.95120","Longitude":"-86.25130","Snowdepth":"7.000","Units":"in","Rept_Date":"2019-12-15 12"},"coordinates":[2579,6406]},{"type":"Point","properties":{"Station_ID":"MSP","Station_Nam":"MINNEAPOLIS-ST PAUL INTL AP","Latitude":"44.88310","Longitude":"-93.22890","Snowdepth":"7.000","Units":"in","Rept_Date":"2019-12-16 00"},"coordinates":[941,5741]},{"type":"Point","properties":{"Station_ID":"MN-SC-2","Station_Nam":"PRIOR LAKE 2.0 W, MN","Latitude":"44.71250","Longitude":"-93.46360","Snowdepth":"7.000","Units":"in","Rept_Date":"2019-12-15 13"},"coordinates":[886,5635]},{"type":"Point","properties":{"Station_ID":"MN-RM-99","Station_Nam":"ROSEVILLE 0.7 SSE, MN","Latitude":"45.00583","Longitude":"-93.15040","Snowdepth":"7.000","Units":"in","Rept_Date":"2019-12-15 13"},"coordinates":[959,5818]},{"type":"Point","properties":{"Station_ID":"MN-RM-2","Station_Nam":"NORTH SAINT PAUL 1.0 NNW, MN","Latitude":"45.02629","Longitude":"-93.00790","Snowdepth":"7.000","Units":"in","Rept_Date":"2019-12-15 12"},"coordinates":[993,5830]},{"type":"Point","properties":{"Station_ID":"MA-MD-47","Station_Nam":"WEST TOWNSEND 0.5 W, MA","Latitude":"42.67623","Longitude":"-71.74983","Snowdepth":"7.000","Units":"in","Rept_Date":"2019-12-15 11"},"coordinates":[5982,4368]},{"type":"Point","properties":{"Station_ID":"LTVN6","Station_Nam":"LITTLE VALLEY","Latitude":"42.24730","Longitude":"-78.81250","Snowdepth":"7.000","Units":"in","Rept_Date":"2019-12-15 12"},"coordinates":[4324,4101]},{"type":"Point","properties":{"Station_ID":"LKFM5","Station_Nam":"LAKEFIELD,MN","Latitude":"43.68330","Longitude":"-95.18330","Snowdepth":"7.000","Units":"in","Rept_Date":"2019-12-15 13"},"coordinates":[482,4995]},{"type":"Point","properties":{"Station_ID":"KMSP","Station_Nam":"MINNEAPOLIS-ST PAUL INTERNATIONAL","Latitude":"44.86666","Longitude":"-93.21666","Snowdepth":"7.000","Units":"in","Rept_Date":"2019-12-16 06"},"coordinates":[944,5731]},{"type":"Point","properties":{"Station_ID":"ELWW3","Station_Nam":"ELLSWORTH 1E","Latitude":"44.73030","Longitude":"-92.45860","Snowdepth":"7.000","Units":"in","Rept_Date":"2019-12-15 13"},"coordinates":[1122,5646]},{"type":"Point","properties":{"Station_ID":"EJNM4","Station_Nam":"EAST JORDAN 2NW","Latitude":"45.18630","Longitude":"-85.14770","Snowdepth":"7.000","Units":"in","Rept_Date":"2019-12-15 13"},"coordinates":[2838,5930]},{"type":"Point","properties":{"Station_ID":"EGNM5","Station_Nam":"ELGIN 2SSW","Latitude":"44.09700","Longitude":"-92.27010","Snowdepth":"7.000","Units":"in","Rept_Date":"2019-12-15 13"},"coordinates":[1166,5252]},{"type":"Point","properties":{"Station_ID":"CODN6","Station_Nam":"COLDEN","Latitude":"42.64720","Longitude":"-78.71110","Snowdepth":"7.000","Units":"in","Rept_Date":"2019-12-15 12"},"coordinates":[4348,4350]},{"type":"Point","properties":{"Station_ID":"CBVM1","Station_Nam":"CARRABASSETT VALLEY","Latitude":"45.08040","Longitude":"-70.30310","Snowdepth":"7.000","Units":"in","Rept_Date":"2019-12-15 12"},"coordinates":[6322,5864]},{"type":"Point","properties":{"Station_ID":"CAN-NB-13","Station_Nam":"BATHURST 3.8 NW, CAN","Latitude":"47.64212","Longitude":"-65.68756","Snowdepth":"7.000","Units":"in","Rept_Date":"2019-12-15 11"},"coordinates":[7405,7458]},{"type":"Point","properties":{"Station_ID":"ATAN6","Station_Nam":"ATTICA 7 SW","Latitude":"42.81070","Longitude":"-78.39790","Snowdepth":"7.000","Units":"in","Rept_Date":"2019-12-15 11"},"coordinates":[4422,4452]},{"type":"Point","properties":{"Station_ID":"ALTM5","Station_Nam":"ALTURA 5W","Latitude":"44.06330","Longitude":"-92.03970","Snowdepth":"7.000","Units":"in","Rept_Date":"2019-12-15 13"},"coordinates":[1220,5231]},{"type":"Point","properties":{"Station_ID":"41.9034_079.6523","Station_Nam":"CORRY (CLE0230)","Latitude":"41.90340","Longitude":"-79.65230","Snowdepth":"7.000","Units":"in","Rept_Date":"2019-12-16 03"},"coordinates":[4127,3887]},{"type":"Point","properties":{"Station_ID":"41.8717_080.0850","Station_Nam":"EDINBORO 2E  SNOW SPOTTER (X4190801)","Latitude":"41.87170","Longitude":"-80.08500","Snowdepth":"7.000","Units":"in","Rept_Date":"2019-12-15 23"},"coordinates":[4026,3868]},{"type":"Point","properties":{"Station_ID":"NY-HR-18","Station_Nam":"SALISBURY CENTER 1.8 NW, NY","Latitude":"43.16260","Longitude":"-74.80880","Snowdepth":"6.800","Units":"in","Rept_Date":"2019-12-15 11"},"coordinates":[5264,4671]},{"type":"Point","properties":{"Station_ID":"MN-PK-15","Station_Nam":"MENTOR 2.5 SSW, MN","Latitude":"47.66625","Longitude":"-96.17328","Snowdepth":"6.800","Units":"in","Rept_Date":"2019-12-15 13"},"coordinates":[250,7473]},{"type":"Point","properties":{"Station_ID":"MN-SR-24","Station_Nam":"PAYNESVILLE 1.9 SSW, MN","Latitude":"45.35170","Longitude":"-94.73120","Snowdepth":"6.500","Units":"in","Rept_Date":"2019-12-15 13"},"coordinates":[588,6033]},{"type":"Point","properties":{"Station_ID":"MN-HN-31","Station_Nam":"MAPLE GROVE 1.0 NNE, MN","Latitude":"45.12261","Longitude":"-93.45790","Snowdepth":"6.500","Units":"in","Rept_Date":"2019-12-15 17"},"coordinates":[887,5890]},{"type":"Point","properties":{"Station_ID":"MN-GH-28","Station_Nam":"CANNON FALLS 0.5 SE, MN","Latitude":"44.50866","Longitude":"-92.89526","Snowdepth":"6.500","Units":"in","Rept_Date":"2019-12-15 14"},"coordinates":[1019,5508]},{"type":"Point","properties":{"Station_ID":"MI-OT-16","Station_Nam":"GAYLORD 2.2 SSE, MI","Latitude":"44.99441","Longitude":"-84.65820","Snowdepth":"6.500","Units":"in","Rept_Date":"2019-12-15 13"},"coordinates":[2953,5810]},{"type":"Point","properties":{"Station_ID":"MI-CX-7","Station_Nam":"EAST JORDAN 2.1 NNW, MI","Latitude":"45.18639","Longitude":"-85.14750","Snowdepth":"6.500","Units":"in","Rept_Date":"2019-12-15 13"},"coordinates":[2838,5930]},{"type":"Point","properties":{"Station_ID":"WI-BN-6","Station_Nam":"SUAMICO 4.4 WNW, WI","Latitude":"44.66111","Longitude":"-88.11780","Snowdepth":"6.300","Units":"in","Rept_Date":"2019-12-15 13"},"coordinates":[2141,5603]},{"type":"Point","properties":{"Station_ID":"WRNM5","Station_Nam":"WORTHINGTON,MN","Latitude":"43.65440","Longitude":"-95.57920","Snowdepth":"6.000","Units":"in","Rept_Date":"2019-12-15 13"},"coordinates":[389,4977]},{"type":"Point","properties":{"Station_ID":"WI-DR-6","Station_Nam":"SISTER BAY 1.3 NNE, WI","Latitude":"45.20296","Longitude":"-87.11326","Snowdepth":"6.000","Units":"in","Rept_Date":"2019-12-15 12"},"coordinates":[2376,5940]},{"type":"Point","properties":{"Station_ID":"WDOM5","Station_Nam":"WINDOM","Latitude":"43.87700","Longitude":"-95.11590","Snowdepth":"6.000","Units":"in","Rept_Date":"2019-12-15 14"},"coordinates":[498,5115]},{"type":"Point","properties":{"Station_ID":"WACM5","Station_Nam":"WACONIA","Latitude":"44.85330","Longitude":"-93.80260","Snowdepth":"6.000","Units":"in","Rept_Date":"2019-12-15 12"},"coordinates":[806,5723]},{"type":"Point","properties":{"Station_ID":"THLM5","Station_Nam":"THEILMAN 1SSW","Latitude":"44.28130","Longitude":"-92.19430","Snowdepth":"6.000","Units":"in","Rept_Date":"2019-12-15 13"},"coordinates":[1184,5367]},{"type":"Point","properties":{"Station_ID":"RWGM5","Station_Nam":"RED WING","Latitude":"44.57120","Longitude":"-92.52830","Snowdepth":"6.000","Units":"in","Rept_Date":"2019-12-15 14"},"coordinates":[1105,5547]},{"type":"Point","properties":{"Station_ID":"RDFN6","Station_Nam":"REDFIELD 8N","Latitude":"43.64130","Longitude":"-75.88400","Snowdepth":"6.000","Units":"in","Rept_Date":"2019-12-15 12"},"coordinates":[5012,4969]},{"type":"Point","properties":{"Station_ID":"PRGN6","Station_Nam":"PERRYSBURG","Latitude":"42.46470","Longitude":"-79.00310","Snowdepth":"6.000","Units":"in","Rept_Date":"2019-12-15 12"},"coordinates":[4280,4237]},{"type":"Point","properties":{"Station_ID":"PLHM7","Station_Nam":"PLEASANT HILL WFO","Latitude":"38.81000","Longitude":"-94.26470","Snowdepth":"6.000","Units":"in","Rept_Date":"2019-12-16 06"},"coordinates":[698,1963]},{"type":"Point","properties":{"Station_ID":"PBAN8","Station_Nam":"SITE 1-3MI.N","Latitude":"48.97420","Longitude":"-97.23860","Snowdepth":"6.000","Units":"in","Rept_Date":"2019-12-15 14"},"coordinates":[0,8286]},{"type":"Point","properties":{"Station_ID":"ONAM4","Station_Nam":"ONAWAY 4N","Latitude":"45.41080","Longitude":"-84.22330","Snowdepth":"6.000","Units":"in","Rept_Date":"2019-12-15 23"},"coordinates":[3055,6069]},{"type":"Point","properties":{"Station_ID":"NH-HL-19","Station_Nam":"BROOKLINE 2.1 SW, NH","Latitude":"42.71235","Longitude":"-71.69760","Snowdepth":"6.000","Units":"in","Rept_Date":"2019-12-15 18"},"coordinates":[5994,4391]},{"type":"Point","properties":{"Station_ID":"MPXM5","Station_Nam":"CHANHASSEN WSFO","Latitude":"44.84960","Longitude":"-93.56440","Snowdepth":"6.000","Units":"in","Rept_Date":"2019-12-16 06"},"coordinates":[862,5720]},{"type":"Point","properties":{"Station_ID":"MNHMOECS","Station_Nam":"HAZELTINE 1.9 NE","Latitude":"44.85545","Longitude":"-93.57125","Snowdepth":"6.000","Units":"in","Rept_Date":"2019-12-15 12"},"coordinates":[861,5724]},{"type":"Point","properties":{"Station_ID":"MNG0GYSN","Station_Nam":"LONSDALE 1.1 SSW","Latitude":"44.46445","Longitude":"-93.43293","Snowdepth":"6.000","Units":"in","Rept_Date":"2019-12-15 12"},"coordinates":[893,5481]},{"type":"Point","properties":{"Station_ID":"MN76ACVS","Station_Nam":"GRAND MARAIS 3.0 WNW","Latitude":"47.76602","Longitude":"-90.26427","Snowdepth":"6.000","Units":"in","Rept_Date":"2019-12-15 13"},"coordinates":[1637,7535]},{"type":"Point","properties":{"Station_ID":"MN-SV-4","Station_Nam":"DONNELLY 2.9 NW, MN","Latitude":"45.71649","Longitude":"-96.06043","Snowdepth":"6.000","Units":"in","Rept_Date":"2019-12-15 14"},"coordinates":[277,6260]},{"type":"Point","properties":{"Station_ID":"MN-SE-2","Station_Nam":"OWATONNA 0.8 E, MN","Latitude":"44.09170","Longitude":"-93.21380","Snowdepth":"6.000","Units":"in","Rept_Date":"2019-12-15 13"},"coordinates":[945,5249]},{"type":"Point","properties":{"Station_ID":"MN-RC-1","Station_Nam":"MONTGOMERY 3.2 ENE, MN","Latitude":"44.46400","Longitude":"-93.51980","Snowdepth":"6.000","Units":"in","Rept_Date":"2019-12-15 12"},"coordinates":[873,5480]},{"type":"Point","properties":{"Station_ID":"MN-HN-78","Station_Nam":"RICHFIELD 1.9 WNW, MN","Latitude":"44.89129","Longitude":"-93.31410","Snowdepth":"6.000","Units":"in","Rept_Date":"2019-12-15 11"},"coordinates":[921,5746]},{"type":"Point","properties":{"Station_ID":"MN-HN-110","Station_Nam":"EDINA 1.9 SSE, MN","Latitude":"44.86875","Longitude":"-93.33940","Snowdepth":"6.000","Units":"in","Rept_Date":"2019-12-15 13"},"coordinates":[915,5732]},{"type":"Point","properties":{"Station_ID":"MLRM5","Station_Nam":"MELROSE","Latitude":"45.67710","Longitude":"-94.80200","Snowdepth":"6.000","Units":"in","Rept_Date":"2019-12-15 13"},"coordinates":[572,6235]},{"type":"Point","properties":{"Station_ID":"ME-AR-18","Station_Nam":"NEW SWEDEN 4.9 NNW, ME","Latitude":"47.01080","Longitude":"-68.14390","Snowdepth":"6.000","Units":"in","Rept_Date":"2019-12-15 12"},"coordinates":[6828,7065]},{"type":"Point","properties":{"Station_ID":"MA-HS-7","Station_Nam":"PLAINFIELD 2.2 SW, MA","Latitude":"42.49272","Longitude":"-72.94540","Snowdepth":"6.000","Units":"in","Rept_Date":"2019-12-15 14"},"coordinates":[5701,4254]},{"type":"Point","properties":{"Station_ID":"FORW3","Station_Nam":"FORESTVILLE-4E","Latitude":"44.69780","Longitude":"-87.39690","Snowdepth":"6.000","Units":"in","Rept_Date":"2019-12-15 13"},"coordinates":[2310,5626]},{"type":"Point","properties":{"Station_ID":"BKEM5","Station_Nam":"BRECKENRIDGE 4NE","Latitude":"46.30470","Longitude":"-96.52170","Snowdepth":"6.000","Units":"in","Rept_Date":"2019-12-15 13"},"coordinates":[168,6626]},{"type":"Point","properties":{"Station_ID":"APXM4","Station_Nam":"GAYLORD 9SSW","Latitude":"44.90720","Longitude":"-84.71880","Snowdepth":"6.000","Units":"in","Rept_Date":"2019-12-16 06"},"coordinates":[2938,5756]},{"type":"Point","properties":{"Station_ID":"ANDM1","Station_Nam":"ANDOVER 2","Latitude":"44.65300","Longitude":"-70.79410","Snowdepth":"6.000","Units":"in","Rept_Date":"2019-12-15 11"},"coordinates":[6206,5598]},{"type":"Point","properties":{"Station_ID":"ALMW3","Station_Nam":"ALMA DAM 4","Latitude":"44.32710","Longitude":"-91.91940","Snowdepth":"6.000","Units":"in","Rept_Date":"2019-12-15 14"},"coordinates":[1248,5395]},{"type":"Point","properties":{"Station_ID":"ABLK1","Station_Nam":"ABILENE","Latitude":"38.92660","Longitude":"-97.21290","Snowdepth":"6.000","Units":"in","Rept_Date":"2019-12-16 00"},"coordinates":[6,2035]},{"type":"Point","properties":{"Station_ID":"NY-CQ-39","Station_Nam":"GERRY 0.8 N, NY","Latitude":"42.20500","Longitude":"-79.24700","Snowdepth":"5.500","Units":"in","Rept_Date":"2019-12-15 13"},"coordinates":[4223,4075]},{"type":"Point","properties":{"Station_ID":"MO-BN-50","Station_Nam":"COLUMBIA 0.6 W, MO","Latitude":"38.95385","Longitude":"-92.33810","Snowdepth":"5.500","Units":"in","Rept_Date":"2019-12-16 06"},"coordinates":[1150,2052]},{"type":"Point","properties":{"Station_ID":"CAN-MB-32","Station_Nam":"PINAWA 1.0 SW, CA","Latitude":"50.14747","Longitude":"-95.89020","Snowdepth":"5.500","Units":"in","Rept_Date":"2019-12-15 13"},"coordinates":[316,9016]},{"type":"Point","properties":{"Station_ID":"NY-CT-22","Station_Nam":"FRANKLINVILLE 0.5 NNE, NY","Latitude":"42.34166","Longitude":"-78.45280","Snowdepth":"5.300","Units":"in","Rept_Date":"2019-12-15 13"},"coordinates":[4409,4160]},{"type":"Point","properties":{"Station_ID":"WRUM5","Station_Nam":"WARROAD 4W","Latitude":"48.89600","Longitude":"-95.40700","Snowdepth":"5.000","Units":"in","Rept_Date":"2019-12-16 04"},"coordinates":[430,8238]},{"type":"Point","properties":{"Station_ID":"WNNM5","Station_Nam":"WINNEBAGO","Latitude":"43.76920","Longitude":"-94.18730","Snowdepth":"5.000","Units":"in","Rept_Date":"2019-12-15 13"},"coordinates":[716,5048]},{"type":"Point","properties":{"Station_ID":"WLNM4","Station_Nam":"WELLSTON 1N","Latitude":"44.22940","Longitude":"-85.95690","Snowdepth":"5.000","Units":"in","Rept_Date":"2019-12-15 12"},"coordinates":[2648,5334]},{"type":"Point","properties":{"Station_ID":"VADM5","Station_Nam":"VADNAIS LAKE","Latitude":"45.04820","Longitude":"-93.09590","Snowdepth":"5.000","Units":"in","Rept_Date":"2019-12-15 20"},"coordinates":[972,5844]},{"type":"Point","properties":{"Station_ID":"SVSN6","Station_Nam":"SILVER SPRINGS 3N","Latitude":"42.70580","Longitude":"-78.09370","Snowdepth":"5.000","Units":"in","Rept_Date":"2019-12-15 12"},"coordinates":[4493,4387]},{"type":"Point","properties":{"Station_ID":"SHHN6","Station_Nam":"SCHOHARIE VILLAGE","Latitude":"42.66500","Longitude":"-74.30360","Snowdepth":"5.000","Units":"in","Rept_Date":"2019-12-15 12"},"coordinates":[5383,4361]},{"type":"Point","properties":{"Station_ID":"PLOW3","Station_Nam":"PLOVER","Latitude":"44.44280","Longitude":"-89.54530","Snowdepth":"5.000","Units":"in","Rept_Date":"2019-12-15 13"},"coordinates":[1806,5467]},{"type":"Point","properties":{"Station_ID":"PEKN6","Station_Nam":"PECK LAKE","Latitude":"43.11500","Longitude":"-74.42360","Snowdepth":"5.000","Units":"in","Rept_Date":"2019-12-15 13"},"coordinates":[5355,4641]},{"type":"Point","properties":{"Station_ID":"NY-WY-11","Station_Nam":"SILVER SPRINGS COOP, NY","Latitude":"42.70580","Longitude":"-78.09370","Snowdepth":"5.000","Units":"in","Rept_Date":"2019-12-15 12"},"coordinates":[4493,4387]},{"type":"Point","properties":{"Station_ID":"NY-ER-158","Station_Nam":"EAST AURORA 2.7 SSE, NY","Latitude":"42.72936","Longitude":"-78.60561","Snowdepth":"5.000","Units":"in","Rept_Date":"2019-12-15 14"},"coordinates":[4373,4401]},{"type":"Point","properties":{"Station_ID":"NY-CT-2","Station_Nam":"RANDOLPH 1.1 ENE, NY","Latitude":"42.17056","Longitude":"-78.96120","Snowdepth":"5.000","Units":"in","Rept_Date":"2019-12-15 12"},"coordinates":[4290,4054]},{"type":"Point","properties":{"Station_ID":"NY-CQ-34","Station_Nam":"KENNEDY 2.6 SE, NY","Latitude":"42.12567","Longitude":"-79.07235","Snowdepth":"5.000","Units":"in","Rept_Date":"2019-12-15 13"},"coordinates":[4263,4026]},{"type":"Point","properties":{"Station_ID":"NY-AB-54","Station_Nam":"ALTAMONT 2.9 SW, NY","Latitude":"42.68182","Longitude":"-74.08326","Snowdepth":"5.000","Units":"in","Rept_Date":"2019-12-15 12"},"coordinates":[5434,4372]},{"type":"Point","properties":{"Station_ID":"NH-CS-10","Station_Nam":"RANDOLPH 1.4 NE, NH","Latitude":"44.38824","Longitude":"-71.26950","Snowdepth":"5.000","Units":"in","Rept_Date":"2019-12-15 12"},"coordinates":[6095,5433]},{"type":"Point","properties":{"Station_ID":"NALN6","Station_Nam":"CATTARAUGUS","Latitude":"42.32450","Longitude":"-78.86700","Snowdepth":"5.000","Units":"in","Rept_Date":"2019-12-15 13"},"coordinates":[4312,4149]},{"type":"Point","properties":{"Station_ID":"MRFS2","Station_Nam":"MADISON,SD","Latitude":"44.00000","Longitude":"-97.23330","Snowdepth":"5.000","Units":"in","Rept_Date":"2019-12-15 15"},"coordinates":[1,5192]},{"type":"Point","properties":{"Station_ID":"MNE9SLWI","Station_Nam":"LEAVENWORTH 5.4 S","Latitude":"44.14481","Longitude":"-94.78882","Snowdepth":"5.000","Units":"in","Rept_Date":"2019-12-15 13"},"coordinates":[575,5282]},{"type":"Point","properties":{"Station_ID":"MN0HS1SL","Station_Nam":"NORTH SAINT PAUL 1.6 NW","Latitude":"45.02800","Longitude":"-93.01506","Snowdepth":"5.000","Units":"in","Rept_Date":"2019-12-15 13"},"coordinates":[991,5831]},{"type":"Point","properties":{"Station_ID":"MN-WG-74","Station_Nam":"OAKDALE 0.4 S, MN","Latitude":"44.98208","Longitude":"-92.96510","Snowdepth":"5.000","Units":"in","Rept_Date":"2019-12-15 13"},"coordinates":[1003,5803]},{"type":"Point","properties":{"Station_ID":"MN-RM-63","Station_Nam":"NORTH SAINT PAUL 1.0 NW, MN","Latitude":"45.02410","Longitude":"-93.01400","Snowdepth":"5.000","Units":"in","Rept_Date":"2019-12-15 13"},"coordinates":[991,5829]},{"type":"Point","properties":{"Station_ID":"MN-RM-15","Station_Nam":"ROSEVILLE 2.1 NW, MN","Latitude":"45.03502","Longitude":"-93.18620","Snowdepth":"5.000","Units":"in","Rept_Date":"2019-12-15 12"},"coordinates":[951,5836]},{"type":"Point","properties":{"Station_ID":"MN-DK-104","Station_Nam":"HASTINGS 1.6 NW, MN","Latitude":"44.74458","Longitude":"-92.88035","Snowdepth":"5.000","Units":"in","Rept_Date":"2019-12-15 13"},"coordinates":[1023,5655]},{"type":"Point","properties":{"Station_ID":"MI-OT-4","Station_Nam":"GAYLORD 1.7 WNW, MI","Latitude":"45.03280","Longitude":"-84.71090","Snowdepth":"5.000","Units":"in","Rept_Date":"2019-12-15 13"},"coordinates":[2940,5834]},{"type":"Point","properties":{"Station_ID":"LBRM5","Station_Nam":"LAKE BRONSON DAM","Latitude":"48.72410","Longitude":"-96.62180","Snowdepth":"5.000","Units":"in","Rept_Date":"2019-12-15 14"},"coordinates":[145,8131]},{"type":"Point","properties":{"Station_ID":"LBKV1","Station_Nam":"LYE BROOK","Latitude":"43.05000","Longitude":"-73.03330","Snowdepth":"5.000","Units":"in","Rept_Date":"2019-12-16 06"},"coordinates":[5681,4601]},{"type":"Point","properties":{"Station_ID":"KSEM4","Station_Nam":"KALKASKA 11SE","Latitude":"44.58970","Longitude":"-85.04860","Snowdepth":"5.000","Units":"in","Rept_Date":"2019-12-15 13"},"coordinates":[2861,5559]},{"type":"Point","properties":{"Station_ID":"JORM5","Station_Nam":"JORDAN 1SSW","Latitude":"44.65010","Longitude":"-93.63560","Snowdepth":"5.000","Units":"in","Rept_Date":"2019-12-15 11"},"coordinates":[846,5596]},{"type":"Point","properties":{"Station_ID":"IN-MR-3","Station_Nam":"CASTLETON 1.7 S, IN","Latitude":"39.88021","Longitude":"-86.05170","Snowdepth":"5.000","Units":"in","Rept_Date":"2019-12-16 05"},"coordinates":[2625,2629]},{"type":"Point","properties":{"Station_ID":"GHMN3","Station_Nam":"PINKHAM NOTCH","Latitude":"44.25800","Longitude":"-71.25250","Snowdepth":"5.000","Units":"in","Rept_Date":"2019-12-15 09"},"coordinates":[6099,5352]},{"type":"Point","properties":{"Station_ID":"GAYM4","Station_Nam":"GAYLORD","Latitude":"45.03320","Longitude":"-84.71130","Snowdepth":"5.000","Units":"in","Rept_Date":"2019-12-15 13"},"coordinates":[2940,5835]},{"type":"Point","properties":{"Station_ID":"FISW3","Station_Nam":"FISH CREEK 1 E WWTP","Latitude":"45.12420","Longitude":"-87.22920","Snowdepth":"5.000","Units":"in","Rept_Date":"2019-12-15 13"},"coordinates":[2349,5891]},{"type":"Point","properties":{"Station_ID":"DENW3","Station_Nam":"DENMARK WWTP","Latitude":"44.35130","Longitude":"-87.81190","Snowdepth":"5.000","Units":"in","Rept_Date":"2019-12-15 14"},"coordinates":[2212,5410]},{"type":"Point","properties":{"Station_ID":"BMCI3","Station_Nam":"CASTLETON 2S","Latitude":"39.88010","Longitude":"-86.05140","Snowdepth":"5.000","Units":"in","Rept_Date":"2019-12-16 05"},"coordinates":[2626,2629]},{"type":"Point","properties":{"Station_ID":"ARTM5","Station_Nam":"ARTICHOKE LAKE 1 E","Latitude":"45.38560","Longitude":"-96.12570","Snowdepth":"5.000","Units":"in","Rept_Date":"2019-12-16 00"},"coordinates":[261,6054]},{"type":"Point","properties":{"Station_ID":"41.9492_079.7821","Station_Nam":"AMITY TWP (CLE0216)","Latitude":"41.94920","Longitude":"-79.78210","Snowdepth":"5.000","Units":"in","Rept_Date":"2019-12-16 00"},"coordinates":[4097,3916]},{"type":"Point","properties":{"Station_ID":"41.8222_080.1028","Station_Nam":"CAMBRIDGE SPRINGS  SNOW SPOTTER (CLE0344)","Latitude":"41.82220","Longitude":"-80.10280","Snowdepth":"5.000","Units":"in","Rept_Date":"2019-12-16 01"},"coordinates":[4022,3837]},{"type":"Point","properties":{"Station_ID":"CAN-ON-132","Station_Nam":"ORANGEVILLE 5.1 SSW - CANWARN, CAN","Latitude":"43.87372","Longitude":"-80.13428","Snowdepth":"4.700","Units":"in","Rept_Date":"2019-12-15 14"},"coordinates":[4014,5113]},{"type":"Point","properties":{"Station_ID":"QGT","Station_Nam":"QGT","Latitude":"49.64720","Longitude":"-67.62640","Snowdepth":"4.685","Units":"in","Rept_Date":"2019-12-15 12"},"coordinates":[6950,8705]},{"type":"Point","properties":{"Station_ID":"PA-SM-1","Station_Nam":"HIDDEN VALLEY 0.3 ENE, PA","Latitude":"40.05844","Longitude":"-79.26156","Snowdepth":"4.600","Units":"in","Rept_Date":"2019-12-15 10"},"coordinates":[4219,2740]},{"type":"Point","properties":{"Station_ID":"NY-SR-22","Station_Nam":"GREENFIELD CENTER 1.6 W, NY","Latitude":"43.12684","Longitude":"-73.87860","Snowdepth":"4.500","Units":"in","Rept_Date":"2019-12-15 13"},"coordinates":[5482,4649]},{"type":"Point","properties":{"Station_ID":"NY-ER-63","Station_Nam":"GLENWOOD 1.5 SE, NY","Latitude":"42.60195","Longitude":"-78.63910","Snowdepth":"4.500","Units":"in","Rept_Date":"2019-12-15 13"},"coordinates":[4365,4322]},{"type":"Point","properties":{"Station_ID":"MN-BW-8","Station_Nam":"COMFREY 6.5 ENE, MN","Latitude":"44.15109","Longitude":"-94.78516","Snowdepth":"4.500","Units":"in","Rept_Date":"2019-12-15 12"},"coordinates":[576,5286]},{"type":"Point","properties":{"Station_ID":"ME-SM-10","Station_Nam":"NORTH NEW PORTLAND 0.3 WSW, ME","Latitude":"44.92353","Longitude":"-70.02788","Snowdepth":"4.500","Units":"in","Rept_Date":"2019-12-15 12"},"coordinates":[6386,5766]},{"type":"Point","properties":{"Station_ID":"CAN-NB-105","Station_Nam":"SISSON BROOK 3.8 E, CAN","Latitude":"46.98305","Longitude":"-67.32532","Snowdepth":"4.500","Units":"in","Rept_Date":"2019-12-15 12"},"coordinates":[7020,7048]},{"type":"Point","properties":{"Station_ID":"CT-LT-15","Station_Nam":"COLEBROOK 1.0 NE, CT","Latitude":"42.00200","Longitude":"-73.08250","Snowdepth":"4.200","Units":"in","Rept_Date":"2019-12-15 12"},"coordinates":[5669,3949]},{"type":"Point","properties":{"Station_ID":"WWWW3","Station_Nam":"WAUPACA","Latitude":"44.35470","Longitude":"-89.05920","Snowdepth":"4.000","Units":"in","Rept_Date":"2019-12-15 14"},"coordinates":[1920,5412]},{"type":"Point","properties":{"Station_ID":"WRTS2","Station_Nam":"WATERTOWN,SD","Latitude":"44.90280","Longitude":"-97.11360","Snowdepth":"4.000","Units":"in","Rept_Date":"2019-12-15 15"},"coordinates":[29,5753]},{"type":"Point","properties":{"Station_ID":"WLSN6","Station_Nam":"WALES","Latitude":"42.73920","Longitude":"-78.58780","Snowdepth":"4.000","Units":"in","Rept_Date":"2019-12-15 12"},"coordinates":[4377,4407]},{"type":"Point","properties":{"Station_ID":"WHTM5","Station_Nam":"WHEATON,MN","Latitude":"45.80000","Longitude":"-96.48330","Snowdepth":"4.000","Units":"in","Rept_Date":"2019-12-15 14"},"coordinates":[177,6312]},{"type":"Point","properties":{"Station_ID":"TOP","Station_Nam":"TOPEKA, KS","Latitude":"39.07220","Longitude":"-95.63060","Snowdepth":"4.000","Units":"in","Rept_Date":"2019-12-16 00"},"coordinates":[377,2126]},{"type":"Point","properties":{"Station_ID":"TFOK1","Station_Nam":"TOPEKA - NWS","Latitude":"39.07210","Longitude":"-95.63040","Snowdepth":"4.000","Units":"in","Rept_Date":"2019-12-16 06"},"coordinates":[377,2126]},{"type":"Point","properties":{"Station_ID":"SIWS2","Station_Nam":"SISSETON 3W","Latitude":"45.65870","Longitude":"-97.12450","Snowdepth":"4.000","Units":"in","Rept_Date":"2019-12-15 13"},"coordinates":[27,6224]},{"type":"Point","properties":{"Station_ID":"SHIW3","Station_Nam":"SHIOCTON","Latitude":"44.43890","Longitude":"-88.58390","Snowdepth":"4.000","Units":"in","Rept_Date":"2019-12-15 14"},"coordinates":[2031,5465]},{"type":"Point","properties":{"Station_ID":"SD-RB-1","Station_Nam":"SISSETON 3.8 W, SD","Latitude":"45.65865","Longitude":"-97.12370","Snowdepth":"4.000","Units":"in","Rept_Date":"2019-12-15 13"},"coordinates":[27,6224]},{"type":"Point","properties":{"Station_ID":"SD-CD-30","Station_Nam":"WATERTOWN 2.3 E, SD","Latitude":"44.91604","Longitude":"-97.11925","Snowdepth":"4.000","Units":"in","Rept_Date":"2019-12-15 14"},"coordinates":[28,5762]},{"type":"Point","properties":{"Station_ID":"SD-BK-2","Station_Nam":"ASTORIA 2.2 SSE, SD","Latitude":"44.53093","Longitude":"-96.52270","Snowdepth":"4.000","Units":"in","Rept_Date":"2019-12-15 13"},"coordinates":[168,5522]},{"type":"Point","properties":{"Station_ID":"RUHN6","Station_Nam":"RUSHFORD","Latitude":"42.42610","Longitude":"-78.19220","Snowdepth":"4.000","Units":"in","Rept_Date":"2019-12-15 13"},"coordinates":[4470,4213]},{"type":"Point","properties":{"Station_ID":"RST","Station_Nam":"ROCHESTER INTERNATIONAL ARPT","Latitude":"43.90890","Longitude":"-92.49780","Snowdepth":"4.000","Units":"in","Rept_Date":"2019-12-16 00"},"coordinates":[1113,5135]},{"type":"Point","properties":{"Station_ID":"RSRM5","Station_Nam":"ROCHESTER AP 2NE","Latitude":"43.92810","Longitude":"-92.47580","Snowdepth":"4.000","Units":"in","Rept_Date":"2019-12-15 18"},"coordinates":[1118,5147]},{"type":"Point","properties":{"Station_ID":"ROWM3","Station_Nam":"ROWE 3NE","Latitude":"42.73500","Longitude":"-72.86920","Snowdepth":"4.000","Units":"in","Rept_Date":"2019-12-15 12"},"coordinates":[5719,4405]},{"type":"Point","properties":{"Station_ID":"NY-OD-43","Station_Nam":"HOLLAND PATENT 1.1 WNW, NY","Latitude":"43.24707","Longitude":"-75.27750","Snowdepth":"4.000","Units":"in","Rept_Date":"2019-12-15 12"},"coordinates":[5154,4723]},{"type":"Point","properties":{"Station_ID":"NY-ER-96","Station_Nam":"ELMA 2.7 WSW, NY","Latitude":"42.81004","Longitude":"-78.68130","Snowdepth":"4.000","Units":"in","Rept_Date":"2019-12-15 12"},"coordinates":[4355,4451]},{"type":"Point","properties":{"Station_ID":"NY-CY-27","Station_Nam":"MORAVIA 5.9 ENE, NY","Latitude":"42.73491","Longitude":"-76.31137","Snowdepth":"4.000","Units":"in","Rept_Date":"2019-12-15 12"},"coordinates":[4911,4405]},{"type":"Point","properties":{"Station_ID":"NUMM5","Station_Nam":"NEW ULM 3SE","Latitude":"44.29450","Longitude":"-94.40840","Snowdepth":"4.000","Units":"in","Rept_Date":"2019-12-15 12"},"coordinates":[664,5375]},{"type":"Point","properties":{"Station_ID":"MRLV1","Station_Nam":"MARLBORO","Latitude":"42.86000","Longitude":"-72.72000","Snowdepth":"4.000","Units":"in","Rept_Date":"2019-12-15 13"},"coordinates":[5754,4483]},{"type":"Point","properties":{"Station_ID":"MN-OL-18","Station_Nam":"ROCHESTER 2.6 NE, MN","Latitude":"44.03975","Longitude":"-92.43750","Snowdepth":"4.000","Units":"in","Rept_Date":"2019-12-15 12"},"coordinates":[1127,5217]},{"type":"Point","properties":{"Station_ID":"MN-MW-8","Station_Nam":"AUSTIN 2.4 W, MN","Latitude":"43.67190","Longitude":"-93.02280","Snowdepth":"4.000","Units":"in","Rept_Date":"2019-12-15 13"},"coordinates":[989,4988]},{"type":"Point","properties":{"Station_ID":"MIAM5","Station_Nam":"MILAN 1NW","Latitude":"45.12190","Longitude":"-95.92690","Snowdepth":"4.000","Units":"in","Rept_Date":"2019-12-16 00"},"coordinates":[308,5890]},{"type":"Point","properties":{"Station_ID":"MI-EM-5","Station_Nam":"HARBOR SPRINGS 0.7 ENE, MI","Latitude":"45.43450","Longitude":"-84.97540","Snowdepth":"4.000","Units":"in","Rept_Date":"2019-12-15 12"},"coordinates":[2878,6084]},{"type":"Point","properties":{"Station_ID":"MI-BZ-1","Station_Nam":"BENZONIA 5.3 S, MI","Latitude":"44.53976","Longitude":"-86.10650","Snowdepth":"4.000","Units":"in","Rept_Date":"2019-12-15 14"},"coordinates":[2613,5528]},{"type":"Point","properties":{"Station_ID":"ME-AR-15","Station_Nam":"PRESQUE ISLE 1.3 WSW, ME","Latitude":"46.67960","Longitude":"-68.01270","Snowdepth":"4.000","Units":"in","Rept_Date":"2019-12-15 12"},"coordinates":[6859,6859]},{"type":"Point","properties":{"Station_ID":"MAPM4","Station_Nam":"MAPLE CITY 1E","Latitude":"44.85500","Longitude":"-85.83520","Snowdepth":"4.000","Units":"in","Rept_Date":"2019-12-15 23"},"coordinates":[2676,5724]},{"type":"Point","properties":{"Station_ID":"LPLN6","Station_Nam":"LAKE PLACID 2 S","Latitude":"44.30420","Longitude":"-73.98390","Snowdepth":"4.000","Units":"in","Rept_Date":"2019-12-15 12"},"coordinates":[5458,5381]},{"type":"Point","properties":{"Station_ID":"KS-DK-19","Station_Nam":"HOPE 0.3 S, KS","Latitude":"38.68681","Longitude":"-97.07520","Snowdepth":"4.000","Units":"in","Rept_Date":"2019-12-15 13"},"coordinates":[38,1886]},{"type":"Point","properties":{"Station_ID":"KIND","Station_Nam":"INDIANAPOLIS INTERNATIONAL  AIRPORT","Latitude":"39.71666","Longitude":"-86.28333","Snowdepth":"4.000","Units":"in","Rept_Date":"2019-12-16 06"},"coordinates":[2571,2527]},{"type":"Point","properties":{"Station_ID":"KFRI","Station_Nam":"FORT RILEY, MARSHALL AAF FT RILEY","Latitude":"39.05555","Longitude":"-96.76416","Snowdepth":"4.000","Units":"in","Rept_Date":"2019-12-15 18"},"coordinates":[111,2116]},{"type":"Point","properties":{"Station_ID":"ILX","Station_Nam":"CENTRAL ILLINOIS, IL","Latitude":"40.15060","Longitude":"-89.33830","Snowdepth":"4.000","Units":"in","Rept_Date":"2019-12-16 06"},"coordinates":[1854,2797]},{"type":"Point","properties":{"Station_ID":"IL-CP-21","Station_Nam":"BROADLANDS 0.1 SSW, IL","Latitude":"39.90723","Longitude":"-87.99610","Snowdepth":"4.000","Units":"in","Rept_Date":"2019-12-16 06"},"coordinates":[2169,2645]},{"type":"Point","properties":{"Station_ID":"HVJP1","Station_Nam":"HIDDEN VALLEY COOP","Latitude":"40.04200","Longitude":"-79.25660","Snowdepth":"4.000","Units":"in","Rept_Date":"2019-12-15 13"},"coordinates":[4220,2729]},{"type":"Point","properties":{"Station_ID":"EVYI4","Station_Nam":"EVERLY,IA","Latitude":"43.18330","Longitude":"-95.36670","Snowdepth":"4.000","Units":"in","Rept_Date":"2019-12-15 13"},"coordinates":[439,4684]},{"type":"Point","properties":{"Station_ID":"ELMM7","Station_Nam":"ELM","Latitude":"38.86800","Longitude":"-94.03520","Snowdepth":"4.000","Units":"in","Rept_Date":"2019-12-15 17"},"coordinates":[752,1999]},{"type":"Point","properties":{"Station_ID":"DLSN6","Station_Nam":"DELANSON 2NE","Latitude":"42.76720","Longitude":"-74.17110","Snowdepth":"4.000","Units":"in","Rept_Date":"2019-12-15 12"},"coordinates":[5414,4425]},{"type":"Point","properties":{"Station_ID":"CRSI2","Station_Nam":"CHARLESTON","Latitude":"39.47620","Longitude":"-88.16520","Snowdepth":"4.000","Units":"in","Rept_Date":"2019-12-16 00"},"coordinates":[2129,2377]},{"type":"Point","properties":{"Station_ID":"CHRM4","Station_Nam":"CHARLEVOIX","Latitude":"45.31720","Longitude":"-85.26720","Snowdepth":"4.000","Units":"in","Rept_Date":"2019-12-15 13"},"coordinates":[2810,6011]},{"type":"Point","properties":{"Station_ID":"CHES2","Station_Nam":"CHESTER 2N","Latitude":"43.92830","Longitude":"-96.93160","Snowdepth":"4.000","Units":"in","Rept_Date":"2019-12-15 13"},"coordinates":[72,5147]},{"type":"Point","properties":{"Station_ID":"BRAM1","Station_Nam":"BRASSUA DAM","Latitude":"45.66020","Longitude":"-69.81190","Snowdepth":"4.000","Units":"in","Rept_Date":"2019-12-15 12"},"coordinates":[6437,6225]},{"type":"Point","properties":{"Station_ID":"AVLV1","Station_Nam":"AVERILL","Latitude":"45.00570","Longitude":"-71.69030","Snowdepth":"4.000","Units":"in","Rept_Date":"2019-12-15 13"},"coordinates":[5996,5817]},{"type":"Point","properties":{"Station_ID":"ATY","Station_Nam":"WATERTOWN MUNICIPAL AIRPORT","Latitude":"44.91420","Longitude":"-97.15440","Snowdepth":"4.000","Units":"in","Rept_Date":"2019-12-16 00"},"coordinates":[20,5761]},{"type":"Point","properties":{"Station_ID":"ARX","Station_Nam":"LA CROSSE, WI","Latitude":"43.82280","Longitude":"-91.19190","Snowdepth":"4.000","Units":"in","Rept_Date":"2019-12-16 06"},"coordinates":[1419,5082]},{"type":"Point","properties":{"Station_ID":"AMHW3","Station_Nam":"AMHERST-3 SE","Latitude":"44.41280","Longitude":"-89.26390","Snowdepth":"4.000","Units":"in","Rept_Date":"2019-12-15 13"},"coordinates":[1872,5449]},{"type":"Point","properties":{"Station_ID":"ALBM5","Station_Nam":"ALBERT LEA 3 SE","Latitude":"43.60640","Longitude":"-93.30190","Snowdepth":"4.000","Units":"in","Rept_Date":"2019-12-15 14"},"coordinates":[924,4947]},{"type":"Point","properties":{"Station_ID":"42.0800_080.0143","Station_Nam":"ERIE 5SE  SNOW SPOTTER (X4210800)","Latitude":"42.08000","Longitude":"-80.01430","Snowdepth":"4.000","Units":"in","Rept_Date":"2019-12-16 00"},"coordinates":[4042,3997]},{"type":"Point","properties":{"Station_ID":"41.8966_080.1567","Station_Nam":"2 NW EDINBORO  SNOW SPOTTER (CLE0251)","Latitude":"41.89660","Longitude":"-80.15670","Snowdepth":"4.000","Units":"in","Rept_Date":"2019-12-15 22"},"coordinates":[4009,3883]},{"type":"Point","properties":{"Station_ID":"41.7396_080.5416","Station_Nam":"PIERPONT 2SE (CLE1412)","Latitude":"41.73960","Longitude":"-80.54160","Snowdepth":"4.000","Units":"in","Rept_Date":"2019-12-16 00"},"coordinates":[3919,3785]},{"type":"Point","properties":{"Station_ID":"WI-WD-2","Station_Nam":"WISCONSIN RAPIDS 4.6 SSE, WI","Latitude":"44.33823","Longitude":"-89.78200","Snowdepth":"3.500","Units":"in","Rept_Date":"2019-12-15 13"},"coordinates":[1750,5402]},{"type":"Point","properties":{"Station_ID":"WI-BN-14","Station_Nam":"GREEN BAY 3.8 SSE, WI","Latitude":"44.46772","Longitude":"-87.97350","Snowdepth":"3.500","Units":"in","Rept_Date":"2019-12-15 13"},"coordinates":[2174,5483]},{"type":"Point","properties":{"Station_ID":"SD-BK-9","Station_Nam":"BRUCE 4.1 NE, SD","Latitude":"44.48479","Longitude":"-96.83750","Snowdepth":"3.500","Units":"in","Rept_Date":"2019-12-15 13"},"coordinates":[94,5493]},{"type":"Point","properties":{"Station_ID":"MN-WC-5","Station_Nam":"WASECA 0.9 NNE, MN","Latitude":"44.09451","Longitude":"-93.49289","Snowdepth":"3.500","Units":"in","Rept_Date":"2019-12-15 13"},"coordinates":[879,5251]},{"type":"Point","properties":{"Station_ID":"MI-GT-25","Station_Nam":"TRAVERSE CITY 4.7 ESE, MI","Latitude":"44.73370","Longitude":"-85.51189","Snowdepth":"3.500","Units":"in","Rept_Date":"2019-12-15 12"},"coordinates":[2752,5648]},{"type":"Point","properties":{"Station_ID":"IN-LW-8","Station_Nam":"BEDFORD 8.6 NNW, IN","Latitude":"38.97160","Longitude":"-86.56160","Snowdepth":"3.300","Units":"in","Rept_Date":"2019-12-16 00"},"coordinates":[2506,2063]},{"type":"Point","properties":{"Station_ID":"CAN-ON-92","Station_Nam":"DUNROBIN 1.9 W - MVCA, CAN","Latitude":"45.42318","Longitude":"-76.04525","Snowdepth":"3.200","Units":"in","Rept_Date":"2019-12-15 12"},"coordinates":[4974,6077]},{"type":"Point","properties":{"Station_ID":"WTCK1","Station_Nam":"WHITE CITY","Latitude":"38.79750","Longitude":"-96.72870","Snowdepth":"3.000","Units":"in","Rept_Date":"2019-12-15 13"},"coordinates":[120,1955]},{"type":"Point","properties":{"Station_ID":"WIRW3","Station_Nam":"WIS RAPIDS GRAND AV B","Latitude":"44.39940","Longitude":"-89.83050","Snowdepth":"3.000","Units":"in","Rept_Date":"2019-12-15 13"},"coordinates":[1739,5440]},{"type":"Point","properties":{"Station_ID":"WILK1","Station_Nam":"WILSEY","Latitude":"38.63070","Longitude":"-96.67160","Snowdepth":"3.000","Units":"in","Rept_Date":"2019-12-15 13"},"coordinates":[133,1851]},{"type":"Point","properties":{"Station_ID":"WIDM5","Station_Nam":"WINONA DAM 5A","Latitude":"44.08750","Longitude":"-91.67030","Snowdepth":"3.000","Units":"in","Rept_Date":"2019-12-15 14"},"coordinates":[1307,5246]},{"type":"Point","properties":{"Station_ID":"WI-WN-9","Station_Nam":"NEENAH 1.1 ENE, WI","Latitude":"44.17370","Longitude":"-88.45130","Snowdepth":"3.000","Units":"in","Rept_Date":"2019-12-15 13"},"coordinates":[2062,5300]},{"type":"Point","properties":{"Station_ID":"WI-WH-7","Station_Nam":"WILD ROSE 0.5 E, WI","Latitude":"44.17764","Longitude":"-89.23812","Snowdepth":"3.000","Units":"in","Rept_Date":"2019-12-15 13"},"coordinates":[1878,5302]},{"type":"Point","properties":{"Station_ID":"WELM4","Station_Nam":"WELLSTON TIPPY DAM","Latitude":"44.25860","Longitude":"-85.93940","Snowdepth":"3.000","Units":"in","Rept_Date":"2019-12-15 13"},"coordinates":[2652,5353]},{"type":"Point","properties":{"Station_ID":"VT-WH-29","Station_Nam":"BRATTLEBORO 0.7 S, VT","Latitude":"42.84030","Longitude":"-72.55580","Snowdepth":"3.000","Units":"in","Rept_Date":"2019-12-15 12"},"coordinates":[5793,4470]},{"type":"Point","properties":{"Station_ID":"VANM1","Station_Nam":"VAN BUREN","Latitude":"47.16600","Longitude":"-67.93900","Snowdepth":"3.000","Units":"in","Rept_Date":"2019-12-15 13"},"coordinates":[6876,7161]},{"type":"Point","properties":{"Station_ID":"TCEM4","Station_Nam":"TRAVERSE CITY 5ESE","Latitude":"44.73370","Longitude":"-85.51180","Snowdepth":"3.000","Units":"in","Rept_Date":"2019-12-15 12"},"coordinates":[2752,5648]},{"type":"Point","properties":{"Station_ID":"SWEI4","Station_Nam":"SWEA CITY,IA","Latitude":"43.38530","Longitude":"-94.25000","Snowdepth":"3.000","Units":"in","Rept_Date":"2019-12-15 12"},"coordinates":[701,4809]},{"type":"Point","properties":{"Station_ID":"SPGM5","Station_Nam":"SPRING VALLEY","Latitude":"43.69330","Longitude":"-92.39260","Snowdepth":"3.000","Units":"in","Rept_Date":"2019-12-15 13"},"coordinates":[1137,5001]},{"type":"Point","properties":{"Station_ID":"SHDI4","Station_Nam":"SHELDON,IA","Latitude":"43.18080","Longitude":"-95.85280","Snowdepth":"3.000","Units":"in","Rept_Date":"2019-12-15 13"},"coordinates":[325,4682]},{"type":"Point","properties":{"Station_ID":"SFDI2","Station_Nam":"SPRINGFIELD #2","Latitude":"39.79670","Longitude":"-89.67700","Snowdepth":"3.000","Units":"in","Rept_Date":"2019-12-16 06"},"coordinates":[1775,2577]},{"type":"Point","properties":{"Station_ID":"SD-RB-4","Station_Nam":"SISSETON 10.4 ENE, SD","Latitude":"45.69480","Longitude":"-96.83480","Snowdepth":"3.000","Units":"in","Rept_Date":"2019-12-15 13"},"coordinates":[95,6246]},{"type":"Point","properties":{"Station_ID":"RNBW3","Station_Nam":"WFO GREEN BAY","Latitude":"44.49780","Longitude":"-88.11080","Snowdepth":"3.000","Units":"in","Rept_Date":"2019-12-16 06"},"coordinates":[2142,5501]},{"type":"Point","properties":{"Station_ID":"RKWM1","Station_Nam":"MOOSEHEAD LAKE","Latitude":"45.58330","Longitude":"-69.71670","Snowdepth":"3.000","Units":"in","Rept_Date":"2019-12-15 12"},"coordinates":[6459,6177]},{"type":"Point","properties":{"Station_ID":"REWM5","Station_Nam":"REDWOOD FALLS","Latitude":"44.54850","Longitude":"-95.09980","Snowdepth":"3.000","Units":"in","Rept_Date":"2019-12-15 13"},"coordinates":[502,5533]},{"type":"Point","properties":{"Station_ID":"PULW3","Station_Nam":"PULASKI WWTP","Latitude":"44.67830","Longitude":"-88.22750","Snowdepth":"3.000","Units":"in","Rept_Date":"2019-12-15 12"},"coordinates":[2115,5614]},{"type":"Point","properties":{"Station_ID":"PLMN6","Station_Nam":"PALERMO 2SSE","Latitude":"43.33140","Longitude":"-76.26930","Snowdepth":"3.000","Units":"in","Rept_Date":"2019-12-15 11"},"coordinates":[4921,4776]},{"type":"Point","properties":{"Station_ID":"PITW3","Station_Nam":"PITTSVILLE-WWTP","Latitude":"44.43690","Longitude":"-90.13170","Snowdepth":"3.000","Units":"in","Rept_Date":"2019-12-15 13"},"coordinates":[1668,5464]},{"type":"Point","properties":{"Station_ID":"PIPM5","Station_Nam":"PIPESTONE,MN","Latitude":"44.01390","Longitude":"-96.32580","Snowdepth":"3.000","Units":"in","Rept_Date":"2019-12-15 14"},"coordinates":[214,5200]},{"type":"Point","properties":{"Station_ID":"PGVN6","Station_Nam":"PORTAGEVILLE","Latitude":"42.57580","Longitude":"-78.06720","Snowdepth":"3.000","Units":"in","Rept_Date":"2019-12-15 12"},"coordinates":[4499,4306]},{"type":"Point","properties":{"Station_ID":"PEAI2","Station_Nam":"PEORIA #2 SNOW PAID","Latitude":"40.76270","Longitude":"-89.59960","Snowdepth":"3.000","Units":"in","Rept_Date":"2019-12-16 06"},"coordinates":[1793,3178]},{"type":"Point","properties":{"Station_ID":"NY-WR-10","Station_Nam":"WARRENSBURG 2.1 WNW, NY","Latitude":"43.51784","Longitude":"-73.81069","Snowdepth":"3.000","Units":"in","Rept_Date":"2019-12-15 13"},"coordinates":[5498,4892]},{"type":"Point","properties":{"Station_ID":"NY-OS-16","Station_Nam":"PHOENIX 7.0 NNE, NY","Latitude":"43.33100","Longitude":"-76.27000","Snowdepth":"3.000","Units":"in","Rept_Date":"2019-12-15 11"},"coordinates":[4921,4776]},{"type":"Point","properties":{"Station_ID":"NY-OG-61","Station_Nam":"SKANEATELES 0.8 NNW, NY","Latitude":"42.95538","Longitude":"-76.43362","Snowdepth":"3.000","Units":"in","Rept_Date":"2019-12-15 15"},"coordinates":[4883,4542]},{"type":"Point","properties":{"Station_ID":"NWTI2","Station_Nam":"NEWTON","Latitude":"38.99160","Longitude":"-88.18280","Snowdepth":"3.000","Units":"in","Rept_Date":"2019-12-16 06"},"coordinates":[2125,2076]},{"type":"Point","properties":{"Station_ID":"NSKN6","Station_Nam":"NISKAYUNA","Latitude":"42.79580","Longitude":"-73.87670","Snowdepth":"3.000","Units":"in","Rept_Date":"2019-12-15 12"},"coordinates":[5483,4443]},{"type":"Point","properties":{"Station_ID":"NPTM4","Station_Nam":"NORTHPORT 2W","Latitude":"45.13220","Longitude":"-85.64720","Snowdepth":"3.000","Units":"in","Rept_Date":"2019-12-15 13"},"coordinates":[2720,5896]},{"type":"Point","properties":{"Station_ID":"NH-HL-48","Station_Nam":"GREENVILLE 1.1 ENE, NH","Latitude":"42.77674","Longitude":"-71.77990","Snowdepth":"3.000","Units":"in","Rept_Date":"2019-12-15 13"},"coordinates":[5975,4431]},