{"type":"Topology","objects":{"snowdepth_geo":{"type":"GeometryCollection","name":"snowdepth","crs":{"type":"name","properties":{"name":"urn:ogc:def:crs:OGC:1.3:CRS84"}},"geometries":[{"type":"Point","properties":{"Station_ID":"MMSV1","Station_Nam":"MOUNT MANSFIELD","Latitude":"44.53330","Longitude":"-72.83330","Snowdepth":"91.000","Units":"in","Rept_Date":"2019-11-17 05"},"coordinates":[7548,4321]},{"type":"Point","properties":{"Station_ID":"PRKM4","Station_Nam":"MUNISING EAST","Latitude":"46.42580","Longitude":"-86.62000","Snowdepth":"76.500","Units":"in","Rept_Date":"2019-11-17 06"},"coordinates":[3202,5815]},{"type":"Point","properties":{"Station_ID":"OGIQ6","Station_Nam":"OGOKI CAMP","Latitude":"50.76680","Longitude":"-87.85820","Snowdepth":"61.100","Units":"in","Rept_Date":"2019-11-17 06"},"coordinates":[2812,9241]},{"type":"Point","properties":{"Station_ID":"AUDQ6","Station_Nam":"AUDEN","Latitude":"48.52600","Longitude":"-82.57570","Snowdepth":"47.640","Units":"in","Rept_Date":"2019-11-17 06"},"coordinates":[4477,7473]},{"type":"Point","properties":{"Station_ID":"DVLQ6","Station_Nam":"DEVIOUS LAKE","Latitude":"49.19890","Longitude":"-87.76440","Snowdepth":"43.460","Units":"in","Rept_Date":"2019-11-17 06"},"coordinates":[2842,8004]},{"type":"Point","properties":{"Station_ID":"PRDM4","Station_Nam":"PARADISE","Latitude":"46.60380","Longitude":"-85.03960","Snowdepth":"15.000","Units":"in","Rept_Date":"2019-11-16 12"},"coordinates":[3700,5955]},{"type":"Point","properties":{"Station_ID":"MMNV1","Station_Nam":"MT. MANSFIELD","Latitude":"44.52480","Longitude":"-72.81540","Snowdepth":"11.000","Units":"in","Rept_Date":"2019-11-16 21"},"coordinates":[7553,4314]},{"type":"Point","properties":{"Station_ID":"FISM1","Station_Nam":"FORT KENT COOP","Latitude":"47.23850","Longitude":"-68.61240","Snowdepth":"10.000","Units":"in","Rept_Date":"2019-11-16 11"},"coordinates":[8878,6456]},{"type":"Point","properties":{"Station_ID":"AVLV1","Station_Nam":"AVERILL","Latitude":"45.00570","Longitude":"-71.69030","Snowdepth":"10.000","Units":"in","Rept_Date":"2019-11-16 13"},"coordinates":[7908,4694]},{"type":"Point","properties":{"Station_ID":"NPTM4","Station_Nam":"NORTHPORT 2W","Latitude":"45.13220","Longitude":"-85.64720","Snowdepth":"9.000","Units":"in","Rept_Date":"2019-11-16 13"},"coordinates":[3509,4794]},{"type":"Point","properties":{"Station_ID":"ME-AR-23","Station_Nam":"MADAWASKA 2.5 E, ME","Latitude":"47.34933","Longitude":"-68.28141","Snowdepth":"9.000","Units":"in","Rept_Date":"2019-11-16 11"},"coordinates":[8982,6544]},{"type":"Point","properties":{"Station_ID":"LILM1","Station_Nam":"LILLE","Latitude":"47.27770","Longitude":"-68.10520","Snowdepth":"9.000","Units":"in","Rept_Date":"2019-11-16 12"},"coordinates":[9038,6487]},{"type":"Point","properties":{"Station_ID":"VT-OL-12","Station_Nam":"GREENSBORO 3.9 NNE, VT","Latitude":"44.63100","Longitude":"-72.28000","Snowdepth":"8.500","Units":"in","Rept_Date":"2019-11-16 13"},"coordinates":[7722,4398]},{"type":"Point","properties":{"Station_ID":"VANM1","Station_Nam":"VAN BUREN","Latitude":"47.16600","Longitude":"-67.93900","Snowdepth":"8.000","Units":"in","Rept_Date":"2019-11-16 12"},"coordinates":[9090,6399]},{"type":"Point","properties":{"Station_ID":"PTBN3","Station_Nam":"DAM WITHIN","Latitude":"45.05000","Longitude":"-71.38330","Snowdepth":"8.000","Units":"in","Rept_Date":"2019-11-16 12"},"coordinates":[8005,4729]},{"type":"Point","properties":{"Station_ID":"PDLM4","Station_Nam":"PAINESDALE","Latitude":"47.04160","Longitude":"-88.67170","Snowdepth":"8.000","Units":"in","Rept_Date":"2019-11-16 13"},"coordinates":[2556,6301]},{"type":"Point","properties":{"Station_ID":"NY-SL-6","Station_Nam":"HANNAWA FALLS 0.1 SW, NY","Latitude":"44.61154","Longitude":"-74.97190","Snowdepth":"8.000","Units":"in","Rept_Date":"2019-11-16 12"},"coordinates":[6874,4383]},{"type":"Point","properties":{"Station_ID":"NWCM4","Station_Nam":"NEWBERRY CITY","Latitude":"46.35720","Longitude":"-85.51780","Snowdepth":"8.000","Units":"in","Rept_Date":"2019-11-16 12"},"coordinates":[3550,5761]},{"type":"Point","properties":{"Station_ID":"NH-CS-4","Station_Nam":"PITTSBURG 6.1 NE, NH","Latitude":"45.11060","Longitude":"-71.29760","Snowdepth":"8.000","Units":"in","Rept_Date":"2019-11-16 12"},"coordinates":[8032,4777]},{"type":"Point","properties":{"Station_ID":"MTQM4","Station_Nam":"MANISTIQUE WWTP","Latitude":"45.95120","Longitude":"-86.25130","Snowdepth":"8.000","Units":"in","Rept_Date":"2019-11-16 12"},"coordinates":[3318,5440]},{"type":"Point","properties":{"Station_ID":"MNSM4","Station_Nam":"MUNISING","Latitude":"46.41210","Longitude":"-86.66250","Snowdepth":"8.000","Units":"in","Rept_Date":"2019-11-16 11"},"coordinates":[3189,5804]},{"type":"Point","properties":{"Station_ID":"MI-AT-6","Station_Nam":"MANCELONA 0.5 ESE, MI","Latitude":"44.89981","Longitude":"-85.05100","Snowdepth":"8.000","Units":"in","Rept_Date":"2019-11-16 13"},"coordinates":[3697,4610]},{"type":"Point","properties":{"Station_ID":"MAPM4","Station_Nam":"MAPLE CITY 1E","Latitude":"44.85500","Longitude":"-85.83520","Snowdepth":"8.000","Units":"in","Rept_Date":"2019-11-17 01"},"coordinates":[3450,4575]},{"type":"Point","properties":{"Station_ID":"KSGM4","Station_Nam":"KEARSARGE","Latitude":"47.27520","Longitude":"-88.41700","Snowdepth":"8.000","Units":"in","Rept_Date":"2019-11-16 13"},"coordinates":[2636,6485]},{"type":"Point","properties":{"Station_ID":"HURW3","Station_Nam":"HURLEY","Latitude":"46.46250","Longitude":"-90.19550","Snowdepth":"8.000","Units":"in","Rept_Date":"2019-11-16 14"},"coordinates":[2075,5844]},{"type":"Point","properties":{"Station_ID":"CNRM1","Station_Nam":"CONNOR TWP","Latitude":"46.95830","Longitude":"-68.03330","Snowdepth":"8.000","Units":"in","Rept_Date":"2019-11-16 12"},"coordinates":[9061,6235]},{"type":"Point","properties":{"Station_ID":"VT-OL-1","Station_Nam":"WESTFIELD 0.7 WNW, VT","Latitude":"44.89160","Longitude":"-72.44350","Snowdepth":"7.500","Units":"in","Rept_Date":"2019-11-16 13"},"coordinates":[7671,4604]},{"type":"Point","properties":{"Station_ID":"MI-WS-3","Station_Nam":"PLYMOUTH 5.4 W, MI","Latitude":"42.38279","Longitude":"-83.57120","Snowdepth":"7.300","Units":"in","Rept_Date":"2019-11-16 12"},"coordinates":[4163,2624]},{"type":"Point","properties":{"Station_ID":"VT-OL-2","Station_Nam":"BARTON 3.0 ENE, VT","Latitude":"44.75863","Longitude":"-72.11680","Snowdepth":"7.000","Units":"in","Rept_Date":"2019-11-16 12"},"coordinates":[7774,4499]},{"type":"Point","properties":{"Station_ID":"VT-ES-3","Station_Nam":"LUNENBURG 2.3 NNW, VT","Latitude":"44.49324","Longitude":"-71.70446","Snowdepth":"7.000","Units":"in","Rept_Date":"2019-11-16 11"},"coordinates":[7903,4289]},{"type":"Point","properties":{"Station_ID":"SSMM4","Station_Nam":"SAULT STE MARIE","Latitude":"46.48660","Longitude":"-84.40250","Snowdepth":"7.000","Units":"in","Rept_Date":"2019-11-16 13"},"coordinates":[3901,5863]},{"type":"Point","properties":{"Station_ID":"NY-FK-9","Station_Nam":"GABRIELS 1.3 SE, NY","Latitude":"44.41934","Longitude":"-74.16194","Snowdepth":"7.000","Units":"in","Rept_Date":"2019-11-16 12"},"coordinates":[7129,4231]},{"type":"Point","properties":{"Station_ID":"MI-WY-7","Station_Nam":"DEARBORN 3.5 NE, MI","Latitude":"42.35000","Longitude":"-83.17000","Snowdepth":"7.000","Units":"in","Rept_Date":"2019-11-16 12"},"coordinates":[4290,2598]},{"type":"Point","properties":{"Station_ID":"LPEM4","Station_Nam":"LAPEER,MI","Latitude":"43.06280","Longitude":"-83.33330","Snowdepth":"7.000","Units":"in","Rept_Date":"2019-11-16 16"},"coordinates":[4238,3160]},{"type":"Point","properties":{"Station_ID":"IRMM4","Station_Nam":"WWTP","Latitude":"46.46670","Longitude":"-90.18330","Snowdepth":"7.000","Units":"in","Rept_Date":"2019-11-16 13"},"coordinates":[2079,5847]},{"type":"Point","properties":{"Station_ID":"CARM1","Station_Nam":"CARIBOU WFO","Latitude":"46.86810","Longitude":"-68.01250","Snowdepth":"7.000","Units":"in","Rept_Date":"2019-11-17 05"},"coordinates":[9067,6164]},{"type":"Point","properties":{"Station_ID":"CAN-ON-109","Station_Nam":"MILDMAY 5.9 SSE, CA","Latitude":"43.98733","Longitude":"-81.10330","Snowdepth":"7.000","Units":"in","Rept_Date":"2019-11-16 13"},"coordinates":[4941,3890]},{"type":"Point","properties":{"Station_ID":"CAN-NB-13","Station_Nam":"BATHURST 3.8 NW, CAN","Latitude":"47.64212","Longitude":"-65.68756","Snowdepth":"7.000","Units":"in","Rept_Date":"2019-11-16 11"},"coordinates":[9800,6775]},{"type":"Point","properties":{"Station_ID":"ANJ","Station_Nam":"SAULT STE MARIE","Latitude":"46.46670","Longitude":"-84.36670","Snowdepth":"7.000","Units":"in","Rept_Date":"2019-11-17 00"},"coordinates":[3912,5847]},{"type":"Point","properties":{"Station_ID":"CAN-QC-47","Station_Nam":"SAINTE-FOY 1.8 ENE, CAN","Latitude":"46.76934","Longitude":"-71.27124","Snowdepth":"6.700","Units":"in","Rept_Date":"2019-11-16 12"},"coordinates":[8040,6086]},{"type":"Point","properties":{"Station_ID":"VT-OL-9","Station_Nam":"GREENSBORO 2.1 NNW, VT","Latitude":"44.60528","Longitude":"-72.30940","Snowdepth":"6.500","Units":"in","Rept_Date":"2019-11-16 12"},"coordinates":[7713,4378]},{"type":"Point","properties":{"Station_ID":"NY-ES-7","Station_Nam":"KEESEVILLE 0.8 SE, NY","Latitude":"44.49504","Longitude":"-73.47109","Snowdepth":"6.500","Units":"in","Rept_Date":"2019-11-16 12"},"coordinates":[7347,4291]},{"type":"Point","properties":{"Station_ID":"MI-MB-55","Station_Nam":"FRASER 1.2 N, MI","Latitude":"42.55697","Longitude":"-82.94938","Snowdepth":"6.500","Units":"in","Rept_Date":"2019-11-16 12"},"coordinates":[4359,2761]},{"type":"Point","properties":{"Station_ID":"CAN-ON-491","Station_Nam":"MILVERTON 1.1 ESE- CANWARN, CAN","Latitude":"43.56074","Longitude":"-80.90887","Snowdepth":"6.400","Units":"in","Rept_Date":"2019-11-16 12"},"coordinates":[5002,3553]},{"type":"Point","properties":{"Station_ID":"SVBQ6","Station_Nam":"SAVANT BASE","Latitude":"50.28730","Longitude":"-90.65670","Snowdepth":"6.340","Units":"in","Rept_Date":"2019-11-17 06"},"coordinates":[1930,8863]},{"type":"Point","properties":{"Station_ID":"VT-OL-5","Station_Nam":"DERBY CENTER 1.8 NW, VT","Latitude":"44.97200","Longitude":"-72.14780","Snowdepth":"6.100","Units":"in","Rept_Date":"2019-11-16 12"},"coordinates":[7764,4667]},{"type":"Point","properties":{"Station_ID":"VT-WS-30","Station_Nam":"WOODBURY 3.4 NNW, VT","Latitude":"44.48825","Longitude":"-72.43258","Snowdepth":"6.000","Units":"in","Rept_Date":"2019-11-16 12"},"coordinates":[7674,4285]},{"type":"Point","properties":{"Station_ID":"VT-CH-4","Station_Nam":"UNDERHILL 4.4 NNE, VT","Latitude":"44.58774","Longitude":"-72.92250","Snowdepth":"6.000","Units":"in","Rept_Date":"2019-11-16 12"},"coordinates":[7520,4364]},{"type":"Point","properties":{"Station_ID":"TOPN6","Station_Nam":"TUPPER LAKE SUNMOUNT","Latitude":"44.23070","Longitude":"-74.43820","Snowdepth":"6.000","Units":"in","Rept_Date":"2019-11-16 12"},"coordinates":[7042,4082]},{"type":"Point","properties":{"Station_ID":"SUAW3","Station_Nam":"SUAMICO","Latitude":"44.60190","Longitude":"-88.09780","Snowdepth":"6.000","Units":"in","Rept_Date":"2019-11-16 12"},"coordinates":[2736,4375]},{"type":"Point","properties":{"Station_ID":"NY-MR-23","Station_Nam":"ROCHESTER 5.0 WNW, NY","Latitude":"43.20356","Longitude":"-77.70310","Snowdepth":"6.000","Units":"in","Rept_Date":"2019-11-16 12"},"coordinates":[6013,3271]},{"type":"Point","properties":{"Station_ID":"NY-JF-30","Station_Nam":"WEST CARTHAGE 0.3 ENE, NY","Latitude":"43.97493","Longitude":"-75.61640","Snowdepth":"6.000","Units":"in","Rept_Date":"2019-11-16 12"},"coordinates":[6670,3880]},{"type":"Point","properties":{"Station_ID":"NY-FK-7","Station_Nam":"SARANAC LAKE 6.2 N, NY","Latitude":"44.41359","Longitude":"-74.15211","Snowdepth":"6.000","Units":"in","Rept_Date":"2019-11-16 12"},"coordinates":[7132,4227]},{"type":"Point","properties":{"Station_ID":"NY-ER-158","Station_Nam":"EAST AURORA 2.7 SSE, NY","Latitude":"42.72936","Longitude":"-78.60561","Snowdepth":"6.000","Units":"in","Rept_Date":"2019-11-16 12"},"coordinates":[5728,2897]},{"type":"Point","properties":{"Station_ID":"NUNV1","Station_Nam":"NORTH UNDERHILL","Latitude":"44.58760","Longitude":"-72.92150","Snowdepth":"6.000","Units":"in","Rept_Date":"2019-11-16 12"},"coordinates":[7520,4364]},{"type":"Point","properties":{"Station_ID":"NPTV1","Station_Nam":"NEWPORT","Latitude":"44.94900","Longitude":"-72.19120","Snowdepth":"6.000","Units":"in","Rept_Date":"2019-11-16 12"},"coordinates":[7750,4649]},{"type":"Point","properties":{"Station_ID":"MALN6","Station_Nam":"MALONE","Latitude":"44.84180","Longitude":"-74.30600","Snowdepth":"6.000","Units":"in","Rept_Date":"2019-11-16 12"},"coordinates":[7084,4565]},{"type":"Point","properties":{"Station_ID":"LPLN6","Station_Nam":"LAKE PLACID 2 S","Latitude":"44.30420","Longitude":"-73.98390","Snowdepth":"6.000","Units":"in","Rept_Date":"2019-11-16 13"},"coordinates":[7185,4140]},{"type":"Point","properties":{"Station_ID":"JEFV1","Station_Nam":"JEFFERSONVILLE","Latitude":"44.58430","Longitude":"-72.78700","Snowdepth":"6.000","Units":"in","Rept_Date":"2019-11-16 12"},"coordinates":[7562,4361]},{"type":"Point","properties":{"Station_ID":"ISLV1","Station_Nam":"ISLAND POND","Latitude":"44.81280","Longitude":"-71.89020","Snowdepth":"6.000","Units":"in","Rept_Date":"2019-11-16 19"},"coordinates":[7845,4542]},{"type":"Point","properties":{"Station_ID":"GNLM4","Station_Nam":"GREENLAND 6N","Latitude":"46.87360","Longitude":"-89.10060","Snowdepth":"6.000","Units":"in","Rept_Date":"2019-11-16 11"},"coordinates":[2420,6168]},{"type":"Point","properties":{"Station_ID":"GILV1","Station_Nam":"GILMAN","Latitude":"44.41120","Longitude":"-71.71860","Snowdepth":"6.000","Units":"in","Rept_Date":"2019-11-16 12"},"coordinates":[7899,4225]},{"type":"Point","properties":{"Station_ID":"GHMN3","Station_Nam":"PINKHAM NOTCH","Latitude":"44.25800","Longitude":"-71.25250","Snowdepth":"6.000","Units":"in","Rept_Date":"2019-11-16 11"},"coordinates":[8046,4104]},{"type":"Point","properties":{"Station_ID":"FLAM4","Station_Nam":"FIFE LAKE 2WNW","Latitude":"44.58480","Longitude":"-85.36530","Snowdepth":"6.000","Units":"in","Rept_Date":"2019-11-16 12"},"coordinates":[3598,4362]},{"type":"Point","properties":{"Station_ID":"ENFV1","Station_Nam":"ENOSBURG FALLS 2","Latitude":"44.90960","Longitude":"-72.81370","Snowdepth":"6.000","Units":"in","Rept_Date":"2019-11-16 15"},"coordinates":[7554,4618]},{"type":"Point","properties":{"Station_ID":"CHRM4","Station_Nam":"CHARLEVOIX","Latitude":"45.31720","Longitude":"-85.26720","Snowdepth":"6.000","Units":"in","Rept_Date":"2019-11-16 13"},"coordinates":[3629,4940]},{"type":"Point","properties":{"Station_ID":"BUNM4","Station_Nam":"BURTON 4N","Latitude":"43.06750","Longitude":"-83.59190","Snowdepth":"6.000","Units":"in","Rept_Date":"2019-11-16 12"},"coordinates":[4157,3164]},{"type":"Point","properties":{"Station_ID":"BRKN6","Station_Nam":"BROCKPORT","Latitude":"43.21600","Longitude":"-77.95290","Snowdepth":"6.000","Units":"in","Rept_Date":"2019-11-16 14"},"coordinates":[5934,3281]},{"type":"Point","properties":{"Station_ID":"BGBM4","Station_Nam":"BIG BAY 1NW","Latitude":"46.83250","Longitude":"-87.75040","Snowdepth":"6.000","Units":"in","Rept_Date":"2019-11-16 13"},"coordinates":[2846,6136]},{"type":"Point","properties":{"Station_ID":"APXM4","Station_Nam":"GAYLORD 9SSW","Latitude":"44.90720","Longitude":"-84.71880","Snowdepth":"6.000","Units":"in","Rept_Date":"2019-11-17 06"},"coordinates":[3801,4616]},{"type":"Point","properties":{"Station_ID":"ANJM4","Station_Nam":"SNOW PAID OBSERVER FOR KANJ","Latitude":"46.48670","Longitude":"-84.40260","Snowdepth":"6.000","Units":"in","Rept_Date":"2019-11-16 18"},"coordinates":[3901,5863]},{"type":"Point","properties":{"Station_ID":"CAN-ON-86","Station_Nam":"GUELPH 5.1 S - CANWARN, CAN","Latitude":"43.49691","Longitude":"-80.24385","Snowdepth":"5.900","Units":"in","Rept_Date":"2019-11-16 12"},"coordinates":[5212,3503]},{"type":"Point","properties":{"Station_ID":"NY-ER-138","Station_Nam":"EAST AURORA 3.4 NNE, NY","Latitude":"42.81400","Longitude":"-78.59670","Snowdepth":"5.700","Units":"in","Rept_Date":"2019-11-16 12"},"coordinates":[5731,2964]},{"type":"Point","properties":{"Station_ID":"MI-AN-20","Station_Nam":"HOLLAND 5.3 WSW, MI","Latitude":"42.74900","Longitude":"-86.20200","Snowdepth":"5.700","Units":"in","Rept_Date":"2019-11-16 13"},"coordinates":[3334,2913]},{"type":"Point","properties":{"Station_ID":"CAN-NB-18","Station_Nam":"MCLEOD HILL 1.1 ENE, CA","Latitude":"46.02725","Longitude":"-66.67460","Snowdepth":"5.700","Units":"in","Rept_Date":"2019-11-16 12"},"coordinates":[9489,5500]},{"type":"Point","properties":{"Station_ID":"MI-BG-3","Station_Nam":"L'ANSE 17.8 SE, MI","Latitude":"46.55730","Longitude":"-88.20770","Snowdepth":"5.600","Units":"in","Rept_Date":"2019-11-16 13"},"coordinates":[2702,5919]},{"type":"Point","properties":{"Station_ID":"SOCQ6","Station_Nam":"SOCKET LAKE","Latitude":"50.77870","Longitude":"-91.79300","Snowdepth":"5.550","Units":"in","Rept_Date":"2019-11-17 06"},"coordinates":[1572,9251]},{"type":"Point","properties":{"Station_ID":"NY-ES-6","Station_Nam":"OLMSTEDVILLE 4.6 NNE, NY","Latitude":"43.83350","Longitude":"-73.89780","Snowdepth":"5.500","Units":"in","Rept_Date":"2019-11-16 13"},"coordinates":[7212,3769]},{"type":"Point","properties":{"Station_ID":"NH-CS-10","Station_Nam":"RANDOLPH 1.4 NE, NH","Latitude":"44.38824","Longitude":"-71.26950","Snowdepth":"5.500","Units":"in","Rept_Date":"2019-11-16 12"},"coordinates":[8041,4207]},{"type":"Point","properties":{"Station_ID":"MI-OT-17","Station_Nam":"GAYLORD 4.1 S, MI","Latitude":"44.96388","Longitude":"-84.68467","Snowdepth":"5.500","Units":"in","Rept_Date":"2019-11-16 12"},"coordinates":[3812,4661]},{"type":"Point","properties":{"Station_ID":"CAN-QC-51","Station_Nam":"BELOEIL 0.7 NW, CAN","Latitude":"45.58049","Longitude":"-73.21218","Snowdepth":"5.300","Units":"in","Rept_Date":"2019-11-16 12"},"coordinates":[7428,5148]},{"type":"Point","properties":{"Station_ID":"CAN-QC-16","Station_Nam":"SAINT-ARMAND 3.6 W, CAN","Latitude":"45.02631","Longitude":"-73.08795","Snowdepth":"5.300","Units":"in","Rept_Date":"2019-11-16 12"},"coordinates":[7467,4710]},{"type":"Point","properties":{"Station_ID":"WLSN6","Station_Nam":"WALES","Latitude":"42.73920","Longitude":"-78.58780","Snowdepth":"5.000","Units":"in","Rept_Date":"2019-11-16 12"},"coordinates":[5734,2905]},{"type":"Point","properties":{"Station_ID":"WI-IR-3","Station_Nam":"PENCE 0.1 E, WI","Latitude":"46.41555","Longitude":"-90.27013","Snowdepth":"5.000","Units":"in","Rept_Date":"2019-11-16 13"},"coordinates":[2052,5807]},{"type":"Point","properties":{"Station_ID":"VT-WS-15","Station_Nam":"EAST CALAIS 1.5 SW, VT","Latitude":"44.35523","Longitude":"-72.45540","Snowdepth":"5.000","Units":"in","Rept_Date":"2019-11-16 12"},"coordinates":[7667,4180]},{"type":"Point","properties":{"Station_ID":"VT-LM-7","Station_Nam":"HYDE PARK 2.9 NE, VT","Latitude":"44.62080","Longitude":"-72.57250","Snowdepth":"5.000","Units":"in","Rept_Date":"2019-11-16 13"},"coordinates":[7630,4390]},{"type":"Point","properties":{"Station_ID":"VT-CL-23","Station_Nam":"RYEGATE 1.5 N, VT","Latitude":"44.23024","Longitude":"-72.10523","Snowdepth":"5.000","Units":"in","Rept_Date":"2019-11-16 12"},"coordinates":[7777,4082]},{"type":"Point","properties":{"Station_ID":"VT-CL-18","Station_Nam":"WHEELOCK 1.6 S, VT","Latitude":"44.56491","Longitude":"-72.08830","Snowdepth":"5.000","Units":"in","Rept_Date":"2019-11-16 12"},"coordinates":[7783,4346]},{"type":"Point","properties":{"Station_ID":"VT-CH-11","Station_Nam":"UNDERHILL 5.1 NNE, VT","Latitude":"44.59811","Longitude":"-72.91880","Snowdepth":"5.000","Units":"in","Rept_Date":"2019-11-16 13"},"coordinates":[7521,4372]},{"type":"Point","properties":{"Station_ID":"VRGV1","Station_Nam":"VERGENNES","Latitude":"44.17190","Longitude":"-73.24720","Snowdepth":"5.000","Units":"in","Rept_Date":"2019-11-16 13"},"coordinates":[7417,4036]},{"type":"Point","properties":{"Station_ID":"TCEM4","Station_Nam":"TRAVERSE CITY 5ESE","Latitude":"44.73370","Longitude":"-85.51180","Snowdepth":"5.000","Units":"in","Rept_Date":"2019-11-16 12"},"coordinates":[3552,4479]},{"type":"Point","properties":{"Station_ID":"SUTV1","Station_Nam":"SUTTON","Latitude":"44.61220","Longitude":"-72.04810","Snowdepth":"5.000","Units":"in","Rept_Date":"2019-11-16 13"},"coordinates":[7795,4383]},{"type":"Point","properties":{"Station_ID":"SLNV1","Station_Nam":"SOUTH LINCOLN","Latitude":"44.07460","Longitude":"-72.97180","Snowdepth":"5.000","Units":"in","Rept_Date":"2019-11-16 12"},"coordinates":[7504,3959]},{"type":"Point","properties":{"Station_ID":"QNCM4","Station_Nam":"QUINCY HILL","Latitude":"47.13640","Longitude":"-88.57950","Snowdepth":"5.000","Units":"in","Rept_Date":"2019-11-16 12"},"coordinates":[2585,6376]},{"type":"Point","properties":{"Station_ID":"NY-ER-178","Station_Nam":"WEST SENECA 2.5 SE, NY","Latitude":"42.81374","Longitude":"-78.71399","Snowdepth":"5.000","Units":"in","Rept_Date":"2019-11-16 12"},"coordinates":[5694,2964]},{"type":"Point","properties":{"Station_ID":"NY-ER-166","Station_Nam":"BOSTON 2.5 NE, NY","Latitude":"42.65480","Longitude":"-78.70300","Snowdepth":"5.000","Units":"in","Rept_Date":"2019-11-16 12"},"coordinates":[5698,2838]},{"type":"Point","properties":{"Station_ID":"NVLV1","Station_Nam":"NASHVILLE","Latitude":"44.44970","Longitude":"-72.92640","Snowdepth":"5.000","Units":"in","Rept_Date":"2019-11-16 12"},"coordinates":[7518,4255]},{"type":"Point","properties":{"Station_ID":"NH-GR-47","Station_Nam":"LITTLETON 7.3 W, NH","Latitude":"44.31847","Longitude":"-71.91086","Snowdepth":"5.000","Units":"in","Rept_Date":"2019-11-16 13"},"coordinates":[7838,4151]},{"type":"Point","properties":{"Station_ID":"MI-OT-4","Station_Nam":"GAYLORD 1.7 WNW, MI","Latitude":"45.03280","Longitude":"-84.71090","Snowdepth":"5.000","Units":"in","Rept_Date":"2019-11-16 13"},"coordinates":[3804,4715]},{"type":"Point","properties":{"Station_ID":"MI-OK-94","Station_Nam":"FARMINGTON HILLS 1.4 N, MI","Latitude":"42.50660","Longitude":"-83.37910","Snowdepth":"5.000","Units":"in","Rept_Date":"2019-11-16 12"},"coordinates":[4224,2721]},{"type":"Point","properties":{"Station_ID":"MI-LV-26","Station_Nam":"FENTON 6.2 WSW, MI","Latitude":"42.76832","Longitude":"-83.82928","Snowdepth":"5.000","Units":"in","Rept_Date":"2019-11-16 13"},"coordinates":[4082,2928]},{"type":"Point","properties":{"Station_ID":"MI-GT-25","Station_Nam":"TRAVERSE CITY 4.7 ESE, MI","Latitude":"44.73370","Longitude":"-85.51189","Snowdepth":"5.000","Units":"in","Rept_Date":"2019-11-16 12"},"coordinates":[3552,4479]},{"type":"Point","properties":{"Station_ID":"MI-CT-18","Station_Nam":"LAINGSBURG 2.1 NNW, MI","Latitude":"42.91661","Longitude":"-84.36803","Snowdepth":"5.000","Units":"in","Rept_Date":"2019-11-16 13"},"coordinates":[3912,3045]},{"type":"Point","properties":{"Station_ID":"ME-AR-15","Station_Nam":"PRESQUE ISLE 1.3 WSW, ME","Latitude":"46.67960","Longitude":"-68.01270","Snowdepth":"5.000","Units":"in","Rept_Date":"2019-11-16 12"},"coordinates":[9067,6015]},{"type":"Point","properties":{"Station_ID":"JEFN3","Station_Nam":"JEFFERSON","Latitude":"44.41690","Longitude":"-71.50080","Snowdepth":"5.000","Units":"in","Rept_Date":"2019-11-16 12"},"coordinates":[7968,4229]},{"type":"Point","properties":{"Station_ID":"HGHN6","Station_Nam":"HIGHMARKET","Latitude":"43.57520","Longitude":"-75.52070","Snowdepth":"5.000","Units":"in","Rept_Date":"2019-11-16 11"},"coordinates":[6701,3565]},{"type":"Point","properties":{"Station_ID":"HERM4","Station_Nam":"HERMAN,MI","Latitude":"46.65000","Longitude":"-88.33330","Snowdepth":"5.000","Units":"in","Rept_Date":"2019-11-16 13"},"coordinates":[2662,5992]},{"type":"Point","properties":{"Station_ID":"GPFM4","Station_Nam":"GROSSE POINTE FARMS,MI","Latitude":"42.38330","Longitude":"-82.90000","Snowdepth":"5.000","Units":"in","Rept_Date":"2019-11-16 13"},"coordinates":[4375,2624]},{"type":"Point","properties":{"Station_ID":"GAYM4","Station_Nam":"GAYLORD","Latitude":"45.03320","Longitude":"-84.71130","Snowdepth":"5.000","Units":"in","Rept_Date":"2019-11-16 13"},"coordinates":[3804,4716]},{"type":"Point","properties":{"Station_ID":"EJNM4","Station_Nam":"EAST JORDAN 2NW","Latitude":"45.18630","Longitude":"-85.14770","Snowdepth":"5.000","Units":"in","Rept_Date":"2019-11-16 13"},"coordinates":[3666,4836]},{"type":"Point","properties":{"Station_ID":"EAHV1","Station_Nam":"EAST HAVEN","Latitude":"44.64250","Longitude":"-71.89120","Snowdepth":"5.000","Units":"in","Rept_Date":"2019-11-16 12"},"coordinates":[7845,4407]},{"type":"Point","properties":{"Station_ID":"CGPM4","Station_Nam":"DOLLAR BAY","Latitude":"47.11670","Longitude":"-88.51370","Snowdepth":"5.000","Units":"in","Rept_Date":"2019-11-16 13"},"coordinates":[2605,6360]},{"type":"Point","properties":{"Station_ID":"CAN-ON-42","Station_Nam":"VANKLEEK HILL 3.4 S, CA","Latitude":"45.48987","Longitude":"-74.64570","Snowdepth":"5.000","Units":"in","Rept_Date":"2019-11-16 12"},"coordinates":[6976,5076]},{"type":"Point","properties":{"Station_ID":"BRDM1","Station_Nam":"BRIDGEWATER","Latitude":"46.42870","Longitude":"-67.84370","Snowdepth":"5.000","Units":"in","Rept_Date":"2019-11-16 23"},"coordinates":[9120,5817]},{"type":"Point","properties":{"Station_ID":"BAGM4","Station_Nam":"BARAGA 7NW","Latitude":"46.82100","Longitude":"-88.60590","Snowdepth":"5.000","Units":"in","Rept_Date":"2019-11-16 13"},"coordinates":[2576,6127]},{"type":"Point","properties":{"Station_ID":"ATAN6","Station_Nam":"ATTICA 7 SW","Latitude":"42.81070","Longitude":"-78.39790","Snowdepth":"5.000","Units":"in","Rept_Date":"2019-11-16 11"},"coordinates":[5794,2961]},{"type":"Point","properties":{"Station_ID":"ARBM4","Station_Nam":"UNIV OF MICH","Latitude":"42.30000","Longitude":"-83.71670","Snowdepth":"5.000","Units":"in","Rept_Date":"2019-11-16 23"},"coordinates":[4117,2558]},{"type":"Point","properties":{"Station_ID":"ABNN6","Station_Nam":"ALBION","Latitude":"43.26330","Longitude":"-78.21520","Snowdepth":"5.000","Units":"in","Rept_Date":"2019-11-16 23"},"coordinates":[5851,3319]},{"type":"Point","properties":{"Station_ID":"MI-WS-53","Station_Nam":"CHELSEA 3.7 NNE, MI","Latitude":"42.36360","Longitude":"-83.99330","Snowdepth":"4.800","Units":"in","Rept_Date":"2019-11-16 13"},"coordinates":[4030,2608]},{"type":"Point","properties":{"Station_ID":"MI-MB-54","Station_Nam":"UTICA 2.9 E, MI","Latitude":"42.63518","Longitude":"-82.96528","Snowdepth":"4.700","Units":"in","Rept_Date":"2019-11-16 12"},"coordinates":[4354,2823]},{"type":"Point","properties":{"Station_ID":"WI-VL-10","Station_Nam":"LAND O LAKES 4.3 WNW, WI","Latitude":"46.17440","Longitude":"-89.30380","Snowdepth":"4.500","Units":"in","Rept_Date":"2019-11-16 13"},"coordinates":[2356,5616]},{"type":"Point","properties":{"Station_ID":"VT-ES-1","Station_Nam":"GRANBY 1.4 NW, VT","Latitude":"44.58330","Longitude":"-71.77870","Snowdepth":"4.500","Units":"in","Rept_Date":"2019-11-16 15"},"coordinates":[7880,4360]},{"type":"Point","properties":{"Station_ID":"VT-CL-14","Station_Nam":"LYNDONVILLE 1.1 W, VT","Latitude":"44.53582","Longitude":"-72.02867","Snowdepth":"4.500","Units":"in","Rept_Date":"2019-11-16 12"},"coordinates":[7801,4323]},{"type":"Point","properties":{"Station_ID":"NY-ER-77","Station_Nam":"COLDEN 2.4 ENE, NY","Latitude":"42.65088","Longitude":"-78.61060","Snowdepth":"4.500","Units":"in","Rept_Date":"2019-11-16 13"},"coordinates":[5727,2835]},{"type":"Point","properties":{"Station_ID":"MI-OK-13","Station_Nam":"PLEASANT RIDGE 0.5 WNW, MI","Latitude":"42.47247","Longitude":"-83.15360","Snowdepth":"4.500","Units":"in","Rept_Date":"2019-11-16 13"},"coordinates":[4295,2694]},{"type":"Point","properties":{"Station_ID":"MI-CX-7","Station_Nam":"EAST JORDAN 2.1 NNW, MI","Latitude":"45.18639","Longitude":"-85.14750","Snowdepth":"4.500","Units":"in","Rept_Date":"2019-11-16 13"},"coordinates":[3666,4837]},{"type":"Point","properties":{"Station_ID":"MI-CP-14","Station_Nam":"SAULT STE. MARIE 2.2 E, MI","Latitude":"46.48933","Longitude":"-84.31971","Snowdepth":"4.500","Units":"in","Rept_Date":"2019-11-16 13"},"coordinates":[3927,5865]},{"type":"Point","properties":{"Station_ID":"ME-PN-45","Station_Nam":"MILLINOCKET 2.7 ESE, ME","Latitude":"45.65002","Longitude":"-68.64472","Snowdepth":"4.300","Units":"in","Rept_Date":"2019-11-16 12"},"coordinates":[8868,5202]},{"type":"Point","properties":{"Station_ID":"MI-WS-7","Station_Nam":"ANN ARBOR 3.1 SE, MI","Latitude":"42.23914","Longitude":"-83.69580","Snowdepth":"4.200","Units":"in","Rept_Date":"2019-11-16 12"},"coordinates":[4124,2510]},{"type":"Point","properties":{"Station_ID":"TRIQ6","Station_Nam":"TRIO LAKE","Latitude":"49.22880","Longitude":"-87.22920","Snowdepth":"4.020","Units":"in","Rept_Date":"2019-11-17 06"},"coordinates":[3010,8027]},{"type":"Point","properties":{"Station_ID":"PTLQ6","Station_Nam":"PORTAGE LAKE","Latitude":"49.06950","Longitude":"-86.65940","Snowdepth":"4.020","Units":"in","Rept_Date":"2019-11-17 06"},"coordinates":[3190,7901]},{"type":"Point","properties":{"Station_ID":"FTHQ6","Station_Nam":"FORT HOPE","Latitude":"51.55820","Longitude":"-87.90510","Snowdepth":"4.020","Units":"in","Rept_Date":"2019-11-17 06"},"coordinates":[2797,9866]},{"type":"Point","properties":{"Station_ID":"WYON6","Station_Nam":"WYOMING 3W","Latitude":"42.81750","Longitude":"-78.14810","Snowdepth":"4.000","Units":"in","Rept_Date":"2019-11-16 12"},"coordinates":[5873,2967]},{"type":"Point","properties":{"Station_ID":"WRPW3","Station_Nam":"WATER PURIFICATION PLANT","Latitude":"44.38800","Longitude":"-89.80550","Snowdepth":"4.000","Units":"in","Rept_Date":"2019-11-16 12"},"coordinates":[2198,4206]},{"type":"Point","properties":{"Station_ID":"WORV1","Station_Nam":"WORCESTER 2 W","Latitude":"44.37470","Longitude":"-72.58220","Snowdepth":"4.000","Units":"in","Rept_Date":"2019-11-16 12"},"coordinates":[7627,4196]},{"type":"Point","properties":{"Station_ID":"WLNM4","Station_Nam":"WELLSTON 1N","Latitude":"44.22940","Longitude":"-85.95690","Snowdepth":"4.000","Units":"in","Rept_Date":"2019-11-16 12"},"coordinates":[3411,4081]},{"type":"Point","properties":{"Station_ID":"WAIV1","Station_Nam":"WAITSFIELD","Latitude":"44.17560","Longitude":"-72.79610","Snowdepth":"4.000","Units":"in","Rept_Date":"2019-11-16 12"},"coordinates":[7559,4039]},{"type":"Point","properties":{"Station_ID":"VT-WS-11","Station_Nam":"WAITSFIELD 1.8 SE, VT","Latitude":"44.17551","Longitude":"-72.79540","Snowdepth":"4.000","Units":"in","Rept_Date":"2019-11-16 12"},"coordinates":[7560,4039]},{"type":"Point","properties":{"Station_ID":"VT-WS-10","Station_Nam":"NORTHFIELD 1.5 N, VT","Latitude":"44.16986","Longitude":"-72.65200","Snowdepth":"4.000","Units":"in","Rept_Date":"2019-11-16 12"},"coordinates":[7605,4034]},{"type":"Point","properties":{"Station_ID":"VT-WR-17","Station_Nam":"ROCHESTER 2.3 NE, VT","Latitude":"43.89418","Longitude":"-72.76992","Snowdepth":"4.000","Units":"in","Rept_Date":"2019-11-16 12"},"coordinates":[7568,3817]},{"type":"Point","properties":{"Station_ID":"VT-CH-38","Station_Nam":"WILLISTON 0.2 WSW, VT","Latitude":"44.43669","Longitude":"-73.07154","Snowdepth":"4.000","Units":"in","Rept_Date":"2019-11-16 12"},"coordinates":[7473,4245]},{"type":"Point","properties":{"Station_ID":"VT-AD-24","Station_Nam":"MIDDLEBURY 0.3 N, VT","Latitude":"44.01808","Longitude":"-73.16844","Snowdepth":"4.000","Units":"in","Rept_Date":"2019-11-16 11"},"coordinates":[7442,3914]},{"type":"Point","properties":{"Station_ID":"TIPM4","Station_Nam":"TIPTON,MI","Latitude":"42.03330","Longitude":"-84.10000","Snowdepth":"4.000","Units":"in","Rept_Date":"2019-11-16 14"},"coordinates":[3997,2348]},{"type":"Point","properties":{"Station_ID":"TECM4","Station_Nam":"TECUMSEH,MI","Latitude":"42.00000","Longitude":"-83.95000","Snowdepth":"4.000","Units":"in","Rept_Date":"2019-11-16 13"},"coordinates":[4044,2321]},{"type":"Point","properties":{"Station_ID":"TCMM4","Station_Nam":"TRAVERSE CITY MUNSON","Latitude":"44.76070","Longitude":"-85.64430","Snowdepth":"4.000","Units":"in","Rept_Date":"2019-11-16 11"},"coordinates":[3510,4501]},{"type":"Point","properties":{"Station_ID":"SVSN6","Station_Nam":"SILVER SPRINGS 3N","Latitude":"42.70580","Longitude":"-78.09370","Snowdepth":"4.000","Units":"in","Rept_Date":"2019-11-16 12"},"coordinates":[5890,2879]},{"type":"Point","properties":{"Station_ID":"SLNM4","Station_Nam":"SALINE,MI","Latitude":"42.13330","Longitude":"-83.81670","Snowdepth":"4.000","Units":"in","Rept_Date":"2019-11-16 13"},"coordinates":[4086,2427]},{"type":"Point","properties":{"Station_ID":"SJBV1","Station_Nam":"SAINT JOHNSBURY","Latitude":"44.42000","Longitude":"-72.01940","Snowdepth":"4.000","Units":"in","Rept_Date":"2019-11-16 21"},"coordinates":[7804,4232]},{"type":"Point","properties":{"Station_ID":"SBNN6","Station_Nam":"SANBORN","Latitude":"43.17050","Longitude":"-78.81810","Snowdepth":"4.000","Units":"in","Rept_Date":"2019-11-16 12"},"coordinates":[5661,3245]},{"type":"Point","properties":{"Station_ID":"ROC","Station_Nam":"GREATER ROCHESTER INTL","Latitude":"43.11890","Longitude":"-77.67280","Snowdepth":"4.000","Units":"in","Rept_Date":"2019-11-17 06"},"coordinates":[6022,3205]},{"type":"Point","properties":{"Station_ID":"POAM4","Station_Nam":"PORT AUSTIN WWTP","Latitude":"44.04670","Longitude":"-82.97030","Snowdepth":"4.000","Units":"in","Rept_Date":"2019-11-16 13"},"coordinates":[4353,3937]},{"type":"Point","properties":{"Station_ID":"PDGM4","Station_Nam":"PAULDING","Latitude":"46.39760","Longitude":"-89.17940","Snowdepth":"4.000","Units":"in","Rept_Date":"2019-11-16 13"},"coordinates":[2396,5793]},{"type":"Point","properties":{"Station_ID":"NY-WY-11","Station_Nam":"SILVER SPRINGS COOP, NY","Latitude":"42.70580","Longitude":"-78.09370","Snowdepth":"4.000","Units":"in","Rept_Date":"2019-11-16 12"},"coordinates":[5890,2879]},{"type":"Point","properties":{"Station_ID":"NY-WY-10","Station_Nam":"WYOMING COOP, NY","Latitude":"42.82060","Longitude":"-78.14810","Snowdepth":"4.000","Units":"in","Rept_Date":"2019-11-16 12"},"coordinates":[5873,2969]},{"type":"Point","properties":{"Station_ID":"NY-JF-26","Station_Nam":"MANNSVILLE 0.3 SE, NY","Latitude":"43.71225","Longitude":"-76.06210","Snowdepth":"4.000","Units":"in","Rept_Date":"2019-11-16 12"},"coordinates":[6530,3673]},{"type":"Point","properties":{"Station_ID":"NY-GN-6","Station_Nam":"STAFFORD 1.8 NE, NY","Latitude":"42.99890","Longitude":"-78.04830","Snowdepth":"4.000","Units":"in","Rept_Date":"2019-11-16 12"},"coordinates":[5904,3110]},{"type":"Point","properties":{"Station_ID":"NY-ER-177","Station_Nam":"CLARENCE 3.8 SSW, NY","Latitude":"42.96084","Longitude":"-78.66569","Snowdepth":"4.000","Units":"in","Rept_Date":"2019-11-16 13"},"coordinates":[5709,3080]},{"type":"Point","properties":{"Station_ID":"NY-ER-13","Station_Nam":"WEST SENECA 2.3 NW, NY","Latitude":"42.85926","Longitude":"-78.78539","Snowdepth":"4.000","Units":"in","Rept_Date":"2019-11-16 12"},"coordinates":[5672,3000]},{"type":"Point","properties":{"Station_ID":"NY-ER-104","Station_Nam":"WILLIAMSVILLE 2.2 NNW, NY","Latitude":"42.99422","Longitude":"-78.75260","Snowdepth":"4.000","Units":"in","Rept_Date":"2019-11-16 14"},"coordinates":[5682,3106]},{"type":"Point","properties":{"Station_ID":"NY-ER-102","Station_Nam":"CHEEKTOWAGA 2.7 NE, NY","Latitude":"42.94119","Longitude":"-78.71933","Snowdepth":"4.000","Units":"in","Rept_Date":"2019-11-16 12"},"coordinates":[5692,3064]},{"type":"Point","properties":{"Station_ID":"NY-CL-7","Station_Nam":"PERU 4.1 ESE, NY","Latitude":"44.56461","Longitude":"-73.45390","Snowdepth":"4.000","Units":"in","Rept_Date":"2019-11-16 11"},"coordinates":[7352,4346]},{"type":"Point","properties":{"Station_ID":"NSFN3","Station_Nam":"NORTH STRATFORD","Latitude":"44.68190","Longitude":"-71.58570","Snowdepth":"4.000","Units":"in","Rept_Date":"2019-11-16 12"},"coordinates":[7941,4438]},{"type":"Point","properties":{"Station_ID":"NCKN6","Station_Nam":"NORTH CREEK 5 SE","Latitude":"43.66110","Longitude":"-73.89690","Snowdepth":"4.000","Units":"in","Rept_Date":"2019-11-16 12"},"coordinates":[7212,3633]},{"type":"Point","properties":{"Station_ID":"MRQM4","Station_Nam":"MARQUETTE WFP","Latitude":"46.54580","Longitude":"-87.37950","Snowdepth":"4.000","Units":"in","Rept_Date":"2019-11-16 13"},"coordinates":[2963,5910]},{"type":"Point","properties":{"Station_ID":"MILM4","Station_Nam":"GM PROVING GD","Latitude":"42.58330","Longitude":"-83.70000","Snowdepth":"4.000","Units":"in","Rept_Date":"2019-11-17 05"},"coordinates":[4123,2782]},{"type":"Point","properties":{"Station_ID":"MI-WS-28","Station_Nam":"DEXTER 0.3 ENE, MI","Latitude":"42.33367","Longitude":"-83.87510","Snowdepth":"4.000","Units":"in","Rept_Date":"2019-11-16 12"},"coordinates":[4067,2585]},{"type":"Point","properties":{"Station_ID":"MI-OT-16","Station_Nam":"GAYLORD 2.2 SSE, MI","Latitude":"44.99441","Longitude":"-84.65820","Snowdepth":"4.000","Units":"in","Rept_Date":"2019-11-16 14"},"coordinates":[3821,4685]},{"type":"Point","properties":{"Station_ID":"MI-MQ-2","Station_Nam":"MARQUETTE 6.5 SSE, MI","Latitude":"46.46461","Longitude":"-87.34064","Snowdepth":"4.000","Units":"in","Rept_Date":"2019-11-16 12"},"coordinates":[2975,5845]},{"type":"Point","properties":{"Station_ID":"MI-IH-32","Station_Nam":"WILLIAMSTON 4.0 ESE, MI","Latitude":"42.65859","Longitude":"-84.21630","Snowdepth":"4.000","Units":"in","Rept_Date":"2019-11-16 13"},"coordinates":[3960,2841]},{"type":"Point","properties":{"Station_ID":"MI-HG-1","Station_Nam":"HOUGHTON 1.6 ESE, MI","Latitude":"47.10774","Longitude":"-88.52940","Snowdepth":"4.000","Units":"in","Rept_Date":"2019-11-16 13"},"coordinates":[2600,6353]},{"type":"Point","properties":{"Station_ID":"MI-GT-21","Station_Nam":"KINGSLEY 2.7 ENE, MI","Latitude":"44.59871","Longitude":"-85.48426","Snowdepth":"4.000","Units":"in","Rept_Date":"2019-11-16 11"},"coordinates":[3560,4373]},{"type":"Point","properties":{"Station_ID":"MI-BN-5","Station_Nam":"BUCHANAN 1.3 WNW, MI","Latitude":"41.83634","Longitude":"-86.38900","Snowdepth":"4.000","Units":"in","Rept_Date":"2019-11-16 13"},"coordinates":[3275,2192]},{"type":"Point","properties":{"Station_ID":"MI-AN-25","Station_Nam":"PLAINWELL 0.5 WSW, MI","Latitude":"42.44318","Longitude":"-85.65374","Snowdepth":"4.000","Units":"in","Rept_Date":"2019-11-16 12"},"coordinates":[3507,2671]},{"type":"Point","properties":{"Station_ID":"ME-AR-30","Station_Nam":"HOULTON 0.7 N, ME","Latitude":"46.12775","Longitude":"-67.83418","Snowdepth":"4.000","Units":"in","Rept_Date":"2019-11-16 12"},"coordinates":[9123,5580]},{"type":"Point","properties":{"Station_ID":"MCHM4","Station_Nam":"MANCHESTER,MI","Latitude":"42.15000","Longitude":"-84.01670","Snowdepth":"4.000","Units":"in","Rept_Date":"2019-11-16 14"},"coordinates":[4023,2440]},{"type":"Point","properties":{"Station_ID":"LPTN6","Station_Nam":"LOCKPORT","Latitude":"43.18760","Longitude":"-78.60910","Snowdepth":"4.000","Units":"in","Rept_Date":"2019-11-17 00"},"coordinates":[5727,3259]},{"type":"Point","properties":{"Station_ID":"LERN6","Station_Nam":"LE ROY 1E","Latitude":"42.97360","Longitude":"-77.96710","Snowdepth":"4.000","Units":"in","Rept_Date":"2019-11-16 13"},"coordinates":[5930,3090]},{"type":"Point","properties":{"Station_ID":"KTVC","Station_Nam":"CHERRY CAPITAL AIRPORT","Latitude":"44.73333","Longitude":"-85.56666","Snowdepth":"4.000","Units":"in","Rept_Date":"2019-11-17 00"},"coordinates":[3534,4479]},{"type":"Point","properties":{"Station_ID":"KROC","Station_Nam":"GREATER ROCHESTER INTERNATIONAL","Latitude":"43.11666","Longitude":"-77.68333","Snowdepth":"4.000","Units":"in","Rept_Date":"2019-11-17 06"},"coordinates":[6019,3203]},{"type":"Point","properties":{"Station_ID":"KBUF","Station_Nam":"GREATER BUFFALO INTERNATIONAL  AIRPORT","Latitude":"42.93333","Longitude":"-78.73333","Snowdepth":"4.000","Units":"in","Rept_Date":"2019-11-17 06"},"coordinates":[5688,3058]},{"type":"Point","properties":{"Station_ID":"KBTV","Station_Nam":"BURLINGTON INTERNATIONAL","Latitude":"44.46666","Longitude":"-73.15000","Snowdepth":"4.000","Units":"in","Rept_Date":"2019-11-16 18"},"coordinates":[7448,4268]},{"type":"Point","properties":{"Station_ID":"JKMM1","Station_Nam":"JACKMAN","Latitude":"45.62600","Longitude":"-70.24600","Snowdepth":"4.000","Units":"in","Rept_Date":"2019-11-16 12"},"coordinates":[8363,5184]},{"type":"Point","properties":{"Station_ID":"INDN6","Station_Nam":"INDIAN LAKE","Latitude":"43.75500","Longitude":"-74.27560","Snowdepth":"4.000","Units":"in","Rept_Date":"2019-11-16 13"},"coordinates":[7093,3707]},{"type":"Point","properties":{"Station_ID":"IBLM5","Station_Nam":"ISABELLA 14W","Latitude":"47.59360","Longitude":"-91.65140","Snowdepth":"4.000","Units":"in","Rept_Date":"2019-11-16 15"},"coordinates":[1616,6737]},{"type":"Point","properties":{"Station_ID":"GOVN6","Station_Nam":"GOUVERNEUR 3 NW","Latitude":"44.35400","Longitude":"-75.51230","Snowdepth":"4.000","Units":"in","Rept_Date":"2019-11-16 12"},"coordinates":[6703,4180]},{"type":"Point","properties":{"Station_ID":"GGRM4","Station_Nam":"GREEN GARDEN NO.2","Latitude":"46.45330","Longitude":"-87.30380","Snowdepth":"4.000","Units":"in","Rept_Date":"2019-11-16 12"},"coordinates":[2987,5837]},{"type":"Point","properties":{"Station_ID":"FARM4","Station_Nam":"FARMINGTON,MI","Latitude":"42.46670","Longitude":"-83.36670","Snowdepth":"4.000","Units":"in","Rept_Date":"2019-11-16 12"},"coordinates":[4228,2690]},{"type":"Point","properties":{"Station_ID":"ESGM1","Station_Nam":"EAST SANGERVILLE","Latitude":"45.13690","Longitude":"-69.28060","Snowdepth":"4.000","Units":"in","Rept_Date":"2019-11-16 12"},"coordinates":[8667,4797]},{"type":"Point","properties":{"Station_ID":"CLKM4","Station_Nam":"CLARKSBURG","Latitude":"46.49910","Longitude":"-87.84500","Snowdepth":"4.000","Units":"in","Rept_Date":"2019-11-16 12"},"coordinates":[2816,5873]},{"type":"Point","properties":{"Station_ID":"CHLM4","Station_Nam":"CHELSEA,MI","Latitude":"42.31670","Longitude":"-84.01670","Snowdepth":"4.000","Units":"in","Rept_Date":"2019-11-16 14"},"coordinates":[4023,2571]},{"type":"Point","properties":{"Station_ID":"CARM4","Station_Nam":"REGIONAL CENTER","Latitude":"43.45000","Longitude":"-83.40000","Snowdepth":"4.000","Units":"in","Rept_Date":"2019-11-16 14"},"coordinates":[4217,3466]},{"type":"Point","properties":{"Station_ID":"CAN-ON-245","Station_Nam":"PHELPSTON 3.1 ESE, CAN","Latitude":"44.50564","Longitude":"-79.81035","Snowdepth":"4.000","Units":"in","Rept_Date":"2019-11-16 15"},"coordinates":[5349,4299]},{"type":"Point","properties":{"Station_ID":"CAN-NB-11","Station_Nam":"MIRAMICHI 3.3 S, CAN","Latitude":"46.99343","Longitude":"-65.50690","Snowdepth":"4.000","Units":"in","Rept_Date":"2019-11-16 11"},"coordinates":[9857,6263]},{"type":"Point","properties":{"Station_ID":"BUF","Station_Nam":"BUFFALO, NY","Latitude":"42.94140","Longitude":"-78.71920","Snowdepth":"4.000","Units":"in","Rept_Date":"2019-11-17 06"},"coordinates":[5693,3065]},{"type":"Point","properties":{"Station_ID":"BTV","Station_Nam":"BURLINGTON, VT","Latitude":"44.47140","Longitude":"-73.15330","Snowdepth":"4.000","Units":"in","Rept_Date":"2019-11-17 01"},"coordinates":[7447,4272]},{"type":"Point","properties":{"Station_ID":"BEUM4","Station_Nam":"BEULAH 7SSW","Latitude":"44.53160","Longitude":"-86.13110","Snowdepth":"4.000","Units":"in","Rept_Date":"2019-11-16 13"},"coordinates":[3356,4320]},{"type":"Point","properties":{"Station_ID":"BBEM4","Station_Nam":"BIG BAY 9SW","Latitude":"46.74620","Longitude":"-87.88160","Snowdepth":"4.000","Units":"in","Rept_Date":"2019-11-16 13"},"coordinates":[2805,6068]},{"type":"Point","properties":{"Station_ID":"ANDM1","Station_Nam":"ANDOVER 2","Latitude":"44.65300","Longitude":"-70.79410","Snowdepth":"4.000","Units":"in","Rept_Date":"2019-11-16 11"},"coordinates":[8190,4416]},{"type":"Point","properties":{"Station_ID":"AASM4","Station_Nam":"ANN ARBOR SE","Latitude":"42.24160","Longitude":"-83.69330","Snowdepth":"4.000","Units":"in","Rept_Date":"2019-11-16 12"},"coordinates":[4125,2512]},{"type":"Point","properties":{"Station_ID":"OH-GG-17","Station_Nam":"CHAGRIN FALLS 5.2 ESE, OH","Latitude":"41.41352","Longitude":"-81.29255","Snowdepth":"3.900","Units":"in","Rept_Date":"2019-11-16 12"},"coordinates":[4881,1859]},{"type":"Point","properties":{"Station_ID":"CAN-ON-466","Station_Nam":"PICTON 12.7 NNE, CAN","Latitude":"44.11197","Longitude":"-77.08426","Snowdepth":"3.900","Units":"in","Rept_Date":"2019-11-16 12"},"coordinates":[6208,3988]},{"type":"Point","properties":{"Station_ID":"MI-WY-125","Station_Nam":"CANTON 2.7 N, MI","Latitude":"42.34732","Longitude":"-83.47286","Snowdepth":"3.800","Units":"in","Rept_Date":"2019-11-16 12"},"coordinates":[4194,2596]},{"type":"Point","properties":{"Station_ID":"CAN-ON-92","Station_Nam":"DUNROBIN 1.9 W - MVCA, CAN","Latitude":"45.42318","Longitude":"-76.04525","Snowdepth":"3.700","Units":"in","Rept_Date":"2019-11-16 12"},"coordinates":[6535,5023]},{"type":"Point","properties":{"Station_ID":"CAN-ON-31","Station_Nam":"KOMOKA 2.8 W, CAN","Latitude":"42.95424","Longitude":"-81.43488","Snowdepth":"3.700","Units":"in","Rept_Date":"2019-11-16 14"},"coordinates":[4837,3075]},{"type":"Point","properties":{"Station_ID":"CATQ6","Station_Nam":"CAT LAKE","Latitude":"51.72690","Longitude":"-91.82210","Snowdepth":"3.540","Units":"in","Rept_Date":"2019-11-17 06"},"coordinates":[1563,9999]},{"type":"Point","properties":{"Station_ID":"VT-WS-33","Station_Nam":"WAITSFIELD 3.5 WNW, VT","Latitude":"44.20052","Longitude":"-72.89421","Snowdepth":"3.500","Units":"in","Rept_Date":"2019-11-16 13"},"coordinates":[7528,4058]},{"type":"Point","properties":{"Station_ID":"VT-WS-19","Station_Nam":"WATERBURY 3.0 NW, VT","Latitude":"44.36060","Longitude":"-72.80770","Snowdepth":"3.500","Units":"in","Rept_Date":"2019-11-16 11"},"coordinates":[7556,4185]},{"type":"Point","properties":{"Station_ID":"VT-OG-11","Station_Nam":"VERSHIRE 1.5 ESE, VT","Latitude":"43.96138","Longitude":"-72.29777","Snowdepth":"3.500","Units":"in","Rept_Date":"2019-11-16 13"},"coordinates":[7716,3870]},{"type":"Point","properties":{"Station_ID":"PA-ER-5","Station_Nam":"NORTH EAST 1.2 WNW, PA","Latitude":"42.22058","Longitude":"-79.85510","Snowdepth":"3.500","Units":"in","Rept_Date":"2019-11-16 13"},"coordinates":[5334,2496]},{"type":"Point","properties":{"Station_ID":"NY-OL-5","Station_Nam":"MEDINA 0.4 WNW, NY","Latitude":"43.22300","Longitude":"-78.39539","Snowdepth":"3.500","Units":"in","Rept_Date":"2019-11-16 13"},"coordinates":[5795,3287]},{"type":"Point","properties":{"Station_ID":"NY-NG-22","Station_Nam":"NIAGARA FALLS 5.7 E, NY","Latitude":"43.08297","Longitude":"-78.90460","Snowdepth":"3.500","Units":"in","Rept_Date":"2019-11-16 12"},"coordinates":[5634,3176]},{"type":"Point","properties":{"Station_ID":"NY-ER-75","Station_Nam":"ELMA CENTER 0.7 SE, NY","Latitude":"42.81936","Longitude":"-78.62140","Snowdepth":"3.500","Units":"in","Rept_Date":"2019-11-16 14"},"coordinates":[5723,2968]},{"type":"Point","properties":{"Station_ID":"NY-CY-27","Station_Nam":"MORAVIA 5.9 ENE, NY","Latitude":"42.73491","Longitude":"-76.31137","Snowdepth":"3.500","Units":"in","Rept_Date":"2019-11-16 11"},"coordinates":[6451,2902]},{"type":"Point","properties":{"Station_ID":"NY-CQ-39","Station_Nam":"GERRY 0.8 N, NY","Latitude":"42.20500","Longitude":"-79.24700","Snowdepth":"3.500","Units":"in","Rept_Date":"2019-11-16 13"},"coordinates":[5526,2483]},{"type":"Point","properties":{"Station_ID":"MI-WY-33","Station_Nam":"LIVONIA 2.3 NNW, MI","Latitude":"42.43100","Longitude":"-83.38190","Snowdepth":"3.500","Units":"in","Rept_Date":"2019-11-16 12"},"coordinates":[4223,2662]},{"type":"Point","properties":{"Station_ID":"MI-WS-41","Station_Nam":"ANN ARBOR 7.1 W, MI","Latitude":"42.26390","Longitude":"-83.86940","Snowdepth":"3.500","Units":"in","Rept_Date":"2019-11-16 12"},"coordinates":[4069,2530]},{"type":"Point","properties":{"Station_ID":"MI-WS-25","Station_Nam":"SALINE 3.8 SSW, MI","Latitude":"42.12618","Longitude":"-83.81090","Snowdepth":"3.500","Units":"in","Rept_Date":"2019-11-16 12"},"coordinates":[4088,2421]},{"type":"Point","properties":{"Station_ID":"MI-HL-9","Station_Nam":"MONTGOMERY 1.9 SSE, MI","Latitude":"41.75167","Longitude":"-84.78952","Snowdepth":"3.500","Units":"in","Rept_Date":"2019-11-16 13"},"coordinates":[3779,2125]},{"type":"Point","properties":{"Station_ID":"CAN-ON-33","Station_Nam":"BURLINGTON 1.7 W, CA","Latitude":"43.37134","Longitude":"-79.83550","Snowdepth":"3.500","Units":"in","Rept_Date":"2019-11-16 14"},"coordinates":[5341,3404]},{"type":"Point","properties":{"Station_ID":"WI-WW-12","Station_Nam":"ELKHORN 0.4 ESE, WI","Latitude":"42.66970","Longitude":"-88.53170","Snowdepth":"3.200","Units":"in","Rept_Date":"2019-11-16 11"},"coordinates":[2600,2850]},{"type":"Point","properties":{"Station_ID":"CAN-ON-132","Station_Nam":"ORANGEVILLE 5.1 SSW - CANWARN, CAN","Latitude":"43.87372","Longitude":"-80.13428","Snowdepth":"3.100","Units":"in","Rept_Date":"2019-11-16 12"},"coordinates":[5246,3800]},{"type":"Point","properties":{"Station_ID":"YGTN6","Station_Nam":"YOUNGSTOWN 2NE","Latitude":"43.26820","Longitude":"-79.01020","Snowdepth":"3.000","Units":"in","Rept_Date":"2019-11-16 13"},"coordinates":[5601,3322]},{"type":"Point","properties":{"Station_ID":"YALM4","Station_Nam":"YALE,MI","Latitude":"43.15000","Longitude":"-82.80000","Snowdepth":"3.000","Units":"in","Rept_Date":"2019-11-16 12"},"coordinates":[4406,3229]},{"type":"Point","properties":{"Station_ID":"WYTM4","Station_Nam":"WYANDOTTE","Latitude":"42.20110","Longitude":"-83.16830","Snowdepth":"3.000","Units":"in","Rept_Date":"2019-11-16 13"},"coordinates":[4290,2480]},{"type":"Point","properties":{"Station_ID":"WTRM4","Station_Nam":"WATERSMEET 12WSW","Latitude":"46.22310","Longitude":"-89.40850","Snowdepth":"3.000","Units":"in","Rept_Date":"2019-11-16 12"},"coordinates":[2323,5655]},{"type":"Point","properties":{"Station_ID":"WTNM4","Station_Nam":"WATTON 2WSW","Latitude":"46.52660","Longitude":"-88.64240","Snowdepth":"3.000","Units":"in","Rept_Date":"2019-11-16 13"},"coordinates":[2565,5894]},{"type":"Point","properties":{"Station_ID":"WI-VL-9","Station_Nam":"LAND O' LAKES 11.7 W, WI","Latitude":"46.19023","Longitude":"-89.45790","Snowdepth":"3.000","Units":"in","Rept_Date":"2019-11-16 13"},"coordinates":[2308,5629]},{"type":"Point","properties":{"Station_ID":"WHKM4","Station_Nam":"WHITE LAKE,MI","Latitude":"42.69750","Longitude":"-83.47220","Snowdepth":"3.000","Units":"in","Rept_Date":"2019-11-17 06"},"coordinates":[4194,2872]},{"type":"Point","properties":{"Station_ID":"WBSN6","Station_Nam":"WEBSTER 2 NE","Latitude":"43.24190","Longitude":"-77.38810","Snowdepth":"3.000","Units":"in","Rept_Date":"2019-11-17 01"},"coordinates":[6112,3302]},{"type":"Point","properties":{"Station_ID":"VT-RT-7","Station_Nam":"RUTLAND 1.2 N, VT","Latitude":"43.62533","Longitude":"-72.97790","Snowdepth":"3.000","Units":"in","Rept_Date":"2019-11-16 12"},"coordinates":[7502,3604]},{"type":"Point","properties":{"Station_ID":"VT-LM-1","Station_Nam":"STOWE 0.2 SW, VT","Latitude":"44.46399","Longitude":"-72.69070","Snowdepth":"3.000","Units":"in","Rept_Date":"2019-11-16 12"},"coordinates":[7593,4266]},{"type":"Point","properties":{"Station_ID":"VT-CH-13","Station_Nam":"RICHMOND 3.4 SSE, VT","Latitude":"44.36084","Longitude":"-72.96400","Snowdepth":"3.000","Units":"in","Rept_Date":"2019-11-16 12"},"coordinates":[7507,4185]},{"type":"Point","properties":{"Station_ID":"VT-AD-20","Station_Nam":"HANCOCK 0.3 S, VT","Latitude":"43.92166","Longitude":"-72.84042","Snowdepth":"3.000","Units":"in","Rept_Date":"2019-11-16 12"},"coordinates":[7545,3838]},{"type":"Point","properties":{"Station_ID":"UGRW3","Station_Nam":"UNION GROVE,WI","Latitude":"42.70000","Longitude":"-88.03220","Snowdepth":"3.000","Units":"in","Rept_Date":"2019-11-16 14"},"coordinates":[2757,2874]},{"type":"Point","properties":{"Station_ID":"TMWN3","Station_Nam":"TAMWORTH 4","Latitude":"43.86390","Longitude":"-71.26610","Snowdepth":"3.000","Units":"in","Rept_Date":"2019-11-16 12"},"coordinates":[8042,3793]},{"type":"Point","properties":{"Station_ID":"STIM4","Station_Nam":"ST IGNACE","Latitude":"45.86080","Longitude":"-84.71960","Snowdepth":"3.000","Units":"in","Rept_Date":"2019-11-16 12"},"coordinates":[3801,5369]},{"type":"Point","properties":{"Station_ID":"SHIW3","Station_Nam":"SHIOCTON","Latitude":"44.43890","Longitude":"-88.58390","Snowdepth":"3.000","Units":"in","Rept_Date":"2019-11-16 13"},"coordinates":[2583,4247]},{"type":"Point","properties":{"Station_ID":"SCOM4","Station_Nam":"SCOTTVILLE 2 SE","Latitude":"43.93310","Longitude":"-86.24530","Snowdepth":"3.000","Units":"in","Rept_Date":"2019-11-16 12"},"coordinates":[3320,3847]},{"type":"Point","properties":{"Station_ID":"SBOP1","Station_Nam":"SPRINGBORO","Latitude":"41.81660","Longitude":"-80.43330","Snowdepth":"3.000","Units":"in","Rept_Date":"2019-11-16 12"},"coordinates":[5152,2177]},{"type":"Point","properties":{"Station_ID":"RUTV1","Station_Nam":"RUTLAND","Latitude":"43.62530","Longitude":"-72.97810","Snowdepth":"3.000","Units":"in","Rept_Date":"2019-11-16 12"},"coordinates":[7502,3604]},{"type":"Point","properties":{"Station_ID":"PONM4","Station_Nam":"STATE HOSPITAL","Latitude":"42.65000","Longitude":"-83.30000","Snowdepth":"3.000","Units":"in","Rept_Date":"2019-11-16 12"},"coordinates":[4249,2835]},{"type":"Point","properties":{"Station_ID":"PLFV1","Station_Nam":"PLAINFIELD","Latitude":"44.27610","Longitude":"-72.41500","Snowdepth":"3.000","Units":"in","Rept_Date":"2019-11-16 12"},"coordinates":[7680,4118]},{"type":"Point","properties":{"Station_ID":"PA-CW-8","Station_Nam":"SPRINGBORO 3.0 WNW, PA","Latitude":"41.81654","Longitude":"-80.42540","Snowdepth":"3.000","Units":"in","Rept_Date":"2019-11-16 12"},"coordinates":[5155,2177]},{"type":"Point","properties":{"Station_ID":"OH-TR-4","Station_Nam":"NEWTON FALLS 0.6 N, OH","Latitude":"41.19773","Longitude":"-80.97210","Snowdepth":"3.000","Units":"in","Rept_Date":"2019-11-16 12"},"coordinates":[4982,1688]},{"type":"Point","properties":{"Station_ID":"OH-GG-4","Station_Nam":"MONTVILLE 1.2 SSE, OH","Latitude":"41.59030","Longitude":"-81.04800","Snowdepth":"3.000","Units":"in","Rept_Date":"2019-11-16 13"},"coordinates":[4958,1998]},{"type":"Point","properties":{"Station_ID":"OCON6","Station_Nam":"OSCEOLA","Latitude":"43.49910","Longitude":"-75.71210","Snowdepth":"3.000","Units":"in","Rept_Date":"2019-11-16 12"},"coordinates":[6640,3505]},{"type":"Point","properties":{"Station_ID":"NY-NG-30","Station_Nam":"LOCKPORT 2.5 ESE, NY","Latitude":"43.15207","Longitude":"-78.65338","Snowdepth":"3.000","Units":"in","Rept_Date":"2019-11-16 12"},"coordinates":[5713,3231]},{"type":"Point","properties":{"Station_ID":"NY-NG-2","Station_Nam":"NORTH TONAWANDA 1.0 NNE, NY","Latitude":"43.05725","Longitude":"-78.86170","Snowdepth":"3.000","Units":"in","Rept_Date":"2019-11-16 12"},"coordinates":[5648,3156]},{"type":"Point","properties":{"Station_ID":"NY-ER-63","Station_Nam":"GLENWOOD 1.5 SE, NY","Latitude":"42.60195","Longitude":"-78.63910","Snowdepth":"3.000","Units":"in","Rept_Date":"2019-11-16 13"},"coordinates":[5718,2797]},{"type":"Point","properties":{"Station_ID":"NY-ER-60","Station_Nam":"BLASDELL 1.5 SSW, NY","Latitude":"42.77657","Longitude":"-78.84440","Snowdepth":"3.000","Units":"in","Rept_Date":"2019-11-16 12"},"coordinates":[5653,2934]},{"type":"Point","properties":{"Station_ID":"NY-ER-59","Station_Nam":"KENMORE 0.3 ESE, NY","Latitude":"42.96316","Longitude":"-78.86690","Snowdepth":"3.000","Units":"in","Rept_Date":"2019-11-16 13"},"coordinates":[5646,3082]},{"type":"Point","properties":{"Station_ID":"NTON6","Station_Nam":"NORTH TONAWANDA","Latitude":"43.05730","Longitude":"-78.86170","Snowdepth":"3.000","Units":"in","Rept_Date":"2019-11-16 12"},"coordinates":[5648,3156]},{"type":"Point","properties":{"Station_ID":"NH-CR-27","Station_Nam":"TAMWORTH 0.4 NNW, NH","Latitude":"43.86449","Longitude":"-71.26610","Snowdepth":"3.000","Units":"in","Rept_Date":"2019-11-16 12"},"coordinates":[8042,3793]},{"type":"Point","properties":{"Station_ID":"NALN6","Station_Nam":"CATTARAUGUS","Latitude":"42.32450","Longitude":"-78.86700","Snowdepth":"3.000","Units":"in","Rept_Date":"2019-11-16 13"},"coordinates":[5646,2578]},{"type":"Point","properties":{"Station_ID":"MYOM4","Station_Nam":"MIO WWTP","Latitude":"44.64660","Longitude":"-84.11580","Snowdepth":"3.000","Units":"in","Rept_Date":"2019-11-16 13"},"coordinates":[3992,4410]},{"type":"Point","properties":{"Station_ID":"MXON6","Station_Nam":"MEXICO","Latitude":"43.43830","Longitude":"-76.26560","Snowdepth":"3.000","Units":"in","Rept_Date":"2019-11-16 12"},"coordinates":[6466,3457]},{"type":"Point","properties":{"Station_ID":"MWN","Station_Nam":"MOUNT WASHINGTON","Latitude":"44.26670","Longitude":"-71.30000","Snowdepth":"3.000","Units":"in","Rept_Date":"2019-11-17 05"},"coordinates":[8031,4111]},{"type":"Point","properties":{"Station_ID":"MRAM4","Station_Nam":"MORAN","Latitude":"45.99030","Longitude":"-84.83610","Snowdepth":"3.000","Units":"in","Rept_Date":"2019-11-16 13"},"coordinates":[3765,5471]},{"type":"Point","properties":{"Station_ID":"MIEM4","Station_Nam":"MICHIGAMME 3WNW","Latitude":"46.54530","Longitude":"-88.18000","Snowdepth":"3.000","Units":"in","Rept_Date":"2019-11-16 13"},"coordinates":[2711,5909]},{"type":"Point","properties":{"Station_ID":"MI-WS-42","Station_Nam":"ANN ARBOR 4.5 W, MI","Latitude":"42.27814","Longitude":"-83.81884","Snowdepth":"3.000","Units":"in","Rept_Date":"2019-11-16 12"},"coordinates":[4085,2541]},{"type":"Point","properties":{"Station_ID":"MI-WS-11","Station_Nam":"ANN ARBOR 2.1 WNW, MI","Latitude":"42.28323","Longitude":"-83.77150","Snowdepth":"3.000","Units":"in","Rept_Date":"2019-11-16 13"},"coordinates":[4100,2545]},{"type":"Point","properties":{"Station_ID":"MI-VB-4","Station_Nam":"PAW PAW 3.6 NNE, MI","Latitude":"42.26582","Longitude":"-85.86190","Snowdepth":"3.000","Units":"in","Rept_Date":"2019-11-16 12"},"coordinates":[3441,2531]},{"type":"Point","properties":{"Station_ID":"MI-VB-13","Station_Nam":"PAW PAW 2.0 NE, MI","Latitude":"42.23743","Longitude":"-85.86171","Snowdepth":"3.000","Units":"in","Rept_Date":"2019-11-16 12"},"coordinates":[3441,2509]},{"type":"Point","properties":{"Station_ID":"MI-SC-3","Station_Nam":"PORT HURON 1.6 W, MI","Latitude":"42.99617","Longitude":"-82.46430","Snowdepth":"3.000","Units":"in","Rept_Date":"2019-11-16 13"},"coordinates":[4512,3108]},{"type":"Point","properties":{"Station_ID":"MI-OW-2","Station_Nam":"HOLLAND 3.9 NNE, MI","Latitude":"42.82296","Longitude":"-86.06780","Snowdepth":"3.000","Units":"in","Rept_Date":"2019-11-16 11"},"coordinates":[3376,2971]},{"type":"Point","properties":{"Station_ID":"MI-OK-35","Station_Nam":"WATERFORD 2.1 NW, MI","Latitude":"42.68742","Longitude":"-83.41320","Snowdepth":"3.000","Units":"in","Rept_Date":"2019-11-16 12"},"coordinates":[4213,2864]},{"type":"Point","properties":{"Station_ID":"MI-MC-4","Station_Nam":"ST. IGNACE 0.5SE, MI","Latitude":"45.86057","Longitude":"-84.71980","Snowdepth":"3.000","Units":"in","Rept_Date":"2019-11-16 12"},"coordinates":[3801,5369]},{"type":"Point","properties":{"Station_ID":"MI-MB-9","Station_Nam":"NEW BALTIMORE 0.4 SSE, MI","Latitude":"42.67702","Longitude":"-82.73570","Snowdepth":"3.000","Units":"in","Rept_Date":"2019-11-16 13"},"coordinates":[4427,2856]},{"type":"Point","properties":{"Station_ID":"MI-IN-1","Station_Nam":"SARANAC 2.6 NE, MI","Latitude":"42.95764","Longitude":"-85.17380","Snowdepth":"3.000","Units":"in","Rept_Date":"2019-11-16 11"},"coordinates":[3658,3077]},{"type":"Point","properties":{"Station_ID":"MI-IC-6","Station_Nam":"NATIONAL CITY 4.5 NNE, MI","Latitude":"44.29330","Longitude":"-83.68410","Snowdepth":"3.000","Units":"in","Rept_Date":"2019-11-16 14"},"coordinates":[4128,4132]},{"type":"Point","properties":{"Station_ID":"MI-HR-10","Station_Nam":"BAY PORT 3.2 SSW, MI","Latitude":"43.80746","Longitude":"-83.40013","Snowdepth":"3.000","Units":"in","Rept_Date":"2019-11-16 13"},"coordinates":[4217,3748]},{"type":"Point","properties":{"Station_ID":"MI-CT-2","Station_Nam":"HASLETT 1.2 N, MI","Latitude":"42.76997","Longitude":"-84.40310","Snowdepth":"3.000","Units":"in","Rept_Date":"2019-11-16 12"},"coordinates":[3901,2929]},{"type":"Point","properties":{"Station_ID":"MEDN6","Station_Nam":"MEDINA","Latitude":"43.20930","Longitude":"-78.38940","Snowdepth":"3.000","Units":"in","Rept_Date":"2019-11-16 11"},"coordinates":[5796,3276]},{"type":"Point","properties":{"Station_ID":"ME-FR-4","Station_Nam":"NEW SHARON 2.0 NW, ME","Latitude":"44.66582","Longitude":"-70.02720","Snowdepth":"3.000","Units":"in","Rept_Date":"2019-11-16 12"},"coordinates":[8432,4426]},{"type":"Point","properties":{"Station_ID":"LVRM1","Station_Nam":"LIVERMORE FALLS 1 E","Latitude":"44.47160","Longitude":"-70.15940","Snowdepth":"3.000","Units":"in","Rept_Date":"2019-11-16 12"},"coordinates":[8390,4272]},{"type":"Point","properties":{"Station_ID":"LVDW3","Station_Nam":"LAC VIEUX DESERT","Latitude":"46.12110","Longitude":"-89.07580","Snowdepth":"3.000","Units":"in","Rept_Date":"2019-11-16 14"},"coordinates":[2428,5574]},{"type":"Point","properties":{"Station_ID":"LUPM4","Station_Nam":"LUPTON 1S","Latitude":"44.41990","Longitude":"-84.02320","Snowdepth":"3.000","Units":"in","Rept_Date":"2019-11-16 13"},"coordinates":[4021,4232]},{"type":"Point","properties":{"Station_ID":"LOWN6","Station_Nam":"LOWVILLE","Latitude":"43.79280","Longitude":"-75.48290","Snowdepth":"3.000","Units":"in","Rept_Date":"2019-11-16 12"},"coordinates":[6713,3737]},{"type":"Point","properties":{"Station_ID":"LNOW3","Station_Nam":"LAND O LAKES","Latitude":"46.19000","Longitude":"-89.45700","Snowdepth":"3.000","Units":"in","Rept_Date":"2019-11-16 13"},"coordinates":[2308,5629]},{"type":"Point","properties":{"Station_ID":"LGEW3","Station_Nam":"LAKE GENEVA, WI","Latitude":"42.60000","Longitude":"-88.43440","Snowdepth":"3.000","Units":"in","Rept_Date":"2019-11-16 13"},"coordinates":[2630,2795]},{"type":"Point","properties":{"Station_ID":"KUKN6","Station_Nam":"LAKESIDE","Latitude":"43.37140","Longitude":"-78.26630","Snowdepth":"3.000","Units":"in","Rept_Date":"2019-11-16 13"},"coordinates":[5835,3404]},{"type":"Point","properties":{"Station_ID":"KSEM4","Station_Nam":"KALKASKA 11SE","Latitude":"44.58970","Longitude":"-85.04860","Snowdepth":"3.000","Units":"in","Rept_Date":"2019-11-16 13"},"coordinates":[3698,4366]},{"type":"Point","properties":{"Station_ID":"KMWN","Station_Nam":"MOUNT WASHINGTON","Latitude":"44.26666","Longitude":"-71.30000","Snowdepth":"3.000","Units":"in","Rept_Date":"2019-11-17 06"},"coordinates":[8031,4111]},{"type":"Point","properties":{"Station_ID":"JCBM4","Station_Nam":"JACOBSVILLE","Latitude":"47.00830","Longitude":"-88.43180","Snowdepth":"3.000","Units":"in","Rept_Date":"2019-11-16 12"},"coordinates":[2631,6275]},{"type":"Point","properties":{"Station_ID":"IL-SP-25","Station_Nam":"FREEPORT 1.7 NW, IL","Latitude":"42.30427","Longitude":"-89.66285","Snowdepth":"3.000","Units":"in","Rept_Date":"2019-11-16 13"},"coordinates":[2243,2562]},{"type":"Point","properties":{"Station_ID":"IL-MCH-30","Station_Nam":"WONDER LAKE 0.8 WNW, IL","Latitude":"42.38354","Longitude":"-88.37090","Snowdepth":"3.000","Units":"in","Rept_Date":"2019-11-16 13"},"coordinates":[2650,2624]},{"type":"Point","properties":{"Station_ID":"IL-LK-81","Station_Nam":"LAKE VILLA 2.3 WSW, IL","Latitude":"42.40532","Longitude":"-88.12380","Snowdepth":"3.000","Units":"in","Rept_Date":"2019-11-16 13"},"coordinates":[2728,2641]},{"type":"Point","properties":{"Station_ID":"IL-KN-118","Station_Nam":"SLEEPY HOLLOW 0.7 W, IL","Latitude":"42.09500","Longitude":"-88.32790","Snowdepth":"3.000","Units":"in","Rept_Date":"2019-11-16 13"},"coordinates":[2664,2396]},{"type":"Point","properties":{"Station_ID":"HTLM4","Station_Nam":"SNOW PAID OBSERVER FOR KHTL","Latitude":"44.34470","Longitude":"-84.67730","Snowdepth":"3.000","Units":"in","Rept_Date":"2019-11-16 12"},"coordinates":[3815,4172]},{"type":"Point","properties":{"Station_ID":"HTL","Station_Nam":"ROSCOMMON COUNTY AIRPORT","Latitude":"44.35000","Longitude":"-84.66670","Snowdepth":"3.000","Units":"in","Rept_Date":"2019-11-17 00"},"coordinates":[3818,4176]},{"type":"Point","properties":{"Station_ID":"HEBI2","Station_Nam":"HEBRON","Latitude":"42.46750","Longitude":"-88.48060","Snowdepth":"3.000","Units":"in","Rept_Date":"2019-11-16 13"},"coordinates":[2616,2690]},{"type":"Point","properties":{"Station_ID":"GODM4","Station_Nam":"GOODRICH","Latitude":"42.91640","Longitude":"-83.50970","Snowdepth":"3.000","Units":"in","Rept_Date":"2019-11-16 12"},"coordinates":[4183,3045]},{"type":"Point","properties":{"Station_ID":"GFDN6","Station_Nam":"CHASE LAKE","Latitude":"43.75920","Longitude":"-75.29980","Snowdepth":"3.000","Units":"in","Rept_Date":"2019-11-16 11"},"coordinates":[6770,3710]},{"type":"Point","properties":{"Station_ID":"FKMM4","Station_Nam":"FRANKENMUTH 1SE","Latitude":"43.31940","Longitude":"-83.71610","Snowdepth":"3.000","Units":"in","Rept_Date":"2019-11-16 14"},"coordinates":[4118,3363]},{"type":"Point","properties":{"Station_ID":"DTW","Station_Nam":"DETROIT METROPOLITAN","Latitude":"42.21220","Longitude":"-83.35330","Snowdepth":"3.000","Units":"in","Rept_Date":"2019-11-17 06"},"coordinates":[4232,2489]},{"type":"Point","properties":{"Station_ID":"DRBM4","Station_Nam":"DEARBORN,MI","Latitude":"42.31670","Longitude":"-83.23330","Snowdepth":"3.000","Units":"in","Rept_Date":"2019-11-16 14"},"coordinates":[4270,2571]},{"type":"Point","properties":{"Station_ID":"COVM4","Station_Nam":"COVINGTON","Latitude":"46.55880","Longitude":"-88.54190","Snowdepth":"3.000","Units":"in","Rept_Date":"2019-11-16 13"},"coordinates":[2596,5920]},{"type":"Point","properties":{"Station_ID":"CORV1","Station_Nam":"CORINTH","Latitude":"44.00690","Longitude":"-72.31940","Snowdepth":"3.000","Units":"in","Rept_Date":"2019-11-16 12"},"coordinates":[7710,3906]},{"type":"Point","properties":{"Station_ID":"CODN6","Station_Nam":"COLDEN 1W","Latitude":"42.64720","Longitude":"-78.71110","Snowdepth":"3.000","Units":"in","Rept_Date":"2019-11-16 12"},"coordinates":[5695,2832]},{"type":"Point","properties":{"Station_ID":"CHSM4","Station_Nam":"CHESANING,MI","Latitude":"43.21670","Longitude":"-84.10000","Snowdepth":"3.000","Units":"in","Rept_Date":"2019-11-16 12"},"coordinates":[3997,3282]},{"type":"Point","properties":{"Station_ID":"CAN-ON-9","Station_Nam":"WINDSOR 1.7 SE, CAN","Latitude":"42.28448","Longitude":"-83.03456","Snowdepth":"3.000","Units":"in","Rept_Date":"2019-11-16 12"},"coordinates":[4332,2546]},{"type":"Point","properties":{"Station_ID":"BROW3","Station_Nam":"BRODHEAD,WI","Latitude":"42.61720","Longitude":"-89.38970","Snowdepth":"3.000","Units":"in","Rept_Date":"2019-11-16 13"},"coordinates":[2329,2809]},{"type":"Point","properties":{"Station_ID":"BRLN3","Station_Nam":"BERLIN","Latitude":"44.45350","Longitude":"-71.18540","Snowdepth":"3.000","Units":"in","Rept_Date":"2019-11-16 12"},"coordinates":[8067,4258]},{"type":"Point","properties":{"Station_ID":"BLTW3","Station_Nam":"BELOIT,WI","Latitude":"42.50000","Longitude":"-89.03330","Snowdepth":"3.000","Units":"in","Rept_Date":"2019-11-16 12"},"coordinates":[2442,2716]},{"type":"Point","properties":{"Station_ID":"BGTW3","Station_Nam":"SEWAGE DISPOSAL PLANT","Latitude":"42.68330","Longitude":"-88.20000","Snowdepth":"3.000","Units":"in","Rept_Date":"2019-11-16 12"},"coordinates":[2704,2861]},{"type":"Point","properties":{"Station_ID":"BETM1","Station_Nam":"BETHEL 6 SSE","Latitude":"44.32000","Longitude":"-70.75680","Snowdepth":"3.000","Units":"in","Rept_Date":"2019-11-16 12"},"coordinates":[8202,4153]},{"type":"Point","properties":{"Station_ID":"BDAM4","Station_Nam":"BAD AXE,MI","Latitude":"43.81670","Longitude":"-83.00000","Snowdepth":"3.000","Units":"in","Rept_Date":"2019-11-16 12"},"coordinates":[4343,3755]},{"type":"Point","properties":{"Station_ID":"BABM5","Station_Nam":"BABBITT","Latitude":"47.71210","Longitude":"-91.95330","Snowdepth":"3.000","Units":"in","Rept_Date":"2019-11-16 13"},"coordinates":[1521,6830]},{"type":"Point","properties":{"Station_ID":"CAN-ON-452","Station_Nam":"CHATSWORTH 1.8 ENE - GSCA, CAN","Latitude":"44.46118","Longitude":"-80.87506","Snowdepth":"2.600","Units":"in","Rept_Date":"2019-11-16 12"},"coordinates":[5013,4264]},{"type":"Point","properties":{"Station_ID":"CAN-ON-322","Station_Nam":"WINDSOR 4.0 NE, CAN","Latitude":"42.31785","Longitude":"-83.01522","Snowdepth":"2.600","Units":"in","Rept_Date":"2019-11-16 12"},"coordinates":[4338,2572]},{"type":"Point","properties":{"Station_ID":"WI-WW-2","Station_Nam":"LAKE GENEVA 0.6 ENE, WI","Latitude":"42.59169","Longitude":"-88.41770","Snowdepth":"2.500","Units":"in","Rept_Date":"2019-11-16 13"},"coordinates":[2636,2789]},{"type":"Point","properties":{"Station_ID":"WI-WN-9","Station_Nam":"NEENAH 1.1 ENE, WI","Latitude":"44.17370","Longitude":"-88.45130","Snowdepth":"2.500","Units":"in","Rept_Date":"2019-11-16 13"},"coordinates":[2625,4037]},{"type":"Point","properties":{"Station_ID":"WI-VL-14","Station_Nam":"BOULDER JUNCTION 1.4 NE, WI","Latitude":"46.12840","Longitude":"-89.62470","Snowdepth":"2.500","Units":"in","Rept_Date":"2019-11-16 13"},"coordinates":[2255,5580]},{"type":"Point","properties":{"Station_ID":"WI-RK-12","Station_Nam":"JANESVILLE 3.1 W, WI","Latitude":"42.67576","Longitude":"-89.07614","Snowdepth":"2.500","Units":"in","Rept_Date":"2019-11-16 13"},"coordinates":[2428,2855]},{"type":"Point","properties":{"Station_ID":"WI-RC-3","Station_Nam":"RACINE 2.3 WSW, WI","Latitude":"42.71124","Longitude":"-87.84570","Snowdepth":"2.500","Units":"in","Rept_Date":"2019-11-16 13"},"coordinates":[2816,2883]},{"type":"Point","properties":{"Station_ID":"WI-GN-5","Station_Nam":"MONTICELLO 2.2 SE, WI","Latitude":"42.71990","Longitude":"-89.56360","Snowdepth":"2.500","Units":"in","Rept_Date":"2019-11-16 13"},"coordinates":[2274,2890]},{"type":"Point","properties":{"Station_ID":"OH-CY-42","Station_Nam":"STRONGSVILLE 1.3 SE, OH","Latitude":"41.29815","Longitude":"-81.81507","Snowdepth":"2.500","Units":"in","Rept_Date":"2019-11-16 13"},"coordinates":[4717,1767]},{"type":"Point","properties":{"Station_ID":"NY-WN-18","Station_Nam":"MACEDON 2.6 ESE, NY","Latitude":"43.05200","Longitude":"-77.25700","Snowdepth":"2.500","Units":"in","Rept_Date":"2019-11-16 12"},"coordinates":[6153,3152]},{"type":"Point","properties":{"Station_ID":"NY-OD-2","Station_Nam":"POINT ROCK 0.6 SE, NY","Latitude":"43.37335","Longitude":"-75.53840","Snowdepth":"2.500","Units":"in","Rept_Date":"2019-11-16 13"},"coordinates":[6695,3405]},{"type":"Point","properties":{"Station_ID":"NY-CQ-34","Station_Nam":"KENNEDY 2.6 SE, NY","Latitude":"42.12567","Longitude":"-79.07235","Snowdepth":"2.500","Units":"in","Rept_Date":"2019-11-16 13"},"coordinates":[5581,2421]},{"type":"Point","properties":{"Station_ID":"NY-CQ-27","Station_Nam":"SILVER CREEK 1.0 SSE, NY","Latitude":"42.53088","Longitude":"-79.15986","Snowdepth":"2.500","Units":"in","Rept_Date":"2019-11-16 12"},"coordinates":[5554,2741]},{"type":"Point","properties":{"Station_ID":"NH-CR-15","Station_Nam":"JACKSON 3.7 NW, NH","Latitude":"44.19069","Longitude":"-71.22598","Snowdepth":"2.500","Units":"in","Rept_Date":"2019-11-16 12"},"coordinates":[8054,4051]},{"type":"Point","properties":{"Station_ID":"NH-CR-11","Station_Nam":"NORTH CONWAY 1.4 SSW, NH","Latitude":"44.03556","Longitude":"-71.14010","Snowdepth":"2.500","Units":"in","Rept_Date":"2019-11-16 12"},"coordinates":[8081,3928]},{"type":"Point","properties":{"Station_ID":"MI-LN-16","Station_Nam":"CLINTON 0.5 NE, MI","Latitude":"42.07710","Longitude":"-83.96530","Snowdepth":"2.500","Units":"in","Rept_Date":"2019-11-16 13"},"coordinates":[4039,2382]},{"type":"Point","properties":{"Station_ID":"MI-JC-13","Station_Nam":"HANOVER 3.8 W, MI","Latitude":"42.10700","Longitude":"-84.62600","Snowdepth":"2.500","Units":"in","Rept_Date":"2019-11-16 12"},"coordinates":[3831,2406]},{"type":"Point","properties":{"Station_ID":"MI-HL-1","Station_Nam":"LITCHFIELD 0.3 ENE, MI","Latitude":"42.04528","Longitude":"-84.75310","Snowdepth":"2.500","Units":"in","Rept_Date":"2019-11-16 12"},"coordinates":[3791,2357]},{"type":"Point","properties":{"Station_ID":"IL-WN-26","Station_Nam":"ROCKFORD 1.5 ENE, IL","Latitude":"42.27775","Longitude":"-89.03590","Snowdepth":"2.500","Units":"in","Rept_Date":"2019-11-16 15"},"coordinates":[2441,2541]},{"type":"Point","properties":{"Station_ID":"IL-SP-6","Station_Nam":"FREEPORT 2.0 NW, IL","Latitude":"42.30955","Longitude":"-89.66370","Snowdepth":"2.500","Units":"in","Rept_Date":"2019-11-16 13"},"coordinates":[2243,2566]},{"type":"Point","properties":{"Station_ID":"IL-MCH-83","Station_Nam":"CRYSTAL LAKE 1.0 WSW, IL","Latitude":"42.22882","Longitude":"-88.34964","Snowdepth":"2.500","Units":"in","Rept_Date":"2019-11-16 13"},"coordinates":[2657,2502]},{"type":"Point","properties":{"Station_ID":"IL-MCH-13","Station_Nam":"BULL VALLEY 2.5 WNW, IL","Latitude":"42.32455","Longitude":"-88.39460","Snowdepth":"2.500","Units":"in","Rept_Date":"2019-11-16 14"},"coordinates":[2643,2578]},{"type":"Point","properties":{"Station_ID":"IL-CK-180","Station_Nam":"PARK RIDGE 0.5 SSW, IL","Latitude":"42.00443","Longitude":"-87.84600","Snowdepth":"2.500","Units":"in","Rept_Date":"2019-11-16 13"},"coordinates":[2816,2325]},{"type":"Point","properties":{"Station_ID":"IL-CK-214","Station_Nam":"ROGERS PARK 1.5 SW, IL","Latitude":"41.99567","Longitude":"-87.69180","Snowdepth":"2.400","Units":"in","Rept_Date":"2019-11-16 13"},"coordinates":[2864,2318]},{"type":"Point","properties":{"Station_ID":"CAN-NB-97","Station_Nam":"NEW MARYLAND 0.6 NW, CAN","Latitude":"45.90112","Longitude":"-66.68739","Snowdepth":"2.400","Units":"in","Rept_Date":"2019-11-16 11"},"coordinates":[9485,5401]},{"type":"Point","properties":{"Station_ID":"NY-HR-18","Station_Nam":"SALISBURY CENTER 1.8 NW, NY","Latitude":"43.16260","Longitude":"-74.80880","Snowdepth":"2.300","Units":"in","Rept_Date":"2019-11-16 11"},"coordinates":[6925,3239]},{"type":"Point","properties":{"Station_ID":"NY-CQ-9","Station_Nam":"DUNKIRK 0.7 SW, NY","Latitude":"42.47167","Longitude":"-79.33360","Snowdepth":"2.100","Units":"in","Rept_Date":"2019-11-16 12"},"coordinates":[5499,2694]},{"type":"Point","properties":{"Station_ID":"WVLM1","Station_Nam":"WATERVILLE,ME","Latitude":"44.52780","Longitude":"-69.65390","Snowdepth":"2.000","Units":"in","Rept_Date":"2019-11-16 13"},"coordinates":[8550,4317]},{"type":"Point","properties":{"Station_ID":"WODI2","Station_Nam":"WOODSTOCK","Latitude":"42.36280","Longitude":"-88.53140","Snowdepth":"2.000","Units":"in","Rept_Date":"2019-11-16 13"},"coordinates":[2600,2608]},{"type":"Point","properties":{"Station_ID":"WI-WK-65","Station_Nam":"EAGLE 3.4 SW, WI","Latitude":"42.85067","Longitude":"-88.52596","Snowdepth":"2.000","Units":"in","Rept_Date":"2019-11-16 13"},"coordinates":[2602,2993]},{"type":"Point","properties":{"Station_ID":"WI-LF-6","Station_Nam":"SOUTH WAYNE 3.9 SSW, WI","Latitude":"42.51173","Longitude":"-89.89555","Snowdepth":"2.000","Units":"in","Rept_Date":"2019-11-16 13"},"coordinates":[2170,2725]},{"type":"Point","properties":{"Station_ID":"WI-BY-14","Station_Nam":"ASHLAND 9.8 W, WI","Latitude":"46.59742","Longitude":"-91.07856","Snowdepth":"2.000","Units":"in","Rept_Date":"2019-11-16 12"},"coordinates":[1797,5950]},{"type":"Point","properties":{"Station_ID":"WI-BN-14","Station_Nam":"GREEN BAY 3.8 SSE, WI","Latitude":"44.46772","Longitude":"-87.97350","Snowdepth":"2.000","Units":"in","Rept_Date":"2019-11-16 13"},"coordinates":[2776,4269]},{"type":"Point","properties":{"Station_ID":"WBRM4","Station_Nam":"WEST BRANCH 3SE","Latitude":"44.25410","Longitude":"-84.20110","Snowdepth":"2.000","Units":"in","Rept_Date":"2019-11-16 13"},"coordinates":[3965,4101]},{"type":"Point","properties":{"Station_ID":"WAUO1","Station_Nam":"UNKNOWN","Latitude":"41.55000","Longitude":"-84.13000","Snowdepth":"2.000","Units":"in","Rept_Date":"2019-11-16 13"},"coordinates":[3987,1966]},{"type":"Point","properties":{"Station_ID":"VQAW3","Station_Nam":"VIROQUA","Latitude":"43.55970","Longitude":"-90.87560","Snowdepth":"2.000","Units":"in","Rept_Date":"2019-11-16 13"},"coordinates":[1861,3553]},{"type":"Point","properties":{"Station_ID":"STGW3","Station_Nam":"ST GERMAIN","Latitude":"45.91550","Longitude":"-89.48940","Snowdepth":"2.000","Units":"in","Rept_Date":"2019-11-16 12"},"coordinates":[2298,5412]},{"type":"Point","properties":{"Station_ID":"SILN6","Station_Nam":"SILVER CREEK","Latitude":"42.53800","Longitude":"-79.16990","Snowdepth":"2.000","Units":"in","Rept_Date":"2019-11-16 12"},"coordinates":[5550,2746]},{"type":"Point","properties":{"Station_ID":"RUHN6","Station_Nam":"RUSHFORD","Latitude":"42.42620","Longitude":"-78.19200","Snowdepth":"2.000","Units":"in","Rept_Date":"2019-11-16 13"},"coordinates":[5859,2658]},{"type":"Point","properties":{"Station_ID":"RSCI2","Station_Nam":"ROSCOE","Latitude":"42.40500","Longitude":"-88.97940","Snowdepth":"2.000","Units":"in","Rept_Date":"2019-11-16 12"},"coordinates":[2459,2641]},{"type":"Point","properties":{"Station_ID":"ROCW3","Station_Nam":"ROCHESTER WWTP","Latitude":"42.72690","Longitude":"-88.22580","Snowdepth":"2.000","Units":"in","Rept_Date":"2019-11-16 14"},"coordinates":[2696,2895]},{"type":"Point","properties":{"Station_ID":"PULW3","Station_Nam":"PULASKI WWTP","Latitude":"44.67830","Longitude":"-88.22750","Snowdepth":"2.000","Units":"in","Rept_Date":"2019-11-16 12"},"coordinates":[2696,4435]},{"type":"Point","properties":{"Station_ID":"PHEW3","Station_Nam":"PHELPS","Latitude":"46.06630","Longitude":"-89.07520","Snowdepth":"2.000","Units":"in","Rept_Date":"2019-11-16 13"},"coordinates":[2428,5531]},{"type":"Point","properties":{"Station_ID":"OWSM4","Station_Nam":"OWOSSO,MI","Latitude":"42.96670","Longitude":"-84.20000","Snowdepth":"2.000","Units":"in","Rept_Date":"2019-11-16 12"},"coordinates":[3965,3084]},{"type":"Point","properties":{"Station_ID":"OH-PT-9","Station_Nam":"HIRAM 0.4 N, OH","Latitude":"41.31595","Longitude":"-81.14340","Snowdepth":"2.000","Units":"in","Rept_Date":"2019-11-16 12"},"coordinates":[4928,1782]},{"type":"Point","properties":{"Station_ID":"NY-ON-15","Station_Nam":"GENEVA COOP, NY","Latitude":"42.87660","Longitude":"-77.03080","Snowdepth":"2.000","Units":"in","Rept_Date":"2019-11-16 13"},"coordinates":[6225,3013]},{"type":"Point","properties":{"Station_ID":"NY-ER-72","Station_Nam":"TONAWANDA 3.1 NE, NY","Latitude":"43.01368","Longitude":"-78.82960","Snowdepth":"2.000","Units":"in","Rept_Date":"2019-11-16 12"},"coordinates":[5658,3122]},{"type":"Point","properties":{"Station_ID":"NY-ER-7","Station_Nam":"WILLIAMSVILLE 2.7 E, NY","Latitude":"42.96930","Longitude":"-78.68790","Snowdepth":"2.000","Units":"in","Rept_Date":"2019-11-16 12"},"coordinates":[5702,3087]},{"type":"Point","properties":{"Station_ID":"NY-ER-39","Station_Nam":"HAMBURG 0.4 WSW, NY","Latitude":"42.72253","Longitude":"-78.84330","Snowdepth":"2.000","Units":"in","Rept_Date":"2019-11-16 12"},"coordinates":[5653,2892]},{"type":"Point","properties":{"Station_ID":"NY-ER-151","Station_Nam":"CLARENCE CENTER 0.2 ESE, NY","Latitude":"43.00742","Longitude":"-78.62917","Snowdepth":"2.000","Units":"in","Rept_Date":"2019-11-16 12"},"coordinates":[5721,3117]},{"type":"Point","properties":{"Station_ID":"NY-ER-122","Station_Nam":"CHEEKTOWAGA 2.4 NW, NY","Latitude":"42.93457","Longitude":"-78.78295","Snowdepth":"2.000","Units":"in","Rept_Date":"2019-11-16 13"},"coordinates":[5672,3059]},{"type":"Point","properties":{"Station_ID":"NY-CQ-22","Station_Nam":"FREDONIA 0.8 WNW, NY","Latitude":"42.44414","Longitude":"-79.34610","Snowdepth":"2.000","Units":"in","Rept_Date":"2019-11-16 10"},"coordinates":[5495,2672]},{"type":"Point","properties":{"Station_ID":"NWSM1","Station_Nam":"NEW SHARON","Latitude":"44.63520","Longitude":"-70.00020","Snowdepth":"2.000","Units":"in","Rept_Date":"2019-11-16 12"},"coordinates":[8441,4401]},{"type":"Point","properties":{"Station_ID":"NWPM4","Station_Nam":"NEWPORT 4SSE","Latitude":"41.94970","Longitude":"-83.28000","Snowdepth":"2.000","Units":"in","Rept_Date":"2019-11-16 12"},"coordinates":[4255,2282]},{"type":"Point","properties":{"Station_ID":"NSNM1","Station_Nam":"NEW SHARON","Latitude":"44.63330","Longitude":"-70.00000","Snowdepth":"2.000","Units":"in","Rept_Date":"2019-11-16 11"},"coordinates":[8441,4400]},{"type":"Point","properties":{"Station_ID":"NONW3","Station_Nam":"NEW LONDON","Latitude":"44.35890","Longitude":"-88.71890","Snowdepth":"2.000","Units":"in","Rept_Date":"2019-11-16 12"},"coordinates":[2541,4183]},{"type":"Point","properties":{"Station_ID":"NH-GR-49","Station_Nam":"PLYMOUTH 3.7 N, NH","Latitude":"43.79048","Longitude":"-71.68413","Snowdepth":"2.000","Units":"in","Rept_Date":"2019-11-16 12"},"coordinates":[7910,3735]},{"type":"Point","properties":{"Station_ID":"MWTM1","Station_Nam":"MILLINOCKET WWTP","Latitude":"45.64030","Longitude":"-68.67480","Snowdepth":"2.000","Units":"in","Rept_Date":"2019-11-16 12"},"coordinates":[8858,5195]},{"type":"Point","properties":{"Station_ID":"MUNI2","Station_Nam":"MUNDELEIN,IL","Latitude":"42.25530","Longitude":"-88.07690","Snowdepth":"2.000","Units":"in","Rept_Date":"2019-11-16 13"},"coordinates":[2743,2523]},{"type":"Point","properties":{"Station_ID":"MTCI2","Station_Nam":"MOUNT CARROLL","Latitude":"42.09800","Longitude":"-89.98410","Snowdepth":"2.000","Units":"in","Rept_Date":"2019-11-16 14"},"coordinates":[2142,2399]},{"type":"Point","properties":{"Station_ID":"MONW3","Station_Nam":"MONROE,WI","Latitude":"42.60000","Longitude":"-89.66670","Snowdepth":"2.000","Units":"in","Rept_Date":"2019-11-16 13"},"coordinates":[2242,2795]},{"type":"Point","properties":{"Station_ID":"MNRM4","Station_Nam":"MONROE WWTP","Latitude":"41.90240","Longitude":"-83.36970","Snowdepth":"2.000","Units":"in","Rept_Date":"2019-11-16 14"},"coordinates":[4227,2244]},{"type":"Point","properties":{"Station_ID":"MNPV1","Station_Nam":"MONTPELIER 2","Latitude":"44.25530","Longitude":"-72.60060","Snowdepth":"2.000","Units":"in","Rept_Date":"2019-11-16 12"},"coordinates":[7621,4102]},{"type":"Point","properties":{"Station_ID":"MN-SL-15","Station_Nam":"CHISHOLM 0.4 WSW, MN","Latitude":"47.48557","Longitude":"-92.88690","Snowdepth":"2.000","Units":"in","Rept_Date":"2019-11-16 13"},"coordinates":[1227,6651]},{"type":"Point","properties":{"Station_ID":"MN-SL-108","Station_Nam":"IRON JUNCTION 3.4 NNW, MN","Latitude":"47.46150","Longitude":"-92.63130","Snowdepth":"2.000","Units":"in","Rept_Date":"2019-11-16 13"},"coordinates":[1308,6632]},{"type":"Point","properties":{"Station_ID":"MI-MR-1","Station_Nam":"NEWPORT 3.1 SE, MI","Latitude":"41.94960","Longitude":"-83.28010","Snowdepth":"2.000","Units":"in","Rept_Date":"2019-11-16 12"},"coordinates":[4255,2282]},{"type":"Point","properties":{"Station_ID":"MI-MQ-19","Station_Nam":"ISHPEMING 7.2 SW, MI","Latitude":"46.40550","Longitude":"-87.75670","Snowdepth":"2.000","Units":"in","Rept_Date":"2019-11-16 11"},"coordinates":[2844,5799]},{"type":"Point","properties":{"Station_ID":"MI-JC-11","Station_Nam":"JACKSON 3.2 W, MI","Latitude":"42.24061","Longitude":"-84.46690","Snowdepth":"2.000","Units":"in","Rept_Date":"2019-11-16 12"},"coordinates":[3881,2511]},{"type":"Point","properties":{"Station_ID":"MI-IH-45","Station_Nam":"LANSING 1.0 ENE, MI","Latitude":"42.71480","Longitude":"-84.53490","Snowdepth":"2.000","Units":"in","Rept_Date":"2019-11-16 13"},"coordinates":[3859,2886]},{"type":"Point","properties":{"Station_ID":"MI-HL-4","Station_Nam":"JONESVILLE 5.9 ENE, MI","Latitude":"42.01472","Longitude":"-84.56190","Snowdepth":"2.000","Units":"in","Rept_Date":"2019-11-16 13"},"coordinates":[3851,2333]},{"type":"Point","properties":{"Station_ID":"MI-DL-1","Station_Nam":"GARDEN CORNERS 0.8 NW, MI","Latitude":"45.89815","Longitude":"-86.54850","Snowdepth":"2.000","Units":"in","Rept_Date":"2019-11-16 13"},"coordinates":[3225,5398]},{"type":"Point","properties":{"Station_ID":"MI-BN-2","Station_Nam":"STEVENSVILLE 1.7 SSE, MI","Latitude":"41.99114","Longitude":"-86.50860","Snowdepth":"2.000","Units":"in","Rept_Date":"2019-11-16 12"},"coordinates":[3237,2314]},{"type":"Point","properties":{"Station_ID":"ME-PN-47","Station_Nam":"MILFORD 0.8 SSW, ME","Latitude":"44.94108","Longitude":"-68.64154","Snowdepth":"2.000","Units":"in","Rept_Date":"2019-11-16 12"},"coordinates":[8869,4643]},{"type":"Point","properties":{"Station_ID":"ME-PN-30","Station_Nam":"OLD TOWN 4.1 ESE, ME","Latitude":"44.93543","Longitude":"-68.65840","Snowdepth":"2.000","Units":"in","Rept_Date":"2019-11-16 12"},"coordinates":[8864,4638]},{"type":"Point","properties":{"Station_ID":"ME-AN-32","Station_Nam":"WINTHROP 9.4 W, ME","Latitude":"44.30476","Longitude":"-70.15835","Snowdepth":"2.000","Units":"in","Rept_Date":"2019-11-16 12"},"coordinates":[8391,4141]},{"type":"Point","properties":{"Station_ID":"MDLM4","Station_Nam":"MIDLAND,MI","Latitude":"43.61670","Longitude":"-84.21670","Snowdepth":"2.000","Units":"in","Rept_Date":"2019-11-17 05"},"coordinates":[3960,3598]},{"type":"Point","properties":{"Station_ID":"MBS","Station_Nam":"MBS INTERNATIONAL AIRPORT","Latitude":"43.53310","Longitude":"-84.07970","Snowdepth":"2.000","Units":"in","Rept_Date":"2019-11-16 12"},"coordinates":[4003,3532]},{"type":"Point","properties":{"Station_ID":"LTVN6","Station_Nam":"LITTLE VALLEY","Latitude":"42.24730","Longitude":"-78.81250","Snowdepth":"2.000","Units":"in","Rept_Date":"2019-11-16 12"},"coordinates":[5663,2517]},{"type":"Point","properties":{"Station_ID":"LPRM4","Station_Nam":"OAKDALE REGIONAL CENTER","Latitude":"43.05000","Longitude":"-83.35000","Snowdepth":"2.000","Units":"in","Rept_Date":"2019-11-16 12"},"coordinates":[4233,3150]},{"type":"Point","properties":{"Station_ID":"LKZI2","Station_Nam":"LAKE ZURICH","Latitude":"42.19250","Longitude":"-88.06530","Snowdepth":"2.000","Units":"in","Rept_Date":"2019-11-16 13"},"coordinates":[2747,2473]},{"type":"Point","properties":{"Station_ID":"LKVN6","Station_Nam":"LAKE VIEW","Latitude":"42.73180","Longitude":"-78.92400","Snowdepth":"2.000","Units":"in","Rept_Date":"2019-11-16 12"},"coordinates":[5628,2899]},{"type":"Point","properties":{"Station_ID":"LIDM4","Station_Nam":"LINDEN WWTP","Latitude":"42.81330","Longitude":"-83.80380","Snowdepth":"2.000","Units":"in","Rept_Date":"2019-11-16 13"},"coordinates":[4090,2963]},{"type":"Point","properties":{"Station_ID":"LBKV1","Station_Nam":"LYE BROOK","Latitude":"43.05000","Longitude":"-73.03330","Snowdepth":"2.000","Units":"in","Rept_Date":"2019-11-17 06"},"coordinates":[7485,3150]},{"type":"Point","properties":{"Station_ID":"LANM4","Station_Nam":"LANSING 2 WNW","Latitude":"42.74530","Longitude":"-84.58830","Snowdepth":"2.000","Units":"in","Rept_Date":"2019-11-17 05"},"coordinates":[3843,2910]},{"type":"Point","properties":{"Station_ID":"LAN","Station_Nam":"CAPITAL CITY AIRPORT","Latitude":"42.77860","Longitude":"-84.58720","Snowdepth":"2.000","Units":"in","Rept_Date":"2019-11-17 00"},"coordinates":[3843,2936]},{"type":"Point","properties":{"Station_ID":"KISM4","Station_Nam":"K.I. SAWYER WWTP","Latitude":"46.33410","Longitude":"-87.37790","Snowdepth":"2.000","Units":"in","Rept_Date":"2019-11-16 13"},"coordinates":[2963,5742]},{"type":"Point","properties":{"Station_ID":"KINM1","Station_Nam":"KINGFIELD","Latitude":"44.95950","Longitude":"-70.17530","Snowdepth":"2.000","Units":"in","Rept_Date":"2019-11-16 12"},"coordinates":[8385,4657]},{"type":"Point","properties":{"Station_ID":"KABM5","Station_Nam":"KABETOGAMA LAKE VISITOR CTR","Latitude":"48.40880","Longitude":"-93.04840","Snowdepth":"2.000","Units":"in","Rept_Date":"2019-11-16 13"},"coordinates":[1176,7380]},{"type":"Point","properties":{"Station_ID":"JFNW3","Station_Nam":"JEFFERSON - WWTP","Latitude":"42.99470","Longitude":"-88.80390","Snowdepth":"2.000","Units":"in","Rept_Date":"2019-11-16 13"},"coordinates":[2514,3107]},{"type":"Point","properties":{"Station_ID":"INL","Station_Nam":"FALLS INTERNATIONAL ARPT","Latitude":"48.56640","Longitude":"-93.40310","Snowdepth":"2.000","Units":"in","Rept_Date":"2019-11-17 00"},"coordinates":[1064,7504]},{"type":"Point","properties":{"Station_ID":"IN-PT-98","Station_Nam":"VALPARAISO 0.9 NNW, IN","Latitude":"41.48956","Longitude":"-87.05800","Snowdepth":"2.000","Units":"in","Rept_Date":"2019-11-16 13"},"coordinates":[3064,1919]},{"type":"Point","properties":{"Station_ID":"IN-LP-7","Station_Nam":"LA PORTE 1.6 SW, IN","Latitude":"41.59040","Longitude":"-86.73430","Snowdepth":"2.000","Units":"in","Rept_Date":"2019-11-16 13"},"coordinates":[3166,1998]},{"type":"Point","properties":{"Station_ID":"IN-KS-41","Station_Nam":"NORTH WEBSTER 2.3 N, IN","Latitude":"41.35866","Longitude":"-85.70060","Snowdepth":"2.000","Units":"in","Rept_Date":"2019-11-16 12"},"coordinates":[3492,1815]},{"type":"Point","properties":{"Station_ID":"IL-WN-2","Station_Nam":"ROSCOE 1.6 ESE, IL","Latitude":"42.40500","Longitude":"-88.97950","Snowdepth":"2.000","Units":"in","Rept_Date":"2019-11-16 12"},"coordinates":[2459,2641]},{"type":"Point","properties":{"Station_ID":"IL-SP-7","Station_Nam":"DAVIS 0.5 N, IL","Latitude":"42.42919","Longitude":"-89.41730","Snowdepth":"2.000","Units":"in","Rept_Date":"2019-11-16 13"},"coordinates":[2321,2660]},{"type":"Point","properties":{"Station_ID":"IL-SP-26","Station_Nam":"FREEPORT 2.9 WSW, IL","Latitude":"42.26779","Longitude":"-89.68323","Snowdepth":"2.000","Units":"in","Rept_Date":"2019-11-16 13"},"coordinates":[2237,2533]},{"type":"Point","properties":{"Station_ID":"IL-LK-39","Station_Nam":"RIVERWOODS 0.4 ENE, IL","Latitude":"42.17264","Longitude":"-87.88840","Snowdepth":"2.000","Units":"in","Rept_Date":"2019-11-16 13"},"coordinates":[2802,2458]},{"type":"Point","properties":{"Station_ID":"IL-LK-19","Station_Nam":"WAUKEGAN 2.2 N, IL","Latitude":"42.40241","Longitude":"-87.86360","Snowdepth":"2.000","Units":"in","Rept_Date":"2019-11-16 14"},"coordinates":[2810,2639]},{"type":"Point","properties":{"Station_ID":"IL-LK-11","Station_Nam":"LINCOLNSHIRE 0.9 N, IL","Latitude":"42.20816","Longitude":"-87.91880","Snowdepth":"2.000","Units":"in","Rept_Date":"2019-11-16 14"},"coordinates":[2793,2486]},{"type":"Point","properties":{"Station_ID":"IL-LE-10","Station_Nam":"DIXON 3.0 NNW, IL","Latitude":"41.88759","Longitude":"-89.50820","Snowdepth":"2.000","Units":"in","Rept_Date":"2019-11-16 14"},"coordinates":[2292,2233]},{"type":"Point","properties":{"Station_ID":"IL-KN-95","Station_Nam":"ELGIN 2.5 W, IL","Latitude":"42.04041","Longitude":"-88.33660","Snowdepth":"2.000","Units":"in","Rept_Date":"2019-11-16 13"},"coordinates":[2661,2353]},{"type":"Point","properties":{"Station_ID":"IL-JD-8","Station_Nam":"STOCKTON 3.4 NNE, IL","Latitude":"42.39960","Longitude":"-89.99020","Snowdepth":"2.000","Units":"in","Rept_Date":"2019-11-16 13"},"coordinates":[2140,2637]},{"type":"Point","properties":{"Station_ID":"IL-DP-155","Station_Nam":"MEDINAH 1.0 SSW, IL","Latitude":"41.96360","Longitude":"-88.06590","Snowdepth":"2.000","Units":"in","Rept_Date":"2019-11-16 13"},"coordinates":[2747,2293]},{"type":"Point","properties":{"Station_ID":"IL-BN-14","Station_Nam":"CAPRON 0.1 N, IL","Latitude":"42.39998","Longitude":"-88.74240","Snowdepth":"2.000","Units":"in","Rept_Date":"2019-11-16 13"},"coordinates":[2533,2637]},{"type":"Point","properties":{"Station_ID":"IFSM5","Station_Nam":"INTERNATIONAL FALLS SNOW","Latitude":"48.57780","Longitude":"-93.39640","Snowdepth":"2.000","Units":"in","Rept_Date":"2019-11-16 12"},"coordinates":[1066,7513]},{"type":"Point","properties":{"Station_ID":"IA-LN-39","Station_Nam":"CEDAR RAPIDS 2.5 WSW, IA","Latitude":"41.95474","Longitude":"-91.71049","Snowdepth":"2.000","Units":"in","Rept_Date":"2019-11-16 14"},"coordinates":[1598,2286]},{"type":"Point","properties":{"Station_ID":"HUBN3","Station_Nam":"HUBBARD BROOK","Latitude":"43.93330","Longitude":"-71.71670","Snowdepth":"2.000","Units":"in","Rept_Date":"2019-11-17 06"},"coordinates":[7900,3847]},{"type":"Point","properties":{"Station_ID":"HRTM1","Station_Nam":"HARTFORD","Latitude":"44.37440","Longitude":"-70.31620","Snowdepth":"2.000","Units":"in","Rept_Date":"2019-11-16 12"},"coordinates":[8341,4196]},{"type":"Point","properties":{"Station_ID":"HOLM4","Station_Nam":"HOLLAND,MI","Latitude":"42.80000","Longitude":"-86.11670","Snowdepth":"2.000","Units":"in","Rept_Date":"2019-11-16 12"},"coordinates":[3361,2953]},{"type":"Point","properties":{"Station_ID":"HMYM1","Station_Nam":"HARMONY","Latitude":"44.94660","Longitude":"-69.54560","Snowdepth":"2.000","Units":"in","Rept_Date":"2019-11-16 12"},"coordinates":[8584,4647]},{"type":"Point","properties":{"Station_ID":"HALM4","Station_Nam":"LOUD DAM","Latitude":"44.46250","Longitude":"-83.72190","Snowdepth":"2.000","Units":"in","Rept_Date":"2019-11-16 14"},"coordinates":[4116,4265]},{"type":"Point","properties":{"Station_ID":"GLNM4","Station_Nam":"GLENNIE 2SE","Latitude":"44.53580","Longitude":"-83.70220","Snowdepth":"2.000","Units":"in","Rept_Date":"2019-11-16 12"},"coordinates":[4122,4323]},{"type":"Point","properties":{"Station_ID":"GENN6","Station_Nam":"GENEVA RESEARCH FARM","Latitude":"42.87660","Longitude":"-77.03070","Snowdepth":"2.000","Units":"in","Rept_Date":"2019-11-16 13"},"coordinates":[6225,3013]},{"type":"Point","properties":{"Station_ID":"GDCM4","Station_Nam":"GARDEN CORNERS","Latitude":"45.89830","Longitude":"-86.54850","Snowdepth":"2.000","Units":"in","Rept_Date":"2019-11-16 13"},"coordinates":[3225,5398]},{"type":"Point","properties":{"Station_ID":"FORW3","Station_Nam":"FORESTVILLE-4E","Latitude":"44.69780","Longitude":"-87.39690","Snowdepth":"2.000","Units":"in","Rept_Date":"2019-11-16 13"},"coordinates":[2957,4451]},{"type":"Point","properties":{"Station_ID":"FNT","Station_Nam":"FLINT BISHOP INTL AIRPORT","Latitude":"42.96560","Longitude":"-83.74360","Snowdepth":"2.000","Units":"in","Rept_Date":"2019-11-17 06"},"coordinates":[4109,3084]},{"type":"Point","properties":{"Station_ID":"FISW3","Station_Nam":"FISH CREEK 1 E WWTP","Latitude":"45.12420","Longitude":"-87.22920","Snowdepth":"2.000","Units":"in","Rept_Date":"2019-11-16 15"},"coordinates":[3010,4787]},{"type":"Point","properties":{"Station_ID":"FEEI2","Station_Nam":"PECATONICA RIVER","Latitude":"42.30000","Longitude":"-89.61670","Snowdepth":"2.000","Units":"in","Rept_Date":"2019-11-16 13"},"coordinates":[2258,2558]},{"type":"Point","properties":{"Station_ID":"FARM1","Station_Nam":"FARMINGTON","Latitude":"44.68930","Longitude":"-70.15640","Snowdepth":"2.000","Units":"in","Rept_Date":"2019-11-16 12"},"coordinates":[8391,4444]},{"type":"Point","properties":{"Station_ID":"ETWM4","Station_Nam":"EAST TAWAS","Latitude":"44.28380","Longitude":"-83.50360","Snowdepth":"2.000","Units":"in","Rept_Date":"2019-11-16 13"},"coordinates":[4185,4124]},{"type":"Point","properties":{"Station_ID":"ELYM5","Station_Nam":"ELY","Latitude":"47.90560","Longitude":"-91.82830","Snowdepth":"2.000","Units":"in","Rept_Date":"2019-11-16 15"},"coordinates":[1561,6983]},{"type":"Point","properties":{"Station_ID":"EGNI2","Station_Nam":"ELGIN","Latitude":"42.02590","Longitude":"-88.28860","Snowdepth":"2.000","Units":"in","Rept_Date":"2019-11-16 14"},"coordinates":[2676,2342]},{"type":"Point","properties":{"Station_ID":"DTVM4","Station_Nam":"DETOUR VILLAGE","Latitude":"45.99830","Longitude":"-83.90130","Snowdepth":"2.000","Units":"in","Rept_Date":"2019-11-16 13"},"coordinates":[4059,5477]},{"type":"Point","properties":{"Station_ID":"DNDM4","Station_Nam":"DUNDEE,MI","Latitude":"41.95000","Longitude":"-83.65000","Snowdepth":"2.000","Units":"in","Rept_Date":"2019-11-16 10"},"coordinates":[4138,2282]},{"type":"Point","properties":{"Station_ID":"DLNW3","Station_Nam":"WALWORTH COUNTYMETROPOLITAN SEWERAGE DISTRICT (DELEVAN)","Latitude":"42.63440","Longitude":"-88.66280","Snowdepth":"2.000","Units":"in","Rept_Date":"2019-11-16 14"},"coordinates":[2558,2822]},{"type":"Point","properties":{"Station_ID":"DKKN6","Station_Nam":"DUNKIRK 1S","Latitude":"42.47170","Longitude":"-79.33360","Snowdepth":"2.000","Units":"in","Rept_Date":"2019-11-16 12"},"coordinates":[5499,2694]},{"type":"Point","properties":{"Station_ID":"DHMM1","Station_Nam":"DEDHAM","Latitude":"44.67880","Longitude":"-68.63560","Snowdepth":"2.000","Units":"in","Rept_Date":"2019-11-16 11"},"coordinates":[8871,4436]},{"type":"Point","properties":{"Station_ID":"DENW3","Station_Nam":"DENMARK WWTP","Latitude":"44.35130","Longitude":"-87.81190","Snowdepth":"2.000","Units":"in","Rept_Date":"2019-11-16 14"},"coordinates":[2827,4177]},{"type":"Point","properties":{"Station_ID":"DEKI2","Station_Nam":"DE KALB,IL","Latitude":"41.93330","Longitude":"-88.76670","Snowdepth":"2.000","Units":"in","Rept_Date":"2019-11-16 13"},"coordinates":[2526,2269]},{"type":"Point","properties":{"Station_ID":"CVWP1","Station_Nam":"CHANDLER VALLEY 1SE","Latitude":"41.93010","Longitude":"-79.29700","Snowdepth":"2.000","Units":"in","Rept_Date":"2019-11-16 12"},"coordinates":[5510,2266]},{"type":"Point","properties":{"Station_ID":"CSSM4","Station_Nam":"CASS CITY,MI","Latitude":"43.58330","Longitude":"-83.18330","Snowdepth":"2.000","Units":"in","Rept_Date":"2019-11-16 11"},"coordinates":[4285,3571]},{"type":"Point","properties":{"Station_ID":"COKM5","Station_Nam":"COOK","Latitude":"47.85060","Longitude":"-92.69250","Snowdepth":"2.000","Units":"in","Rept_Date":"2019-11-16 12"},"coordinates":[1288,6939]},{"type":"Point","properties":{"Station_ID":"CLUI4","Station_Nam":"CLUTIER,IA","Latitude":"42.08330","Longitude":"-92.40000","Snowdepth":"2.000","Units":"in","Rept_Date":"2019-11-16 13"},"coordinates":[1380,2387]},{"type":"Point","properties":{"Station_ID":"CLIW3","Station_Nam":"CLINTON,WI","Latitude":"42.60000","Longitude":"-88.88330","Snowdepth":"2.000","Units":"in","Rept_Date":"2019-11-16 13"},"coordinates":[2489,2795]},{"type":"Point","properties":{"Station_ID":"CHMW3","Station_Nam":"MADISON,WI","Latitude":"43.06030","Longitude":"-89.47810","Snowdepth":"2.000","Units":"in","Rept_Date":"2019-11-16 13"},"coordinates":[2301,3158]},{"type":"Point","properties":{"Station_ID":"CAN-ON-593","Station_Nam":"KITCHENER 4.5 E, CAN","Latitude":"43.45147","Longitude":"-80.43180","Snowdepth":"2.000","Units":"in","Rept_Date":"2019-11-16 11"},"coordinates":[5153,3467]},{"type":"Point","properties":{"Station_ID":"CAN-ON-5","Station_Nam":"OWEN SOUND 1.5 NW - GSCA, CAN","Latitude":"44.57837","Longitude":"-80.95461","Snowdepth":"2.000","Units":"in","Rept_Date":"2019-11-16 13"},"coordinates":[4988,4357]},{"type":"Point","properties":{"Station_ID":"CAN-ON-342","Station_Nam":"LURGAN BEACH 1.4 NNE - LHCC, CAN","Latitude":"44.09777","Longitude":"-81.72765","Snowdepth":"2.000","Units":"in","Rept_Date":"2019-11-16 12"},"coordinates":[4744,3977]},{"type":"Point","properties":{"Station_ID":"CAN-ON-178","Station_Nam":"GODERICH 10.2 S - MVCA, CAN","Latitude":"43.64655","Longitude":"-81.70734","Snowdepth":"2.000","Units":"in","Rept_Date":"2019-11-16 13"},"coordinates":[4751,3621]},{"type":"Point","properties":{"Station_ID":"CAN-ON-103","Station_Nam":"CALEDONIA 12.4 NW, CA","Latitude":"43.14246","Longitude":"-80.06960","Snowdepth":"2.000","Units":"in","Rept_Date":"2019-11-16 12"},"coordinates":[5267,3223]},{"type":"Point","properties":{"Station_ID":"CAN-NB-96","Station_Nam":"SAINT-IGNACE 2.6 NE, CAN","Latitude":"46.71424","Longitude":"-65.05609","Snowdepth":"2.000","Units":"in","Rept_Date":"2019-11-16 11"},"coordinates":[9999,6042]},{"type":"Point","properties":{"Station_ID":"BRLW3","Station_Nam":"BRILLION,WI","Latitude":"44.18330","Longitude":"-88.06670","Snowdepth":"2.000","Units":"in","Rept_Date":"2019-11-16 14"},"coordinates":[2746,4045]},{"type":"Point","properties":{"Station_ID":"BNDM5","Station_Nam":"ELY 25E","Latitude":"47.97190","Longitude":"-91.44860","Snowdepth":"2.000","Units":"in","Rept_Date":"2019-11-16 13"},"coordinates":[1680,7035]},{"type":"Point","properties":{"Station_ID":"BKBW2","Station_Nam":"DAVIS.","Latitude":"39.09830","Longitude":"-79.43190","Snowdepth":"2.000","Units":"in","Rept_Date":"2019-11-16 12"},"coordinates":[5468,31]},