{"type":"Topology","objects":{"snowdepth_geo":{"type":"GeometryCollection","geometries":[{"type":"Point","coordinates":[-72.8154,44.5248],"properties":{"Station_ID":"MMNV1","Station_Nam":"MT. MANSFIELD","Latitude":"44.52480","Longitude":"-72.81540","Snowdepth":"56.000","Units":"in","Rept_Date":"2025-01-25 21"}},{"type":"Point","coordinates":[-88.6717,47.0416],"properties":{"Station_ID":"PDLM4","Station_Nam":"PAINESDALE","Latitude":"47.04160","Longitude":"-88.67170","Snowdepth":"36.000","Units":"in","Rept_Date":"2025-01-25 13"}},{"type":"Point","coordinates":[-88.854,46.8944],"properties":{"Station_ID":"57011_MADIS","Station_Nam":"TWIN LAKES 0.2 SW, MI","Latitude":"46.89440","Longitude":"-88.85400","Snowdepth":"33.000","Units":"in","Rept_Date":"2025-01-25 13"}},{"type":"Point","coordinates":[-86.6625,46.4121],"properties":{"Station_ID":"MNSM4","Station_Nam":"MUNISING","Latitude":"46.41210","Longitude":"-86.66250","Snowdepth":"32.000","Units":"in","Rept_Date":"2025-01-25 12"}},{"type":"Point","coordinates":[-75.5384,43.37335],"properties":{"Station_ID":"NY-OD-2","Station_Nam":"POINT ROCK 0.6 SE, NY","Latitude":"43.37335","Longitude":"-75.53840","Snowdepth":"29.000","Units":"in","Rept_Date":"2025-01-25 13"}},{"type":"Point","coordinates":[-71.1955,44.2594],"properties":{"Station_ID":"CRNN3","Station_Nam":"CARTER NOTCH","Latitude":"44.25940","Longitude":"-71.19550","Snowdepth":"27.000","Units":"in","Rept_Date":"2025-01-25 12"}},{"type":"Point","coordinates":[-74.2064,48.855],"properties":{"Station_ID":"CQGO","Station_Nam":"CQGO","Latitude":"48.85500","Longitude":"-74.20640","Snowdepth":"26.220","Units":"in","Rept_Date":"2025-01-25 12"}},{"type":"Point","coordinates":[-75.5543,43.6051],"properties":{"Station_ID":"HGHN6","Station_Nam":"HIGHMARKET","Latitude":"43.60510","Longitude":"-75.55430","Snowdepth":"26.000","Units":"in","Rept_Date":"2025-01-25 11"}},{"type":"Point","coordinates":[-88.5795,47.1364],"properties":{"Station_ID":"QNCM4","Station_Nam":"QUINCY HILL","Latitude":"47.13640","Longitude":"-88.57950","Snowdepth":"25.000","Units":"in","Rept_Date":"2025-01-25 12"}},{"type":"Point","coordinates":[-78.86978,40.2899],"properties":{"Station_ID":"PA-CM-11","Station_Nam":"JOHNSTOWN 3.6 SE, PA","Latitude":"40.28990","Longitude":"-78.86978","Snowdepth":"25.000","Units":"in","Rept_Date":"2025-01-25 12"}},{"type":"Point","coordinates":[-71.2833,44.2613],"properties":{"Station_ID":"HTLN3","Station_Nam":"HERMIT LAKE SNOWPLOT","Latitude":"44.26130","Longitude":"-71.28330","Snowdepth":"25.000","Units":"in","Rept_Date":"2025-01-25 10"}},{"type":"Point","coordinates":[-69.6747,50.7925],"properties":{"Station_ID":"CQOU","Station_Nam":"CQOU","Latitude":"50.79250","Longitude":"-69.67470","Snowdepth":"24.488","Units":"in","Rept_Date":"2025-01-25 12"}},{"type":"Point","coordinates":[-74.8088,43.1626],"properties":{"Station_ID":"NY-HR-18","Station_Nam":"SALISBURY CENTER 1.8 NW, NY","Latitude":"43.16260","Longitude":"-74.80880","Snowdepth":"24.000","Units":"in","Rept_Date":"2025-01-25 12"}},{"type":"Point","coordinates":[-78.703,42.6548],"properties":{"Station_ID":"NY-ER-166","Station_Nam":"BOSTON 2.5 NE, NY","Latitude":"42.65480","Longitude":"-78.70300","Snowdepth":"23.500","Units":"in","Rept_Date":"2025-01-25 12"}},{"type":"Point","coordinates":[-78.6973,40.1744],"properties":{"Station_ID":"WNBP1","Station_Nam":"WINDBER 7SE","Latitude":"40.17440","Longitude":"-78.69730","Snowdepth":"23.000","Units":"in","Rept_Date":"2025-01-25 12"}},{"type":"Point","coordinates":[-71.2779,44.2663],"properties":{"Station_ID":"HVCN3","Station_Nam":"HARVARD CABIN SNOWPLOT","Latitude":"44.26630","Longitude":"-71.27790","Snowdepth":"23.000","Units":"in","Rept_Date":"2025-01-25 10"}},{"type":"Point","coordinates":[-86.1065,44.53976],"properties":{"Station_ID":"MI-BZ-1","Station_Nam":"BENZONIA 5.3 S, MI","Latitude":"44.53976","Longitude":"-86.10650","Snowdepth":"22.500","Units":"in","Rept_Date":"2025-01-25 14"}},{"type":"Point","coordinates":[-78.60663,42.80935],"properties":{"Station_ID":"NY-ER-261","Station_Nam":"ELMA CENTER 1.8 SE, NY","Latitude":"42.80935","Longitude":"-78.60663","Snowdepth":"22.000","Units":"in","Rept_Date":"2025-01-25 12"}},{"type":"Point","coordinates":[-71.7098,44.9988],"properties":{"Station_ID":"AVLV1","Station_Nam":"AVERILL","Latitude":"44.99880","Longitude":"-71.70980","Snowdepth":"22.000","Units":"in","Rept_Date":"2025-01-25 22"}},{"type":"Point","coordinates":[-70.4719,50.1033],"properties":{"Station_ID":"CQMA","Station_Nam":"CQMA","Latitude":"50.10330","Longitude":"-70.47190","Snowdepth":"21.732","Units":"in","Rept_Date":"2025-01-25 12"}},{"type":"Point","coordinates":[-69.3569,49.66],"properties":{"Station_ID":"CQTV","Station_Nam":"CQTV","Latitude":"49.66000","Longitude":"-69.35690","Snowdepth":"21.339","Units":"in","Rept_Date":"2025-01-25 12"}},{"type":"Point","coordinates":[-67.1394,51.1114],"properties":{"Station_ID":"CQGD","Station_Nam":"CQGD","Latitude":"51.11140","Longitude":"-67.13940","Snowdepth":"21.181","Units":"in","Rept_Date":"2025-01-25 12"}},{"type":"Point","coordinates":[-71.3093,44.3326],"properties":{"Station_ID":"GKBN3","Station_Nam":"GRAY KNOB","Latitude":"44.33260","Longitude":"-71.30930","Snowdepth":"21.000","Units":"in","Rept_Date":"2025-01-25 13"}},{"type":"Point","coordinates":[-80.95461,44.57837],"properties":{"Station_ID":"CAN-ON-5","Station_Nam":"OWEN SOUND 1.5 NW - GSCA, CAN","Latitude":"44.57837","Longitude":"-80.95461","Snowdepth":"21.000","Units":"in","Rept_Date":"2025-01-25 13"}},{"type":"Point","coordinates":[-86.1311,44.5316],"properties":{"Station_ID":"BEUM4","Station_Nam":"BEULAH 7SSW","Latitude":"44.53160","Longitude":"-86.13110","Snowdepth":"21.000","Units":"in","Rept_Date":"2025-01-25 13"}},{"type":"Point","coordinates":[-84.28515,46.50299],"properties":{"Station_ID":"CAN-ON-915","Station_Nam":"SAULT STE. MARIE 3.9 ESE, CAN","Latitude":"46.50299","Longitude":"-84.28515","Snowdepth":"20.900","Units":"in","Rept_Date":"2025-01-25 13"}},{"type":"Point","coordinates":[-90.30508,47.8062],"properties":{"Station_ID":"MN-CK-29","Station_Nam":"GRAND MARAIS 3.8 NNE, MN","Latitude":"47.80620","Longitude":"-90.30508","Snowdepth":"20.500","Units":"in","Rept_Date":"2025-01-25 13"}},{"type":"Point","coordinates":[-85.051,44.89981],"properties":{"Station_ID":"MI-AT-6","Station_Nam":"MANCELONA 0.5 ESE, MI","Latitude":"44.89981","Longitude":"-85.05100","Snowdepth":"20.500","Units":"in","Rept_Date":"2025-01-25 13"}},{"type":"Point","coordinates":[-81.72765,44.09777],"properties":{"Station_ID":"CAN-ON-342","Station_Nam":"LURGAN BEACH 1.4 NNE - LHCC, CAN","Latitude":"44.09777","Longitude":"-81.72765","Snowdepth":"20.100","Units":"in","Rept_Date":"2025-01-25 12"}},{"type":"Point","coordinates":[-79.9952,38.4013],"properties":{"Station_ID":"SNOW2","Station_Nam":"SNOWSHOE","Latitude":"38.40130","Longitude":"-79.99520","Snowdepth":"20.000","Units":"in","Rept_Date":"2025-01-25 10"}},{"type":"Point","coordinates":[-85.2672,45.3172],"properties":{"Station_ID":"CHRM4","Station_Nam":"CHARLEVOIX","Latitude":"45.31720","Longitude":"-85.26720","Snowdepth":"20.000","Units":"in","Rept_Date":"2025-01-25 13"}},{"type":"Point","coordinates":[-75.1,50.7236],"properties":{"Station_ID":"CQLB","Station_Nam":"CQLB","Latitude":"50.72360","Longitude":"-75.10000","Snowdepth":"19.724","Units":"in","Rept_Date":"2025-01-25 12"}},{"type":"Point","coordinates":[-70.0806,51.3283],"properties":{"Station_ID":"CQCX","Station_Nam":"CQCX","Latitude":"51.32830","Longitude":"-70.08060","Snowdepth":"19.134","Units":"in","Rept_Date":"2025-01-25 12"}},{"type":"Point","coordinates":[-71.4944,44.1959],"properties":{"Station_ID":"ZFHN3","Station_Nam":"ZEALAND FALLS HUT","Latitude":"44.19590","Longitude":"-71.49440","Snowdepth":"19.000","Units":"in","Rept_Date":"2025-01-25 12"}},{"type":"Point","coordinates":[-73.02,42.82],"properties":{"Station_ID":"VT-BN-12","Station_Nam":"STAMFORD 5.0 NNE, VT","Latitude":"42.82000","Longitude":"-73.02000","Snowdepth":"19.000","Units":"in","Rept_Date":"2025-01-25 21"}},{"type":"Point","coordinates":[-84.4025,46.4866],"properties":{"Station_ID":"SSMM4","Station_Nam":"SAULT STE MARIE","Latitude":"46.48660","Longitude":"-84.40250","Snowdepth":"19.000","Units":"in","Rept_Date":"2025-01-25 12"}},{"type":"Point","coordinates":[-79.003,42.4647],"properties":{"Station_ID":"PRGN6","Station_Nam":"PERRYSBURG","Latitude":"42.46470","Longitude":"-79.00300","Snowdepth":"19.000","Units":"in","Rept_Date":"2025-01-25 12"}},{"type":"Point","coordinates":[-78.7112,42.6474],"properties":{"Station_ID":"NY-ER-56","Station_Nam":"COLDEN 1.4 NNW, NY","Latitude":"42.64740","Longitude":"-78.71120","Snowdepth":"19.000","Units":"in","Rept_Date":"2025-01-25 12"}},{"type":"Point","coordinates":[-88.6926,47.13156],"properties":{"Station_ID":"MI-HG-21","Station_Nam":"ATLANTIC MINE 3.9 NW, MI","Latitude":"47.13156","Longitude":"-88.69260","Snowdepth":"19.000","Units":"in","Rept_Date":"2025-01-25 11"}},{"type":"Point","coordinates":[-84.31971,46.48933],"properties":{"Station_ID":"MI-CP-14","Station_Nam":"SAULT STE. MARIE 2.2 E, MI","Latitude":"46.48933","Longitude":"-84.31971","Snowdepth":"19.000","Units":"in","Rept_Date":"2025-01-25 12"}},{"type":"Point","coordinates":[-78.7111,42.6472],"properties":{"Station_ID":"CODN6","Station_Nam":"COLDEN","Latitude":"42.64720","Longitude":"-78.71110","Snowdepth":"19.000","Units":"in","Rept_Date":"2025-01-25 12"}},{"type":"Point","coordinates":[-84.4026,46.4867],"properties":{"Station_ID":"ANJM4","Station_Nam":"SNOW PAID OBSERVER FOR KANJ","Latitude":"46.48670","Longitude":"-84.40260","Snowdepth":"19.000","Units":"in","Rept_Date":"2025-01-26 00"}},{"type":"Point","coordinates":[-84.3667,46.4667],"properties":{"Station_ID":"ANJ","Station_Nam":"SAULT STE MARIE","Latitude":"46.46670","Longitude":"-84.36670","Snowdepth":"19.000","Units":"in","Rept_Date":"2025-01-25 12"}},{"type":"Point","coordinates":[-88.5983,47.13273],"properties":{"Station_ID":"54021_MADIS","Station_Nam":"HANCOCK 0.1 ENE, MI","Latitude":"47.13273","Longitude":"-88.59830","Snowdepth":"19.000","Units":"in","Rept_Date":"2025-01-25 13"}},{"type":"Point","coordinates":[-70.2528,48.9203],"properties":{"Station_ID":"CQLM","Station_Nam":"CQLM","Latitude":"48.92030","Longitude":"-70.25280","Snowdepth":"18.189","Units":"in","Rept_Date":"2025-01-25 12"}},{"type":"Point","coordinates":[-74.4039,50.8328],"properties":{"Station_ID":"CQFT","Station_Nam":"CQFT","Latitude":"50.83280","Longitude":"-74.40390","Snowdepth":"18.031","Units":"in","Rept_Date":"2025-01-25 12"}},{"type":"Point","coordinates":[-78.5437,42.7211],"properties":{"Station_ID":"WLSN6","Station_Nam":"WALES","Latitude":"42.72110","Longitude":"-78.54370","Snowdepth":"18.000","Units":"in","Rept_Date":"2025-01-25 12"}},{"type":"Point","coordinates":[-72.4435,44.8916],"properties":{"Station_ID":"VT-OL-1","Station_Nam":"WESTFIELD 0.7 WNW, VT","Latitude":"44.89160","Longitude":"-72.44350","Snowdepth":"18.000","Units":"in","Rept_Date":"2025-01-25 12"}},{"type":"Point","coordinates":[-79.43815,42.2254],"properties":{"Station_ID":"NY-CQ-42","Station_Nam":"DEWITTVILLE 1.0 SSE, NY","Latitude":"42.22540","Longitude":"-79.43815","Snowdepth":"18.000","Units":"in","Rept_Date":"2025-01-25 11"}},{"type":"Point","coordinates":[-76.2656,43.4383],"properties":{"Station_ID":"MXON6","Station_Nam":"MEXICO","Latitude":"43.43830","Longitude":"-76.26560","Snowdepth":"18.000","Units":"in","Rept_Date":"2025-01-25 12"}},{"type":"Point","coordinates":[-88.5294,47.10774],"properties":{"Station_ID":"MI-HG-1","Station_Nam":"HOUGHTON 1.6 ESE, MI","Latitude":"47.10774","Longitude":"-88.52940","Snowdepth":"18.000","Units":"in","Rept_Date":"2025-01-25 13"}},{"type":"Point","coordinates":[-79.4319,39.0983],"properties":{"Station_ID":"BKBW2","Station_Nam":"DAVIS.","Latitude":"39.09830","Longitude":"-79.43190","Snowdepth":"18.000","Units":"in","Rept_Date":"2025-01-25 12"}},{"type":"Point","coordinates":[-72.5719,51.0578],"properties":{"Station_ID":"CQTM","Station_Nam":"CQTM","Latitude":"51.05780","Longitude":"-72.57190","Snowdepth":"17.992","Units":"in","Rept_Date":"2025-01-25 12"}},{"type":"Point","coordinates":[-68.8236,50.6617],"properties":{"Station_ID":"CMLZ","Station_Nam":"CMLZ","Latitude":"50.66170","Longitude":"-68.82360","Snowdepth":"17.756","Units":"in","Rept_Date":"2025-01-25 12"}},{"type":"Point","coordinates":[-76.2657,43.4383],"properties":{"Station_ID":"NY-OS-38","Station_Nam":"MEXICO COOP, NY","Latitude":"43.43830","Longitude":"-76.26570","Snowdepth":"17.500","Units":"in","Rept_Date":"2025-01-25 12"}},{"type":"Point","coordinates":[-86.202,42.749],"properties":{"Station_ID":"MI-AN-20","Station_Nam":"HOLLAND 5.3 WSW, MI","Latitude":"42.74900","Longitude":"-86.20200","Snowdepth":"17.500","Units":"in","Rept_Date":"2025-01-25 13"}},{"type":"Point","coordinates":[-91.793,50.7787],"properties":{"Station_ID":"SOCQ6","Station_Nam":"SOCKET LAKE","Latitude":"50.77870","Longitude":"-91.79300","Snowdepth":"17.440","Units":"in","Rept_Date":"2025-01-26 06"}},{"type":"Point","coordinates":[-75.6164,43.97493],"properties":{"Station_ID":"NY-JF-30","Station_Nam":"WEST CARTHAGE 0.3 ENE, NY","Latitude":"43.97493","Longitude":"-75.61640","Snowdepth":"17.100","Units":"in","Rept_Date":"2025-01-25 13"}},{"type":"Point","coordinates":[-78.2085,42.7422],"properties":{"Station_ID":"WSWN6","Station_Nam":"WARSAW","Latitude":"42.74220","Longitude":"-78.20850","Snowdepth":"17.000","Units":"in","Rept_Date":"2025-01-25 12"}},{"type":"Point","coordinates":[-78.5767,42.5497],"properties":{"Station_ID":"SGVN6","Station_Nam":"SPRINGVILLE","Latitude":"42.54970","Longitude":"-78.57670","Snowdepth":"17.000","Units":"in","Rept_Date":"2025-01-25 13"}},{"type":"Point","coordinates":[-76.4796,43.39771],"properties":{"Station_ID":"NY-OS-15","Station_Nam":"MINETTO 0.1 SE, NY","Latitude":"43.39771","Longitude":"-76.47960","Snowdepth":"17.000","Units":"in","Rept_Date":"2025-01-25 13"}},{"type":"Point","coordinates":[-84.68467,44.96388],"properties":{"Station_ID":"MI-OT-17","Station_Nam":"GAYLORD 4.1 S, MI","Latitude":"44.96388","Longitude":"-84.68467","Snowdepth":"17.000","Units":"in","Rept_Date":"2025-01-25 12"}},{"type":"Point","coordinates":[-88.417,47.2752],"properties":{"Station_ID":"KSGM4","Station_Nam":"KEARSARGE","Latitude":"47.27520","Longitude":"-88.41700","Snowdepth":"17.000","Units":"in","Rept_Date":"2025-01-25 13"}},{"type":"Point","coordinates":[-88.3333,46.65],"properties":{"Station_ID":"HERM4","Station_Nam":"HERMAN,MI","Latitude":"46.65000","Longitude":"-88.33330","Snowdepth":"17.000","Units":"in","Rept_Date":"2025-01-25 13"}},{"type":"Point","coordinates":[-79.81035,44.50564],"properties":{"Station_ID":"CAN-ON-245","Station_Nam":"PHELPSTON 3.1 ESE, CAN","Latitude":"44.50564","Longitude":"-79.81035","Snowdepth":"17.000","Units":"in","Rept_Date":"2025-01-25 12"}},{"type":"Point","coordinates":[-84.303,46.503],"properties":{"Station_ID":"CAN-ON-757","Station_Nam":"SAULT STE. MARIE 2.8 ESE - GLFC, CAN","Latitude":"46.50300","Longitude":"-84.30300","Snowdepth":"16.900","Units":"in","Rept_Date":"2025-01-25 13"}},{"type":"Point","coordinates":[-87.7644,49.1989],"properties":{"Station_ID":"DVLQ6","Station_Nam":"DEVIOUS LAKE","Latitude":"49.19890","Longitude":"-87.76440","Snowdepth":"16.890","Units":"in","Rept_Date":"2025-01-26 06"}},{"type":"Point","coordinates":[-87.2292,49.2288],"properties":{"Station_ID":"TRIQ6","Station_Nam":"TRIO LAKE","Latitude":"49.22880","Longitude":"-87.22920","Snowdepth":"16.690","Units":"in","Rept_Date":"2025-01-26 06"}},{"type":"Point","coordinates":[-91.1973,47.3824],"properties":{"Station_ID":"WLFM5","Station_Nam":"WOLF RIDGE ENVIRON LEARNING CENTER","Latitude":"47.38240","Longitude":"-91.19730","Snowdepth":"16.000","Units":"in","Rept_Date":"2025-01-25 13"}},{"type":"Point","coordinates":[-78.6461,42.6074],"properties":{"Station_ID":"NY-ER-194","Station_Nam":"GLENWOOD 1.0 SE, NY","Latitude":"42.60740","Longitude":"-78.64610","Snowdepth":"16.000","Units":"in","Rept_Date":"2025-01-25 12"}},{"type":"Point","coordinates":[-89.28143,46.85396],"properties":{"Station_ID":"MI-ON-4","Station_Nam":"ONTONAGON 1.8 ESE, MI","Latitude":"46.85396","Longitude":"-89.28143","Snowdepth":"16.000","Units":"in","Rept_Date":"2025-01-25 13"}},{"type":"Point","coordinates":[-85.95783,44.22875],"properties":{"Station_ID":"MI-MN-1","Station_Nam":"WELLSTON 0.8 N, MI","Latitude":"44.22875","Longitude":"-85.95783","Snowdepth":"16.000","Units":"in","Rept_Date":"2025-01-25 15"}},{"type":"Point","coordinates":[-85.1475,45.18639],"properties":{"Station_ID":"MI-CX-7","Station_Nam":"EAST JORDAN 2.1 NNW, MI","Latitude":"45.18639","Longitude":"-85.14750","Snowdepth":"16.000","Units":"in","Rept_Date":"2025-01-25 21"}},{"type":"Point","coordinates":[-73.0333,43.05],"properties":{"Station_ID":"LBKV1","Station_Nam":"LYE BROOK","Latitude":"43.05000","Longitude":"-73.03330","Snowdepth":"16.000","Units":"in","Rept_Date":"2025-01-26 06"}},{"type":"Point","coordinates":[-79.1411,40.1692],"properties":{"Station_ID":"LAUP1","Station_Nam":"LAUREL SUMMIT","Latitude":"40.16920","Longitude":"-79.14110","Snowdepth":"16.000","Units":"in","Rept_Date":"2025-01-25 12"}},{"type":"Point","coordinates":[-79.2566,40.042],"properties":{"Station_ID":"HVJP1","Station_Nam":"HIDDEN VALLEY COOP","Latitude":"40.04200","Longitude":"-79.25660","Snowdepth":"16.000","Units":"in","Rept_Date":"2025-01-25 13"}},{"type":"Point","coordinates":[-85.1477,45.1863],"properties":{"Station_ID":"EJNM4","Station_Nam":"EAST JORDAN 2NW","Latitude":"45.18630","Longitude":"-85.14770","Snowdepth":"16.000","Units":"in","Rept_Date":"2025-01-25 21"}},{"type":"Point","coordinates":[-88.5137,47.1167],"properties":{"Station_ID":"CGPM4","Station_Nam":"DOLLAR BAY","Latitude":"47.11670","Longitude":"-88.51370","Snowdepth":"16.000","Units":"in","Rept_Date":"2025-01-25 13"}},{"type":"Point","coordinates":[-71.4127,44.2196],"properties":{"Station_ID":"CAWN3","Station_Nam":"CRAWFORD NOTCH","Latitude":"44.21960","Longitude":"-71.41270","Snowdepth":"16.000","Units":"in","Rept_Date":"2025-01-25 12"}},{"type":"Point","coordinates":[-79.4403,39.0589],"properties":{"Station_ID":"CAAW2","Station_Nam":"CANAAN VALLEY","Latitude":"39.05890","Longitude":"-79.44030","Snowdepth":"16.000","Units":"in","Rept_Date":"2025-01-25 14"}},{"type":"Point","coordinates":[-87.8816,46.7462],"properties":{"Station_ID":"BBEM4","Station_Nam":"BIG BAY 9SW","Latitude":"46.74620","Longitude":"-87.88160","Snowdepth":"16.000","Units":"in","Rept_Date":"2025-01-25 13"}},{"type":"Point","coordinates":[-76.5983,47.8275],"properties":{"Station_ID":"CQCU","Station_Nam":"CQCU","Latitude":"47.82750","Longitude":"-76.59830","Snowdepth":"15.905","Units":"in","Rept_Date":"2025-01-25 12"}},{"type":"Point","coordinates":[-66.69665,44.63373],"properties":{"Station_ID":"CAN-NB-172","Station_Nam":"WHITE HEAD 1.5 ESE, CAN","Latitude":"44.63373","Longitude":"-66.69665","Snowdepth":"15.900","Units":"in","Rept_Date":"2025-01-25 09"}},{"type":"Point","coordinates":[-85.92945,43.07481],"properties":{"Station_ID":"MI-OW-59","Station_Nam":"COOPERSVILLE 0.7 NNE, MI","Latitude":"43.07481","Longitude":"-85.92945","Snowdepth":"15.500","Units":"in","Rept_Date":"2025-01-25 11"}},{"type":"Point","coordinates":[-86.0678,42.82296],"properties":{"Station_ID":"MI-OW-2","Station_Nam":"HOLLAND 3.9 NNE, MI","Latitude":"42.82296","Longitude":"-86.06780","Snowdepth":"15.500","Units":"in","Rept_Date":"2025-01-25 11"}},{"type":"Point","coordinates":[-88.2077,46.5573],"properties":{"Station_ID":"MI-BG-3","Station_Nam":"THREE LAKES, MI","Latitude":"46.55730","Longitude":"-88.20770","Snowdepth":"15.500","Units":"in","Rept_Date":"2025-01-25 13"}},{"type":"Point","coordinates":[-73.8067,47.8461],"properties":{"Station_ID":"CQWE","Station_Nam":"CQWE","Latitude":"47.84610","Longitude":"-73.80670","Snowdepth":"15.039","Units":"in","Rept_Date":"2025-01-25 12"}},{"type":"Point","coordinates":[-86.2453,43.9331],"properties":{"Station_ID":"SCOM4","Station_Nam":"SCOTTVILLE 2 SE","Latitude":"43.93310","Longitude":"-86.24530","Snowdepth":"15.000","Units":"in","Rept_Date":"2025-01-25 12"}},{"type":"Point","coordinates":[-84.9511,45.3612],"properties":{"Station_ID":"PTYM4","Station_Nam":"PETOSKEY NCMC","Latitude":"45.36120","Longitude":"-84.95110","Snowdepth":"15.000","Units":"in","Rept_Date":"2025-01-25 13"}},{"type":"Point","coordinates":[-79.6395,41.9325],"properties":{"Station_ID":"PA-ER-18","Station_Nam":"CORRY 0.5 NNW, PA","Latitude":"41.93250","Longitude":"-79.63950","Snowdepth":"15.000","Units":"in","Rept_Date":"2025-01-25 13"}},{"type":"Point","coordinates":[-78.6214,42.81936],"properties":{"Station_ID":"NY-ER-75","Station_Nam":"ELMA CENTER 0.7 SE, NY","Latitude":"42.81936","Longitude":"-78.62140","Snowdepth":"15.000","Units":"in","Rept_Date":"2025-01-25 14"}},{"type":"Point","coordinates":[-78.6391,42.60195],"properties":{"Station_ID":"NY-ER-63","Station_Nam":"GLENWOOD 1.5 SE, NY","Latitude":"42.60195","Longitude":"-78.63910","Snowdepth":"15.000","Units":"in","Rept_Date":"2025-01-25 13"}},{"type":"Point","coordinates":[-78.60561,42.72936],"properties":{"Station_ID":"NY-ER-158","Station_Nam":"EAST AURORA 2.7 SSE, NY","Latitude":"42.72936","Longitude":"-78.60561","Snowdepth":"15.000","Units":"in","Rept_Date":"2025-01-25 12"}},{"type":"Point","coordinates":[-72.8333,44.5333],"properties":{"Station_ID":"MMSV1","Station_Nam":"MOUNT MANSFIELD","Latitude":"44.53330","Longitude":"-72.83330","Snowdepth":"15.000","Units":"in","Rept_Date":"2025-01-26 06"}},{"type":"Point","coordinates":[-85.64508,45.00285],"properties":{"Station_ID":"MI-LL-8","Station_Nam":"SUTTONS BAY 1.7 N, MI","Latitude":"45.00285","Longitude":"-85.64508","Snowdepth":"15.000","Units":"in","Rept_Date":"2025-01-25 13"}},{"type":"Point","coordinates":[-90.08287,46.54936],"properties":{"Station_ID":"MI-GG-11","Station_Nam":"IRONWOOD 7.3 NNE, MI","Latitude":"46.54936","Longitude":"-90.08287","Snowdepth":"15.000","Units":"in","Rept_Date":"2025-01-25 13"}},{"type":"Point","coordinates":[-79.6395,41.9325],"properties":{"Station_ID":"41.9325_079.6395","Station_Nam":"1 NNW Corry  CoCoRaHS (PA-ER-18)","Latitude":"41.93250","Longitude":"-79.63950","Snowdepth":"15.000","Units":"in","Rept_Date":"2025-01-25 13"}},{"type":"Point","coordinates":[-90.6567,50.2873],"properties":{"Station_ID":"SVBQ6","Station_Nam":"SAVANT BASE","Latitude":"50.28730","Longitude":"-90.65670","Snowdepth":"14.880","Units":"in","Rept_Date":"2025-01-26 06"}},{"type":"Point","coordinates":[-86.245,43.9336],"properties":{"Station_ID":"MI-MS-10","Station_Nam":"SCOTTVILLE 2.1 ESE, MI","Latitude":"43.93360","Longitude":"-86.24500","Snowdepth":"14.800","Units":"in","Rept_Date":"2025-01-25 12"}},{"type":"Point","coordinates":[-86.6594,49.0695],"properties":{"Station_ID":"PTLQ6","Station_Nam":"PORTAGE LAKE","Latitude":"49.06950","Longitude":"-86.65940","Snowdepth":"14.450","Units":"in","Rept_Date":"2025-01-26 06"}},{"type":"Point","coordinates":[-72.2011,51.4528],"properties":{"Station_ID":"CQCO","Station_Nam":"CQCO","Latitude":"51.45280","Longitude":"-72.20110","Snowdepth":"14.331","Units":"in","Rept_Date":"2025-01-25 12"}},{"type":"Point","coordinates":[-67.6264,49.6472],"properties":{"Station_ID":"CQGT","Station_Nam":"CQGT","Latitude":"49.64720","Longitude":"-67.62640","Snowdepth":"14.252","Units":"in","Rept_Date":"2025-01-25 12"}},{"type":"Point","coordinates":[-84.9754,45.4345],"properties":{"Station_ID":"MI-EM-5","Station_Nam":"HARBOR SPRINGS 0.7 ENE, MI","Latitude":"45.43450","Longitude":"-84.97540","Snowdepth":"14.200","Units":"in","Rept_Date":"2025-01-25 13"}},{"type":"Point","coordinates":[-84.3239,46.1864],"properties":{"Station_ID":"PICM4","Station_Nam":"PICKFORD 3NE","Latitude":"46.18640","Longitude":"-84.32390","Snowdepth":"14.000","Units":"in","Rept_Date":"2025-01-25 23"}},{"type":"Point","coordinates":[-79.49809,42.25194],"properties":{"Station_ID":"NY-CQ-41","Station_Nam":"MAYVILLE 0.2 ESE, NY","Latitude":"42.25194","Longitude":"-79.49809","Snowdepth":"14.000","Units":"in","Rept_Date":"2025-01-25 12"}},{"type":"Point","coordinates":[-73.9839,44.3042],"properties":{"Station_ID":"LPLN6","Station_Nam":"LAKE PLACID 2 S","Latitude":"44.30420","Longitude":"-73.98390","Snowdepth":"14.000","Units":"in","Rept_Date":"2025-01-25 10"}},{"type":"Point","coordinates":[-79.3683,39.2728],"properties":{"Station_ID":"BAYW2","Station_Nam":"BAYARD COOP","Latitude":"39.27280","Longitude":"-79.36830","Snowdepth":"14.000","Units":"in","Rept_Date":"2025-01-25 12"}},{"type":"Point","coordinates":[-76.0556,43.30216],"properties":{"Station_ID":"51941_MADIS","Station_Nam":"WEST MONROE 1.6 NNE, NY","Latitude":"43.30216","Longitude":"-76.05560","Snowdepth":"14.000","Units":"in","Rept_Date":"2025-01-25 13"}},{"type":"Point","coordinates":[-82.5757,48.526],"properties":{"Station_ID":"AUDQ6","Station_Nam":"AUDEN","Latitude":"48.52600","Longitude":"-82.57570","Snowdepth":"13.780","Units":"in","Rept_Date":"2025-01-26 06"}},{"type":"Point","coordinates":[-94.2577,52.1145],"properties":{"Station_ID":"POPQ6","Station_Nam":"POPLAR HILL","Latitude":"52.11450","Longitude":"-94.25770","Snowdepth":"13.700","Units":"in","Rept_Date":"2025-01-26 06"}},{"type":"Point","coordinates":[-78.6158,42.7675],"properties":{"Station_ID":"NY-ER-50","Station_Nam":"EAST AURORA 0.1 ENE, NY","Latitude":"42.76750","Longitude":"-78.61580","Snowdepth":"13.500","Units":"in","Rept_Date":"2025-01-25 12"}},{"type":"Point","coordinates":[-91.4716,48.7067],"properties":{"Station_ID":"ATIQ6","Station_Nam":"ATIKOKAN","Latitude":"48.70670","Longitude":"-91.47160","Snowdepth":"13.150","Units":"in","Rept_Date":"2025-01-26 06"}},{"type":"Point","coordinates":[-66.9111,51.5217],"properties":{"Station_ID":"CMFU","Station_Nam":"CMFU","Latitude":"51.52170","Longitude":"-66.91110","Snowdepth":"13.031","Units":"in","Rept_Date":"2025-01-25 12"}},{"type":"Point","coordinates":[-72.9,43.2667],"properties":{"Station_ID":"PERV1","Station_Nam":"PERU","Latitude":"43.26670","Longitude":"-72.90000","Snowdepth":"13.000","Units":"in","Rept_Date":"2025-01-25 12"}},{"type":"Point","coordinates":[-78.8433,42.72253],"properties":{"Station_ID":"NY-ER-39","Station_Nam":"HAMBURG 0.4 WSW, NY","Latitude":"42.72253","Longitude":"-78.84330","Snowdepth":"13.000","Units":"in","Rept_Date":"2025-01-25 12"}},{"type":"Point","coordinates":[-90.76895,48.09619],"properties":{"Station_ID":"MN-CK-57","Station_Nam":"GRAND MARAIS 30.5 NW, MN","Latitude":"48.09619","Longitude":"-90.76895","Snowdepth":"13.000","Units":"in","Rept_Date":"2025-01-25 14"}},{"type":"Point","coordinates":[-86.2381,43.1694],"properties":{"Station_ID":"MKG","Station_Nam":"MUSKEGON COUNTY ARPT","Latitude":"43.16940","Longitude":"-86.23810","Snowdepth":"13.000","Units":"in","Rept_Date":"2025-01-26 00"}},{"type":"Point","coordinates":[-78.924,42.7318],"properties":{"Station_ID":"LKVN6","Station_Nam":"LAKE VIEW","Latitude":"42.73180","Longitude":"-78.92400","Snowdepth":"13.000","Units":"in","Rept_Date":"2025-01-25 13"}},{"type":"Point","coordinates":[-78.9123,42.3431],"properties":{"Station_ID":"CTGN6","Station_Nam":"CATTARAUGUS 3W","Latitude":"42.34310","Longitude":"-78.91230","Snowdepth":"13.000","Units":"in","Rept_Date":"2025-01-25 12"}},{"type":"Point","coordinates":[-92.6925,47.8506],"properties":{"Station_ID":"COKM5","Station_Nam":"COOK","Latitude":"47.85060","Longitude":"-92.69250","Snowdepth":"13.000","Units":"in","Rept_Date":"2025-01-25 12"}},{"type":"Point","coordinates":[-87.8582,50.7668],"properties":{"Station_ID":"OGIQ6","Station_Nam":"OGOKI CAMP","Latitude":"50.76680","Longitude":"-87.85820","Snowdepth":"12.990","Units":"in","Rept_Date":"2025-01-26 06"}},{"type":"Point","coordinates":[-88.7038,49.19],"properties":{"Station_ID":"NONQ6","Station_Nam":"NONWATIN","Latitude":"49.19000","Longitude":"-88.70380","Snowdepth":"12.640","Units":"in","Rept_Date":"2025-01-26 06"}},{"type":"Point","coordinates":[-93.216,48.59631],"properties":{"Station_ID":"MN-KC-20","Station_Nam":"INTERNATIONAL FALLS 8.8 E, MN","Latitude":"48.59631","Longitude":"-93.21600","Snowdepth":"12.500","Units":"in","Rept_Date":"2025-01-25 13"}},{"type":"Point","coordinates":[-68.8406,51.2833],"properties":{"Station_ID":"CMRL","Station_Nam":"CMRL","Latitude":"51.28330","Longitude":"-68.84060","Snowdepth":"12.087","Units":"in","Rept_Date":"2025-01-25 12"}},{"type":"Point","coordinates":[-72.3497,44.0935],"properties":{"Station_ID":"WTPV1","Station_Nam":"WEST TOPSHAM 2SW","Latitude":"44.09350","Longitude":"-72.34970","Snowdepth":"12.000","Units":"in","Rept_Date":"2025-01-25 12"}},{"type":"Point","coordinates":[-89.1794,46.3976],"properties":{"Station_ID":"PDGM4","Station_Nam":"PAULDING","Latitude":"46.39760","Longitude":"-89.17940","Snowdepth":"12.000","Units":"in","Rept_Date":"2025-01-25 13"}},{"type":"Point","coordinates":[-97.2386,48.9742],"properties":{"Station_ID":"PBAN8","Station_Nam":"SITE 1-3MI.N","Latitude":"48.97420","Longitude":"-97.23860","Snowdepth":"12.000","Units":"in","Rept_Date":"2025-01-25 12"}},{"type":"Point","coordinates":[-91.955,47.875],"properties":{"Station_ID":"MN-SL-323","Station_Nam":"ELY 5.2 WSW, MN","Latitude":"47.87500","Longitude":"-91.95500","Snowdepth":"12.000","Units":"in","Rept_Date":"2025-01-25 13"}},{"type":"Point","coordinates":[-87.7567,46.4055],"properties":{"Station_ID":"MI-MQ-19","Station_Nam":"ISHPEMING 7.2 SW, MI","Latitude":"46.40550","Longitude":"-87.75670","Snowdepth":"12.000","Units":"in","Rept_Date":"2025-01-25 11"}},{"type":"Point","coordinates":[-71.7031,44.1382],"properties":{"Station_ID":"LLHN3","Station_Nam":"LONESOME LAKE HUT","Latitude":"44.13820","Longitude":"-71.70310","Snowdepth":"12.000","Units":"in","Rept_Date":"2025-01-25 12"}},{"type":"Point","coordinates":[-90.1382,46.4652],"properties":{"Station_ID":"IWOM4","Station_Nam":"IRONWOOD#2","Latitude":"46.46520","Longitude":"-90.13820","Snowdepth":"12.000","Units":"in","Rept_Date":"2025-01-25 13"}},{"type":"Point","coordinates":[-93.4031,48.5664],"properties":{"Station_ID":"INL","Station_Nam":"FALLS INTL ARPT","Latitude":"48.56640","Longitude":"-93.40310","Snowdepth":"12.000","Units":"in","Rept_Date":"2025-01-26 00"}},{"type":"Point","coordinates":[-93.3964,48.5778],"properties":{"Station_ID":"IFSM5","Station_Nam":"INTL FALLS SNOW","Latitude":"48.57780","Longitude":"-93.39640","Snowdepth":"12.000","Units":"in","Rept_Date":"2025-01-26 05"}},{"type":"Point","coordinates":[-86.1167,42.8],"properties":{"Station_ID":"HOLM4","Station_Nam":"HOLLAND,MI","Latitude":"42.80000","Longitude":"-86.11670","Snowdepth":"12.000","Units":"in","Rept_Date":"2025-01-25 12"}},{"type":"Point","coordinates":[-97.04752,49.93264],"properties":{"Station_ID":"CAN-MB-56","Station_Nam":"WINNIPEG 7.6 ENE, CAN","Latitude":"49.93264","Longitude":"-97.04752","Snowdepth":"12.000","Units":"in","Rept_Date":"2025-01-25 14"}},{"type":"Point","coordinates":[-78.3979,42.8107],"properties":{"Station_ID":"ATAN6","Station_Nam":"ATTICA 7 SW","Latitude":"42.81070","Longitude":"-78.39790","Snowdepth":"12.000","Units":"in","Rept_Date":"2025-01-25 11"}},{"type":"Point","coordinates":[-78.4575,42.5347],"properties":{"Station_ID":"ARCN6","Station_Nam":"ARCADE","Latitude":"42.53470","Longitude":"-78.45750","Snowdepth":"12.000","Units":"in","Rept_Date":"2025-01-25 13"}},{"type":"Point","coordinates":[-74.091,44.40915],"properties":{"Station_ID":"58111_MADIS","Station_Nam":"BLOOMINGDALE 0.2 NW, NY","Latitude":"44.40915","Longitude":"-74.09100","Snowdepth":"12.000","Units":"in","Rept_Date":"2025-01-25 13"}},{"type":"Point","coordinates":[-80.1567,41.8967],"properties":{"Station_ID":"41.8967_080.1567","Station_Nam":"2 NW Edinboro  Trained Spotter (X4190802)","Latitude":"41.89670","Longitude":"-80.15670","Snowdepth":"12.000","Units":"in","Rept_Date":"2025-01-25 10"}},{"type":"Point","coordinates":[-73.7381,47.2564],"properties":{"Station_ID":"CQGA","Station_Nam":"CQGA","Latitude":"47.25640","Longitude":"-73.73810","Snowdepth":"11.890","Units":"in","Rept_Date":"2025-01-25 12"}},{"type":"Point","coordinates":[-66.7675,44.6778],"properties":{"Station_ID":"CAN-NB-101","Station_Nam":"GRAND HARBOUR 1.1 S, CAN","Latitude":"44.67780","Longitude":"-66.76750","Snowdepth":"11.800","Units":"in","Rept_Date":"2025-01-25 12"}},{"type":"Point","coordinates":[-75.845,49.2906],"properties":{"Station_ID":"CQMD","Station_Nam":"CQMD","Latitude":"49.29060","Longitude":"-75.84500","Snowdepth":"11.575","Units":"in","Rept_Date":"2025-01-25 12"}},{"type":"Point","coordinates":[-79.51055,39.25361],"properties":{"Station_ID":"WV-PR-11","Station_Nam":"THOMAS 7.4 N, WV","Latitude":"39.25361","Longitude":"-79.51055","Snowdepth":"11.500","Units":"in","Rept_Date":"2025-01-25 12"}},{"type":"Point","coordinates":[-90.27013,46.41555],"properties":{"Station_ID":"WI-IR-3","Station_Nam":"PENCE 0.1 E, WI","Latitude":"46.41555","Longitude":"-90.27013","Snowdepth":"11.500","Units":"in","Rept_Date":"2025-01-25 13"}},{"type":"Point","coordinates":[-75.91751,43.96231],"properties":{"Station_ID":"NY-JF-47","Station_Nam":"WATERTOWN 0.9 SSW, NY","Latitude":"43.96231","Longitude":"-75.91751","Snowdepth":"11.500","Units":"in","Rept_Date":"2025-01-25 12"}},{"type":"Point","coordinates":[-89.1799,49.5995],"properties":{"Station_ID":"KABQ6","Station_Nam":"CAB LAKE","Latitude":"49.59950","Longitude":"-89.17990","Snowdepth":"11.420","Units":"in","Rept_Date":"2025-01-26 06"}},{"type":"Point","coordinates":[-79.4966,39.58462],"properties":{"Station_ID":"WV-PR-14","Station_Nam":"BRUCETON MILLS 9.3 SE, WV","Latitude":"39.58462","Longitude":"-79.49660","Snowdepth":"11.000","Units":"in","Rept_Date":"2025-01-25 13"}},{"type":"Point","coordinates":[-95.407,48.896],"properties":{"Station_ID":"WRUM5","Station_Nam":"WARROAD 4W","Latitude":"48.89600","Longitude":"-95.40700","Snowdepth":"11.000","Units":"in","Rept_Date":"2025-01-26 04"}},{"type":"Point","coordinates":[-78.2202,42.6855],"properties":{"Station_ID":"WRSN6","Station_Nam":"WARSAW 6 SW","Latitude":"42.68550","Longitude":"-78.22020","Snowdepth":"11.000","Units":"in","Rept_Date":"2025-01-25 12"}},{"type":"Point","coordinates":[-72.43258,44.48825],"properties":{"Station_ID":"VT-WS-30","Station_Nam":"WOODBURY 3.4 NNW, VT","Latitude":"44.48825","Longitude":"-72.43258","Snowdepth":"11.000","Units":"in","Rept_Date":"2025-01-25 12"}},{"type":"Point","coordinates":[-72.2657,44.39807],"properties":{"Station_ID":"VT-WS-23","Station_Nam":"CABOT 2.3 E, VT","Latitude":"44.39807","Longitude":"-72.26570","Snowdepth":"11.000","Units":"in","Rept_Date":"2025-01-25 12"}},{"type":"Point","coordinates":[-93.0266,47.8663],"properties":{"Station_ID":"TOGM5","Station_Nam":"CELINA 2E","Latitude":"47.86630","Longitude":"-93.02660","Snowdepth":"11.000","Units":"in","Rept_Date":"2025-01-25 15"}},{"type":"Point","coordinates":[-79.0833,39.997],"properties":{"Station_ID":"SMRP1","Station_Nam":"SOMERSET","Latitude":"39.99700","Longitude":"-79.08330","Snowdepth":"11.000","Units":"in","Rept_Date":"2025-01-25 13"}},{"type":"Point","coordinates":[-78.5967,42.814],"properties":{"Station_ID":"NY-ER-138","Station_Nam":"EAST AURORA 3.4 NNE, NY","Latitude":"42.81400","Longitude":"-78.59670","Snowdepth":"11.000","Units":"in","Rept_Date":"2025-01-25 15"}},{"type":"Point","coordinates":[-71.3415,43.80976],"properties":{"Station_ID":"NH-CR-26","Station_Nam":"CENTER SANDWICH 4.9 E, NH","Latitude":"43.80976","Longitude":"-71.34150","Snowdepth":"11.000","Units":"in","Rept_Date":"2025-01-25 12"}},{"type":"Point","coordinates":[-91.86862,47.88254],"properties":{"Station_ID":"MN-SL-328","Station_Nam":"ELY 1.8 SSW, MN","Latitude":"47.88254","Longitude":"-91.86862","Snowdepth":"11.000","Units":"in","Rept_Date":"2025-01-25 14"}},{"type":"Point","coordinates":[-92.89089,47.49417],"properties":{"Station_ID":"MN-SL-245","Station_Nam":"CHISHOLM 0.7 NW, MN","Latitude":"47.49417","Longitude":"-92.89089","Snowdepth":"11.000","Units":"in","Rept_Date":"2025-01-25 12"}},{"type":"Point","coordinates":[-91.86218,47.24692],"properties":{"Station_ID":"MN-SL-160","Station_Nam":"BRIMSON 2.0 S, MN","Latitude":"47.24692","Longitude":"-91.86218","Snowdepth":"11.000","Units":"in","Rept_Date":"2025-01-25 13"}},{"type":"Point","coordinates":[-85.70346,44.64622],"properties":{"Station_ID":"MI-GT-28","Station_Nam":"GRAWN 1.3 SSW, MI","Latitude":"44.64622","Longitude":"-85.70346","Snowdepth":"11.000","Units":"in","Rept_Date":"2025-01-25 12"}},{"type":"Point","coordinates":[-88.18,46.5453],"properties":{"Station_ID":"MIEM4","Station_Nam":"MICHIGAMME 3WNW","Latitude":"46.54530","Longitude":"-88.18000","Snowdepth":"11.000","Units":"in","Rept_Date":"2025-01-25 13"}},{"type":"Point","coordinates":[-79.3183,39.48539],"properties":{"Station_ID":"MD-GR-4","Station_Nam":"MC HENRY 4.8 SSE, MD","Latitude":"39.48539","Longitude":"-79.31830","Snowdepth":"11.000","Units":"in","Rept_Date":"2025-01-25 13"}},{"type":"Point","coordinates":[-85.8352,44.855],"properties":{"Station_ID":"MAPM4","Station_Nam":"MAPLE CITY 1E","Latitude":"44.85500","Longitude":"-85.83520","Snowdepth":"11.000","Units":"in","Rept_Date":"2025-01-25 23"}},{"type":"Point","coordinates":[-75.4829,43.7928],"properties":{"Station_ID":"LOWN6","Station_Nam":"LOWVILLE","Latitude":"43.79280","Longitude":"-75.48290","Snowdepth":"11.000","Units":"in","Rept_Date":"2025-01-25 12"}},{"type":"Point","coordinates":[-93.0484,48.4088],"properties":{"Station_ID":"KABM5","Station_Nam":"KABETOGAMA","Latitude":"48.40880","Longitude":"-93.04840","Snowdepth":"11.000","Units":"in","Rept_Date":"2025-01-25 13"}},{"type":"Point","coordinates":[-90.1833,46.4667],"properties":{"Station_ID":"IRMM4","Station_Nam":"WWTP","Latitude":"46.46670","Longitude":"-90.18330","Snowdepth":"11.000","Units":"in","Rept_Date":"2025-01-25 13"}},{"type":"Point","coordinates":[-90.8875,48.1667],"properties":{"Station_ID":"GNFM5","Station_Nam":"GUNFLINT LAKE","Latitude":"48.16670","Longitude":"-90.88750","Snowdepth":"11.000","Units":"in","Rept_Date":"2025-01-25 13"}},{"type":"Point","coordinates":[-71.2525,44.258],"properties":{"Station_ID":"GHMN3","Station_Nam":"PINKHAM NOTCH","Latitude":"44.25800","Longitude":"-71.25250","Snowdepth":"11.000","Units":"in","Rept_Date":"2025-01-25 09"}},{"type":"Point","coordinates":[-86.21,44.648],"properties":{"Station_ID":"FRKM4","Station_Nam":"FRANKFORT 2NE","Latitude":"44.64800","Longitude":"-86.21000","Snowdepth":"11.000","Units":"in","Rept_Date":"2025-01-25 23"}},{"type":"Point","coordinates":[-86.0333,43.45],"properties":{"Station_ID":"FREM4","Station_Nam":"FREMONT,MI","Latitude":"43.45000","Longitude":"-86.03330","Snowdepth":"11.000","Units":"in","Rept_Date":"2025-01-25 12"}},{"type":"Point","coordinates":[-71.3425,43.8099],"properties":{"Station_ID":"ESDN3","Station_Nam":"EAST SANDWICH","Latitude":"43.80990","Longitude":"-71.34250","Snowdepth":"11.000","Units":"in","Rept_Date":"2025-01-25 11"}},{"type":"Point","coordinates":[-87.845,46.4991],"properties":{"Station_ID":"CLKM4","Station_Nam":"CLARKSBURG","Latitude":"46.49910","Longitude":"-87.84500","Snowdepth":"11.000","Units":"in","Rept_Date":"2025-01-25 12"}},{"type":"Point","coordinates":[-91.8624,47.2472],"properties":{"Station_ID":"BRMM5","Station_Nam":"BRIMSON 2S","Latitude":"47.24720","Longitude":"-91.86240","Snowdepth":"11.000","Units":"in","Rept_Date":"2025-01-25 13"}},{"type":"Point","coordinates":[-79.7714,38.5313],"properties":{"Station_ID":"BARW2","Station_Nam":"BARTOW 1S","Latitude":"38.53130","Longitude":"-79.77140","Snowdepth":"11.000","Units":"in","Rept_Date":"2025-01-25 12"}},{"type":"Point","coordinates":[-84.7188,44.9072],"properties":{"Station_ID":"APXM4","Station_Nam":"GAYLORD 9SSW","Latitude":"44.90720","Longitude":"-84.71880","Snowdepth":"11.000","Units":"in","Rept_Date":"2025-01-26 05"}},{"type":"Point","coordinates":[-79.8547,41.8989],"properties":{"Station_ID":"41.8989_079.8547","Station_Nam":"1 WNW Union City  Trained Spotter (X4190799)","Latitude":"41.89890","Longitude":"-79.85470","Snowdepth":"11.000","Units":"in","Rept_Date":"2025-01-25 12"}},{"type":"Point","coordinates":[-91.8221,51.7269],"properties":{"Station_ID":"CATQ6","Station_Nam":"CAT LAKE","Latitude":"51.72690","Longitude":"-91.82210","Snowdepth":"10.630","Units":"in","Rept_Date":"2025-01-26 06"}},{"type":"Point","coordinates":[-90.85854,46.88063],"properties":{"Station_ID":"WI-BY-29","Station_Nam":"BAYFIELD 5.1 NNW, WI","Latitude":"46.88063","Longitude":"-90.85854","Snowdepth":"10.500","Units":"in","Rept_Date":"2025-01-25 14"}},{"type":"Point","coordinates":[-91.07856,46.59742],"properties":{"Station_ID":"WI-BY-14","Station_Nam":"ASHLAND 9.8 W, WI","Latitude":"46.59742","Longitude":"-91.07856","Snowdepth":"10.500","Units":"in","Rept_Date":"2025-01-25 12"}},{"type":"Point","coordinates":[-74.45287,43.4549],"properties":{"Station_ID":"NY-HM-10","Station_Nam":"LAKE PLEASANT 2.3 WSW, NY","Latitude":"43.45490","Longitude":"-74.45287","Snowdepth":"10.500","Units":"in","Rept_Date":"2025-01-25 12"}},{"type":"Point","coordinates":[-94.10155,47.82442],"properties":{"Station_ID":"MN-IT-80","Station_Nam":"NORTHOME 8.4 ESE, MN","Latitude":"47.82442","Longitude":"-94.10155","Snowdepth":"10.500","Units":"in","Rept_Date":"2025-01-25 14"}},{"type":"Point","coordinates":[-70.18007,44.73396],"properties":{"Station_ID":"ME-FR-22","Station_Nam":"FARMINGTON 4.8 NNW, ME","Latitude":"44.73396","Longitude":"-70.18007","Snowdepth":"10.500","Units":"in","Rept_Date":"2025-01-25 14"}},{"type":"Point","coordinates":[-92.0251,46.89158],"properties":{"Station_ID":"56581_MADIS","Station_Nam":"DULUTH 8.4 NNE, MN","Latitude":"46.89158","Longitude":"-92.02510","Snowdepth":"10.500","Units":"in","Rept_Date":"2025-01-25 14"}},{"type":"Point","coordinates":[-78.7715,42.8539],"properties":{"Station_ID":"WSNN6","Station_Nam":"WEST SENECA","Latitude":"42.85390","Longitude":"-78.77150","Snowdepth":"10.000","Units":"in","Rept_Date":"2025-01-25 09"}},{"type":"Point","coordinates":[-89.4579,46.19023],"properties":{"Station_ID":"WI-VL-9","Station_Nam":"LAND O' LAKES 11.7 W, WI","Latitude":"46.19023","Longitude":"-89.45790","Snowdepth":"10.000","Units":"in","Rept_Date":"2025-01-25 13"}},{"type":"Point","coordinates":[-91.0109,46.689],"properties":{"Station_ID":"WI-BY-56","Station_Nam":"WASHBURN 5.7 W, WI","Latitude":"46.68900","Longitude":"-91.01090","Snowdepth":"10.000","Units":"in","Rept_Date":"2025-01-25 13"}},{"type":"Point","coordinates":[-72.39245,44.66338],"properties":{"Station_ID":"VT-OL-26","Station_Nam":"CRAFTSBURY COMMON 0.8 NW, VT","Latitude":"44.66338","Longitude":"-72.39245","Snowdepth":"10.000","Units":"in","Rept_Date":"2025-01-25 12"}},{"type":"Point","coordinates":[-74.4382,44.2307],"properties":{"Station_ID":"TOPN6","Station_Nam":"TUPPER LAKE SUNMOUNT","Latitude":"44.23070","Longitude":"-74.43820","Snowdepth":"10.000","Units":"in","Rept_Date":"2025-01-25 12"}},{"type":"Point","coordinates":[-69.7167,45.5833],"properties":{"Station_ID":"RKWM1","Station_Nam":"MOOSEHEAD LAKE","Latitude":"45.58330","Longitude":"-69.71670","Snowdepth":"10.000","Units":"in","Rept_Date":"2025-01-25 12"}},{"type":"Point","coordinates":[-74.15211,44.41359],"properties":{"Station_ID":"NY-FK-7","Station_Nam":"SARANAC LAKE 6.2 N, NY","Latitude":"44.41359","Longitude":"-74.15211","Snowdepth":"10.000","Units":"in","Rept_Date":"2025-01-25 12"}},{"type":"Point","coordinates":[-78.70056,42.85214],"properties":{"Station_ID":"NY-ER-219","Station_Nam":"WEST SENECA 2.8 ENE, NY","Latitude":"42.85214","Longitude":"-78.70056","Snowdepth":"10.000","Units":"in","Rept_Date":"2025-01-25 12"}},{"type":"Point","coordinates":[-87.5492,46.5314],"properties":{"Station_ID":"MQT","Station_Nam":"MARQUETTE, MI","Latitude":"46.53140","Longitude":"-87.54920","Snowdepth":"10.000","Units":"in","Rept_Date":"2025-01-26 06"}},{"type":"Point","coordinates":[-92.6313,47.4615],"properties":{"Station_ID":"MN-SL-108","Station_Nam":"IRON JUNCTION 3.4 NNW, MN","Latitude":"47.46150","Longitude":"-92.63130","Snowdepth":"10.000","Units":"in","Rept_Date":"2025-01-25 10"}},{"type":"Point","coordinates":[-93.43497,47.48855],"properties":{"Station_ID":"MN-IT-23","Station_Nam":"BOVEY 13.4 N, MN","Latitude":"47.48855","Longitude":"-93.43497","Snowdepth":"10.000","Units":"in","Rept_Date":"2025-01-25 13"}},{"type":"Point","coordinates":[-85.84853,42.98733],"properties":{"Station_ID":"MI-OW-63","Station_Nam":"WALKER 5.1 W, MI","Latitude":"42.98733","Longitude":"-85.84853","Snowdepth":"10.000","Units":"in","Rept_Date":"2025-01-25 12"}},{"type":"Point","coordinates":[-84.73582,45.86422],"properties":{"Station_ID":"MI-MC-5","Station_Nam":"ST. IGNACE 0.6 WSW, MI","Latitude":"45.86422","Longitude":"-84.73582","Snowdepth":"10.000","Units":"in","Rept_Date":"2025-01-25 12"}},{"type":"Point","coordinates":[-89.457,46.19],"properties":{"Station_ID":"LNOW3","Station_Nam":"LAND O LAKES","Latitude":"46.19000","Longitude":"-89.45700","Snowdepth":"10.000","Units":"in","Rept_Date":"2025-01-25 13"}},{"type":"Point","coordinates":[-72.787,44.5843],"properties":{"Station_ID":"JEFV1","Station_Nam":"JEFFERSONVILLE","Latitude":"44.58430","Longitude":"-72.78700","Snowdepth":"10.000","Units":"in","Rept_Date":"2025-01-25 12"}},{"type":"Point","coordinates":[-71.8902,44.8128],"properties":{"Station_ID":"ISLV1","Station_Nam":"ISLAND POND","Latitude":"44.81280","Longitude":"-71.89020","Snowdepth":"10.000","Units":"in","Rept_Date":"2025-01-25 12"}},{"type":"Point","coordinates":[-90.1955,46.4625],"properties":{"Station_ID":"HURW3","Station_Nam":"HURLEY","Latitude":"46.46250","Longitude":"-90.19550","Snowdepth":"10.000","Units":"in","Rept_Date":"2025-01-25 14"}},{"type":"Point","coordinates":[-71.7167,43.9333],"properties":{"Station_ID":"HUBN3","Station_Nam":"HUBBARD BROOK","Latitude":"43.93330","Longitude":"-71.71670","Snowdepth":"10.000","Units":"in","Rept_Date":"2025-01-26 06"}},{"type":"Point","coordinates":[-85.8596,42.3563],"properties":{"Station_ID":"GOBM4","Station_Nam":"GOBLES 1 ESE","Latitude":"42.35630","Longitude":"-85.85960","Snowdepth":"10.000","Units":"in","Rept_Date":"2025-01-25 13"}},{"type":"Point","coordinates":[-85.3653,44.5848],"properties":{"Station_ID":"FLAM4","Station_Nam":"FIFE LAKE 2WNW","Latitude":"44.58480","Longitude":"-85.36530","Snowdepth":"10.000","Units":"in","Rept_Date":"2025-01-25 12"}},{"type":"Point","coordinates":[-72.8137,44.9096],"properties":{"Station_ID":"ENFV1","Station_Nam":"ENOSBURG FALLS 2","Latitude":"44.90960","Longitude":"-72.81370","Snowdepth":"10.000","Units":"in","Rept_Date":"2025-01-25 14"}},{"type":"Point","coordinates":[-92.1958,47.6581],"properties":{"Station_ID":"EMBM5","Station_Nam":"EMBARASS,MN","Latitude":"47.65810","Longitude":"-92.19580","Snowdepth":"10.000","Units":"in","Rept_Date":"2025-01-25 15"}},{"type":"Point","coordinates":[-91.8283,47.9056],"properties":{"Station_ID":"ELYM5","Station_Nam":"ELY","Latitude":"47.90560","Longitude":"-91.82830","Snowdepth":"10.000","Units":"in","Rept_Date":"2025-01-25 14"}},{"type":"Point","coordinates":[-92.4629,47.1687],"properties":{"Station_ID":"COTM5","Station_Nam":"COTTON","Latitude":"47.16870","Longitude":"-92.46290","Snowdepth":"10.000","Units":"in","Rept_Date":"2025-01-25 14"}},{"type":"Point","coordinates":[-63.9892,46.46672],"properties":{"Station_ID":"CAN-PE-3","Station_Nam":"WELLINGTON 1.6 NE, CA","Latitude":"46.46672","Longitude":"-63.98920","Snowdepth":"10.000","Units":"in","Rept_Date":"2025-01-25 11"}},{"type":"Point","coordinates":[-77.09098,43.93499],"properties":{"Station_ID":"CAN-ON-232","Station_Nam":"MILFORD 0.1 NNE - QUINTE CONSERVATION, CAN","Latitude":"43.93499","Longitude":"-77.09098","Snowdepth":"9.700","Units":"in","Rept_Date":"2025-01-25 13"}},{"type":"Point","coordinates":[-73.4594,48.4889],"properties":{"Station_ID":"CQWG","Station_Nam":"CQWG","Latitude":"48.48890","Longitude":"-73.45940","Snowdepth":"9.567","Units":"in","Rept_Date":"2025-01-25 12"}},{"type":"Point","coordinates":[-72.6383,48.1392],"properties":{"Station_ID":"CQLP","Station_Nam":"CQLP","Latitude":"48.13920","Longitude":"-72.63830","Snowdepth":"9.567","Units":"in","Rept_Date":"2025-01-25 12"}},{"type":"Point","coordinates":[-74.4188,43.9907],"properties":{"Station_ID":"NY-HM-8","Station_Nam":"LONG LAKE 1.2 N, NY","Latitude":"43.99070","Longitude":"-74.41880","Snowdepth":"9.500","Units":"in","Rept_Date":"2025-01-25 12"}},{"type":"Point","coordinates":[-78.4528,42.34166],"properties":{"Station_ID":"NY-CT-22","Station_Nam":"FRANKLINVILLE 0.5 NNE, NY","Latitude":"42.34166","Longitude":"-78.45280","Snowdepth":"9.500","Units":"in","Rept_Date":"2025-01-25 13"}},{"type":"Point","coordinates":[-71.90238,43.29531],"properties":{"Station_ID":"NH-MR-60","Station_Nam":"SOUTH SUTTON 1.3 SE, NH","Latitude":"43.29531","Longitude":"-71.90238","Snowdepth":"9.500","Units":"in","Rept_Date":"2025-01-25 13"}},{"type":"Point","coordinates":[-71.46461,44.33765],"properties":{"Station_ID":"NH-CS-19","Station_Nam":"CARROLL 4.6 NE, NH","Latitude":"44.33765","Longitude":"-71.46461","Snowdepth":"9.500","Units":"in","Rept_Date":"2025-01-25 12"}},{"type":"Point","coordinates":[-92.4217,47.098],"properties":{"Station_ID":"MN-SL-143","Station_Nam":"CANYON 4.6 NNE, MN","Latitude":"47.09800","Longitude":"-92.42170","Snowdepth":"9.500","Units":"in","Rept_Date":"2025-01-25 13"}},{"type":"Point","coordinates":[-92.35772,47.15142],"properties":{"Station_ID":"MN-SL-115","Station_Nam":"COTTON 5.7 ESE, MN","Latitude":"47.15142","Longitude":"-92.35772","Snowdepth":"9.500","Units":"in","Rept_Date":"2025-01-25 14"}},{"type":"Point","coordinates":[-85.85945,42.35649],"properties":{"Station_ID":"MI-VB-15","Station_Nam":"GOBLES 1.0 ESE, MI","Latitude":"42.35649","Longitude":"-85.85945","Snowdepth":"9.500","Units":"in","Rept_Date":"2025-01-25 13"}},{"type":"Point","coordinates":[-85.76006,42.89531],"properties":{"Station_ID":"MI-KN-93","Station_Nam":"GRANDVILLE 0.6 SSW, MI","Latitude":"42.89531","Longitude":"-85.76006","Snowdepth":"9.500","Units":"in","Rept_Date":"2025-01-25 11"}},{"type":"Point","coordinates":[-85.48426,44.59871],"properties":{"Station_ID":"MI-GT-21","Station_Nam":"KINGSLEY 2.7 ENE, MI","Latitude":"44.59871","Longitude":"-85.48426","Snowdepth":"9.500","Units":"in","Rept_Date":"2025-01-25 13"}},{"type":"Point","coordinates":[-85.3161,42.59178],"properties":{"Station_ID":"MI-BR-13","Station_Nam":"HASTINGS 4.3 SSW, MI","Latitude":"42.59178","Longitude":"-85.31610","Snowdepth":"9.500","Units":"in","Rept_Date":"2025-01-25 11"}},{"type":"Point","coordinates":[-79.12373,39.68271],"properties":{"Station_ID":"MD-GR-15","Station_Nam":"GRANTSVILLE 2.0 ESE, MD","Latitude":"39.68271","Longitude":"-79.12373","Snowdepth":"9.500","Units":"in","Rept_Date":"2025-01-25 12"}},{"type":"Point","coordinates":[-79.63783,39.61948],"properties":{"Station_ID":"WV-PR-20","Station_Nam":"BRUCETON MILLS 2.8 S, WV","Latitude":"39.61948","Longitude":"-79.63783","Snowdepth":"9.300","Units":"in","Rept_Date":"2025-01-25 12"}},{"type":"Point","coordinates":[-74.7214,42.8643],"properties":{"Station_ID":"NY-MG-3","Station_Nam":"HESSVILLE 1.8 WSW, NY","Latitude":"42.86430","Longitude":"-74.72140","Snowdepth":"9.300","Units":"in","Rept_Date":"2025-01-25 13"}},{"type":"Point","coordinates":[-83.4289,35.6108],"properties":{"Station_ID":"NFGT1","Station_Nam":"NEW FOUND GAP","Latitude":"35.61080","Longitude":"-83.42890","Snowdepth":"9.260","Units":"in","Rept_Date":"2025-01-26 05"}},{"type":"Point","coordinates":[-79.3461,42.44414],"properties":{"Station_ID":"NY-CQ-22","Station_Nam":"FREDONIA 0.8 WNW, NY","Latitude":"42.44414","Longitude":"-79.34610","Snowdepth":"9.200","Units":"in","Rept_Date":"2025-01-25 10"}},{"type":"Point","coordinates":[-65.46217,45.71691],"properties":{"Station_ID":"CAN-NB-28","Station_Nam":"SUSSEX CORNER 1.4 NE - KWRC, CAN","Latitude":"45.71691","Longitude":"-65.46217","Snowdepth":"9.100","Units":"in","Rept_Date":"2025-01-25 10"}},{"type":"Point","coordinates":[-67.32532,46.98305],"properties":{"Station_ID":"CAN-NB-105","Station_Nam":"SISSON BROOK 3.8 E, CAN","Latitude":"46.98305","Longitude":"-67.32532","Snowdepth":"9.100","Units":"in","Rept_Date":"2025-01-25 12"}},{"type":"Point","coordinates":[-71.2661,43.8639],"properties":{"Station_ID":"TMWN3","Station_Nam":"TAMWORTH 4","Latitude":"43.86390","Longitude":"-71.26610","Snowdepth":"9.000","Units":"in","Rept_Date":"2025-01-25 12"}},{"type":"Point","coordinates":[-78.0937,42.7058],"properties":{"Station_ID":"SVSN6","Station_Nam":"SILVER SPRINGS 3N","Latitude":"42.70580","Longitude":"-78.09370","Snowdepth":"9.000","Units":"in","Rept_Date":"2025-01-25 12"}},{"type":"Point","coordinates":[-72.0481,44.6122],"properties":{"Station_ID":"SUTV1","Station_Nam":"SUTTON","Latitude":"44.61220","Longitude":"-72.04810","Snowdepth":"9.000","Units":"in","Rept_Date":"2025-01-25 13"}},{"type":"Point","coordinates":[-80.4333,41.8166],"properties":{"Station_ID":"SBOP1","Station_Nam":"SPRINGBORO","Latitude":"41.81660","Longitude":"-80.43330","Snowdepth":"9.000","Units":"in","Rept_Date":"2025-01-25 12"}},{"type":"Point","coordinates":[-89.0752,46.0663],"properties":{"Station_ID":"PHEW3","Station_Nam":"PHELPS","Latitude":"46.06630","Longitude":"-89.07520","Snowdepth":"9.000","Units":"in","Rept_Date":"2025-01-25 13"}},{"type":"Point","coordinates":[-74.4236,43.115],"properties":{"Station_ID":"PEKN6","Station_Nam":"PECK LAKE","Latitude":"43.11500","Longitude":"-74.42360","Snowdepth":"9.000","Units":"in","Rept_Date":"2025-01-25 12"}},{"type":"Point","coordinates":[-79.04944,41.94202],"properties":{"Station_ID":"PA-WR-4","Station_Nam":"RUSSELL 4.7 W, PA","Latitude":"41.94202","Longitude":"-79.04944","Snowdepth":"9.000","Units":"in","Rept_Date":"2025-01-25 13"}},{"type":"Point","coordinates":[-75.306,43.751],"properties":{"Station_ID":"NY-LW-12","Station_Nam":"CHASES LAKE COOP, NY","Latitude":"43.75100","Longitude":"-75.30600","Snowdepth":"9.000","Units":"in","Rept_Date":"2025-01-25 11"}},{"type":"Point","coordinates":[-78.24729,42.98866],"properties":{"Station_ID":"NY-GN-13","Station_Nam":"BATAVIA 3.4 WSW, NY","Latitude":"42.98866","Longitude":"-78.24729","Snowdepth":"9.000","Units":"in","Rept_Date":"2025-01-25 13"}},{"type":"Point","coordinates":[-92.93065,47.4266],"properties":{"Station_ID":"MN-SL-339","Station_Nam":"HIBBING 2.1 NNE, MN","Latitude":"47.42660","Longitude":"-92.93065","Snowdepth":"9.000","Units":"in","Rept_Date":"2025-01-25 13"}},{"type":"Point","coordinates":[-93.4294,47.28842],"properties":{"Station_ID":"MN-IT-38","Station_Nam":"COLERAINE 0.7 S, MN","Latitude":"47.28842","Longitude":"-93.42940","Snowdepth":"9.000","Units":"in","Rept_Date":"2025-01-25 13"}},{"type":"Point","coordinates":[-90.43796,47.74462],"properties":{"Station_ID":"MN-CK-18","Station_Nam":"GRAND MARAIS 4.4 WSW, MN","Latitude":"47.74462","Longitude":"-90.43796","Snowdepth":"9.000","Units":"in","Rept_Date":"2025-01-25 13"}},{"type":"Point","coordinates":[-85.7791,42.89716],"properties":{"Station_ID":"MI-KN-14","Station_Nam":"GRANDVILLE 1.3 WSW, MI","Latitude":"42.89716","Longitude":"-85.77910","Snowdepth":"9.000","Units":"in","Rept_Date":"2025-01-25 13"}},{"type":"Point","coordinates":[-85.65374,42.44318],"properties":{"Station_ID":"MI-AN-25","Station_Nam":"PLAINWELL 0.5 WSW, MI","Latitude":"42.44318","Longitude":"-85.65374","Snowdepth":"9.000","Units":"in","Rept_Date":"2025-01-25 12"}},{"type":"Point","coordinates":[-70.2642,44.68329],"properties":{"Station_ID":"ME-FR-2","Station_Nam":"TEMPLE 1.8 W, ME","Latitude":"44.68329","Longitude":"-70.26420","Snowdepth":"9.000","Units":"in","Rept_Date":"2025-01-25 12"}},{"type":"Point","coordinates":[-74.306,44.8418],"properties":{"Station_ID":"MALN6","Station_Nam":"MALONE","Latitude":"44.84180","Longitude":"-74.30600","Snowdepth":"9.000","Units":"in","Rept_Date":"2025-01-25 12"}},{"type":"Point","coordinates":[-89.0758,46.1211],"properties":{"Station_ID":"LVDW3","Station_Nam":"LAC VIEUX DESERT","Latitude":"46.12110","Longitude":"-89.07580","Snowdepth":"9.000","Units":"in","Rept_Date":"2025-01-25 15"}},{"type":"Point","coordinates":[-92.7522,48.0581],"properties":{"Station_ID":"LEIM5","Station_Nam":"ORR 3E","Latitude":"48.05810","Longitude":"-92.75220","Snowdepth":"9.000","Units":"in","Rept_Date":"2025-01-25 12"}},{"type":"Point","coordinates":[-96.6218,48.7241],"properties":{"Station_ID":"LBRM5","Station_Nam":"LAKE BRONSON DAM","Latitude":"48.72410","Longitude":"-96.62180","Snowdepth":"9.000","Units":"in","Rept_Date":"2025-01-25 14"}},{"type":"Point","coordinates":[-85.7794,42.8971],"properties":{"Station_ID":"GVLM4","Station_Nam":"GRANDVILLE 1 SW","Latitude":"42.89710","Longitude":"-85.77940","Snowdepth":"9.000","Units":"in","Rept_Date":"2025-01-25 12"}},{"type":"Point","coordinates":[-75.2998,43.7592],"properties":{"Station_ID":"GFDN6","Station_Nam":"CHASES LAKE","Latitude":"43.75920","Longitude":"-75.29980","Snowdepth":"9.000","Units":"in","Rept_Date":"2025-01-25 11"}},{"type":"Point","coordinates":[-79.8432,38.9365],"properties":{"Station_ID":"ELNW2","Station_Nam":"ELKINS ARPT SNOW OBSERVATION","Latitude":"38.93650","Longitude":"-79.84320","Snowdepth":"9.000","Units":"in","Rept_Date":"2025-01-25 12"}},{"type":"Point","coordinates":[-71.8912,44.6425],"properties":{"Station_ID":"EAHV1","Station_Nam":"EAST HAVEN","Latitude":"44.64250","Longitude":"-71.89120","Snowdepth":"9.000","Units":"in","Rept_Date":"2025-01-25 12"}},{"type":"Point","coordinates":[-72.3194,44.0069],"properties":{"Station_ID":"CORV1","Station_Nam":"CORINTH","Latitude":"44.00690","Longitude":"-72.31940","Snowdepth":"9.000","Units":"in","Rept_Date":"2025-01-25 12"}},{"type":"Point","coordinates":[-72.72821,45.40878],"properties":{"Station_ID":"CAN-QC-87","Station_Nam":"GRANBY 0.4 NE, CAN","Latitude":"45.40878","Longitude":"-72.72821","Snowdepth":"9.000","Units":"in","Rept_Date":"2025-01-25 12"}},{"type":"Point","coordinates":[-69.8119,45.6602],"properties":{"Station_ID":"BRAM1","Station_Nam":"BRASSUA DAM","Latitude":"45.66020","Longitude":"-69.81190","Snowdepth":"9.000","Units":"in","Rept_Date":"2025-01-25 12"}},{"type":"Point","coordinates":[-91.4486,47.9719],"properties":{"Station_ID":"BNDM5","Station_Nam":"ELY 25E","Latitude":"47.97190","Longitude":"-91.44860","Snowdepth":"9.000","Units":"in","Rept_Date":"2025-01-25 14"}},{"type":"Point","coordinates":[-80.4333,41.8166],"properties":{"Station_ID":"41.8166_080.4333","Station_Nam":"3 WNW Springboro  Co-Op Observer (SBOP1)","Latitude":"41.81660","Longitude":"-80.43330","Snowdepth":"9.000","Units":"in","Rept_Date":"2025-01-25 12"}},{"type":"Point","coordinates":[-71.27124,46.76934],"properties":{"Station_ID":"CAN-QC-47","Station_Nam":"SAINTE-FOY 1.8 ENE, CAN","Latitude":"46.76934","Longitude":"-71.27124","Snowdepth":"8.700","Units":"in","Rept_Date":"2025-01-25 12"}},{"type":"Point","coordinates":[-80.4254,41.81654],"properties":{"Station_ID":"PA-CW-8","Station_Nam":"SPRINGBORO 3.0 WNW, PA","Latitude":"41.81654","Longitude":"-80.42540","Snowdepth":"8.500","Units":"in","Rept_Date":"2025-01-25 12"}},{"type":"Point","coordinates":[-78.0937,42.7058],"properties":{"Station_ID":"NY-WY-11","Station_Nam":"SILVER SPRINGS COOP, NY","Latitude":"42.70580","Longitude":"-78.09370","Snowdepth":"8.500","Units":"in","Rept_Date":"2025-01-25 12"}},{"type":"Point","coordinates":[-76.18105,42.98656],"properties":{"Station_ID":"NY-OG-79","Station_Nam":"SYRACUSE 4.2 SSW, NY","Latitude":"42.98656","Longitude":"-76.18105","Snowdepth":"8.500","Units":"in","Rept_Date":"2025-01-25 13"}},{"type":"Point","coordinates":[-75.02991,42.32118],"properties":{"Station_ID":"NY-DL-32","Station_Nam":"DELHI 6.6 WNW, NY","Latitude":"42.32118","Longitude":"-75.02991","Snowdepth":"8.500","Units":"in","Rept_Date":"2025-01-25 12"}},{"type":"Point","coordinates":[-93.40368,47.2454],"properties":{"Station_ID":"MN-IT-39","Station_Nam":"BOVEY 3.5 S, MN","Latitude":"47.24540","Longitude":"-93.40368","Snowdepth":"8.500","Units":"in","Rept_Date":"2025-01-25 14"}},{"type":"Point","coordinates":[-90.4376,47.74865],"properties":{"Station_ID":"MN-CK-6","Station_Nam":"GRAND MARAIS 4.4 W, MN","Latitude":"47.74865","Longitude":"-90.43760","Snowdepth":"8.500","Units":"in","Rept_Date":"2025-01-25 12"}},{"type":"Point","coordinates":[-90.87444,48.14388],"properties":{"Station_ID":"MN-CK-56","Station_Nam":"GRAND MARAIS 36.2 NW, MN","Latitude":"48.14388","Longitude":"-90.87444","Snowdepth":"8.500","Units":"in","Rept_Date":"2025-01-25 13"}},{"type":"Point","coordinates":[-85.51189,44.7337],"properties":{"Station_ID":"MI-GT-25","Station_Nam":"TRAVERSE CITY 4.7 ESE, MI","Latitude":"44.73370","Longitude":"-85.51189","Snowdepth":"8.500","Units":"in","Rept_Date":"2025-01-25 12"}},{"type":"Point","coordinates":[-80.4254,41.8165],"properties":{"Station_ID":"41.8165_080.4254","Station_Nam":"3 WNW Springboro  CoCoRaHS (PA-CW-8)","Latitude":"41.81650","Longitude":"-80.42540","Snowdepth":"8.500","Units":"in","Rept_Date":"2025-01-25 12"}},{"type":"Point","coordinates":[-73.9228,50.2708],"properties":{"Station_ID":"CQLI","Station_Nam":"CQLI","Latitude":"50.27080","Longitude":"-73.92280","Snowdepth":"8.425","Units":"in","Rept_Date":"2025-01-25 12"}},{"type":"Point","coordinates":[-79.3336,42.47167],"properties":{"Station_ID":"NY-CQ-9","Station_Nam":"DUNKIRK 0.7 SW, NY","Latitude":"42.47167","Longitude":"-79.33360","Snowdepth":"8.400","Units":"in","Rept_Date":"2025-01-25 12"}},{"type":"Point","coordinates":[-87.9051,51.5582],"properties":{"Station_ID":"FTHQ6","Station_Nam":"FORT HOPE","Latitude":"51.55820","Longitude":"-87.90510","Snowdepth":"8.030","Units":"in","Rept_Date":"2025-01-26 06"}},{"type":"Point","coordinates":[-89.4085,46.2231],"properties":{"Station_ID":"WTRM4","Station_Nam":"WATERSMEET 12WSW","Latitude":"46.22310","Longitude":"-89.40850","Snowdepth":"8.000","Units":"in","Rept_Date":"2025-01-25 13"}},{"type":"Point","coordinates":[-90.98092,46.16937],"properties":{"Station_ID":"WI-BY-2","Station_Nam":"CLAM LAKE 4 W, WI","Latitude":"46.16937","Longitude":"-90.98092","Snowdepth":"8.000","Units":"in","Rept_Date":"2025-01-25 13"}},{"type":"Point","coordinates":[-81.5794,36.6079],"properties":{"Station_ID":"WHPV2","Station_Nam":"WHITETOP COOP","Latitude":"36.60790","Longitude":"-81.57940","Snowdepth":"8.000","Units":"in","Rept_Date":"2025-01-25 15"}},{"type":"Point","coordinates":[-72.9657,44.32488],"properties":{"Station_ID":"VT-CH-7","Station_Nam":"HUNTINGTON 1.1 E, VT","Latitude":"44.32488","Longitude":"-72.96570","Snowdepth":"8.000","Units":"in","Rept_Date":"2025-01-25 12"}},{"type":"Point","coordinates":[-72.8326,43.29092],"properties":{"Station_ID":"VT-BN-3","Station_Nam":"LANDGROVE 1.1 NNE, VT","Latitude":"43.29092","Longitude":"-72.83260","Snowdepth":"8.000","Units":"in","Rept_Date":"2025-01-25 13"}},{"type":"Point","coordinates":[-85.512,44.7338],"properties":{"Station_ID":"TCEM4","Station_Nam":"TRAVERSE CITY 4.7ESE","Latitude":"44.73380","Longitude":"-85.51200","Snowdepth":"8.000","Units":"in","Rept_Date":"2025-01-25 12"}},{"type":"Point","coordinates":[-80.33371,41.60816],"properties":{"Station_ID":"PA-CW-18","Station_Nam":"CONNEAUT LAKE 1.3 WNW, PA","Latitude":"41.60816","Longitude":"-80.33371","Snowdepth":"8.000","Units":"in","Rept_Date":"2025-01-25 12"}},{"type":"Point","coordinates":[-81.26987,41.36266],"properties":{"Station_ID":"OH-GG-21","Station_Nam":"AUBURN CORNERS 3.0 WSW, OH","Latitude":"41.36266","Longitude":"-81.26987","Snowdepth":"8.000","Units":"in","Rept_Date":"2025-01-25 13"}},{"type":"Point","coordinates":[-73.8786,43.12684],"properties":{"Station_ID":"NY-SR-22","Station_Nam":"GREENFIELD CENTER 1.6 W, NY","Latitude":"43.12684","Longitude":"-73.87860","Snowdepth":"8.000","Units":"in","Rept_Date":"2025-01-25 12"}},{"type":"Point","coordinates":[-75.05,42.6599],"properties":{"Station_ID":"NY-OT-11","Station_Nam":"HARTWICK, NY","Latitude":"42.65990","Longitude":"-75.05000","Snowdepth":"8.000","Units":"in","Rept_Date":"2025-01-25 15"}},{"type":"Point","coordinates":[-76.26,43.2],"properties":{"Station_ID":"NY-OG-12","Station_Nam":"CLAY 4.6 NW, NY","Latitude":"43.20000","Longitude":"-76.26000","Snowdepth":"8.000","Units":"in","Rept_Date":"2025-01-25 13"}},{"type":"Point","coordinates":[-78.86175,43.05725],"properties":{"Station_ID":"NY-NG-2","Station_Nam":"NORTH TONAWANDA 1.0 NNE, NY","Latitude":"43.05725","Longitude":"-78.86175","Snowdepth":"8.000","Units":"in","Rept_Date":"2025-01-25 12"}},{"type":"Point","coordinates":[-78.866,43.00507],"properties":{"Station_ID":"NY-ER-86","Station_Nam":"TONAWANDA 1.5 NNE, NY","Latitude":"43.00507","Longitude":"-78.86600","Snowdepth":"8.000","Units":"in","Rept_Date":"2025-01-25 13"}},{"type":"Point","coordinates":[-78.62917,43.00742],"properties":{"Station_ID":"NY-ER-151","Station_Nam":"CLARENCE CENTER 0.2 ESE, NY","Latitude":"43.00742","Longitude":"-78.62917","Snowdepth":"8.000","Units":"in","Rept_Date":"2025-01-25 12"}},{"type":"Point","coordinates":[-78.7068,43.288],"properties":{"Station_ID":"NWFN6","Station_Nam":"NEWFANE","Latitude":"43.28800","Longitude":"-78.70680","Snowdepth":"8.000","Units":"in","Rept_Date":"2025-01-25 11"}},{"type":"Point","coordinates":[-78.8617,43.0573],"properties":{"Station_ID":"NTON6","Station_Nam":"NORTH TONAWANDA","Latitude":"43.05730","Longitude":"-78.86170","Snowdepth":"8.000","Units":"in","Rept_Date":"2025-01-25 12"}},{"type":"Point","coordinates":[-83.4411,35.655],"properties":{"Station_ID":"MTLT1","Station_Nam":"GATLINBURG,TN","Latitude":"35.65500","Longitude":"-83.44110","Snowdepth":"8.000","Units":"in","Rept_Date":"2025-01-25 12"}},{"type":"Point","coordinates":[-86.2745,43.197],"properties":{"Station_ID":"MSNM4","Station_Nam":"MUSKEGON SNOW PAID","Latitude":"43.19700","Longitude":"-86.27450","Snowdepth":"8.000","Units":"in","Rept_Date":"2025-01-26 03"}},{"type":"Point","coordinates":[-90.761,47.62394],"properties":{"Station_ID":"MN-CK-3","Station_Nam":"TOFTE 4.9 NE, MN","Latitude":"47.62394","Longitude":"-90.76100","Snowdepth":"8.000","Units":"in","Rept_Date":"2025-01-25 13"}},{"type":"Point","coordinates":[-87.45705,46.47288],"properties":{"Station_ID":"MI-MQ-30","Station_Nam":"MARQUETTE 6.1 SSW, MI","Latitude":"46.47288","Longitude":"-87.45705","Snowdepth":"8.000","Units":"in","Rept_Date":"2025-01-25 13"}},{"type":"Point","coordinates":[-85.659,42.20613],"properties":{"Station_ID":"MI-KZ-1","Station_Nam":"KALAMAZOO 6.0 SW, MI","Latitude":"42.20613","Longitude":"-85.65900","Snowdepth":"8.000","Units":"in","Rept_Date":"2025-01-25 13"}},{"type":"Point","coordinates":[-70.0272,44.66582],"properties":{"Station_ID":"ME-FR-4","Station_Nam":"NEW SHARON 2.0 NW, ME","Latitude":"44.66582","Longitude":"-70.02720","Snowdepth":"8.000","Units":"in","Rept_Date":"2025-01-25 12"}},{"type":"Point","coordinates":[-80.6989,38.0585],"properties":{"Station_ID":"MCRW2","Station_Nam":"QUINWOOD","Latitude":"38.05850","Longitude":"-80.69890","Snowdepth":"8.000","Units":"in","Rept_Date":"2025-01-25 13"}},{"type":"Point","coordinates":[-73.2953,42.5913],"properties":{"Station_ID":"MA-BE-24","Station_Nam":"HANCOCK 3.6 NNE, MA","Latitude":"42.59130","Longitude":"-73.29530","Snowdepth":"8.000","Units":"in","Rept_Date":"2025-01-25 17"}},{"type":"Point","coordinates":[-78.2791,43.3667],"properties":{"Station_ID":"KUKN6","Station_Nam":"LAKESIDE","Latitude":"43.36670","Longitude":"-78.27910","Snowdepth":"8.000","Units":"in","Rept_Date":"2025-01-25 12"}},{"type":"Point","coordinates":[-86.23333,43.16666],"properties":{"Station_ID":"KMKG","Station_Nam":"MUSKEGON COUNTY AIRPORT","Latitude":"43.16666","Longitude":"-86.23333","Snowdepth":"8.000","Units":"in","Rept_Date":"2025-01-26 00"}},{"type":"Point","coordinates":[-78.8035,41.6769],"properties":{"Station_ID":"KANP1","Station_Nam":"KANE","Latitude":"41.67690","Longitude":"-78.80350","Snowdepth":"8.000","Units":"in","Rept_Date":"2025-01-25 12"}},{"type":"Point","coordinates":[-93.9,48.6167],"properties":{"Station_ID":"INDM5","Station_Nam":"INDUS,MN","Latitude":"48.61670","Longitude":"-93.90000","Snowdepth":"8.000","Units":"in","Rept_Date":"2025-01-25 12"}},{"type":"Point","coordinates":[-72.8679,42.5741],"properties":{"Station_ID":"EHYM3","Station_Nam":"EAST HAWLEY","Latitude":"42.57410","Longitude":"-72.86790","Snowdepth":"8.000","Units":"in","Rept_Date":"2025-01-25 15"}},{"type":"Point","coordinates":[-79.3337,42.4718],"properties":{"Station_ID":"DKKN6","Station_Nam":"DUNKIRK 1S","Latitude":"42.47180","Longitude":"-79.33370","Snowdepth":"8.000","Units":"in","Rept_Date":"2025-01-25 12"}},{"type":"Point","coordinates":[-74.9127,42.2558],"properties":{"Station_ID":"DELN6","Station_Nam":"DELHI 2 SE","Latitude":"42.25580","Longitude":"-74.91270","Snowdepth":"8.000","Units":"in","Rept_Date":"2025-01-25 13"}},{"type":"Point","coordinates":[-90.9808,46.1694],"properties":{"Station_ID":"CMKW3","Station_Nam":"CLAM LAKE 4W","Latitude":"46.16940","Longitude":"-90.98080","Snowdepth":"8.000","Units":"in","Rept_Date":"2025-01-25 13"}},{"type":"Point","coordinates":[-88.6059,46.821],"properties":{"Station_ID":"BAGM4","Station_Nam":"BARAGA 7NW","Latitude":"46.82100","Longitude":"-88.60590","Snowdepth":"8.000","Units":"in","Rept_Date":"2025-01-25 13"}},{"type":"Point","coordinates":[-80.3337,41.6082],"properties":{"Station_ID":"41.6082_080.3337","Station_Nam":"1 WNW Conneaut Lake  CoCoRaHS (PA-CW-18)","Latitude":"41.60820","Longitude":"-80.33370","Snowdepth":"8.000","Units":"in","Rept_Date":"2025-01-25 12"}},{"type":"Point","coordinates":[-81.2699,41.3627],"properties":{"Station_ID":"41.3627_081.2699","Station_Nam":"3 WSW Auburn Corners  Trained Spotter (X4140813)","Latitude":"41.36270","Longitude":"-81.26990","Snowdepth":"8.000","Units":"in","Rept_Date":"2025-01-25 13"}},{"type":"Point","coordinates":[-63.06157,46.34628],"properties":{"Station_ID":"CAN-PE-50","Station_Nam":"BEDFORD CORNER 3.9 WNW, CAN","Latitude":"46.34628","Longitude":"-63.06157","Snowdepth":"7.900","Units":"in","Rept_Date":"2025-01-25 11"}},{"type":"Point","coordinates":[-66.68965,46.01577],"properties":{"Station_ID":"CAN-NB-174","Station_Nam":"MCLEOD HILL 1.3 SSW, CAN","Latitude":"46.01577","Longitude":"-66.68965","Snowdepth":"7.900","Units":"in","Rept_Date":"2025-01-25 11"}},{"type":"Point","coordinates":[-75.6147,48.8722],"properties":{"Station_ID":"CQYR","Station_Nam":"CQYR","Latitude":"48.87220","Longitude":"-75.61470","Snowdepth":"7.716","Units":"in","Rept_Date":"2025-01-25 12"}},{"type":"Point","coordinates":[-93.5666,47.13687],"properties":{"Station_ID":"MN-IT-7","Station_Nam":"GRAND RAPIDS 6.2 SSW, MN","Latitude":"47.13687","Longitude":"-93.56660","Snowdepth":"7.700","Units":"in","Rept_Date":"2025-01-25 12"}},{"type":"Point","coordinates":[-85.6944,42.99191],"properties":{"Station_ID":"MI-KN-32","Station_Nam":"GRAND RAPIDS 2.9 NW, MI","Latitude":"42.99191","Longitude":"-85.69440","Snowdepth":"7.700","Units":"in","Rept_Date":"2025-01-25 12"}},{"type":"Point","coordinates":[-80.0149,39.56615],"properties":{"Station_ID":"WV-MG-16","Station_Nam":"MORGANTOWN 5.9 SW, WV","Latitude":"39.56615","Longitude":"-80.01490","Snowdepth":"7.500","Units":"in","Rept_Date":"2025-01-25 12"}},{"type":"Point","coordinates":[-72.8077,44.3606],"properties":{"Station_ID":"VT-WS-19","Station_Nam":"WATERBURY 3.0 NW, VT","Latitude":"44.36060","Longitude":"-72.80770","Snowdepth":"7.500","Units":"in","Rept_Date":"2025-01-25 11"}},{"type":"Point","coordinates":[-72.88238,43.50806],"properties":{"Station_ID":"VT-RT-28","Station_Nam":"SHREWSBURY 0.8 W, VT","Latitude":"43.50806","Longitude":"-72.88238","Snowdepth":"7.500","Units":"in","Rept_Date":"2025-01-25 12"}},{"type":"Point","coordinates":[-72.7969,44.9447],"properties":{"Station_ID":"VT-FR-26","Station_Nam":"ENOSBURG FALLS 2.5 N, VT","Latitude":"44.94470","Longitude":"-72.79690","Snowdepth":"7.500","Units":"in","Rept_Date":"2025-01-25 12"}},{"type":"Point","coordinates":[-92.2392,47.4246],"properties":{"Station_ID":"MN-SL-291","Station_Nam":"AURORA 7.4 S, MN","Latitude":"47.42460","Longitude":"-92.23920","Snowdepth":"7.500","Units":"in","Rept_Date":"2025-01-25 14"}},{"type":"Point","coordinates":[-94.72121,47.52043],"properties":{"Station_ID":"MN-BM-15","Station_Nam":"BEMIDJI 7.8 ENE, MN","Latitude":"47.52043","Longitude":"-94.72121","Snowdepth":"7.500","Units":"in","Rept_Date":"2025-01-25 13"}},{"type":"Point","coordinates":[-85.86171,42.23743],"properties":{"Station_ID":"MI-VB-13","Station_Nam":"PAW PAW 2.0 NE, MI","Latitude":"42.23743","Longitude":"-85.86171","Snowdepth":"7.500","Units":"in","Rept_Date":"2025-01-25 12"}},{"type":"Point","coordinates":[-87.21344,46.33748],"properties":{"Station_ID":"MI-MQ-34","Station_Nam":"SKANDIA 3.0 SSE, MI","Latitude":"46.33748","Longitude":"-87.21344","Snowdepth":"7.500","Units":"in","Rept_Date":"2025-01-25 12"}},{"type":"Point","coordinates":[-72.6012,44.11338],"properties":{"Station_ID":"57811_MADIS","Station_Nam":"WILLIAMSTOWN 3.0 WSW, VT","Latitude":"44.11338","Longitude":"-72.60120","Snowdepth":"7.500","Units":"in","Rept_Date":"2025-01-25 12"}},{"type":"Point","coordinates":[-79.81187,38.41114],"properties":{"Station_ID":"WV-PC-7","Station_Nam":"GREEN BANK 1.2 ESE, WV","Latitude":"38.41114","Longitude":"-79.81187","Snowdepth":"7.000","Units":"in","Rept_Date":"2025-01-25 12"}},{"type":"Point","coordinates":[-80.6452,38.33698],"properties":{"Station_ID":"WV-NC-4","Station_Nam":"CRAIGSVILLE 0.6 NE, WV","Latitude":"38.33698","Longitude":"-80.64520","Snowdepth":"7.000","Units":"in","Rept_Date":"2025-01-25 12"}},{"type":"Point","coordinates":[-75.4611,43.1595],"properties":{"Station_ID":"WSTN6","Station_Nam":"WESTMORELAND 4 N","Latitude":"43.15950","Longitude":"-75.46110","Snowdepth":"7.000","Units":"in","Rept_Date":"2025-01-25 12"}},{"type":"Point","coordinates":[-89.6247,46.1284],"properties":{"Station_ID":"WI-VL-14","Station_Nam":"BOULDER JUNCTION 1.4 NE, WI","Latitude":"46.12840","Longitude":"-89.62470","Snowdepth":"7.000","Units":"in","Rept_Date":"2025-01-25 13"}},{"type":"Point","coordinates":[-89.8333,45.7],"properties":{"Station_ID":"WILW3","Station_Nam":"RESERVOIR","Latitude":"45.70000","Longitude":"-89.83330","Snowdepth":"7.000","Units":"in","Rept_Date":"2025-01-25 12"}},{"type":"Point","coordinates":[-83.4716,42.698],"properties":{"Station_ID":"WHKM4","Station_Nam":"WHITE LAKE 4E","Latitude":"42.69800","Longitude":"-83.47160","Snowdepth":"7.000","Units":"in","Rept_Date":"2025-01-26 06"}},{"type":"Point","coordinates":[-77.3882,43.2419],"properties":{"Station_ID":"WBSN6","Station_Nam":"WEBSTER 2 NE","Latitude":"43.24190","Longitude":"-77.38820","Snowdepth":"7.000","Units":"in","Rept_Date":"2025-01-26 01"}},{"type":"Point","coordinates":[-72.66291,43.75217],"properties":{"Station_ID":"VT-WR-36","Station_Nam":"BARNARD 2.7 NW, VT","Latitude":"43.75217","Longitude":"-72.66291","Snowdepth":"7.000","Units":"in","Rept_Date":"2025-01-25 12"}},{"type":"Point","coordinates":[-72.76992,43.89418],"properties":{"Station_ID":"VT-WR-17","Station_Nam":"ROCHESTER 2.3 NE, VT","Latitude":"43.89418","Longitude":"-72.76992","Snowdepth":"7.000","Units":"in","Rept_Date":"2025-01-25 12"}},{"type":"Point","coordinates":[-72.70935,42.88484],"properties":{"Station_ID":"VT-WH-30","Station_Nam":"MARLBORO 2.0 NNE, VT","Latitude":"42.88484","Longitude":"-72.70935","Snowdepth":"7.000","Units":"in","Rept_Date":"2025-01-25 14"}},{"type":"Point","coordinates":[-72.77637,42.97658],"properties":{"Station_ID":"VT-WH-19","Station_Nam":"EAST DOVER 1.8 N, VT","Latitude":"42.97658","Longitude":"-72.77637","Snowdepth":"7.000","Units":"in","Rept_Date":"2025-01-25 12"}},{"type":"Point","coordinates":[-72.1417,45.00454],"properties":{"Station_ID":"VT-OL-24","Station_Nam":"DERBY LINE 1.9 W, VT","Latitude":"45.00454","Longitude":"-72.14170","Snowdepth":"7.000","Units":"in","Rept_Date":"2025-01-25 12"}},{"type":"Point","coordinates":[-72.0883,44.56491],"properties":{"Station_ID":"VT-CL-18","Station_Nam":"WHEELOCK 1.6 S, VT","Latitude":"44.56491","Longitude":"-72.08830","Snowdepth":"7.000","Units":"in","Rept_Date":"2025-01-25 12"}},{"type":"Point","coordinates":[-72.9225,44.58774],"properties":{"Station_ID":"VT-CH-4","Station_Nam":"UNDERHILL 4.4 NNE, VT","Latitude":"44.58774","Longitude":"-72.92250","Snowdepth":"7.000","Units":"in","Rept_Date":"2025-01-25 12"}},{"type":"Point","coordinates":[-73.01811,43.17274],"properties":{"Station_ID":"VT-BN-7","Station_Nam":"MANCHESTER 2.8 ENE, VT","Latitude":"43.17274","Longitude":"-73.01811","Snowdepth":"7.000","Units":"in","Rept_Date":"2025-01-25 12"}},{"type":"Point","coordinates":[-72.9718,44.0746],"properties":{"Station_ID":"SLNV1","Station_Nam":"SOUTH LINCOLN","Latitude":"44.07460","Longitude":"-72.97180","Snowdepth":"7.000","Units":"in","Rept_Date":"2025-01-25 12"}},{"type":"Point","coordinates":[-78.2484,42.3915],"properties":{"Station_ID":"RUHN6","Station_Nam":"RUSHFORD","Latitude":"42.39150","Longitude":"-78.24840","Snowdepth":"7.000","Units":"in","Rept_Date":"2025-01-25 12"}},{"type":"Point","coordinates":[-89.8772,46.1222],"properties":{"Station_ID":"RLKW3","Station_Nam":"REST LAKE","Latitude":"46.12220","Longitude":"-89.87720","Snowdepth":"7.000","Units":"in","Rept_Date":"2025-01-25 13"}},{"type":"Point","coordinates":[-71.383,45.0469],"properties":{"Station_ID":"PTBN3","Station_Nam":"PITTSBURG RESERVOIR","Latitude":"45.04690","Longitude":"-71.38300","Snowdepth":"7.000","Units":"in","Rept_Date":"2025-01-25 12"}},{"type":"Point","coordinates":[-95.081,46.9415],"properties":{"Station_ID":"PRPM5","Station_Nam":"PARK RAPIDS 2NW","Latitude":"46.94150","Longitude":"-95.08100","Snowdepth":"7.000","Units":"in","Rept_Date":"2025-01-25 13"}},{"type":"Point","coordinates":[-80.9721,41.19773],"properties":{"Station_ID":"OH-TR-4","Station_Nam":"NEWTON FALLS 0.6 N, OH","Latitude":"41.19773","Longitude":"-80.97210","Snowdepth":"7.000","Units":"in","Rept_Date":"2025-01-25 12"}},{"type":"Point","coordinates":[-81.1434,41.31595],"properties":{"Station_ID":"OH-PT-9","Station_Nam":"HIRAM 0.4 N, OH","Latitude":"41.31595","Longitude":"-81.14340","Snowdepth":"7.000","Units":"in","Rept_Date":"2025-01-25 13"}},{"type":"Point","coordinates":[-74.9209,42.5331],"properties":{"Station_ID":"NY-OT-31","Station_Nam":"MARYLAND 1.8 W, NY","Latitude":"42.53310","Longitude":"-74.92090","Snowdepth":"7.000","Units":"in","Rept_Date":"2025-01-25 12"}},{"type":"Point","coordinates":[-75.46,43.16],"properties":{"Station_ID":"NY-OD-21","Station_Nam":"ROME 4.8 SSE, NY","Latitude":"43.16000","Longitude":"-75.46000","Snowdepth":"7.000","Units":"in","Rept_Date":"2025-01-25 12"}},{"type":"Point","coordinates":[-75.2899,43.06182],"properties":{"Station_ID":"NY-OD-19","Station_Nam":"NEW HARTFORD 0.8 S, NY","Latitude":"43.06182","Longitude":"-75.28990","Snowdepth":"7.000","Units":"in","Rept_Date":"2025-01-25 12"}},{"type":"Point","coordinates":[-78.8669,42.96316],"properties":{"Station_ID":"NY-ER-59","Station_Nam":"KENMORE 0.3 ESE, NY","Latitude":"42.96316","Longitude":"-78.86690","Snowdepth":"7.000","Units":"in","Rept_Date":"2025-01-25 12"}},{"type":"Point","coordinates":[-78.71933,42.94119],"properties":{"Station_ID":"NY-ER-102","Station_Nam":"CHEEKTOWAGA 2.7 NE, NY","Latitude":"42.94119","Longitude":"-78.71933","Snowdepth":"7.000","Units":"in","Rept_Date":"2025-01-25 12"}},{"type":"Point","coordinates":[-74.5783,42.3523],"properties":{"Station_ID":"NY-DL-25","Station_Nam":"HOBART 4.8 ESE, NY","Latitude":"42.35230","Longitude":"-74.57830","Snowdepth":"7.000","Units":"in","Rept_Date":"2025-01-25 12"}},{"type":"Point","coordinates":[-75.0784,41.9351],"properties":{"Station_ID":"NY-DL-23","Station_Nam":"LONG EDDY 6.5 NNE, NY","Latitude":"41.93510","Longitude":"-75.07840","Snowdepth":"7.000","Units":"in","Rept_Date":"2025-01-25 13"}},{"type":"Point","coordinates":[-72.7093,42.8846],"properties":{"Station_ID":"MRLV1","Station_Nam":"MARLBORO","Latitude":"42.88460","Longitude":"-72.70930","Snowdepth":"7.000","Units":"in","Rept_Date":"2025-01-25 14"}},{"type":"Point","coordinates":[-91.86887,47.91158],"properties":{"Station_ID":"MN-SL-276","Station_Nam":"ELY 0.9 WNW, MN","Latitude":"47.91158","Longitude":"-91.86887","Snowdepth":"7.000","Units":"in","Rept_Date":"2025-01-25 15"}},{"type":"Point","coordinates":[-85.8619,42.26582],"properties":{"Station_ID":"MI-VB-4","Station_Nam":"PAW PAW 3.6 NNE, MI","Latitude":"42.26582","Longitude":"-85.86190","Snowdepth":"7.000","Units":"in","Rept_Date":"2025-01-25 12"}},{"type":"Point","coordinates":[-85.6419,43.6063],"properties":{"Station_ID":"MI-NW-8","Station_Nam":"WHITE CLOUD 7.5 ENE, MI","Latitude":"43.60630","Longitude":"-85.64190","Snowdepth":"7.000","Units":"in","Rept_Date":"2025-01-25 12"}},{"type":"Point","coordinates":[-83.54797,43.07662],"properties":{"Station_ID":"MI-GN-34","Station_Nam":"DAVISON 3.4 NNW, MI","Latitude":"43.07662","Longitude":"-83.54797","Snowdepth":"7.000","Units":"in","Rept_Date":"2025-01-25 13"}},{"type":"Point","coordinates":[-83.3603,43.0573],"properties":{"Station_ID":"LPEM4","Station_Nam":"LAPEER 2W","Latitude":"43.05730","Longitude":"-83.36030","Snowdepth":"7.000","Units":"in","Rept_Date":"2025-01-25 15"}},{"type":"Point","coordinates":[-85.56666,44.73333],"properties":{"Station_ID":"KTVC","Station_Nam":"CHERRY CAPITAL AIRPORT","Latitude":"44.73333","Longitude":"-85.56666","Snowdepth":"7.000","Units":"in","Rept_Date":"2025-01-25 12"}},{"type":"Point","coordinates":[-76.1,43.11666],"properties":{"Station_ID":"KSYR","Station_Nam":"SYRACUSE HANCOCK INTERNATIONAL  AIRPORT","Latitude":"43.11666","Longitude":"-76.10000","Snowdepth":"7.000","Units":"in","Rept_Date":"2025-01-26 06"}},{"type":"Point","coordinates":[-97.01833,38.96906],"properties":{"Station_ID":"KS-DK-65","Station_Nam":"CHAPMAN 0.2 SSE, KS","Latitude":"38.96906","Longitude":"-97.01833","Snowdepth":"7.000","Units":"in","Rept_Date":"2025-01-25 11"}},{"type":"Point","coordinates":[-87.3779,46.3341],"properties":{"Station_ID":"KISM4","Station_Nam":"K.I. SAWYER WWTP","Latitude":"46.33410","Longitude":"-87.37790","Snowdepth":"7.000","Units":"in","Rept_Date":"2025-01-25 13"}},{"type":"Point","coordinates":[-78.73333,42.93333],"properties":{"Station_ID":"KBUF","Station_Nam":"GREATER BUFFALO INTERNATIONAL  AIRPORT","Latitude":"42.93333","Longitude":"-78.73333","Snowdepth":"7.000","Units":"in","Rept_Date":"2025-01-26 06"}},{"type":"Point","coordinates":[-72.6786,44.658],"properties":{"Station_ID":"JOHV1","Station_Nam":"JOHNSON 2 N","Latitude":"44.65800","Longitude":"-72.67860","Snowdepth":"7.000","Units":"in","Rept_Date":"2025-01-25 12"}},{"type":"Point","coordinates":[-74.2756,43.755],"properties":{"Station_ID":"INDN6","Station_Nam":"INDIAN LAKE","Latitude":"43.75500","Longitude":"-74.27560","Snowdepth":"7.000","Units":"in","Rept_Date":"2025-01-25 13"}},{"type":"Point","coordinates":[-84.6773,44.3447],"properties":{"Station_ID":"HTLM4","Station_Nam":"SNOW PAID OBSERVER FOR KHTL","Latitude":"44.34470","Longitude":"-84.67730","Snowdepth":"7.000","Units":"in","Rept_Date":"2025-01-26 00"}},{"type":"Point","coordinates":[-84.6694,44.36],"properties":{"Station_ID":"HTL","Station_Nam":"ROSCOMMON COUNTY/BLODGETT MEML ARPT","Latitude":"44.36000","Longitude":"-84.66940","Snowdepth":"7.000","Units":"in","Rept_Date":"2025-01-25 12"}},{"type":"Point","coordinates":[-78.5871,40.9666],"properties":{"Station_ID":"GRMP1","Station_Nam":"GRAMPIAN","Latitude":"40.96660","Longitude":"-78.58710","Snowdepth":"7.000","Units":"in","Rept_Date":"2025-01-25 11"}},{"type":"Point","coordinates":[-78.9358,39.66],"properties":{"Station_ID":"FRSM2","Station_Nam":"FROSTBURG 2 COOP","Latitude":"39.66000","Longitude":"-78.93580","Snowdepth":"7.000","Units":"in","Rept_Date":"2025-01-25 12"}},{"type":"Point","coordinates":[-92.2108,46.8368],"properties":{"Station_ID":"DLHM5","Station_Nam":"DULUTH NWS","Latitude":"46.83680","Longitude":"-92.21080","Snowdepth":"7.000","Units":"in","Rept_Date":"2025-01-26 06"}},{"type":"Point","coordinates":[-92.2103,46.8369],"properties":{"Station_ID":"DLH","Station_Nam":"DULUTH, MN","Latitude":"46.83690","Longitude":"-92.21030","Snowdepth":"7.000","Units":"in","Rept_Date":"2025-01-26 00"}},{"type":"Point","coordinates":[-97.0183,38.9691],"properties":{"Station_ID":"CPMK1","Station_Nam":"CHAPMAN","Latitude":"38.96910","Longitude":"-97.01830","Snowdepth":"7.000","Units":"in","Rept_Date":"2025-01-25 11"}},{"type":"Point","coordinates":[-92.5253,46.7047],"properties":{"Station_ID":"CLQM5","Station_Nam":"CLOQUET","Latitude":"46.70470","Longitude":"-92.52530","Snowdepth":"7.000","Units":"in","Rept_Date":"2025-01-25 14"}},{"type":"Point","coordinates":[-79.3665,39.7994],"properties":{"Station_ID":"CFLP1","Station_Nam":"CONFLUENCE DAM","Latitude":"39.79940","Longitude":"-79.36650","Snowdepth":"7.000","Units":"in","Rept_Date":"2025-01-25 13"}},{"type":"Point","coordinates":[-78.7306,42.9406],"properties":{"Station_ID":"BUF","Station_Nam":"BUFFALO, NY","Latitude":"42.94060","Longitude":"-78.73060","Snowdepth":"7.000","Units":"in","Rept_Date":"2025-01-26 06"}},{"type":"Point","coordinates":[-77.9529,43.216],"properties":{"Station_ID":"BRKN6","Station_Nam":"BROCKPORT","Latitude":"43.21600","Longitude":"-77.95290","Snowdepth":"7.000","Units":"in","Rept_Date":"2025-01-25 14"}},{"type":"Point","coordinates":[-80.2092,39.0053],"properties":{"Station_ID":"BKNW2","Station_Nam":"BUCKHANNON","Latitude":"39.00530","Longitude":"-80.20920","Snowdepth":"7.000","Units":"in","Rept_Date":"2025-01-25 12"}},{"type":"Point","coordinates":[-78.2152,43.2633],"properties":{"Station_ID":"ABNN6","Station_Nam":"ALBION","Latitude":"43.26330","Longitude":"-78.21520","Snowdepth":"7.000","Units":"in","Rept_Date":"2025-01-25 23"}},{"type":"Point","coordinates":[-81.1434,41.316],"properties":{"Station_ID":"41.3160_081.1434","Station_Nam":"N Hiram  CoCoRaHS (OH-PT-9)","Latitude":"41.31600","Longitude":"-81.14340","Snowdepth":"7.000","Units":"in","Rept_Date":"2025-01-25 13"}},{"type":"Point","coordinates":[-81.1434,41.3151],"properties":{"Station_ID":"41.3151_081.1434","Station_Nam":"HIRAM (CLE2220)","Latitude":"41.31510","Longitude":"-81.14340","Snowdepth":"7.000","Units":"in","Rept_Date":"2025-01-25 13"}},{"type":"Point","coordinates":[-78.9335,39.67557],"properties":{"Station_ID":"002MD_MADIS","Station_Nam":"FROSTBURG 1 NNW","Latitude":"39.67557","Longitude":"-78.93350","Snowdepth":"6.850","Units":"in","Rept_Date":"2025-01-26 06"}},{"type":"Point","coordinates":[-78.65338,43.15207],"properties":{"Station_ID":"NY-NG-30","Station_Nam":"LOCKPORT 2.5 ESE, NY","Latitude":"43.15207","Longitude":"-78.65338","Snowdepth":"6.800","Units":"in","Rept_Date":"2025-01-25 12"}},{"type":"Point","coordinates":[-95.08179,46.94214],"properties":{"Station_ID":"MN-HB-16","Station_Nam":"PARK RAPIDS 2.0 NNW, MN","Latitude":"46.94214","Longitude":"-95.08179","Snowdepth":"6.800","Units":"in","Rept_Date":"2025-01-25 13"}},{"type":"Point","coordinates":[-90.897,46.676],"properties":{"Station_ID":"WI-BY-43","Station_Nam":"WASHBURN 0.2 NW, WI","Latitude":"46.67600","Longitude":"-90.89700","Snowdepth":"6.700","Units":"in","Rept_Date":"2025-01-25 13"}},{"type":"Point","coordinates":[-90.5975,45.96501],"properties":{"Station_ID":"WI-PR-2","Station_Nam":"BUTTERNUT 5.9 SW, WI","Latitude":"45.96501","Longitude":"-90.59750","Snowdepth":"6.500","Units":"in","Rept_Date":"2025-01-25 12"}},{"type":"Point","coordinates":[-72.652,44.16986],"properties":{"Station_ID":"VT-WS-10","Station_Nam":"NORTHFIELD 1.5 N, VT","Latitude":"44.16986","Longitude":"-72.65200","Snowdepth":"6.500","Units":"in","Rept_Date":"2025-01-25 12"}},{"type":"Point","coordinates":[-72.84167,44.62722],"properties":{"Station_ID":"VT-LM-23","Station_Nam":"JEFFERSONVILLE 1.3 SSW, VT","Latitude":"44.62722","Longitude":"-72.84167","Snowdepth":"6.500","Units":"in","Rept_Date":"2025-01-25 12"}},{"type":"Point","coordinates":[-79.23526,40.24319],"properties":{"Station_ID":"PA-WT-42","Station_Nam":"LIGONIER 0.1 SE, PA","Latitude":"40.24319","Longitude":"-79.23526","Snowdepth":"6.500","Units":"in","Rept_Date":"2025-01-25 12"}},{"type":"Point","coordinates":[-78.5101,41.46934],"properties":{"Station_ID":"PA-EL-7","Station_Nam":"ST. MARYS 3.7 NE, PA","Latitude":"41.46934","Longitude":"-78.51010","Snowdepth":"6.500","Units":"in","Rept_Date":"2025-01-25 14"}},{"type":"Point","coordinates":[-81.81507,41.29815],"properties":{"Station_ID":"OH-CY-42","Station_Nam":"STRONGSVILLE 1.3 SE, OH","Latitude":"41.29815","Longitude":"-81.81507","Snowdepth":"6.500","Units":"in","Rept_Date":"2025-01-25 13"}},{"type":"Point","coordinates":[-76.3283,43.03962],"properties":{"Station_ID":"NY-OG-10","Station_Nam":"CAMILLUS 1.0 W, NY","Latitude":"43.03962","Longitude":"-76.32830","Snowdepth":"6.500","Units":"in","Rept_Date":"2025-01-25 12"}},{"type":"Point","coordinates":[-78.6834,43.17645],"properties":{"Station_ID":"NY-NG-12","Station_Nam":"LOCKPORT 0.8 NE, NY","Latitude":"43.17645","Longitude":"-78.68340","Snowdepth":"6.500","Units":"in","Rept_Date":"2025-01-25 12"}},{"type":"Point","coordinates":[-73.75098,44.21543],"properties":{"Station_ID":"NY-ES-9","Station_Nam":"KEENE VALLEY 2.5 NE, NY","Latitude":"44.21543","Longitude":"-73.75098","Snowdepth":"6.500","Units":"in","Rept_Date":"2025-01-25 14"}},{"type":"Point","coordinates":[-78.719,43.0225],"properties":{"Station_ID":"NY-ER-54","Station_Nam":"EAST AMHERST 1.2 WNW, NY","Latitude":"43.02250","Longitude":"-78.71900","Snowdepth":"6.500","Units":"in","Rept_Date":"2025-01-25 13"}},{"type":"Point","coordinates":[-92.45041,46.71443],"properties":{"Station_ID":"MN-CN-56","Station_Nam":"CLOQUET 2.1 ESE, MN","Latitude":"46.71443","Longitude":"-92.45041","Snowdepth":"6.500","Units":"in","Rept_Date":"2025-01-25 13"}},{"type":"Point","coordinates":[-85.5998,43.1793],"properties":{"Station_ID":"MI-KN-126","Station_Nam":"SPARTA 5.7 ENE, MI","Latitude":"43.17930","Longitude":"-85.59980","Snowdepth":"6.500","Units":"in","Rept_Date":"2025-01-25 14"}},{"type":"Point","coordinates":[-68.3079,44.3645],"properties":{"Station_ID":"ME-HN-69","Station_Nam":"MOUNT DESERT 2.3 NE, ME","Latitude":"44.36450","Longitude":"-68.30790","Snowdepth":"6.500","Units":"in","Rept_Date":"2025-01-25 12"}},{"type":"Point","coordinates":[-81.81507,41.29818],"properties":{"Station_ID":"41.2982_081.8151","Station_Nam":"1 SE Strongsville  Trained Spotter (CLE1180)","Latitude":"41.29818","Longitude":"-81.81507","Snowdepth":"6.500","Units":"in","Rept_Date":"2025-01-25 13"}},{"type":"Point","coordinates":[-91.405,46.13255],"properties":{"Station_ID":"WI-SR-1","Station_Nam":"HAYWARD 9.2 NNE, WI","Latitude":"46.13255","Longitude":"-91.40500","Snowdepth":"6.400","Units":"in","Rept_Date":"2025-01-25 12"}},{"type":"Point","coordinates":[-77.94117,44.0305],"properties":{"Station_ID":"CAN-ON-1028","Station_Nam":"COLBORNE 5.1 WNW, CAN","Latitude":"44.03050","Longitude":"-77.94117","Snowdepth":"6.300","Units":"in","Rept_Date":"2025-01-25 11"}},{"type":"Point","coordinates":[-66.6283,45.92897],"properties":{"Station_ID":"CAN-NB-1","Station_Nam":"FREDERICTON 4.0 SSE, CA","Latitude":"45.92897","Longitude":"-66.62830","Snowdepth":"6.300","Units":"in","Rept_Date":"2025-01-25 12"}},{"type":"Point","coordinates":[-90.96005,46.64576],"properties":{"Station_ID":"WI-BY-52","Station_Nam":"WASHBURN 3.7 WSW, WI","Latitude":"46.64576","Longitude":"-90.96005","Snowdepth":"6.200","Units":"in","Rept_Date":"2025-01-25 14"}},{"type":"Point","coordinates":[-83.3449,38.24293],"properties":{"Station_ID":"KY-RW-3","Station_Nam":"MOREHEAD 6.4 NE, KY","Latitude":"38.24293","Longitude":"-83.34490","Snowdepth":"6.200","Units":"in","Rept_Date":"2025-01-25 12"}},{"type":"Point","coordinates":[-66.64252,45.99547],"properties":{"Station_ID":"CAN-NB-55","Station_Nam":"FREDERICTON 4.5 N, CAN","Latitude":"45.99547","Longitude":"-66.64252","Snowdepth":"6.200","Units":"in","Rept_Date":"2025-01-25 12"}},{"type":"Point","coordinates":[-63.50039,46.25244],"properties":{"Station_ID":"CAN-PE-79","Station_Nam":"CRAPAUD 1.3 N, CAN","Latitude":"46.25244","Longitude":"-63.50039","Snowdepth":"6.100","Units":"in","Rept_Date":"2025-01-25 11"}},{"type":"Point","coordinates":[-80.6561,39.41954],"properties":{"Station_ID":"WV-DD-1","Station_Nam":"CENTER POINT 2.2 NNW, WV","Latitude":"39.41954","Longitude":"-80.65610","Snowdepth":"6.000","Units":"in","Rept_Date":"2025-01-25 12"}},{"type":"Point","coordinates":[-91.84405,46.35217],"properties":{"Station_ID":"WI-DG-20","Station_Nam":"SOLON SPRINGS 1.2 W, WI","Latitude":"46.35217","Longitude":"-91.84405","Snowdepth":"6.000","Units":"in","Rept_Date":"2025-01-25 13"}},{"type":"Point","coordinates":[-75.1455,42.1847],"properties":{"Station_ID":"WALN6","Station_Nam":"WALTON 2","Latitude":"42.18470","Longitude":"-75.14550","Snowdepth":"6.000","Units":"in","Rept_Date":"2025-01-25 10"}},{"type":"Point","coordinates":[-72.75654,44.28026],"properties":{"Station_ID":"VT-WS-42","Station_Nam":"MORETOWN 2.1 N, VT","Latitude":"44.28026","Longitude":"-72.75654","Snowdepth":"6.000","Units":"in","Rept_Date":"2025-01-25 13"}},{"type":"Point","coordinates":[-72.6907,44.46399],"properties":{"Station_ID":"VT-LM-1","Station_Nam":"STOWE 0.2 SW, VT","Latitude":"44.46399","Longitude":"-72.69070","Snowdepth":"6.000","Units":"in","Rept_Date":"2025-01-25 12"}},{"type":"Point","coordinates":[-72.9188,44.59811],"properties":{"Station_ID":"VT-CH-11","Station_Nam":"UNDERHILL 5.1 NNE, VT","Latitude":"44.59811","Longitude":"-72.91880","Snowdepth":"6.000","Units":"in","Rept_Date":"2025-01-25 12"}},{"type":"Point","coordinates":[-67.9396,47.1664],"properties":{"Station_ID":"VANM1","Station_Nam":"VAN BUREN","Latitude":"47.16640","Longitude":"-67.93960","Snowdepth":"6.000","Units":"in","Rept_Date":"2025-01-25 11"}},{"type":"Point","coordinates":[-79.6371,38.32841],"properties":{"Station_ID":"VA-HG-2","Station_Nam":"MONTEREY 6.5 SSW, VA","Latitude":"38.32841","Longitude":"-79.63710","Snowdepth":"6.000","Units":"in","Rept_Date":"2025-01-25 12"}},{"type":"Point","coordinates":[-79.693,41.6309],"properties":{"Station_ID":"TSVP1","Station_Nam":"TITUSVILLE WATER WORKS","Latitude":"41.63090","Longitude":"-79.69300","Snowdepth":"6.000","Units":"in","Rept_Date":"2025-01-25 12"}},{"type":"Point","coordinates":[-88.6278,46.0555],"properties":{"Station_ID":"STMM4","Station_Nam":"STAMBAUGH 2SSE","Latitude":"46.05550","Longitude":"-88.62780","Snowdepth":"6.000","Units":"in","Rept_Date":"2025-01-25 13"}},{"type":"Point","coordinates":[-79.5458,40.51],"properties":{"Station_ID":"SLNP1","Station_Nam":"SALINA","Latitude":"40.51000","Longitude":"-79.54580","Snowdepth":"6.000","Units":"in","Rept_Date":"2025-01-25 12"}},{"type":"Point","coordinates":[-78.8181,43.1705],"properties":{"Station_ID":"SBNN6","Station_Nam":"SANBORN","Latitude":"43.17050","Longitude":"-78.81810","Snowdepth":"6.000","Units":"in","Rept_Date":"2025-01-25 12"}},{"type":"Point","coordinates":[-89.3074,45.6527],"properties":{"Station_ID":"RHLW3","Station_Nam":"RHINELANDER 4NE","Latitude":"45.65270","Longitude":"-89.30740","Snowdepth":"6.000","Units":"in","Rept_Date":"2025-01-25 12"}},{"type":"Point","coordinates":[-78.7497,42.1003],"properties":{"Station_ID":"RHAN6","Station_Nam":"ALLEGANY STATE PARK","Latitude":"42.10030","Longitude":"-78.74970","Snowdepth":"6.000","Units":"in","Rept_Date":"2025-01-25 12"}},{"type":"Point","coordinates":[-70.3614,44.007],"properties":{"Station_ID":"POLM1","Station_Nam":"POLAND","Latitude":"44.00700","Longitude":"-70.36140","Snowdepth":"6.000","Units":"in","Rept_Date":"2025-01-25 12"}},{"type":"Point","coordinates":[-76.4066,40.5322],"properties":{"Station_ID":"PGSP1","Station_Nam":"PINE GROVE","Latitude":"40.53220","Longitude":"-76.40660","Snowdepth":"6.000","Units":"in","Rept_Date":"2025-01-25 12"}},{"type":"Point","coordinates":[-79.85013,41.37283],"properties":{"Station_ID":"PA-VN-22","Station_Nam":"FRANKLIN 1.4 SSW, PA","Latitude":"41.37283","Longitude":"-79.85013","Snowdepth":"6.000","Units":"in","Rept_Date":"2025-01-25 12"}},{"type":"Point","coordinates":[-79.1815,41.4571],"properties":{"Station_ID":"PA-FR-2","Station_Nam":"MARIENVILLE 5.3 W, PA","Latitude":"41.45710","Longitude":"-79.18150","Snowdepth":"6.000","Units":"in","Rept_Date":"2025-01-25 12"}},{"type":"Point","coordinates":[-81.23095,39.5982],"properties":{"Station_ID":"OH-MN-3","Station_Nam":"LOWER SALEM 9.0 ENE, OH","Latitude":"39.59820","Longitude":"-81.23095","Snowdepth":"6.000","Units":"in","Rept_Date":"2025-01-25 12"}},{"type":"Point","coordinates":[-72.9264,44.4497],"properties":{"Station_ID":"NVLV1","Station_Nam":"NASHVILLE","Latitude":"44.44970","Longitude":"-72.92640","Snowdepth":"6.000","Units":"in","Rept_Date":"2025-01-25 12"}},{"type":"Point","coordinates":[-71.819,43.52],"properties":{"Station_ID":"NH-MR-6","Station_Nam":"DANBURY 2.2 ESE, NH","Latitude":"43.52000","Longitude":"-71.81900","Snowdepth":"6.000","Units":"in","Rept_Date":"2025-01-25 13"}},{"type":"Point","coordinates":[-71.1297,44.0562],"properties":{"Station_ID":"NCON3","Station_Nam":"NORTH CONWAY","Latitude":"44.05620","Longitude":"-71.12970","Snowdepth":"6.000","Units":"in","Rept_Date":"2025-01-25 13"}},{"type":"Point","coordinates":[-80.8484,38.1879],"properties":{"Station_ID":"MNBW2","Station_Nam":"MT. NEBO 1S","Latitude":"38.18790","Longitude":"-80.84840","Snowdepth":"6.000","Units":"in","Rept_Date":"2025-01-25 12"}},{"type":"Point","coordinates":[-86.28266,45.99042],"properties":{"Station_ID":"MI-SH-1","Station_Nam":"MANISTIQUE 2.7 NW, MI","Latitude":"45.99042","Longitude":"-86.28266","Snowdepth":"6.000","Units":"in","Rept_Date":"2025-01-25 13"}},{"type":"Point","coordinates":[-83.82928,42.76832],"properties":{"Station_ID":"MI-LV-26","Station_Nam":"FENTON 6.2 WSW, MI","Latitude":"42.76832","Longitude":"-83.82928","Snowdepth":"6.000","Units":"in","Rept_Date":"2025-01-25 13"}},{"type":"Point","coordinates":[-85.6134,42.93801],"properties":{"Station_ID":"MI-KN-7","Station_Nam":"EAST GRAND RAPIDS 0.7 SSW, MI","Latitude":"42.93801","Longitude":"-85.61340","Snowdepth":"6.000","Units":"in","Rept_Date":"2025-01-25 12"}},{"type":"Point","coordinates":[-85.5894,42.82526],"properties":{"Station_ID":"MI-KN-43","Station_Nam":"CALEDONIA 4.4 WNW, MI","Latitude":"42.82526","Longitude":"-85.58940","Snowdepth":"6.000","Units":"in","Rept_Date":"2025-01-25 12"}},{"type":"Point","coordinates":[-84.62399,42.75294],"properties":{"Station_ID":"MI-ET-18","Station_Nam":"LANSING 4.7 NW, MI","Latitude":"42.75294","Longitude":"-84.62399","Snowdepth":"6.000","Units":"in","Rept_Date":"2025-01-25 12"}},{"type":"Point","coordinates":[-85.5379,42.45066],"properties":{"Station_ID":"MI-BR-9","Station_Nam":"PLAINWELL 5.4 E, MI","Latitude":"42.45066","Longitude":"-85.53790","Snowdepth":"6.000","Units":"in","Rept_Date":"2025-01-25 13"}},{"type":"Point","coordinates":[-68.0127,46.6796],"properties":{"Station_ID":"ME-AR-15","Station_Nam":"PRESQUE ISLE 1.3 WSW, ME","Latitude":"46.67960","Longitude":"-68.01270","Snowdepth":"6.000","Units":"in","Rept_Date":"2025-01-25 12"}},{"type":"Point","coordinates":[-78.6534,43.1521],"properties":{"Station_ID":"LPTN6","Station_Nam":"LOCKPORT","Latitude":"43.15210","Longitude":"-78.65340","Snowdepth":"6.000","Units":"in","Rept_Date":"2025-01-25 12"}},{"type":"Point","coordinates":[-71.4645,43.5491],"properties":{"Station_ID":"LKPN3","Station_Nam":"LAKEPORT 2","Latitude":"43.54910","Longitude":"-71.46450","Snowdepth":"6.000","Units":"in","Rept_Date":"2025-01-25 14"}},{"type":"Point","coordinates":[-84.5861,42.7786],"properties":{"Station_ID":"LAN","Station_Nam":"CAPITAL REGION INTL ARPT","Latitude":"42.77860","Longitude":"-84.58610","Snowdepth":"6.000","Units":"in","Rept_Date":"2025-01-26 00"}},{"type":"Point","coordinates":[-79.1591,42.11],"properties":{"Station_ID":"JSTN6","Station_Nam":"JAMESTOWN 4 ENE","Latitude":"42.11000","Longitude":"-79.15910","Snowdepth":"6.000","Units":"in","Rept_Date":"2025-01-25 12"}},{"type":"Point","coordinates":[-71.5008,44.4169],"properties":{"Station_ID":"JEFN3","Station_Nam":"JEFFERSON","Latitude":"44.41690","Longitude":"-71.50080","Snowdepth":"6.000","Units":"in","Rept_Date":"2025-01-25 12"}},{"type":"Point","coordinates":[-80.2061,40.5494],"properties":{"Station_ID":"GWDP1","Station_Nam":"DASHIELDS DAM","Latitude":"40.54940","Longitude":"-80.20610","Snowdepth":"6.000","Units":"in","Rept_Date":"2025-01-25 12"}},{"type":"Point","coordinates":[-75.4767,44.3926],"properties":{"Station_ID":"GOVN6","Station_Nam":"GOUVERNEUR 4 NNW","Latitude":"44.39260","Longitude":"-75.47670","Snowdepth":"6.000","Units":"in","Rept_Date":"2025-01-26 00"}},