{"type":"Topology","objects":{"snowdepth_geo":{"type":"GeometryCollection","name":"snowdepth","crs":{"type":"name","properties":{"name":"urn:ogc:def:crs:OGC:1.3:CRS84"}},"geometries":[{"type":"Point","properties":{"Station_ID":"PRKM4","Station_Nam":"MUNISING EAST","Latitude":"46.42580","Longitude":"-86.62000","Snowdepth":"76.500","Units":"in","Rept_Date":"2020-12-23 06"},"coordinates":[2492,6701]},{"type":"Point","properties":{"Station_ID":"LKPN3","Station_Nam":"LAKEPORT 2","Latitude":"43.54910","Longitude":"-71.46450","Snowdepth":"34.000","Units":"in","Rept_Date":"2020-12-22 11"},"coordinates":[6049,4911]},{"type":"Point","properties":{"Station_ID":"NY-SR-22","Station_Nam":"GREENFIELD CENTER 1.6 W, NY","Latitude":"43.12684","Longitude":"-73.87860","Snowdepth":"29.000","Units":"in","Rept_Date":"2020-12-22 13"},"coordinates":[5482,4649]},{"type":"Point","properties":{"Station_ID":"NH-MR-6","Station_Nam":"DANBURY 2.2 ESE, NH","Latitude":"43.52000","Longitude":"-71.81900","Snowdepth":"28.000","Units":"in","Rept_Date":"2020-12-22 13"},"coordinates":[5966,4893]},{"type":"Point","properties":{"Station_ID":"VT-BN-3","Station_Nam":"LANDGROVE 1.1 NNE, VT","Latitude":"43.29092","Longitude":"-72.83260","Snowdepth":"27.000","Units":"in","Rept_Date":"2020-12-22 12"},"coordinates":[5728,4751]},{"type":"Point","properties":{"Station_ID":"DLSN6","Station_Nam":"DELANSON 2NE","Latitude":"42.76720","Longitude":"-74.17110","Snowdepth":"24.000","Units":"in","Rept_Date":"2020-12-22 12"},"coordinates":[5414,4425]},{"type":"Point","properties":{"Station_ID":"NY-OT-11","Station_Nam":"HARTWICK, NY","Latitude":"42.65990","Longitude":"-75.05000","Snowdepth":"23.500","Units":"in","Rept_Date":"2020-12-22 13"},"coordinates":[5208,4358]},{"type":"Point","properties":{"Station_ID":"NH-MR-41","Station_Nam":"NEWBURY 1.6 NW, NH","Latitude":"43.33667","Longitude":"-72.06060","Snowdepth":"23.200","Units":"in","Rept_Date":"2020-12-22 12"},"coordinates":[5909,4779]},{"type":"Point","properties":{"Station_ID":"CNTP1","Station_Nam":"CANTON","Latitude":"41.65160","Longitude":"-76.84630","Snowdepth":"22.000","Units":"in","Rept_Date":"2020-12-22 13"},"coordinates":[4786,3731]},{"type":"Point","properties":{"Station_ID":"BGMN6","Station_Nam":"BINGHAMTON WFO","Latitude":"42.21160","Longitude":"-75.98580","Snowdepth":"22.000","Units":"in","Rept_Date":"2020-12-23 05"},"coordinates":[4988,4079]},{"type":"Point","properties":{"Station_ID":"NY-SR-35","Station_Nam":"ROUND LAKE 4.1 NE, NY","Latitude":"42.97760","Longitude":"-73.73750","Snowdepth":"21.500","Units":"in","Rept_Date":"2020-12-22 12"},"coordinates":[5516,4556]},{"type":"Point","properties":{"Station_ID":"NH-BK-18","Station_Nam":"NEW HAMPTON 4.1 N, NH","Latitude":"43.66397","Longitude":"-71.64270","Snowdepth":"20.500","Units":"in","Rept_Date":"2020-12-22 12"},"coordinates":[6007,4983]},{"type":"Point","properties":{"Station_ID":"SNOW2","Station_Nam":"SNOWSHOE","Latitude":"38.39900","Longitude":"-79.99490","Snowdepth":"20.000","Units":"in","Rept_Date":"2020-12-22 11"},"coordinates":[4047,1707]},{"type":"Point","properties":{"Station_ID":"NY-WS-8","Station_Nam":"GRANVILLE 9.5 SW, NY","Latitude":"43.31163","Longitude":"-73.39613","Snowdepth":"20.000","Units":"in","Rept_Date":"2020-12-22 12"},"coordinates":[5596,4764]},{"type":"Point","properties":{"Station_ID":"NY-TG-15","Station_Nam":"BERKSHIRE 1.9 ENE, NY","Latitude":"42.31910","Longitude":"-76.21940","Snowdepth":"20.000","Units":"in","Rept_Date":"2020-12-22 13"},"coordinates":[4933,4146]},{"type":"Point","properties":{"Station_ID":"QOU","Station_Nam":"QOU","Latitude":"50.79250","Longitude":"-69.67470","Snowdepth":"19.921","Units":"in","Rept_Date":"2020-12-22 12"},"coordinates":[6469,9418]},{"type":"Point","properties":{"Station_ID":"NY-SC-2","Station_Nam":"SCOTIA 1.1 NW, NY","Latitude":"42.84473","Longitude":"-73.97480","Snowdepth":"19.500","Units":"in","Rept_Date":"2020-12-22 11"},"coordinates":[5460,4473]},{"type":"Point","properties":{"Station_ID":"THEP1","Station_Nam":"MORRIS RUN SNOW","Latitude":"41.68330","Longitude":"-76.93330","Snowdepth":"19.000","Units":"in","Rept_Date":"2020-12-22 15"},"coordinates":[4766,3750]},{"type":"Point","properties":{"Station_ID":"THDP1","Station_Nam":"HILLSIDE GUN CLUB SNOW","Latitude":"41.66670","Longitude":"-77.03330","Snowdepth":"19.000","Units":"in","Rept_Date":"2020-12-22 15"},"coordinates":[4742,3740]},{"type":"Point","properties":{"Station_ID":"THCP1","Station_Nam":"COVINGTON SNOW","Latitude":"41.76670","Longitude":"-77.05000","Snowdepth":"19.000","Units":"in","Rept_Date":"2020-12-22 15"},"coordinates":[4738,3802]},{"type":"Point","properties":{"Station_ID":"PERV1","Station_Nam":"PERU","Latitude":"43.26670","Longitude":"-72.90000","Snowdepth":"19.000","Units":"in","Rept_Date":"2020-12-22 12"},"coordinates":[5712,4736]},{"type":"Point","properties":{"Station_ID":"NH-GR-55","Station_Nam":"BRISTOL 3.7 E, NH","Latitude":"43.60517","Longitude":"-71.67158","Snowdepth":"19.000","Units":"in","Rept_Date":"2020-12-22 11"},"coordinates":[6000,4946]},{"type":"Point","properties":{"Station_ID":"NY-SR-39","Station_Nam":"ROUND LAKE 2.2 NNE, NY","Latitude":"42.96653","Longitude":"-73.77770","Snowdepth":"18.500","Units":"in","Rept_Date":"2020-12-22 12"},"coordinates":[5506,4549]},{"type":"Point","properties":{"Station_ID":"NY-BM-14","Station_Nam":"WHITNEY POINT 1.7 SSE, NY","Latitude":"42.30837","Longitude":"-75.95690","Snowdepth":"18.500","Units":"in","Rept_Date":"2020-12-22 12"},"coordinates":[4995,4139]},{"type":"Point","properties":{"Station_ID":"THFP1","Station_Nam":"FALL BROOK SNOW","Latitude":"41.70000","Longitude":"-76.86670","Snowdepth":"18.000","Units":"in","Rept_Date":"2020-12-22 15"},"coordinates":[4781,3761]},{"type":"Point","properties":{"Station_ID":"NY-SR-16","Station_Nam":"BALLSTON SPA 2.9 ESE, NY","Latitude":"42.99000","Longitude":"-73.80000","Snowdepth":"18.000","Units":"in","Rept_Date":"2020-12-22 12"},"coordinates":[5501,4563]},{"type":"Point","properties":{"Station_ID":"VT-WH-17","Station_Nam":"ROCKINGHAM 1.1 NNE, VT","Latitude":"43.20388","Longitude":"-72.48222","Snowdepth":"17.500","Units":"in","Rept_Date":"2020-12-22 12"},"coordinates":[5810,4696]},{"type":"Point","properties":{"Station_ID":"MLZ","Station_Nam":"MLZ","Latitude":"50.66170","Longitude":"-68.82360","Snowdepth":"17.126","Units":"in","Rept_Date":"2020-12-22 12"},"coordinates":[6669,9336]},{"type":"Point","properties":{"Station_ID":"THGP1","Station_Nam":"CHARLESTON SNOW","Latitude":"41.80000","Longitude":"-77.23330","Snowdepth":"17.000","Units":"in","Rept_Date":"2020-12-22 15"},"coordinates":[4695,3823]},{"type":"Point","properties":{"Station_ID":"NY-SC-20","Station_Nam":"ROTTERDAM 0.9 NW, NY","Latitude":"42.78862","Longitude":"-73.96671","Snowdepth":"17.000","Units":"in","Rept_Date":"2020-12-22 13"},"coordinates":[5462,4438]},{"type":"Point","properties":{"Station_ID":"NY-AB-1","Station_Nam":"ALTAMONT 2.7 SSW, NY","Latitude":"42.66696","Longitude":"-74.05090","Snowdepth":"17.000","Units":"in","Rept_Date":"2020-12-22 12"},"coordinates":[5442,4362]},{"type":"Point","properties":{"Station_ID":"NH-BK-9","Station_Nam":"MEREDITH 2.9 SSW, NH","Latitude":"43.62245","Longitude":"-71.53510","Snowdepth":"17.000","Units":"in","Rept_Date":"2020-12-22 12"},"coordinates":[6032,4957]},{"type":"Point","properties":{"Station_ID":"NH-BK-29","Station_Nam":"SANBORNTON 2.3 WNW, NH","Latitude":"43.49730","Longitude":"-71.62800","Snowdepth":"17.000","Units":"in","Rept_Date":"2020-12-22 12"},"coordinates":[6011,4879]},{"type":"Point","properties":{"Station_ID":"COVP1","Station_Nam":"COVINGTON 2WSW","Latitude":"41.73330","Longitude":"-77.11670","Snowdepth":"17.000","Units":"in","Rept_Date":"2020-12-22 12"},"coordinates":[4722,3782]},{"type":"Point","properties":{"Station_ID":"PTLQ6","Station_Nam":"PORTAGE LAKE","Latitude":"49.06950","Longitude":"-86.65940","Snowdepth":"16.770","Units":"in","Rept_Date":"2020-12-23 06"},"coordinates":[2483,8346]},{"type":"Point","properties":{"Station_ID":"PA-BF-20","Station_Nam":"SAYRE 0.7 S, PA","Latitude":"41.97510","Longitude":"-76.52100","Snowdepth":"16.500","Units":"in","Rept_Date":"2020-12-22 12"},"coordinates":[4862,3932]},{"type":"Point","properties":{"Station_ID":"NY-OT-29","Station_Nam":"NEW BERLIN 1.5 NE, NY","Latitude":"42.63689","Longitude":"-75.31090","Snowdepth":"16.400","Units":"in","Rept_Date":"2020-12-22 13"},"coordinates":[5146,4344]},{"type":"Point","properties":{"Station_ID":"VT-WR-16","Station_Nam":"HARTLAND 1.6 NW, VT","Latitude":"43.55472","Longitude":"-72.42371","Snowdepth":"16.000","Units":"in","Rept_Date":"2020-12-22 12"},"coordinates":[5824,4915]},{"type":"Point","properties":{"Station_ID":"STVP1","Station_Nam":"GEO B STEVENSON LAKE","Latitude":"41.40000","Longitude":"-78.01670","Snowdepth":"16.000","Units":"in","Rept_Date":"2020-12-22 12"},"coordinates":[4511,3574]},{"type":"Point","properties":{"Station_ID":"SHHN6","Station_Nam":"SCHOHARIE VILLAGE","Latitude":"42.66500","Longitude":"-74.30360","Snowdepth":"16.000","Units":"in","Rept_Date":"2020-12-22 12"},"coordinates":[5383,4361]},{"type":"Point","properties":{"Station_ID":"NY-TG-5","Station_Nam":"BERKSHIRE 2.0 N, NY","Latitude":"42.33463","Longitude":"-76.18990","Snowdepth":"16.000","Units":"in","Rept_Date":"2020-12-22 13"},"coordinates":[4940,4156]},{"type":"Point","properties":{"Station_ID":"NY-TG-26","Station_Nam":"CANDOR 0.7 NW, NY","Latitude":"42.23428","Longitude":"-76.34758","Snowdepth":"16.000","Units":"in","Rept_Date":"2020-12-22 12"},"coordinates":[4903,4093]},{"type":"Point","properties":{"Station_ID":"NY-RN-20","Station_Nam":"TROY 2.1 NNE, NY","Latitude":"42.75930","Longitude":"-73.65283","Snowdepth":"16.000","Units":"in","Rept_Date":"2020-12-22 14"},"coordinates":[5535,4420]},{"type":"Point","properties":{"Station_ID":"NY-OT-31","Station_Nam":"MARYLAND 1.8 W, NY","Latitude":"42.53310","Longitude":"-74.92090","Snowdepth":"16.000","Units":"in","Rept_Date":"2020-12-22 13"},"coordinates":[5238,4279]},{"type":"Point","properties":{"Station_ID":"NY-BM-7","Station_Nam":"VESTAL 2.8 SSE, NY","Latitude":"42.04930","Longitude":"-76.02880","Snowdepth":"16.000","Units":"in","Rept_Date":"2020-12-22 14"},"coordinates":[4978,3978]},{"type":"Point","properties":{"Station_ID":"NH-RC-48","Station_Nam":"NORTHWOOD 2.9 WSW, NH","Latitude":"43.20114","Longitude":"-71.25750","Snowdepth":"16.000","Units":"in","Rept_Date":"2020-12-22 12"},"coordinates":[6098,4695]},{"type":"Point","properties":{"Station_ID":"NH-BK-2","Station_Nam":"BELMONT 1.7 SW, NH","Latitude":"43.43556","Longitude":"-71.50690","Snowdepth":"16.000","Units":"in","Rept_Date":"2020-12-22 12"},"coordinates":[6039,4841]},{"type":"Point","properties":{"Station_ID":"ME-YK-3","Station_Nam":"HOLLIS CENTER 5.4 NW, ME","Latitude":"43.64750","Longitude":"-70.67510","Snowdepth":"16.000","Units":"in","Rept_Date":"2020-12-22 12"},"coordinates":[6234,4972]},{"type":"Point","properties":{"Station_ID":"MA-BE-21","Station_Nam":"CHESHIRE 0.5 NNW, MA","Latitude":"42.56315","Longitude":"-73.15701","Snowdepth":"16.000","Units":"in","Rept_Date":"2020-12-22 12"},"coordinates":[5652,4298]},{"type":"Point","properties":{"Station_ID":"HTLN3","Station_Nam":"HERMIT LAKE SNOWPLOT","Latitude":"44.26130","Longitude":"-71.28330","Snowdepth":"16.000","Units":"in","Rept_Date":"2020-12-22 10"},"coordinates":[6092,5354]},{"type":"Point","properties":{"Station_ID":"HOLM1","Station_Nam":"HOLLIS","Latitude":"43.64750","Longitude":"-70.67490","Snowdepth":"16.000","Units":"in","Rept_Date":"2020-12-22 12"},"coordinates":[6234,4972]},{"type":"Point","properties":{"Station_ID":"GNEN6","Station_Nam":"GREENE","Latitude":"42.32440","Longitude":"-75.77170","Snowdepth":"16.000","Units":"in","Rept_Date":"2020-12-22 15"},"coordinates":[5038,4149]},{"type":"Point","properties":{"Station_ID":"QGO","Station_Nam":"QGO","Latitude":"48.85500","Longitude":"-74.20640","Snowdepth":"15.551","Units":"in","Rept_Date":"2020-12-22 12"},"coordinates":[5405,8212]},{"type":"Point","properties":{"Station_ID":"VT-BN-7","Station_Nam":"MANCHESTER 2.8 ENE, VT","Latitude":"43.17274","Longitude":"-73.01811","Snowdepth":"15.500","Units":"in","Rept_Date":"2020-12-22 12"},"coordinates":[5684,4677]},{"type":"Point","properties":{"Station_ID":"NY-AB-54","Station_Nam":"ALTAMONT 2.9 SW, NY","Latitude":"42.68182","Longitude":"-74.08326","Snowdepth":"15.500","Units":"in","Rept_Date":"2020-12-22 12"},"coordinates":[5434,4372]},{"type":"Point","properties":{"Station_ID":"NH-MR-60","Station_Nam":"SOUTH SUTTON 1.3 SE, NH","Latitude":"43.29531","Longitude":"-71.90238","Snowdepth":"15.500","Units":"in","Rept_Date":"2020-12-22 13"},"coordinates":[5946,4753]},{"type":"Point","properties":{"Station_ID":"VT-RT-25","Station_Nam":"WALLINGFORD 2.7 SSW, VT","Latitude":"43.43371","Longitude":"-72.99031","Snowdepth":"15.200","Units":"in","Rept_Date":"2020-12-22 12"},"coordinates":[5691,4839]},{"type":"Point","properties":{"Station_ID":"WPBN6","Station_Nam":"UPPER LISLE SNOW","Latitude":"42.40000","Longitude":"-75.96670","Snowdepth":"15.000","Units":"in","Rept_Date":"2020-12-22 12"},"coordinates":[4992,4196]},{"type":"Point","properties":{"Station_ID":"WPAN6","Station_Nam":"WHITNEY POINT DAM SNOW","Latitude":"42.35000","Longitude":"-75.96670","Snowdepth":"15.000","Units":"in","Rept_Date":"2020-12-22 12"},"coordinates":[4992,4165]},{"type":"Point","properties":{"Station_ID":"WLLP1","Station_Nam":"WELLSBORO 4 SW","Latitude":"41.70030","Longitude":"-77.38940","Snowdepth":"15.000","Units":"in","Rept_Date":"2020-12-22 12"},"coordinates":[4658,3761]},{"type":"Point","properties":{"Station_ID":"WITN6","Station_Nam":"WHITNEY POINT DAM","Latitude":"42.34180","Longitude":"-75.96530","Snowdepth":"15.000","Units":"in","Rept_Date":"2020-12-22 12"},"coordinates":[4993,4160]},{"type":"Point","properties":{"Station_ID":"VT-WH-19","Station_Nam":"EAST DOVER 1.8 N, VT","Latitude":"42.97658","Longitude":"-72.77637","Snowdepth":"15.000","Units":"in","Rept_Date":"2020-12-22 12"},"coordinates":[5741,4555]},{"type":"Point","properties":{"Station_ID":"THBP1","Station_Nam":"CANOE CREEK SNOW","Latitude":"41.83330","Longitude":"-77.03330","Snowdepth":"15.000","Units":"in","Rept_Date":"2020-12-22 15"},"coordinates":[4742,3844]},{"type":"Point","properties":{"Station_ID":"QLB","Station_Nam":"QLB","Latitude":"50.72360","Longitude":"-75.10000","Snowdepth":"15.000","Units":"in","Rept_Date":"2020-12-22 12"},"coordinates":[5196,9375]},{"type":"Point","properties":{"Station_ID":"NY-GR-7","Station_Nam":"GREENVILLE 0.7 E, NY","Latitude":"42.41400","Longitude":"-74.00900","Snowdepth":"15.000","Units":"in","Rept_Date":"2020-12-22 10"},"coordinates":[5452,4205]},{"type":"Point","properties":{"Station_ID":"NH-ST-31","Station_Nam":"STRAFFORD 2.9 N, NH","Latitude":"43.31175","Longitude":"-71.13510","Snowdepth":"15.000","Units":"in","Rept_Date":"2020-12-22 13"},"coordinates":[6126,4764]},{"type":"Point","properties":{"Station_ID":"LAUP1","Station_Nam":"1.5MI S OF RT 30 ON SMIT (LAUREL RIDGE)","Latitude":"40.05000","Longitude":"-79.22060","Snowdepth":"15.000","Units":"in","Rept_Date":"2020-12-22 12"},"coordinates":[4229,2734]},{"type":"Point","properties":{"Station_ID":"LAPP1","Station_Nam":"LAPORTE,PA","Latitude":"41.42470","Longitude":"-76.49250","Snowdepth":"15.000","Units":"in","Rept_Date":"2020-12-22 11"},"coordinates":[4869,3590]},{"type":"Point","properties":{"Station_ID":"CON","Station_Nam":"CONCORD MUNI ARPT","Latitude":"43.20280","Longitude":"-71.50220","Snowdepth":"15.000","Units":"in","Rept_Date":"2020-12-22 12"},"coordinates":[6040,4696]},{"type":"Point","properties":{"Station_ID":"BSKN6","Station_Nam":"BUSKIRK","Latitude":"42.93610","Longitude":"-73.43250","Snowdepth":"15.000","Units":"in","Rept_Date":"2020-12-22 12"},"coordinates":[5587,4530]},{"type":"Point","properties":{"Station_ID":"HLSN3","Station_Nam":"HERMIT LAKE SNOTEL","Latitude":"44.26130","Longitude":"-71.28320","Snowdepth":"14.920","Units":"in","Rept_Date":"2020-12-23 06"},"coordinates":[6092,5354]},{"type":"Point","properties":{"Station_ID":"DVLQ6","Station_Nam":"DEVIOUS LAKE","Latitude":"49.19890","Longitude":"-87.76440","Snowdepth":"14.720","Units":"in","Rept_Date":"2020-12-23 06"},"coordinates":[2224,8426]},{"type":"Point","properties":{"Station_ID":"VT-WR-10","Station_Nam":"WEST WINDSOR 1.7 S, VT","Latitude":"43.46164","Longitude":"-72.49197","Snowdepth":"14.500","Units":"in","Rept_Date":"2020-12-22 12"},"coordinates":[5808,4857]},{"type":"Point","properties":{"Station_ID":"VT-RT-24","Station_Nam":"MIDDLETOWN SPRINGS 0.9 WNW, VT","Latitude":"43.49194","Longitude":"-73.13350","Snowdepth":"14.500","Units":"in","Rept_Date":"2020-12-22 12"},"coordinates":[5657,4876]},{"type":"Point","properties":{"Station_ID":"NY-MG-5","Station_Nam":"AMSTERDAM 1.0 NNW, NY","Latitude":"42.95467","Longitude":"-74.20085","Snowdepth":"14.500","Units":"in","Rept_Date":"2020-12-22 13"},"coordinates":[5407,4541]},{"type":"Point","properties":{"Station_ID":"NY-CN-9","Station_Nam":"NORWICH 5.4 W, NY","Latitude":"42.53356","Longitude":"-75.63060","Snowdepth":"14.500","Units":"in","Rept_Date":"2020-12-22 12"},"coordinates":[5071,4279]},{"type":"Point","properties":{"Station_ID":"NH-MR-4","Station_Nam":"BOW 1.6 NW, NH","Latitude":"43.14994","Longitude":"-71.55650","Snowdepth":"14.500","Units":"in","Rept_Date":"2020-12-22 12"},"coordinates":[6027,4663]},{"type":"Point","properties":{"Station_ID":"NH-GR-1","Station_Nam":"BRISTOL 0.4 SSE, NH","Latitude":"43.59490","Longitude":"-71.74140","Snowdepth":"14.500","Units":"in","Rept_Date":"2020-12-22 12"},"coordinates":[5984,4940]},{"type":"Point","properties":{"Station_ID":"WPCN6","Station_Nam":"WILLET 2WNW SNOW","Latitude":"42.48330","Longitude":"-75.93330","Snowdepth":"14.000","Units":"in","Rept_Date":"2020-12-22 12"},"coordinates":[5000,4248]},{"type":"Point","properties":{"Station_ID":"WNDP1","Station_Nam":"WINDBER COUNTY CLUB","Latitude":"40.28780","Longitude":"-78.77530","Snowdepth":"14.000","Units":"in","Rept_Date":"2020-12-22 12"},"coordinates":[4333,2882]},{"type":"Point","properties":{"Station_ID":"WHPN3","Station_Nam":"HOPKINTON LAKE","Latitude":"43.18900","Longitude":"-71.74600","Snowdepth":"14.000","Units":"in","Rept_Date":"2020-12-22 12"},"coordinates":[5983,4687]},{"type":"Point","properties":{"Station_ID":"WDSV1","Station_Nam":"WOODSTOCK","Latitude":"43.63030","Longitude":"-72.50720","Snowdepth":"14.000","Units":"in","Rept_Date":"2020-12-22 13"},"coordinates":[5804,4962]},{"type":"Point","properties":{"Station_ID":"VT-WR-2","Station_Nam":"POMFRET 2.6 N, VT","Latitude":"43.74230","Longitude":"-72.52550","Snowdepth":"14.000","Units":"in","Rept_Date":"2020-12-22 12"},"coordinates":[5800,5031]},{"type":"Point","properties":{"Station_ID":"VT-WH-16","Station_Nam":"WILMINGTON 0.6 WNW, VT","Latitude":"42.87064","Longitude":"-72.88180","Snowdepth":"14.000","Units":"in","Rept_Date":"2020-12-22 11"},"coordinates":[5716,4489]},{"type":"Point","properties":{"Station_ID":"VT-RT-7","Station_Nam":"RUTLAND 1.2 N, VT","Latitude":"43.62533","Longitude":"-72.97790","Snowdepth":"14.000","Units":"in","Rept_Date":"2020-12-22 12"},"coordinates":[5694,4959]},{"type":"Point","properties":{"Station_ID":"VT-BN-12","Station_Nam":"STAMFORD 5.0 NNE, VT","Latitude":"42.82000","Longitude":"-73.02000","Snowdepth":"14.000","Units":"in","Rept_Date":"2020-12-22 21"},"coordinates":[5684,4458]},{"type":"Point","properties":{"Station_ID":"RUTV1","Station_Nam":"RUTLAND","Latitude":"43.62530","Longitude":"-72.97810","Snowdepth":"14.000","Units":"in","Rept_Date":"2020-12-22 12"},"coordinates":[5694,4959]},{"type":"Point","properties":{"Station_ID":"PHON6","Station_Nam":"PHOENICIA 2SW","Latitude":"42.06420","Longitude":"-74.34080","Snowdepth":"14.000","Units":"in","Rept_Date":"2020-12-22 11"},"coordinates":[5374,3987]},{"type":"Point","properties":{"Station_ID":"NY-CR-5","Station_Nam":"MARATHON 1.0 NW, NY","Latitude":"42.45161","Longitude":"-76.04370","Snowdepth":"14.000","Units":"in","Rept_Date":"2020-12-22 12"},"coordinates":[4974,4228]},{"type":"Point","properties":{"Station_ID":"NY-CR-1","Station_Nam":"FREETOWN 1.0 NE, NY","Latitude":"42.53299","Longitude":"-76.02111","Snowdepth":"14.000","Units":"in","Rept_Date":"2020-12-22 12"},"coordinates":[4980,4279]},{"type":"Point","properties":{"Station_ID":"NRWN6","Station_Nam":"NORWICH","Latitude":"42.51170","Longitude":"-75.51970","Snowdepth":"14.000","Units":"in","Rept_Date":"2020-12-22 12"},"coordinates":[5097,4266]},{"type":"Point","properties":{"Station_ID":"NH-SL-3","Station_Nam":"WEST UNITY 0.7 WSW, NH","Latitude":"43.28652","Longitude":"-72.32970","Snowdepth":"14.000","Units":"in","Rept_Date":"2020-12-22 12"},"coordinates":[5846,4748]},{"type":"Point","properties":{"Station_ID":"NH-GR-46","Station_Nam":"ASHLAND 2.4 NNW, NH","Latitude":"43.72963","Longitude":"-71.64213","Snowdepth":"14.000","Units":"in","Rept_Date":"2020-12-22 12"},"coordinates":[6007,5024]},{"type":"Point","properties":{"Station_ID":"NH-BK-1","Station_Nam":"TILTON NORTHFIELD 3.3 NE, NH","Latitude":"43.48000","Longitude":"-71.55000","Snowdepth":"14.000","Units":"in","Rept_Date":"2020-12-22 12"},"coordinates":[6029,4868]},{"type":"Point","properties":{"Station_ID":"HVJP1","Station_Nam":"HIDDEN VALLEY COOP","Latitude":"40.04200","Longitude":"-79.25660","Snowdepth":"14.000","Units":"in","Rept_Date":"2020-12-22 13"},"coordinates":[4220,2729]},{"type":"Point","properties":{"Station_ID":"NY-UL-23","Station_Nam":"WEST HURLEY 0.1 S, NY","Latitude":"42.00455","Longitude":"-74.11094","Snowdepth":"13.500","Units":"in","Rept_Date":"2020-12-22 12"},"coordinates":[5428,3950]},{"type":"Point","properties":{"Station_ID":"NY-DL-24","Station_Nam":"WALTON 6.5 W, NY","Latitude":"42.16534","Longitude":"-75.25850","Snowdepth":"13.500","Units":"in","Rept_Date":"2020-12-22 12"},"coordinates":[5159,4050]},{"type":"Point","properties":{"Station_ID":"NY-BM-21","Station_Nam":"WINDSOR 8.0 SE, NY","Latitude":"42.00992","Longitude":"-75.51420","Snowdepth":"13.500","Units":"in","Rept_Date":"2020-12-22 12"},"coordinates":[5099,3954]},{"type":"Point","properties":{"Station_ID":"NY-AB-56","Station_Nam":"ALBANY 2.4 WNW, NY","Latitude":"42.67617","Longitude":"-73.84364","Snowdepth":"13.500","Units":"in","Rept_Date":"2020-12-22 12"},"coordinates":[5491,4368]},{"type":"Point","properties":{"Station_ID":"NH-RC-18","Station_Nam":"DEERFIELD 3.2 WSW, NH","Latitude":"43.13350","Longitude":"-71.27940","Snowdepth":"13.500","Units":"in","Rept_Date":"2020-12-22 12"},"coordinates":[6092,4653]},{"type":"Point","properties":{"Station_ID":"NH-MR-45","Station_Nam":"NORTHFIELD 2.8 E, NH","Latitude":"43.43945","Longitude":"-71.53730","Snowdepth":"13.500","Units":"in","Rept_Date":"2020-12-22 12"},"coordinates":[6032,4843]},{"type":"Point","properties":{"Station_ID":"ME-CM-125","Station_Nam":"GRAY 2.9 SSE, ME","Latitude":"43.84640","Longitude":"-70.31340","Snowdepth":"13.500","Units":"in","Rept_Date":"2020-12-22 12"},"coordinates":[6319,5096]},{"type":"Point","properties":{"Station_ID":"NY-AB-59","Station_Nam":"ALBANY 2.4 W, NY","Latitude":"42.66840","Longitude":"-73.84706","Snowdepth":"13.400","Units":"in","Rept_Date":"2020-12-22 13"},"coordinates":[5490,4363]},{"type":"Point","properties":{"Station_ID":"WPDN6","Station_Nam":"CINCINNATUS 2NW SNOW","Latitude":"42.55000","Longitude":"-75.93330","Snowdepth":"13.000","Units":"in","Rept_Date":"2020-12-22 12"},"coordinates":[5000,4290]},{"type":"Point","properties":{"Station_ID":"WNDM1","Station_Nam":"WINDHAM 2NW","Latitude":"43.85670","Longitude":"-70.46630","Snowdepth":"13.000","Units":"in","Rept_Date":"2020-12-22 12"},"coordinates":[6283,5103]},{"type":"Point","properties":{"Station_ID":"WALN6","Station_Nam":"WALTON 2","Latitude":"42.18470","Longitude":"-75.14550","Snowdepth":"13.000","Units":"in","Rept_Date":"2020-12-22 10"},"coordinates":[5185,4062]},{"type":"Point","properties":{"Station_ID":"VT-WH-30","Station_Nam":"MARLBORO 2.0 NNE, VT","Latitude":"42.88484","Longitude":"-72.70935","Snowdepth":"13.000","Units":"in","Rept_Date":"2020-12-22 13"},"coordinates":[5757,4498]},{"type":"Point","properties":{"Station_ID":"TGRP1","Station_Nam":"TIOGA RIVER AT TIOGA","Latitude":"41.90830","Longitude":"-77.12920","Snowdepth":"13.000","Units":"in","Rept_Date":"2020-12-22 12"},"coordinates":[4720,3890]},{"type":"Point","properties":{"Station_ID":"SWGP1","Station_Nam":"STILLWATER DAM 2NE SNOW N SLOPE","Latitude":"41.71720","Longitude":"-75.46470","Snowdepth":"13.000","Units":"in","Rept_Date":"2020-12-22 13"},"coordinates":[5110,3772]},{"type":"Point","properties":{"Station_ID":"NY-SR-29","Station_Nam":"CLIFTON PARK 2.7 S, NY","Latitude":"42.82126","Longitude":"-73.78545","Snowdepth":"13.000","Units":"in","Rept_Date":"2020-12-22 11"},"coordinates":[5504,4458]},{"type":"Point","properties":{"Station_ID":"NY-SC-11","Station_Nam":"SCHENECTADY 3.3 E, NY","Latitude":"42.79382","Longitude":"-73.86390","Snowdepth":"13.000","Units":"in","Rept_Date":"2020-12-22 14"},"coordinates":[5486,4441]},{"type":"Point","properties":{"Station_ID":"NY-CM-24","Station_Nam":"CHEMUNG 5.7 N, NY","Latitude":"42.09130","Longitude":"-76.62810","Snowdepth":"13.000","Units":"in","Rept_Date":"2020-12-22 14"},"coordinates":[4837,4004]},{"type":"Point","properties":{"Station_ID":"NY-AB-23","Station_Nam":"ALBANY 0.7 SW, NY","Latitude":"42.66019","Longitude":"-73.81030","Snowdepth":"13.000","Units":"in","Rept_Date":"2020-12-22 12"},"coordinates":[5498,4358]},{"type":"Point","properties":{"Station_ID":"NOHV1","Station_Nam":"NORTH HARTLAND LAKE","Latitude":"43.60270","Longitude":"-72.36210","Snowdepth":"13.000","Units":"in","Rept_Date":"2020-12-22 12"},"coordinates":[5838,4945]},{"type":"Point","properties":{"Station_ID":"MRLV1","Station_Nam":"MARLBORO","Latitude":"42.86000","Longitude":"-72.72000","Snowdepth":"13.000","Units":"in","Rept_Date":"2020-12-22 13"},"coordinates":[5754,4483]},{"type":"Point","properties":{"Station_ID":"HCKN3","Station_Nam":"HANCOCK","Latitude":"42.96940","Longitude":"-71.95290","Snowdepth":"13.000","Units":"in","Rept_Date":"2020-12-22 12"},"coordinates":[5934,4551]},{"type":"Point","properties":{"Station_ID":"GSCP1","Station_Nam":"GLEN VALLEY CAMP SNOW","Latitude":"41.55000","Longitude":"-77.95000","Snowdepth":"13.000","Units":"in","Rept_Date":"2020-12-22 14"},"coordinates":[4527,3668]},{"type":"Point","properties":{"Station_ID":"GSAP1","Station_Nam":"STEVENSON DAM SNOW","Latitude":"41.40000","Longitude":"-78.01670","Snowdepth":"13.000","Units":"in","Rept_Date":"2020-12-22 14"},"coordinates":[4511,3574]},{"type":"Point","properties":{"Station_ID":"CNKN6","Station_Nam":"CONKLINGVILLE DAM","Latitude":"43.32030","Longitude":"-73.92560","Snowdepth":"13.000","Units":"in","Rept_Date":"2020-12-22 13"},"coordinates":[5471,4769]},{"type":"Point","properties":{"Station_ID":"BDDN3","Station_Nam":"BRADFORD 2","Latitude":"43.25880","Longitude":"-72.00210","Snowdepth":"13.000","Units":"in","Rept_Date":"2020-12-22 15"},"coordinates":[5923,4731]},{"type":"Point","properties":{"Station_ID":"ME-CM-54","Station_Nam":"WINDHAM 3.9 NW, ME","Latitude":"43.85787","Longitude":"-70.46200","Snowdepth":"12.900","Units":"in","Rept_Date":"2020-12-22 12"},"coordinates":[6284,5103]},{"type":"Point","properties":{"Station_ID":"QMA","Station_Nam":"QMA","Latitude":"50.10330","Longitude":"-70.47190","Snowdepth":"12.716","Units":"in","Rept_Date":"2020-12-22 12"},"coordinates":[6282,8989]},{"type":"Point","properties":{"Station_ID":"VT-WH-25","Station_Nam":"PUTNEY 0.7 NE, VT","Latitude":"42.98326","Longitude":"-72.51215","Snowdepth":"12.700","Units":"in","Rept_Date":"2020-12-22 13"},"coordinates":[5803,4559]},{"type":"Point","properties":{"Station_ID":"NY-RN-13","Station_Nam":"TROY 6.9 NE, NY","Latitude":"42.79035","Longitude":"-73.56226","Snowdepth":"12.500","Units":"in","Rept_Date":"2020-12-22 12"},"coordinates":[5557,4439]},{"type":"Point","properties":{"Station_ID":"QWG","Station_Nam":"QWG","Latitude":"48.48890","Longitude":"-73.45940","Snowdepth":"12.441","Units":"in","Rept_Date":"2020-12-22 12"},"coordinates":[5581,7985]},{"type":"Point","properties":{"Station_ID":"WV-PR-10","Station_Nam":"TERRA ALTA 4.9 NNE, WV","Latitude":"39.51024","Longitude":"-79.51024","Snowdepth":"12.100","Units":"in","Rept_Date":"2020-12-22 13"},"coordinates":[4161,2399]},{"type":"Point","properties":{"Station_ID":"TRIQ6","Station_Nam":"TRIO LAKE","Latitude":"49.22880","Longitude":"-87.22920","Snowdepth":"12.050","Units":"in","Rept_Date":"2020-12-23 06"},"coordinates":[2349,8445]},{"type":"Point","properties":{"Station_ID":"QMD","Station_Nam":"QMD","Latitude":"49.29060","Longitude":"-75.84500","Snowdepth":"12.047","Units":"in","Rept_Date":"2020-12-22 12"},"coordinates":[5021,8483]},{"type":"Point","properties":{"Station_ID":"QCX","Station_Nam":"QCX","Latitude":"51.32830","Longitude":"-70.08060","Snowdepth":"12.047","Units":"in","Rept_Date":"2020-12-22 12"},"coordinates":[6374,9751]},{"type":"Point","properties":{"Station_ID":"WOLN3","Station_Nam":"WOLFEBORO","Latitude":"43.59020","Longitude":"-71.20190","Snowdepth":"12.000","Units":"in","Rept_Date":"2020-12-22 12"},"coordinates":[6111,4937]},{"type":"Point","properties":{"Station_ID":"VT-WR-17","Station_Nam":"ROCHESTER 2.3 NE, VT","Latitude":"43.89418","Longitude":"-72.76992","Snowdepth":"12.000","Units":"in","Rept_Date":"2020-12-22 12"},"coordinates":[5743,5126]},{"type":"Point","properties":{"Station_ID":"TRYN6","Station_Nam":"TROY","Latitude":"42.75080","Longitude":"-73.68550","Snowdepth":"12.000","Units":"in","Rept_Date":"2020-12-22 12"},"coordinates":[5528,4415]},{"type":"Point","properties":{"Station_ID":"THJP1","Station_Nam":"OSGOOD HOLLOWN SNOW","Latitude":"41.86670","Longitude":"-77.31670","Snowdepth":"12.000","Units":"in","Rept_Date":"2020-12-22 15"},"coordinates":[4676,3865]},{"type":"Point","properties":{"Station_ID":"THIP1","Station_Nam":"SAND ROAD SNOW","Latitude":"41.81670","Longitude":"-77.30000","Snowdepth":"12.000","Units":"in","Rept_Date":"2020-12-22 15"},"coordinates":[4679,3833]},{"type":"Point","properties":{"Station_ID":"THAP1","Station_Nam":"TIOGA DAM SITE - SNOW","Latitude":"41.91670","Longitude":"-77.15000","Snowdepth":"12.000","Units":"in","Rept_Date":"2020-12-22 15"},"coordinates":[4715,3896]},{"type":"Point","properties":{"Station_ID":"SWFP1","Station_Nam":"INDEPENDENT LAKE SNOW","Latitude":"41.83330","Longitude":"-75.43330","Snowdepth":"12.000","Units":"in","Rept_Date":"2020-12-22 13"},"coordinates":[5118,3844]},{"type":"Point","properties":{"Station_ID":"SWAP1","Station_Nam":"STILLWATER DAM SNOW","Latitude":"41.70000","Longitude":"-75.48330","Snowdepth":"12.000","Units":"in","Rept_Date":"2020-12-22 13"},"coordinates":[5106,3761]},{"type":"Point","properties":{"Station_ID":"NY-TM-45","Station_Nam":"NEWFIELD HAMLET 4.3 S, NY","Latitude":"42.29650","Longitude":"-76.60676","Snowdepth":"12.000","Units":"in","Rept_Date":"2020-12-22 14"},"coordinates":[4842,4132]},{"type":"Point","properties":{"Station_ID":"NY-DL-32","Station_Nam":"DELHI 6.6 WNW, NY","Latitude":"42.32118","Longitude":"-75.02991","Snowdepth":"12.000","Units":"in","Rept_Date":"2020-12-22 12"},"coordinates":[5212,4147]},{"type":"Point","properties":{"Station_ID":"NY-DL-28","Station_Nam":"FLEISCHMANNS 5.7 N, NY","Latitude":"42.23779","Longitude":"-74.52335","Snowdepth":"12.000","Units":"in","Rept_Date":"2020-12-22 12"},"coordinates":[5331,4095]},{"type":"Point","properties":{"Station_ID":"NY-AB-21","Station_Nam":"NWS ALBANY, NY","Latitude":"42.69180","Longitude":"-73.83110","Snowdepth":"12.000","Units":"in","Rept_Date":"2020-12-22 12"},"coordinates":[5494,4378]},{"type":"Point","properties":{"Station_ID":"NVLN6","Station_Nam":"NORTHVILLE","Latitude":"43.23330","Longitude":"-74.16670","Snowdepth":"12.000","Units":"in","Rept_Date":"2020-12-22 13"},"coordinates":[5415,4715]},{"type":"Point","properties":{"Station_ID":"NH-MR-26","Station_Nam":"PITTSFIELD 0.2 SSW, NH","Latitude":"43.29880","Longitude":"-71.33450","Snowdepth":"12.000","Units":"in","Rept_Date":"2020-12-22 13"},"coordinates":[6080,4756]},{"type":"Point","properties":{"Station_ID":"NH-CR-26","Station_Nam":"CENTER SANDWICH 4.9 E, NH","Latitude":"43.80976","Longitude":"-71.34150","Snowdepth":"12.000","Units":"in","Rept_Date":"2020-12-22 12"},"coordinates":[6078,5073]},{"type":"Point","properties":{"Station_ID":"ME-YK-67","Station_Nam":"CORNISH 5.6 ESE, ME","Latitude":"43.78308","Longitude":"-70.69539","Snowdepth":"12.000","Units":"in","Rept_Date":"2020-12-22 12"},"coordinates":[6230,5057]},{"type":"Point","properties":{"Station_ID":"IPT","Station_Nam":"WILLIAMSPORT RGNL","Latitude":"41.24190","Longitude":"-76.92110","Snowdepth":"12.000","Units":"in","Rept_Date":"2020-12-22 12"},"coordinates":[4768,3476]},{"type":"Point","properties":{"Station_ID":"GSBP1","Station_Nam":"BROOKS RUN SNOW","Latitude":"41.41670","Longitude":"-78.05000","Snowdepth":"12.000","Units":"in","Rept_Date":"2020-12-22 14"},"coordinates":[4503,3585]},{"type":"Point","properties":{"Station_ID":"GRMP1","Station_Nam":"GRAMPIAN, PA","Latitude":"40.96660","Longitude":"-78.58710","Snowdepth":"12.000","Units":"in","Rept_Date":"2020-12-22 11"},"coordinates":[4377,3305]},{"type":"Point","properties":{"Station_ID":"GLTP1","Station_Nam":"GALETON,PA","Latitude":"41.73330","Longitude":"-77.63330","Snowdepth":"12.000","Units":"in","Rept_Date":"2020-12-22 13"},"coordinates":[4601,3782]},{"type":"Point","properties":{"Station_ID":"ESDN6","Station_Nam":"EAST SIDNEY","Latitude":"42.33290","Longitude":"-75.22960","Snowdepth":"12.000","Units":"in","Rept_Date":"2020-12-22 11"},"coordinates":[5165,4155]},{"type":"Point","properties":{"Station_ID":"ESDN3","Station_Nam":"EAST SANDWICH","Latitude":"43.80990","Longitude":"-71.34250","Snowdepth":"12.000","Units":"in","Rept_Date":"2020-12-22 11"},"coordinates":[6078,5074]},{"type":"Point","properties":{"Station_ID":"EMRN6","Station_Nam":"ELMIRA","Latitude":"42.09970","Longitude":"-76.83580","Snowdepth":"12.000","Units":"in","Rept_Date":"2020-12-22 12"},"coordinates":[4788,4010]},{"type":"Point","properties":{"Station_ID":"CT-NH-72","Station_Nam":"NORTHFORD 0.8 SW, CT","Latitude":"41.38554","Longitude":"-72.80240","Snowdepth":"12.000","Units":"in","Rept_Date":"2020-12-22 12"},"coordinates":[5735,3565]},{"type":"Point","properties":{"Station_ID":"COBN6","Station_Nam":"COBLESKILL 2ESE","Latitude":"42.66710","Longitude":"-74.44230","Snowdepth":"12.000","Units":"in","Rept_Date":"2020-12-22 12"},"coordinates":[5350,4363]},{"type":"Point","properties":{"Station_ID":"BKBW2","Station_Nam":"DAVIS.","Latitude":"39.09830","Longitude":"-79.43190","Snowdepth":"12.000","Units":"in","Rept_Date":"2020-12-22 12"},"coordinates":[4179,2142]},{"type":"Point","properties":{"Station_ID":"SOCQ6","Station_Nam":"SOCKET LAKE","Latitude":"50.77870","Longitude":"-91.79300","Snowdepth":"11.810","Units":"in","Rept_Date":"2020-12-23 06"},"coordinates":[1278,9409]},{"type":"Point","properties":{"Station_ID":"KABQ6","Station_Nam":"CAB LAKE","Latitude":"49.59950","Longitude":"-89.17990","Snowdepth":"11.730","Units":"in","Rept_Date":"2020-12-23 06"},"coordinates":[1891,8675]},{"type":"Point","properties":{"Station_ID":"ME-CM-143","Station_Nam":"PORTLAND 5.4 NW, ME","Latitude":"43.72010","Longitude":"-70.28710","Snowdepth":"11.500","Units":"in","Rept_Date":"2020-12-22 12"},"coordinates":[6325,5018]},{"type":"Point","properties":{"Station_ID":"QTM","Station_Nam":"QTM","Latitude":"51.05780","Longitude":"-72.57190","Snowdepth":"11.339","Units":"in","Rept_Date":"2020-12-22 12"},"coordinates":[5789,9583]},{"type":"Point","properties":{"Station_ID":"QLI","Station_Nam":"QLI","Latitude":"50.27080","Longitude":"-73.92280","Snowdepth":"11.339","Units":"in","Rept_Date":"2020-12-22 12"},"coordinates":[5472,9093]},{"type":"Point","properties":{"Station_ID":"QTV","Station_Nam":"QTV","Latitude":"49.66000","Longitude":"-69.35690","Snowdepth":"11.024","Units":"in","Rept_Date":"2020-12-22 12"},"coordinates":[6544,8713]},{"type":"Point","properties":{"Station_ID":"WPFN6","Station_Nam":"MARIPOSA 1NNW SNOW","Latitude":"42.73330","Longitude":"-75.81670","Snowdepth":"11.000","Units":"in","Rept_Date":"2020-12-22 12"},"coordinates":[5028,4404]},{"type":"Point","properties":{"Station_ID":"SWBP1","Station_Nam":"HERRICK CENTER SNOW","Latitude":"41.75000","Longitude":"-75.51670","Snowdepth":"11.000","Units":"in","Rept_Date":"2020-12-22 13"},"coordinates":[5098,3792]},{"type":"Point","properties":{"Station_ID":"PA-NM-3","Station_Nam":"MUNCY 4.7 SSE, PA","Latitude":"41.13610","Longitude":"-76.76508","Snowdepth":"11.000","Units":"in","Rept_Date":"2020-12-22 12"},"coordinates":[4805,3410]},{"type":"Point","properties":{"Station_ID":"PA-EL-1","Station_Nam":"ST. MARYS 1.7 SE, PA","Latitude":"41.41069","Longitude":"-78.53480","Snowdepth":"11.000","Units":"in","Rept_Date":"2020-12-22 11"},"coordinates":[4390,3581]},{"type":"Point","properties":{"Station_ID":"NY-ST-3","Station_Nam":"SOUTH CORNING 4.7 S, NY","Latitude":"42.05672","Longitude":"-77.04850","Snowdepth":"11.000","Units":"in","Rept_Date":"2020-12-22 14"},"coordinates":[4738,3983]},{"type":"Point","properties":{"Station_ID":"NY-RN-1","Station_Nam":"AVERILL PARK 0.9 WNW, NY","Latitude":"42.63910","Longitude":"-73.56980","Snowdepth":"11.000","Units":"in","Rept_Date":"2020-12-22 13"},"coordinates":[5555,4345]},{"type":"Point","properties":{"Station_ID":"NY-DL-25","Station_Nam":"HOBART 4.8 ESE, NY","Latitude":"42.35230","Longitude":"-74.57830","Snowdepth":"11.000","Units":"in","Rept_Date":"2020-12-22 12"},"coordinates":[5318,4167]},{"type":"Point","properties":{"Station_ID":"NH-HL-48","Station_Nam":"GREENVILLE 1.1 ENE, NH","Latitude":"42.77674","Longitude":"-71.77990","Snowdepth":"11.000","Units":"in","Rept_Date":"2020-12-22 13"},"coordinates":[5975,4431]},{"type":"Point","properties":{"Station_ID":"NH-GR-49","Station_Nam":"PLYMOUTH 3.7 N, NH","Latitude":"43.79048","Longitude":"-71.68413","Snowdepth":"11.000","Units":"in","Rept_Date":"2020-12-22 12"},"coordinates":[5997,5061]},{"type":"Point","properties":{"Station_ID":"MMNV1","Station_Nam":"MT. MANSFIELD","Latitude":"44.52480","Longitude":"-72.81540","Snowdepth":"11.000","Units":"in","Rept_Date":"2020-12-22 21"},"coordinates":[5732,5518]},{"type":"Point","properties":{"Station_ID":"ME-CM-18","Station_Nam":"PORTLAND 5.5 WNW, ME","Latitude":"43.70288","Longitude":"-70.30550","Snowdepth":"11.000","Units":"in","Rept_Date":"2020-12-22 12"},"coordinates":[6321,5007]},{"type":"Point","properties":{"Station_ID":"KMWN","Station_Nam":"MOUNT WASHINGTON","Latitude":"44.26666","Longitude":"-71.30000","Snowdepth":"11.000","Units":"in","Rept_Date":"2020-12-23 06"},"coordinates":[6088,5358]},{"type":"Point","properties":{"Station_ID":"KALB","Station_Nam":"ALBANY INTERNATIONAL AIRPORT","Latitude":"42.75000","Longitude":"-73.80000","Snowdepth":"11.000","Units":"in","Rept_Date":"2020-12-23 06"},"coordinates":[5501,4414]},{"type":"Point","properties":{"Station_ID":"GSDP1","Station_Nam":"PROUTY PLACE SP SNOW","Latitude":"41.65000","Longitude":"-77.91670","Snowdepth":"11.000","Units":"in","Rept_Date":"2020-12-22 14"},"coordinates":[4535,3730]},{"type":"Point","properties":{"Station_ID":"EHYM3","Station_Nam":"EAST HAWLEY","Latitude":"42.57410","Longitude":"-72.86790","Snowdepth":"11.000","Units":"in","Rept_Date":"2020-12-22 13"},"coordinates":[5720,4305]},{"type":"Point","properties":{"Station_ID":"CAAW2","Station_Nam":"CANAAN VALLEY","Latitude":"39.05890","Longitude":"-79.44030","Snowdepth":"11.000","Units":"in","Rept_Date":"2020-12-22 14"},"coordinates":[4177,2118]},{"type":"Point","properties":{"Station_ID":"ALB","Station_Nam":"ALBANY INTL AP","Latitude":"42.74920","Longitude":"-73.80190","Snowdepth":"11.000","Units":"in","Rept_Date":"2020-12-23 00"},"coordinates":[5500,4414]},{"type":"Point","properties":{"Station_ID":"PA-LY-2","Station_Nam":"WILLIAMSPORT 2.0 NE, PA","Latitude":"41.25707","Longitude":"-77.00850","Snowdepth":"10.500","Units":"in","Rept_Date":"2020-12-22 12"},"coordinates":[4748,3485]},{"type":"Point","properties":{"Station_ID":"NY-HM-9","Station_Nam":"HOFFMEISTER 2.0 E, NY","Latitude":"43.38695","Longitude":"-74.67723","Snowdepth":"10.500","Units":"in","Rept_Date":"2020-12-22 13"},"coordinates":[5295,4810]},{"type":"Point","properties":{"Station_ID":"ME-AR-18","Station_Nam":"NEW SWEDEN 4.9 NNW, ME","Latitude":"47.01080","Longitude":"-68.14390","Snowdepth":"10.500","Units":"in","Rept_Date":"2020-12-22 12"},"coordinates":[6828,7065]},{"type":"Point","properties":{"Station_ID":"MA-HS-7","Station_Nam":"PLAINFIELD 2.2 SW, MA","Latitude":"42.49272","Longitude":"-72.94540","Snowdepth":"10.500","Units":"in","Rept_Date":"2020-12-22 13"},"coordinates":[5701,4254]},{"type":"Point","properties":{"Station_ID":"QFT","Station_Nam":"QFT","Latitude":"50.83280","Longitude":"-74.40390","Snowdepth":"10.315","Units":"in","Rept_Date":"2020-12-22 12"},"coordinates":[5359,9443]},{"type":"Point","properties":{"Station_ID":"PA-CR-1","Station_Nam":"EMPORIUM 2.6 S, PA","Latitude":"41.47342","Longitude":"-78.24330","Snowdepth":"10.300","Units":"in","Rept_Date":"2020-12-22 12"},"coordinates":[4458,3620]},{"type":"Point","properties":{"Station_ID":"QWE","Station_Nam":"QWE","Latitude":"47.84610","Longitude":"-73.80670","Snowdepth":"10.079","Units":"in","Rept_Date":"2020-12-22 12"},"coordinates":[5499,7585]},{"type":"Point","properties":{"Station_ID":"WPEN6","Station_Nam":"SOUTH OTSELIC 2NNW SNOW","Latitude":"42.66670","Longitude":"-75.80000","Snowdepth":"10.000","Units":"in","Rept_Date":"2020-12-22 12"},"coordinates":[5031,4362]},{"type":"Point","properties":{"Station_ID":"WLXP1","Station_Nam":"GLEN HAZEL,PA","Latitude":"41.56670","Longitude":"-78.60000","Snowdepth":"10.000","Units":"in","Rept_Date":"2020-12-22 12"},"coordinates":[4374,3678]},{"type":"Point","properties":{"Station_ID":"WLFM5","Station_Nam":"WOLF RIDGE ENVIRON LEARNING CENTER","Latitude":"47.38240","Longitude":"-91.19730","Snowdepth":"10.000","Units":"in","Rept_Date":"2020-12-22 13"},"coordinates":[1418,7296]},{"type":"Point","properties":{"Station_ID":"UVDV1","Station_Nam":"NERON SITE AT UNION VILLAGE DAM","Latitude":"43.79140","Longitude":"-72.25720","Snowdepth":"10.000","Units":"in","Rept_Date":"2020-12-22 12"},"coordinates":[5863,5062]},{"type":"Point","properties":{"Station_ID":"SWIP1","Station_Nam":"STILLWATER DAM 2NE SNOW W SLOPE","Latitude":"41.72420","Longitude":"-75.47780","Snowdepth":"10.000","Units":"in","Rept_Date":"2020-12-22 13"},"coordinates":[5107,3776]},{"type":"Point","properties":{"Station_ID":"SWEP1","Station_Nam":"PINE SWAMP SNOW","Latitude":"41.81670","Longitude":"-75.50000","Snowdepth":"10.000","Units":"in","Rept_Date":"2020-12-22 13"},"coordinates":[5102,3833]},{"type":"Point","properties":{"Station_ID":"SWCP1","Station_Nam":"BURNWOOD SNOW","Latitude":"41.78330","Longitude":"-75.51670","Snowdepth":"10.000","Units":"in","Rept_Date":"2020-12-22 13"},"coordinates":[5098,3813]},{"type":"Point","properties":{"Station_ID":"SHBN6","Station_Nam":"SHERBURNE","Latitude":"42.67730","Longitude":"-75.50660","Snowdepth":"10.000","Units":"in","Rept_Date":"2020-12-22 11"},"coordinates":[5100,4369]},{"type":"Point","properties":{"Station_ID":"SDEP1","Station_Nam":"FLAT ROCK 3 NW SNOW","Latitude":"40.85000","Longitude":"-78.15000","Snowdepth":"10.000","Units":"in","Rept_Date":"2020-12-22 14"},"coordinates":[4480,3232]},{"type":"Point","properties":{"Station_ID":"SDDP1","Station_Nam":"WINGATE 2 NW SNOW","Latitude":"40.95000","Longitude":"-77.85000","Snowdepth":"10.000","Units":"in","Rept_Date":"2020-12-22 14"},"coordinates":[4550,3294]},{"type":"Point","properties":{"Station_ID":"ROWM3","Station_Nam":"ROWE 3NE","Latitude":"42.73500","Longitude":"-72.86920","Snowdepth":"10.000","Units":"in","Rept_Date":"2020-12-22 12"},"coordinates":[5719,4405]},{"type":"Point","properties":{"Station_ID":"POLM1","Station_Nam":"POLAND","Latitude":"44.00700","Longitude":"-70.36140","Snowdepth":"10.000","Units":"in","Rept_Date":"2020-12-22 12"},"coordinates":[6308,5196]},{"type":"Point","properties":{"Station_ID":"PA-SS-16","Station_Nam":"NEW MILFORD 1.6 SSE, PA","Latitude":"41.85540","Longitude":"-75.71110","Snowdepth":"10.000","Units":"in","Rept_Date":"2020-12-22 15"},"coordinates":[5052,3858]},{"type":"Point","properties":{"Station_ID":"PA-CN-10","Station_Nam":"BELLEFONTE 4.3 E, PA","Latitude":"40.92492","Longitude":"-77.68690","Snowdepth":"10.000","Units":"in","Rept_Date":"2020-12-22 13"},"coordinates":[4589,3279]},{"type":"Point","properties":{"Station_ID":"NY-DT-34","Station_Nam":"HOPEWELL JUNCTION 2.8 NE, NY","Latitude":"41.61016","Longitude":"-73.75855","Snowdepth":"10.000","Units":"in","Rept_Date":"2020-12-22 11"},"coordinates":[5511,3705]},{"type":"Point","properties":{"Station_ID":"NH-MR-25","Station_Nam":"CHICHESTER 2.7 SSW, NH","Latitude":"43.21150","Longitude":"-71.41430","Snowdepth":"10.000","Units":"in","Rept_Date":"2020-12-22 12"},"coordinates":[6061,4701]},{"type":"Point","properties":{"Station_ID":"NH-CS-10","Station_Nam":"RANDOLPH 1.4 NE, NH","Latitude":"44.38824","Longitude":"-71.26950","Snowdepth":"10.000","Units":"in","Rept_Date":"2020-12-22 12"},"coordinates":[6095,5433]},{"type":"Point","properties":{"Station_ID":"MWN","Station_Nam":"MOUNT WASHINGTON","Latitude":"44.26670","Longitude":"-71.30000","Snowdepth":"10.000","Units":"in","Rept_Date":"2020-12-22 12"},"coordinates":[6088,5358]},{"type":"Point","properties":{"Station_ID":"MECN6","Station_Nam":"MECKLENBURG 4 SW","Latitude":"42.44220","Longitude":"-76.75740","Snowdepth":"10.000","Units":"in","Rept_Date":"2020-12-22 12"},"coordinates":[4807,4223]},{"type":"Point","properties":{"Station_ID":"ME-YK-28","Station_Nam":"BIDDEFORD 1.5 NNE, ME","Latitude":"43.48679","Longitude":"-70.43470","Snowdepth":"10.000","Units":"in","Rept_Date":"2020-12-22 12"},"coordinates":[6291,4872]},{"type":"Point","properties":{"Station_ID":"ME-SG-1","Station_Nam":"BATH 1.1 WSW, ME","Latitude":"43.93063","Longitude":"-69.85730","Snowdepth":"10.000","Units":"in","Rept_Date":"2020-12-22 12"},"coordinates":[6426,5149]},{"type":"Point","properties":{"Station_ID":"MAYP1","Station_Nam":"MAHANOY CITY,PA","Latitude":"40.83330","Longitude":"-76.13330","Snowdepth":"10.000","Units":"in","Rept_Date":"2020-12-22 12"},"coordinates":[4953,3222]},{"type":"Point","properties":{"Station_ID":"LBKV1","Station_Nam":"LYE BROOK","Latitude":"43.05000","Longitude":"-73.03330","Snowdepth":"10.000","Units":"in","Rept_Date":"2020-12-23 06"},"coordinates":[5681,4601]},{"type":"Point","properties":{"Station_ID":"HUBN3","Station_Nam":"HUBBARD BROOK","Latitude":"43.93330","Longitude":"-71.71670","Snowdepth":"10.000","Units":"in","Rept_Date":"2020-12-23 06"},"coordinates":[5990,5150]},{"type":"Point","properties":{"Station_ID":"HERM4","Station_Nam":"HERMAN,MI","Latitude":"46.65000","Longitude":"-88.33330","Snowdepth":"10.000","Units":"in","Rept_Date":"2020-12-22 14"},"coordinates":[2090,6840]},{"type":"Point","properties":{"Station_ID":"GSGP1","Station_Nam":"INEZ SOUTH SLOPE SNOW","Latitude":"41.70000","Longitude":"-78.05000","Snowdepth":"10.000","Units":"in","Rept_Date":"2020-12-22 14"},"coordinates":[4503,3761]},{"type":"Point","properties":{"Station_ID":"GSFP1","Station_Nam":"INEZ NORTH SLOPE SNOW","Latitude":"41.70000","Longitude":"-78.06670","Snowdepth":"10.000","Units":"in","Rept_Date":"2020-12-22 14"},"coordinates":[4500,3761]},{"type":"Point","properties":{"Station_ID":"GSEP1","Station_Nam":"AUSTIN 2 NW SNOW","Latitude":"41.65000","Longitude":"-78.11670","Snowdepth":"10.000","Units":"in","Rept_Date":"2020-12-22 14"},"coordinates":[4488,3730]},{"type":"Point","properties":{"Station_ID":"DURM1","Station_Nam":"DURHAM","Latitude":"43.99960","Longitude":"-70.09630","Snowdepth":"10.000","Units":"in","Rept_Date":"2020-12-22 12"},"coordinates":[6370,5192]},{"type":"Point","properties":{"Station_ID":"DELN6","Station_Nam":"DELHI 2 SE","Latitude":"42.25580","Longitude":"-74.91270","Snowdepth":"10.000","Units":"in","Rept_Date":"2020-12-22 13"},"coordinates":[5240,4107]},{"type":"Point","properties":{"Station_ID":"CORN6","Station_Nam":"CORNING","Latitude":"42.13410","Longitude":"-77.06910","Snowdepth":"10.000","Units":"in","Rept_Date":"2020-12-22 12"},"coordinates":[4734,4031]},{"type":"Point","properties":{"Station_ID":"COPN6","Station_Nam":"COOPERSTOWN","Latitude":"42.71660","Longitude":"-74.92660","Snowdepth":"10.000","Units":"in","Rept_Date":"2020-12-23 05"},"coordinates":[5236,4393]},{"type":"Point","properties":{"Station_ID":"CJRP1","Station_Nam":"COUDERSPORT 7SE","Latitude":"41.73920","Longitude":"-77.97110","Snowdepth":"10.000","Units":"in","Rept_Date":"2020-12-22 12"},"coordinates":[4522,3785]},{"type":"Point","properties":{"Station_ID":"CARM1","Station_Nam":"CARIBOU WFO","Latitude":"46.86810","Longitude":"-68.01250","Snowdepth":"10.000","Units":"in","Rept_Date":"2020-12-23 05"},"coordinates":[6859,6976]},{"type":"Point","properties":{"Station_ID":"CAR","Station_Nam":"CARIBOU, ME","Latitude":"46.86830","Longitude":"-68.01360","Snowdepth":"10.000","Units":"in","Rept_Date":"2020-12-22 12"},"coordinates":[6859,6976]},{"type":"Point","properties":{"Station_ID":"BTHM1","Station_Nam":"BATH","Latitude":"43.93160","Longitude":"-69.85640","Snowdepth":"10.000","Units":"in","Rept_Date":"2020-12-22 12"},"coordinates":[6426,5149]},{"type":"Point","properties":{"Station_ID":"AUDQ6","Station_Nam":"AUDEN","Latitude":"48.52600","Longitude":"-82.57570","Snowdepth":"10.000","Units":"in","Rept_Date":"2020-12-23 06"},"coordinates":[3441,8008]},{"type":"Point","properties":{"Station_ID":"QLP","Station_Nam":"QLP","Latitude":"48.13920","Longitude":"-72.63830","Snowdepth":"9.803","Units":"in","Rept_Date":"2020-12-22 12"},"coordinates":[5774,7767]},{"type":"Point","properties":{"Station_ID":"PA-SS-19","Station_Nam":"HARFORD 1.4 NNE, PA","Latitude":"41.80262","Longitude":"-75.69715","Snowdepth":"9.800","Units":"in","Rept_Date":"2020-12-22 12"},"coordinates":[5056,3825]},{"type":"Point","properties":{"Station_ID":"PA-PT-2","Station_Nam":"ROULETTE 1.8 NNE, PA","Latitude":"41.80759","Longitude":"-78.14140","Snowdepth":"9.800","Units":"in","Rept_Date":"2020-12-22 12"},"coordinates":[4482,3828]},{"type":"Point","properties":{"Station_ID":"NY-HR-18","Station_Nam":"SALISBURY CENTER 1.8 NW, NY","Latitude":"43.16260","Longitude":"-74.80880","Snowdepth":"9.800","Units":"in","Rept_Date":"2020-12-22 10"},"coordinates":[5264,4671]},{"type":"Point","properties":{"Station_ID":"QGD","Station_Nam":"QGD","Latitude":"51.11140","Longitude":"-67.13940","Snowdepth":"9.528","Units":"in","Rept_Date":"2020-12-22 12"},"coordinates":[7064,9616]},{"type":"Point","properties":{"Station_ID":"VT-BN-13","Station_Nam":"NORTH BENNINGTON 0.5 N, VT","Latitude":"42.93714","Longitude":"-73.24389","Snowdepth":"9.500","Units":"in","Rept_Date":"2020-12-22 12"},"coordinates":[5631,4531]},{"type":"Point","properties":{"Station_ID":"PA-LY-7","Station_Nam":"JERSEY SHORE 0.9 S, PA","Latitude":"41.18707","Longitude":"-77.26568","Snowdepth":"9.500","Units":"in","Rept_Date":"2020-12-22 12"},"coordinates":[4688,3442]},{"type":"Point","properties":{"Station_ID":"NY-MG-2","Station_Nam":"FONDA 5.2 W, NY","Latitude":"42.96428","Longitude":"-74.47560","Snowdepth":"9.500","Units":"in","Rept_Date":"2020-12-22 14"},"coordinates":[5342,4547]},{"type":"Point","properties":{"Station_ID":"NY-HM-10","Station_Nam":"LAKE PLEASANT 2.3 WSW, NY","Latitude":"43.45490","Longitude":"-74.45287","Snowdepth":"9.500","Units":"in","Rept_Date":"2020-12-22 12"},"coordinates":[5348,4853]},{"type":"Point","properties":{"Station_ID":"NJ-HN-7","Station_Nam":"BETHLEHEM TWP 0.6 S, NJ","Latitude":"40.65995","Longitude":"-75.00803","Snowdepth":"9.500","Units":"in","Rept_Date":"2020-12-22 13"},"coordinates":[5217,3114]},{"type":"Point","properties":{"Station_ID":"ME-OX-26","Station_Nam":"OXFORD 5.3 SW, ME","Latitude":"44.09787","Longitude":"-70.59612","Snowdepth":"9.500","Units":"in","Rept_Date":"2020-12-22 12"},"coordinates":[6253,5253]},{"type":"Point","properties":{"Station_ID":"ME-CM-86","Station_Nam":"POWNAL 4.1 S, ME","Latitude":"43.85370","Longitude":"-70.17210","Snowdepth":"9.500","Units":"in","Rept_Date":"2020-12-22 12"},"coordinates":[6352,5101]},{"type":"Point","properties":{"Station_ID":"MA-NF-1","Station_Nam":"NORWOOD 1.3 NW, MA","Latitude":"42.19738","Longitude":"-71.21526","Snowdepth":"9.500","Units":"in","Rept_Date":"2020-12-22 12"},"coordinates":[6107,4070]},{"type":"Point","properties":{"Station_ID":"MA-FR-17","Station_Nam":"BUCKLAND 1.8 ESE, MA","Latitude":"42.58900","Longitude":"-72.75110","Snowdepth":"9.500","Units":"in","Rept_Date":"2020-12-22 13"},"coordinates":[5747,4314]},{"type":"Point","properties":{"Station_ID":"MA-FR-13","Station_Nam":"CONWAY 2.9 NW, MA","Latitude":"42.54419","Longitude":"-72.72743","Snowdepth":"9.500","Units":"in","Rept_Date":"2020-12-22 12"},"coordinates":[5753,4286]},{"type":"Point","properties":{"Station_ID":"QLM","Station_Nam":"QLM","Latitude":"48.92030","Longitude":"-70.25280","Snowdepth":"9.331","Units":"in","Rept_Date":"2020-12-22 12"},"coordinates":[6333,8253]},{"type":"Point","properties":{"Station_ID":"SVBQ6","Station_Nam":"SAVANT BASE","Latitude":"50.28730","Longitude":"-90.65670","Snowdepth":"9.170","Units":"in","Rept_Date":"2020-12-23 06"},"coordinates":[1545,9103]},{"type":"Point","properties":{"Station_ID":"WPGN6","Station_Nam":"GEORGETOWN 2SE SNOW","Latitude":"42.75000","Longitude":"-75.70000","Snowdepth":"9.000","Units":"in","Rept_Date":"2020-12-22 12"},"coordinates":[5055,4414]},{"type":"Point","properties":{"Station_ID":"WHTN6","Station_Nam":"WHITESVILLE","Latitude":"42.05980","Longitude":"-77.75530","Snowdepth":"9.000","Units":"in","Rept_Date":"2020-12-22 12"},"coordinates":[4573,3985]},{"type":"Point","properties":{"Station_ID":"VT-WH-29","Station_Nam":"BRATTLEBORO 0.7 S, VT","Latitude":"42.84030","Longitude":"-72.55580","Snowdepth":"9.000","Units":"in","Rept_Date":"2020-12-22 12"},"coordinates":[5793,4470]},{"type":"Point","properties":{"Station_ID":"SWHP1","Station_Nam":"STILLWATER DAM 2NE SNOW S SLOPE","Latitude":"41.72940","Longitude":"-75.46750","Snowdepth":"9.000","Units":"in","Rept_Date":"2020-12-22 13"},"coordinates":[5110,3779]},{"type":"Point","properties":{"Station_ID":"SUXN4","Station_Nam":"SUSSEX 1 NW","Latitude":"41.21840","Longitude":"-74.62070","Snowdepth":"9.000","Units":"in","Rept_Date":"2020-12-22 12"},"coordinates":[5308,3461]},{"type":"Point","properties":{"Station_ID":"SURN3","Station_Nam":"SURRY MOUNTAIN LAKE","Latitude":"42.99630","Longitude":"-72.31310","Snowdepth":"9.000","Units":"in","Rept_Date":"2020-12-22 12"},"coordinates":[5850,4567]},{"type":"Point","properties":{"Station_ID":"RKHN6","Station_Nam":"ROCK HILL 3 SW","Latitude":"41.59170","Longitude":"-74.61410","Snowdepth":"9.000","Units":"in","Rept_Date":"2020-12-22 12"},"coordinates":[5310,3693]},{"type":"Point","properties":{"Station_ID":"RGNM1","Station_Nam":"RANGELEY 2NW","Latitude":"44.98940","Longitude":"-70.67220","Snowdepth":"9.000","Units":"in","Rept_Date":"2020-12-22 11"},"coordinates":[6235,5807]},{"type":"Point","properties":{"Station_ID":"PRQM1","Station_Nam":"PRESQUE ISLE HILLTOP","Latitude":"46.68630","Longitude":"-67.99470","Snowdepth":"9.000","Units":"in","Rept_Date":"2020-12-22 12"},"coordinates":[6863,6863]},{"type":"Point","properties":{"Station_ID":"PLBP1","Station_Nam":"PHILIPSBURG,PA","Latitude":"40.87220","Longitude":"-78.21530","Snowdepth":"9.000","Units":"in","Rept_Date":"2020-12-22 12"},"coordinates":[4465,3246]},{"type":"Point","properties":{"Station_ID":"PEKN6","Station_Nam":"PECK LAKE","Latitude":"43.11500","Longitude":"-74.42360","Snowdepth":"9.000","Units":"in","Rept_Date":"2020-12-22 12"},"coordinates":[5355,4641]},{"type":"Point","properties":{"Station_ID":"OTTN3","Station_Nam":"OTTER BROOK LAKE","Latitude":"42.95000","Longitude":"-72.23330","Snowdepth":"9.000","Units":"in","Rept_Date":"2020-12-22 12"},"coordinates":[5869,4539]},{"type":"Point","properties":{"Station_ID":"NY-WR-10","Station_Nam":"WARRENSBURG 2.1 WNW, NY","Latitude":"43.51784","Longitude":"-73.81069","Snowdepth":"9.000","Units":"in","Rept_Date":"2020-12-22 13"},"coordinates":[5498,4892]},{"type":"Point","properties":{"Station_ID":"NY-UL-34","Station_Nam":"WALLKILL 3.7 E, NY","Latitude":"41.61840","Longitude":"-74.09380","Snowdepth":"9.000","Units":"in","Rept_Date":"2020-12-22 12"},"coordinates":[5432,3710]},{"type":"Point","properties":{"Station_ID":"NY-CB-16","Station_Nam":"VALATIE 2.9 N, NY","Latitude":"42.45655","Longitude":"-73.66812","Snowdepth":"9.000","Units":"in","Rept_Date":"2020-12-22 12"},"coordinates":[5532,4232]},{"type":"Point","properties":{"Station_ID":"NY-CB-1","Station_Nam":"HUDSON 8.2 S, NY","Latitude":"42.13349","Longitude":"-73.76790","Snowdepth":"9.000","Units":"in","Rept_Date":"2020-12-22 12"},"coordinates":[5508,4031]},{"type":"Point","properties":{"Station_ID":"NH-HL-25","Station_Nam":"AMHERST 3.7 NNE, NH","Latitude":"42.91409","Longitude":"-71.61020","Snowdepth":"9.000","Units":"in","Rept_Date":"2020-12-22 12"},"coordinates":[6015,4516]},{"type":"Point","properties":{"Station_ID":"NFKC3","Station_Nam":"NORFOLK","Latitude":"41.97250","Longitude":"-73.22080","Snowdepth":"9.000","Units":"in","Rept_Date":"2020-12-22 13"},"coordinates":[5637,3930]},{"type":"Point","properties":{"Station_ID":"MI-OT-17","Station_Nam":"GAYLORD 4.1 S, MI","Latitude":"44.96388","Longitude":"-84.68467","Snowdepth":"9.000","Units":"in","Rept_Date":"2020-12-22 12"},"coordinates":[2946,5791]},{"type":"Point","properties":{"Station_ID":"ME-YK-2","Station_Nam":"KITTERY POINT 0.8 WSW, ME","Latitude":"43.08101","Longitude":"-70.71380","Snowdepth":"9.000","Units":"in","Rept_Date":"2020-12-22 12"},"coordinates":[6225,4620]},{"type":"Point","properties":{"Station_ID":"ME-YK-18","Station_Nam":"WELLS 3.5 SW, ME","Latitude":"43.30140","Longitude":"-70.64470","Snowdepth":"9.000","Units":"in","Rept_Date":"2020-12-22 12"},"coordinates":[6241,4757]},{"type":"Point","properties":{"Station_ID":"ME-CM-128","Station_Nam":"SOUTH PORTLAND 1.6 S, ME","Latitude":"43.60900","Longitude":"-70.28600","Snowdepth":"9.000","Units":"in","Rept_Date":"2020-12-22 12"},"coordinates":[6326,4949]},{"type":"Point","properties":{"Station_ID":"MA-MD-7","Station_Nam":"WINCHESTER 0.7 SE, MA","Latitude":"42.44594","Longitude":"-71.13580","Snowdepth":"9.000","Units":"in","Rept_Date":"2020-12-22 12"},"coordinates":[6126,4225]},{"type":"Point","properties":{"Station_ID":"MA-MD-126","Station_Nam":"MELROSE 0.5 NE, MA","Latitude":"42.46055","Longitude":"-71.05396","Snowdepth":"9.000","Units":"in","Rept_Date":"2020-12-22 12"},"coordinates":[6145,4234]},{"type":"Point","properties":{"Station_ID":"MA-ES-66","Station_Nam":"NORTH ANDOVER 0.3 NW, MA","Latitude":"42.70375","Longitude":"-71.12029","Snowdepth":"9.000","Units":"in","Rept_Date":"2020-12-22 13"},"coordinates":[6130,4385]},{"type":"Point","properties":{"Station_ID":"MA-ES-48","Station_Nam":"ANDOVER 0.6 E, MA","Latitude":"42.65659","Longitude":"-71.13048","Snowdepth":"9.000","Units":"in","Rept_Date":"2020-12-22 10"},"coordinates":[6127,4356]},{"type":"Point","properties":{"Station_ID":"LBGP1","Station_Nam":"LEWISBURG,PA","Latitude":"40.94860","Longitude":"-76.87830","Snowdepth":"9.000","Units":"in","Rept_Date":"2020-12-22 12"},"coordinates":[4778,3293]},{"type":"Point","properties":{"Station_ID":"KSEM4","Station_Nam":"KALKASKA 11SE","Latitude":"44.58970","Longitude":"-85.04860","Snowdepth":"9.000","Units":"in","Rept_Date":"2020-12-22 13"},"coordinates":[2861,5559]},{"type":"Point","properties":{"Station_ID":"FISM1","Station_Nam":"FORT KENT COOP","Latitude":"47.23850","Longitude":"-68.61240","Snowdepth":"9.000","Units":"in","Rept_Date":"2020-12-22 12"},"coordinates":[6718,7207]},{"type":"Point","properties":{"Station_ID":"CQDP1","Station_Nam":"COWANESQUE DAM","Latitude":"41.99670","Longitude":"-77.15170","Snowdepth":"9.000","Units":"in","Rept_Date":"2020-12-22 12"},"coordinates":[4714,3945]},{"type":"Point","properties":{"Station_ID":"CT-MD-27","Station_Nam":"CLINTON 3.7 N, CT","Latitude":"41.32916","Longitude":"-72.51750","Snowdepth":"8.800","Units":"in","Rept_Date":"2020-12-22 12"},"coordinates":[5802,3530]},{"type":"Point","properties":{"Station_ID":"MFU","Station_Nam":"MFU","Latitude":"51.52170","Longitude":"-66.91110","Snowdepth":"8.740","Units":"in","Rept_Date":"2020-12-22 12"},"coordinates":[7118,9871]},{"type":"Point","properties":{"Station_ID":"PA-CN-33","Station_Nam":"PLEASANT GAP 0.7 NW, PA","Latitude":"40.87265","Longitude":"-77.74660","Snowdepth":"8.500","Units":"in","Rept_Date":"2020-12-22 12"},"coordinates":[4575,3246]},{"type":"Point","properties":{"Station_ID":"PA-CB-33","Station_Nam":"LAKE HARMONY 2.4 WNW, PA","Latitude":"41.07333","Longitude":"-75.63317","Snowdepth":"8.500","Units":"in","Rept_Date":"2020-12-22 12"},"coordinates":[5071,3371]},{"type":"Point","properties":{"Station_ID":"NY-UL-28","Station_Nam":"KERHONKSON 3.7 N, NY","Latitude":"41.83214","Longitude":"-74.30115","Snowdepth":"8.500","Units":"in","Rept_Date":"2020-12-22 12"},"coordinates":[5383,3843]},{"type":"Point","properties":{"Station_ID":"NY-TM-42","Station_Nam":"ITHACA 6.4 E, NY","Latitude":"42.43350","Longitude":"-76.37860","Snowdepth":"8.500","Units":"in","Rept_Date":"2020-12-22 12"},"coordinates":[4896,4217]},{"type":"Point","properties":{"Station_ID":"NY-DT-37","Station_Nam":"RHINEBECK 3.4 N, NY","Latitude":"41.97735","Longitude":"-73.90559","Snowdepth":"8.500","Units":"in","Rept_Date":"2020-12-22 12"},"coordinates":[5476,3933]},{"type":"Point","properties":{"Station_ID":"NY-DL-23","Station_Nam":"LONG EDDY 6.5 NNE, NY","Latitude":"41.93510","Longitude":"-75.07840","Snowdepth":"8.500","Units":"in","Rept_Date":"2020-12-22 13"},"coordinates":[5201,3907]},{"type":"Point","properties":{"Station_ID":"ME-YK-5","Station_Nam":"KENNEBUNK 1.8 WNW, ME","Latitude":"43.39320","Longitude":"-70.58060","Snowdepth":"8.500","Units":"in","Rept_Date":"2020-12-22 12"},"coordinates":[6256,4814]},{"type":"Point","properties":{"Station_ID":"ME-SM-45","Station_Nam":"BRIGHTON PLANTATION 2.1 N, ME","Latitude":"45.07098","Longitude":"-69.69860","Snowdepth":"8.500","Units":"in","Rept_Date":"2020-12-22 12"},"coordinates":[6463,5858]},{"type":"Point","properties":{"Station_ID":"ME-CM-138","Station_Nam":"FREEPORT 3.0 ENE, ME","Latitude":"43.87733","Longitude":"-70.04650","Snowdepth":"8.500","Units":"in","Rept_Date":"2020-12-22 12"},"coordinates":[6382,5115]},{"type":"Point","properties":{"Station_ID":"ME-AN-43","Station_Nam":"LISBON 0.6 S, ME","Latitude":"44.02320","Longitude":"-70.10550","Snowdepth":"8.500","Units":"in","Rept_Date":"2020-12-22 12"},"coordinates":[6368,5206]},{"type":"Point","properties":{"Station_ID":"MD-GR-9","Station_Nam":"MOUNTAIN LAKE PARK 0.4 E, MD","Latitude":"39.40407","Longitude":"-79.37220","Snowdepth":"8.500","Units":"in","Rept_Date":"2020-12-22 11"},"coordinates":[4193,2332]},{"type":"Point","properties":{"Station_ID":"MA-BE-20","Station_Nam":"LEE 3.7 SE, MA","Latitude":"42.27242","Longitude":"-73.19763","Snowdepth":"8.500","Units":"in","Rept_Date":"2020-12-22 12"},"coordinates":[5642,4117]},{"type":"Point","properties":{"Station_ID":"CAN-MB-56","Station_Nam":"WINNIPEG 7.6 ENE, CAN","Latitude":"49.93264","Longitude":"-97.04752","Snowdepth":"8.500","Units":"in","Rept_Date":"2020-12-22 14"},"coordinates":[45,8883]},{"type":"Point","properties":{"Station_ID":"WPHN6","Station_Nam":"GEORGETOWN SNOW","Latitude":"42.76670","Longitude":"-75.70000","Snowdepth":"8.000","Units":"in","Rept_Date":"2020-12-22 12"},"coordinates":[5055,4424]},{"type":"Point","properties":{"Station_ID":"WALM3","Station_Nam":"WALPOLE 2","Latitude":"42.16090","Longitude":"-71.24610","Snowdepth":"8.000","Units":"in","Rept_Date":"2020-12-22 12"},"coordinates":[6100,4048]},{"type":"Point","properties":{"Station_ID":"TMWN3","Station_Nam":"TAMWORTH 4","Latitude":"43.86390","Longitude":"-71.26610","Snowdepth":"8.000","Units":"in","Rept_Date":"2020-12-22 12"},"coordinates":[6096,5107]},{"type":"Point","properties":{"Station_ID":"TMSC3","Station_Nam":"THOMASTON DAM","Latitude":"41.69470","Longitude":"-73.06220","Snowdepth":"8.000","Units":"in","Rept_Date":"2020-12-22 12"},"coordinates":[5674,3758]},{"type":"Point","properties":{"Station_ID":"SDFP1","Station_Nam":"FLAT ROCK SNOW","Latitude":"40.83330","Longitude":"-78.10000","Snowdepth":"8.000","Units":"in","Rept_Date":"2020-12-22 14"},"coordinates":[4492,3222]},{"type":"Point","properties":{"Station_ID":"SDCP1","Station_Nam":"PLEASANT GAP 1 SE SNOW","Latitude":"40.85000","Longitude":"-77.71670","Snowdepth":"8.000","Units":"in","Rept_Date":"2020-12-22 14"},"coordinates":[4582,3232]},{"type":"Point","properties":{"Station_ID":"SDAP1","Station_Nam":"SAYERS DAM SNOW","Latitude":"41.05000","Longitude":"-77.61670","Snowdepth":"8.000","Units":"in","Rept_Date":"2020-12-22 14"},"coordinates":[4605,3356]},{"type":"Point","properties":{"Station_ID":"RI-PR-51","Station_Nam":"NORTH SMITHFIELD 0.6 S, RI","Latitude":"41.95440","Longitude":"-71.54944","Snowdepth":"8.000","Units":"in","Rept_Date":"2020-12-22 11"},"coordinates":[6029,3919]},{"type":"Point","properties":{"Station_ID":"PWM","Station_Nam":"RESIDUAL OFFICE TO PORTLAND WSFO (GYX)","Latitude":"43.64610","Longitude":"-70.30920","Snowdepth":"8.000","Units":"in","Rept_Date":"2020-12-22 12"},"coordinates":[6320,4972]},{"type":"Point","properties":{"Station_ID":"PA-CN-18","Station_Nam":"PORT MATILDA 2.2 ESE, PA","Latitude":"40.79117","Longitude":"-78.01180","Snowdepth":"8.000","Units":"in","Rept_Date":"2020-12-22 12"},"coordinates":[4512,3195]},{"type":"Point","properties":{"Station_ID":"OKLM2","Station_Nam":"SINES DEEP CREEK LAKE","Latitude":"39.52270","Longitude":"-79.41310","Snowdepth":"8.000","Units":"in","Rept_Date":"2020-12-22 12"},"coordinates":[4184,2406]},{"type":"Point","properties":{"Station_ID":"NY-TM-5","Station_Nam":"FREEVILLE 1.5 NE, NY","Latitude":"42.52530","Longitude":"-76.32180","Snowdepth":"8.000","Units":"in","Rept_Date":"2020-12-22 12"},"coordinates":[4909,4274]},{"type":"Point","properties":{"Station_ID":"NY-TM-4","Station_Nam":"GROTON 0.5 NW, NY","Latitude":"42.59127","Longitude":"-76.37200","Snowdepth":"8.000","Units":"in","Rept_Date":"2020-12-22 12"},"coordinates":[4897,4315]},{"type":"Point","properties":{"Station_ID":"NY-TM-18","Station_Nam":"EAST ITHACA 4.7 E, NY","Latitude":"42.41910","Longitude":"-76.37330","Snowdepth":"8.000","Units":"in","Rept_Date":"2020-12-22 12"},"coordinates":[4897,4208]},{"type":"Point","properties":{"Station_ID":"NY-OR-18","Station_Nam":"WALDEN 1.3 S, NY","Latitude":"41.54102","Longitude":"-74.18790","Snowdepth":"8.000","Units":"in","Rept_Date":"2020-12-22 12"},"coordinates":[5410,3662]},{"type":"Point","properties":{"Station_ID":"NY-DT-24","Station_Nam":"RED HOOK 1.2 NNE, NY","Latitude":"42.00967","Longitude":"-73.86419","Snowdepth":"8.000","Units":"in","Rept_Date":"2020-12-22 12"},"coordinates":[5486,3954]},{"type":"Point","properties":{"Station_ID":"NH-HL-49","Station_Nam":"MONT VERNON 1.3 SSW, NH","Latitude":"42.87616","Longitude":"-71.68280","Snowdepth":"8.000","Units":"in","Rept_Date":"2020-12-22 12"},"coordinates":[5998,4493]},{"type":"Point","properties":{"Station_ID":"NH-CR-27","Station_Nam":"TAMWORTH 0.4 NNW, NH","Latitude":"43.86449","Longitude":"-71.26610","Snowdepth":"8.000","Units":"in","Rept_Date":"2020-12-22 12"},"coordinates":[6096,5107]},{"type":"Point","properties":{"Station_ID":"MSRN3","Station_Nam":"MASCOMA RIVER","Latitude":"43.78330","Longitude":"-72.03330","Snowdepth":"8.000","Units":"in","Rept_Date":"2020-12-23 06"},"coordinates":[5916,5057]},{"type":"Point","properties":{"Station_ID":"MLLP1","Station_Nam":"MILLHEIM,PA","Latitude":"40.88330","Longitude":"-77.48330","Snowdepth":"8.000","Units":"in","Rept_Date":"2020-12-22 12"},"coordinates":[4636,3253]},{"type":"Point","properties":{"Station_ID":"MI-BG-3","Station_Nam":"THREE LAKES, MI","Latitude":"46.55730","Longitude":"-88.20770","Snowdepth":"8.000","Units":"in","Rept_Date":"2020-12-22 13"},"coordinates":[2119,6783]},{"type":"Point","properties":{"Station_ID":"MHT","Station_Nam":"MANCHESTER AIRPORT GRENIER INDSTRL ARPK","Latitude":"42.93440","Longitude":"-71.43690","Snowdepth":"8.000","Units":"in","Rept_Date":"2020-12-22 12"},"coordinates":[6055,4529]},{"type":"Point","properties":{"Station_ID":"ME-YK-65","Station_Nam":"NORTH BERWICK 5.3 W, ME","Latitude":"43.29801","Longitude":"-70.83956","Snowdepth":"8.000","Units":"in","Rept_Date":"2020-12-22 12"},"coordinates":[6196,4755]},{"type":"Point","properties":{"Station_ID":"ME-KB-53","Station_Nam":"READFIELD 2.0 NNE, ME","Latitude":"44.41620","Longitude":"-69.95190","Snowdepth":"8.000","Units":"in","Rept_Date":"2020-12-22 12"},"coordinates":[6404,5451]},{"type":"Point","properties":{"Station_ID":"ME-CM-3","Station_Nam":"NEW GLOUCESTER 3.0 SE, ME","Latitude":"43.92372","Longitude":"-70.25790","Snowdepth":"8.000","Units":"in","Rept_Date":"2020-12-22 12"},"coordinates":[6332,5144]},{"type":"Point","properties":{"Station_ID":"MA-WR-56","Station_Nam":"STERLING 4.3 NW, MA","Latitude":"42.47540","Longitude":"-71.81140","Snowdepth":"8.000","Units":"in","Rept_Date":"2020-12-22 12"},"coordinates":[5968,4243]},{"type":"Point","properties":{"Station_ID":"MA-WR-22","Station_Nam":"FITCHBURG 2.0 NNE, MA","Latitude":"42.61671","Longitude":"-71.80100","Snowdepth":"8.000","Units":"in","Rept_Date":"2020-12-22 13"},"coordinates":[5970,4331]},{"type":"Point","properties":{"Station_ID":"MA-NF-11","Station_Nam":"MILLIS 2.0 SW, MA","Latitude":"42.14602","Longitude":"-71.37940","Snowdepth":"8.000","Units":"in","Rept_Date":"2020-12-22 13"},"coordinates":[6069,4038]},{"type":"Point","properties":{"Station_ID":"MA-MD-85","Station_Nam":"WILMINGTON 2.2 WNW, MA","Latitude":"42.56871","Longitude":"-71.20764","Snowdepth":"8.000","Units":"in","Rept_Date":"2020-12-22 12"},"coordinates":[6109,4301]},{"type":"Point","properties":{"Station_ID":"MA-MD-107","Station_Nam":"FRAMINGHAM 1.7 E, MA","Latitude":"42.30516","Longitude":"-71.40471","Snowdepth":"8.000","Units":"in","Rept_Date":"2020-12-22 12"},"coordinates":[6063,4137]},{"type":"Point","properties":{"Station_ID":"MA-ES-58","Station_Nam":"MIDDLETON 1.4 SSW, MA","Latitude":"42.58133","Longitude":"-71.02707","Snowdepth":"8.000","Units":"in","Rept_Date":"2020-12-22 13"},"coordinates":[6152,4309]},{"type":"Point","properties":{"Station_ID":"KEEN3","Station_Nam":"KEENE","Latitude":"42.93900","Longitude":"-72.32470","Snowdepth":"8.000","Units":"in","Rept_Date":"2020-12-22 11"},"coordinates":[5847,4532]},{"type":"Point","properties":{"Station_ID":"JRGM2","Station_Nam":"WEST VINDEX 2NNW - SNOW","Latitude":"39.43330","Longitude":"-79.23330","Snowdepth":"8.000","Units":"in","Rept_Date":"2020-12-22 13"},"coordinates":[4226,2351]},{"type":"Point","properties":{"Station_ID":"JRDW2","Station_Nam":"BISMARK SOUTH - SNOW","Latitude":"39.21670","Longitude":"-79.23330","Snowdepth":"8.000","Units":"in","Rept_Date":"2020-12-22 13"},"coordinates":[4226,2216]},{"type":"Point","properties":{"Station_ID":"JPBM3","Station_Nam":"JAMAICA PLAIN","Latitude":"42.30310","Longitude":"-71.12400","Snowdepth":"8.000","Units":"in","Rept_Date":"2020-12-22 13"},"coordinates":[6129,4136]},{"type":"Point","properties":{"Station_ID":"HUDN3","Station_Nam":"HUDSON 1 SSE","Latitude":"42.78300","Longitude":"-71.41480","Snowdepth":"8.000","Units":"in","Rept_Date":"2020-12-22 12"},"coordinates":[6061,4435]},{"type":"Point","properties":{"Station_ID":"HTLM4","Station_Nam":"SNOW PAID OBSERVER FOR KHTL","Latitude":"44.34470","Longitude":"-84.67730","Snowdepth":"8.000","Units":"in","Rept_Date":"2020-12-22 18"},"coordinates":[2948,5406]},{"type":"Point","properties":{"Station_ID":"HTL","Station_Nam":"ROSCOMMON COUNTY AIRPORT","Latitude":"44.35000","Longitude":"-84.66670","Snowdepth":"8.000","Units":"in","Rept_Date":"2020-12-23 00"},"coordinates":[2951,5410]},{"type":"Point","properties":{"Station_ID":"FCHM3","Station_Nam":"FITCHBURG COOP","Latitude":"42.61680","Longitude":"-71.80170","Snowdepth":"8.000","Units":"in","Rept_Date":"2020-12-22 13"},"coordinates":[5970,4331]},{"type":"Point","properties":{"Station_ID":"CT-NL-5","Station_Nam":"OAKDALE 2.6 WNW, CT","Latitude":"41.47524","Longitude":"-72.20550","Snowdepth":"8.000","Units":"in","Rept_Date":"2020-12-22 12"},"coordinates":[5875,3621]},{"type":"Point","properties":{"Station_ID":"CT-NH-75","Station_Nam":"MERIDEN 2.8 WSW, CT","Latitude":"41.52584","Longitude":"-72.84698","Snowdepth":"8.000","Units":"in","Rept_Date":"2020-12-22 12"},"coordinates":[5725,3652]},{"type":"Point","properties":{"Station_ID":"CT-LT-9","Station_Nam":"NEW HARTFORD CENTER 3.2 SW, CT","Latitude":"41.84170","Longitude":"-73.00920","Snowdepth":"8.000","Units":"in","Rept_Date":"2020-12-22 12"},"coordinates":[5686,3849]},{"type":"Point","properties":{"Station_ID":"CT-LT-34","Station_Nam":"WOODBURY CENTER 1.5 SSW, CT","Latitude":"41.52870","Longitude":"-73.22250","Snowdepth":"8.000","Units":"in","Rept_Date":"2020-12-22 12"},"coordinates":[5636,3654]},{"type":"Point","properties":{"Station_ID":"CT-LT-28","Station_Nam":"CANAAN 4.2 ESE, CT","Latitude":"42.00963","Longitude":"-73.25603","Snowdepth":"8.000","Units":"in","Rept_Date":"2020-12-22 12"},"coordinates":[5629,3953]},{"type":"Point","properties":{"Station_ID":"CSPP1","Station_Nam":"COUDERSPORT 1 SW","Latitude":"41.77500","Longitude":"-78.04170","Snowdepth":"8.000","Units":"in","Rept_Date":"2020-12-22 12"},"coordinates":[4505,3808]},{"type":"Point","properties":{"Station_ID":"CORV1","Station_Nam":"CORINTH","Latitude":"44.00690","Longitude":"-72.31940","Snowdepth":"8.000","Units":"in","Rept_Date":"2020-12-22 12"},"coordinates":[5848,5196]},{"type":"Point","properties":{"Station_ID":"COKM5","Station_Nam":"COOK","Latitude":"47.85060","Longitude":"-92.69250","Snowdepth":"8.000","Units":"in","Rept_Date":"2020-12-22 12"},"coordinates":[1067,7587]},{"type":"Point","properties":{"Station_ID":"BLHM3","Station_Nam":"BLUE HILL COOP","Latitude":"42.21230","Longitude":"-71.11370","Snowdepth":"8.000","Units":"in","Rept_Date":"2020-12-22 12"},"coordinates":[6131,4080]},{"type":"Point","properties":{"Station_ID":"BBEM4","Station_Nam":"BIG BAY 9SW","Latitude":"46.74620","Longitude":"-87.88160","Snowdepth":"8.000","Units":"in","Rept_Date":"2020-12-22 13"},"coordinates":[2196,6900]},{"type":"Point","properties":{"Station_ID":"BARM3","Station_Nam":"BARRE FALLS DAM","Latitude":"42.42800","Longitude":"-72.02750","Snowdepth":"8.000","Units":"in","Rept_Date":"2020-12-22 12"},"coordinates":[5917,4214]},{"type":"Point","properties":{"Station_ID":"BAKC3","Station_Nam":"BAKERSVILLE","Latitude":"41.84180","Longitude":"-73.00850","Snowdepth":"8.000","Units":"in","Rept_Date":"2020-12-22 12"},"coordinates":[5687,3849]},{"type":"Point","properties":{"Station_ID":"ASBM3","Station_Nam":"ASHBURNHAM","Latitude":"42.61780","Longitude":"-71.91590","Snowdepth":"8.000","Units":"in","Rept_Date":"2020-12-22 12"},"coordinates":[5943,4332]},{"type":"Point","properties":{"Station_ID":"NY-MG-3","Station_Nam":"HESSVILLE 1.8 WSW, NY","Latitude":"42.86430","Longitude":"-74.72140","Snowdepth":"7.600","Units":"in","Rept_Date":"2020-12-22 13"},"coordinates":[5285,4485]},{"type":"Point","properties":{"Station_ID":"OGIQ6","Station_Nam":"OGOKI CAMP","Latitude":"50.76680","Longitude":"-87.85820","Snowdepth":"7.560","Units":"in","Rept_Date":"2020-12-23 06"},"coordinates":[2202,9402]},{"type":"Point","properties":{"Station_ID":"QGA","Station_Nam":"QGA","Latitude":"47.25640","Longitude":"-73.73810","Snowdepth":"7.520","Units":"in","Rept_Date":"2020-12-22 12"},"coordinates":[5515,7218]},{"type":"Point","properties":{"Station_ID":"VT-OG-14","Station_Nam":"BRADFORD 2.2 NNW, VT","Latitude":"44.02268","Longitude":"-72.14756","Snowdepth":"7.500","Units":"in","Rept_Date":"2020-12-22 13"},"coordinates":[5889,5206]},{"type":"Point","properties":{"Station_ID":"RI-PR-50","Station_Nam":"HARRISVILLE 1.2 SSE, RI","Latitude":"41.95128","Longitude":"-71.67171","Snowdepth":"7.500","Units":"in","Rept_Date":"2020-12-22 12"},"coordinates":[6000,3917]},{"type":"Point","properties":{"Station_ID":"PA-PK-22","Station_Nam":"MILFORD 8.7 NW, PA","Latitude":"41.42018","Longitude":"-74.90953","Snowdepth":"7.500","Units":"in","Rept_Date":"2020-12-22 12"},"coordinates":[5240,3587]},{"type":"Point","properties":{"Station_ID":"PA-CB-16","Station_Nam":"JIM THORPE 1.1 NNE, PA","Latitude":"40.88582","Longitude":"-75.73320","Snowdepth":"7.500","Units":"in","Rept_Date":"2020-12-22 12"},"coordinates":[5047,3254]},{"type":"Point","properties":{"Station_ID":"NY-WC-37","Station_Nam":"YORKTOWN HEIGHTS 1.6 E, NY","Latitude":"41.26961","Longitude":"-73.75164","Snowdepth":"7.500","Units":"in","Rept_Date":"2020-12-22 12"},"coordinates":[5512,3493]},{"type":"Point","properties":{"Station_ID":"NY-UL-32","Station_Nam":"ESOPUS 0.8 NNE, NY","Latitude":"41.83854","Longitude":"-73.95875","Snowdepth":"7.500","Units":"in","Rept_Date":"2020-12-22 12"},"coordinates":[5464,3847]},{"type":"Point","properties":{"Station_ID":"NY-TM-27","Station_Nam":"GROTON 3.2 SSW, NY","Latitude":"42.54725","Longitude":"-76.39960","Snowdepth":"7.500","Units":"in","Rept_Date":"2020-12-22 12"},"coordinates":[4891,4288]},{"type":"Point","properties":{"Station_ID":"NY-RN-24","Station_Nam":"NASSAU 4.2 ESE, NY","Latitude":"42.49091","Longitude":"-73.53462","Snowdepth":"7.500","Units":"in","Rept_Date":"2020-12-22 13"},"coordinates":[5563,4253]},{"type":"Point","properties":{"Station_ID":"NY-ES-6","Station_Nam":"OLMSTEDVILLE 4.6 NNE, NY","Latitude":"43.83350","Longitude":"-73.89780","Snowdepth":"7.500","Units":"in","Rept_Date":"2020-12-22 13"},"coordinates":[5478,5088]},{"type":"Point","properties":{"Station_ID":"NY-DT-8","Station_Nam":"MILLBROOK 3.2 SE, NY","Latitude":"41.75230","Longitude":"-73.64880","Snowdepth":"7.500","Units":"in","Rept_Date":"2020-12-22 12"},"coordinates":[5536,3793]},{"type":"Point","properties":{"Station_ID":"MN-SL-15","Station_Nam":"CHISHOLM 0.4 WSW, MN","Latitude":"47.48557","Longitude":"-92.88690","Snowdepth":"7.500","Units":"in","Rept_Date":"2020-12-22 13"},"coordinates":[1021,7360]},{"type":"Point","properties":{"Station_ID":"MN-SL-105","Station_Nam":"DULUTH 11.8 NNE, MN","Latitude":"46.94680","Longitude":"-92.03925","Snowdepth":"7.500","Units":"in","Rept_Date":"2020-12-22 14"},"coordinates":[1220,7025]},{"type":"Point","properties":{"Station_ID":"MD-GR-4","Station_Nam":"MC HENRY 4.8 SSE, MD","Latitude":"39.48539","Longitude":"-79.31830","Snowdepth":"7.500","Units":"in","Rept_Date":"2020-12-22 13"},"coordinates":[4206,2383]},{"type":"Point","properties":{"Station_ID":"MA-WR-8","Station_Nam":"FITCHBURG 1.6 SSW, MA","Latitude":"42.56674","Longitude":"-71.82170","Snowdepth":"7.500","Units":"in","Rept_Date":"2020-12-22 11"},"coordinates":[5965,4300]},{"type":"Point","properties":{"Station_ID":"MA-WR-54","Station_Nam":"BARRE 1.4 NNE, MA","Latitude":"42.44082","Longitude":"-72.09591","Snowdepth":"7.500","Units":"in","Rept_Date":"2020-12-22 12"},"coordinates":[5901,4222]},{"type":"Point","properties":{"Station_ID":"MA-MD-170","Station_Nam":"SOMERVILLE 0.5 W, MA","Latitude":"42.39184","Longitude":"-71.11230","Snowdepth":"7.500","Units":"in","Rept_Date":"2020-12-22 12"},"coordinates":[6132,4191]},{"type":"Point","properties":{"Station_ID":"MA-MD-158","Station_Nam":"SHERBORN 1.1 NW, MA","Latitude":"42.24460","Longitude":"-71.38130","Snowdepth":"7.500","Units":"in","Rept_Date":"2020-12-22 11"},"coordinates":[6069,4100]},{"type":"Point","properties":{"Station_ID":"MA-HD-25","Station_Nam":"LUDLOW 2.3 SW, MA","Latitude":"42.14523","Longitude":"-72.51650","Snowdepth":"7.500","Units":"in","Rept_Date":"2020-12-22 12"},"coordinates":[5802,4038]},{"type":"Point","properties":{"Station_ID":"MA-FR-12","Station_Nam":"SUNDERLAND 1.3 SE, MA","Latitude":"42.45217","Longitude":"-72.56610","Snowdepth":"7.500","Units":"in","Rept_Date":"2020-12-22 12"},"coordinates":[5790,4229]},{"type":"Point","properties":{"Station_ID":"MA-ES-41","Station_Nam":"DANVERS 0.8 ESE, MA","Latitude":"42.56849","Longitude":"-70.93526","Snowdepth":"7.500","Units":"in","Rept_Date":"2020-12-22 13"},"coordinates":[6173,4301]},{"type":"Point","properties":{"Station_ID":"CT-NH-47","Station_Nam":"SEYMOUR 1.5 NE, CT","Latitude":"41.40313","Longitude":"-73.04835","Snowdepth":"7.500","Units":"in","Rept_Date":"2020-12-22 12"},"coordinates":[5677,3576]},{"type":"Point","properties":{"Station_ID":"CT-MD-25","Station_Nam":"MIDDLEFIELD 0.6 SE, CT","Latitude":"41.51030","Longitude":"-72.70500","Snowdepth":"7.500","Units":"in","Rept_Date":"2020-12-22 12"},"coordinates":[5758,3643]},{"type":"Point","properties":{"Station_ID":"CT-FR-58","Station_Nam":"RIDGEFIELD 3.6 N, CT","Latitude":"41.32589","Longitude":"-73.48902","Snowdepth":"7.500","Units":"in","Rept_Date":"2020-12-22 11"},"coordinates":[5574,3528]},{"type":"Point","properties":{"Station_ID":"CAN-MB-32","Station_Nam":"PINAWA 1.0 SW, CA","Latitude":"50.14747","Longitude":"-95.89020","Snowdepth":"7.500","Units":"in","Rept_Date":"2020-12-22 13"},"coordinates":[316,9016]},{"type":"Point","properties":{"Station_ID":"CATQ6","Station_Nam":"CAT LAKE","Latitude":"51.72690","Longitude":"-91.82210","Snowdepth":"7.400","Units":"in","Rept_Date":"2020-12-23 06"},"coordinates":[1271,9999]},{"type":"Point","properties":{"Station_ID":"CAN-QC-47","Station_Nam":"SAINTE-FOY 1.8 ENE, CAN","Latitude":"46.76934","Longitude":"-71.27124","Snowdepth":"7.300","Units":"in","Rept_Date":"2020-12-22 12"},"coordinates":[6094,6915]},{"type":"Point","properties":{"Station_ID":"NY-OD-43","Station_Nam":"HOLLAND PATENT 1.1 WNW, NY","Latitude":"43.24707","Longitude":"-75.27750","Snowdepth":"7.100","Units":"in","Rept_Date":"2020-12-22 12"},"coordinates":[5154,4723]},{"type":"Point","properties":{"Station_ID":"MA-WR-88","Station_Nam":"LEICESTER 2.5 WSW, MA","Latitude":"42.23742","Longitude":"-71.94612","Snowdepth":"7.100","Units":"in","Rept_Date":"2020-12-22 12"},"coordinates":[5936,4095]},{"type":"Point","properties":{"Station_ID":"MRL","Station_Nam":"MRL","Latitude":"51.28330","Longitude":"-68.84060","Snowdepth":"7.008","Units":"in","Rept_Date":"2020-12-22 12"},"coordinates":[6665,9723]},{"type":"Point","properties":{"Station_ID":"WELN6","Station_Nam":"WELLSVILLE","Latitude":"42.11730","Longitude":"-77.94750","Snowdepth":"7.000","Units":"in","Rept_Date":"2020-12-22 10"},"coordinates":[4527,4020]},{"type":"Point","properties":{"Station_ID":"VANM1","Station_Nam":"VAN BUREN","Latitude":"47.16600","Longitude":"-67.93900","Snowdepth":"7.000","Units":"in","Rept_Date":"2020-12-22 13"},"coordinates":[6876,7161]},{"type":"Point","properties":{"Station_ID":"TOGM5","Station_Nam":"CELINA 2E","Latitude":"47.86630","Longitude":"-93.02660","Snowdepth":"7.000","Units":"in","Rept_Date":"2020-12-22 15"},"coordinates":[989,7597]},{"type":"Point","properties":{"Station_ID":"SUNP1","Station_Nam":"SUNBURY","Latitude":"40.85440","Longitude":"-76.79250","Snowdepth":"7.000","Units":"in","Rept_Date":"2020-12-22 12"},"coordinates":[4799,3235]},{"type":"Point","properties":{"Station_ID":"STRC3","Station_Nam":"STORRS","Latitude":"41.79510","Longitude":"-72.22850","Snowdepth":"7.000","Units":"in","Rept_Date":"2020-12-22 13"},"coordinates":[5870,3820]},{"type":"Point","properties":{"Station_ID":"SFVC3","Station_Nam":"STAFFORDVILLE","Latitude":"41.99840","Longitude":"-72.26060","Snowdepth":"7.000","Units":"in","Rept_Date":"2020-12-22 10"},"coordinates":[5862,3946]},{"type":"Point","properties":{"Station_ID":"SDLM3","Station_Nam":"SUNDERLAND","Latitude":"42.44480","Longitude":"-72.55290","Snowdepth":"7.000","Units":"in","Rept_Date":"2020-12-22 12"},"coordinates":[5794,4224]},{"type":"Point","properties":{"Station_ID":"RI-PR-33","Station_Nam":"GREENVILLE 0.7 NNW, RI","Latitude":"41.88890","Longitude":"-71.56030","Snowdepth":"7.000","Units":"in","Rept_Date":"2020-12-22 12"},"coordinates":[6027,3878]},{"type":"Point","properties":{"Station_ID":"RANM1","Station_Nam":"RANGELEY","Latitude":"44.98910","Longitude":"-70.67190","Snowdepth":"7.000","Units":"in","Rept_Date":"2020-12-22 11"},"coordinates":[6235,5807]},{"type":"Point","properties":{"Station_ID":"PDLM4","Station_Nam":"PAINESDALE","Latitude":"47.04160","Longitude":"-88.67170","Snowdepth":"7.000","Units":"in","Rept_Date":"2020-12-22 13"},"coordinates":[2011,7084]},{"type":"Point","properties":{"Station_ID":"PA-MN-16","Station_Nam":"MOUNT POCONO 0.7 N, PA","Latitude":"41.13190","Longitude":"-75.35804","Snowdepth":"7.000","Units":"in","Rept_Date":"2020-12-22 12"},"coordinates":[5135,3407]},{"type":"Point","properties":{"Station_ID":"PA-LC-24","Station_Nam":"ARCHBALD 1.6 SW, PA","Latitude":"41.49106","Longitude":"-75.56380","Snowdepth":"7.000","Units":"in","Rept_Date":"2020-12-22 13"},"coordinates":[5087,3631]},{"type":"Point","properties":{"Station_ID":"PA-FR-1","Station_Nam":"TIONESTA 7.3 SSE, PA","Latitude":"41.39404","Longitude":"-79.41310","Snowdepth":"7.000","Units":"in","Rept_Date":"2020-12-22 12"},"coordinates":[4184,3571]},{"type":"Point","properties":{"Station_ID":"OXFM3","Station_Nam":"BUFFUMVILLE LAKE","Latitude":"42.11630","Longitude":"-71.90740","Snowdepth":"7.000","Units":"in","Rept_Date":"2020-12-22 12"},"coordinates":[5945,4020]},{"type":"Point","properties":{"Station_ID":"NY-SY-1","Station_Nam":"SMITH VALLEY 1.9 SE, NY","Latitude":"42.39072","Longitude":"-76.71760","Snowdepth":"7.000","Units":"in","Rept_Date":"2020-12-22 12"},"coordinates":[4816,4191]},{"type":"Point","properties":{"Station_ID":"NY-PT-2","Station_Nam":"BEACON 4.2 ESE, NY","Latitude":"41.48070","Longitude":"-73.89110","Snowdepth":"7.000","Units":"in","Rept_Date":"2020-12-22 12"},"coordinates":[5479,3624]},{"type":"Point","properties":{"Station_ID":"NY-CB-9","Station_Nam":"HILLSDALE 5.8 S, NY","Latitude":"42.26165","Longitude":"-73.54160","Snowdepth":"7.000","Units":"in","Rept_Date":"2020-12-22 13"},"coordinates":[5562,4110]},{"type":"Point","properties":{"Station_ID":"NY-CB-8","Station_Nam":"LIVINGSTON 0.7 SSW, NY","Latitude":"42.13308","Longitude":"-73.78540","Snowdepth":"7.000","Units":"in","Rept_Date":"2020-12-22 14"},"coordinates":[5504,4030]},{"type":"Point","properties":{"Station_ID":"NRWC3","Station_Nam":"NORWICH PUBLIC UTILITY PLANT","Latitude":"41.52690","Longitude":"-72.06420","Snowdepth":"7.000","Units":"in","Rept_Date":"2020-12-22 12"},"coordinates":[5908,3653]},{"type":"Point","properties":{"Station_ID":"NRNM3","Station_Nam":"NORTON WEST","Latitude":"41.99280","Longitude":"-71.16660","Snowdepth":"7.000","Units":"in","Rept_Date":"2020-12-22 12"},"coordinates":[6119,3943]},{"type":"Point","properties":{"Station_ID":"NH-RC-79","Station_Nam":"NOTTINGHAM 1.2 S, NH","Latitude":"43.09778","Longitude":"-71.10256","Snowdepth":"7.000","Units":"in","Rept_Date":"2020-12-22 13"},"coordinates":[6134,4630]},{"type":"Point","properties":{"Station_ID":"NH-GR-56","Station_Nam":"EASTON 0.6 ESE, NH","Latitude":"44.14790","Longitude":"-71.78950","Snowdepth":"7.000","Units":"in","Rept_Date":"2020-12-22 13"},"coordinates":[5973,5284]},{"type":"Point","properties":{"Station_ID":"NH-CS-19","Station_Nam":"CARROLL 4.6 NE, NH","Latitude":"44.33765","Longitude":"-71.46461","Snowdepth":"7.000","Units":"in","Rept_Date":"2020-12-22 12"},"coordinates":[6049,5402]},{"type":"Point","properties":{"Station_ID":"NCKN6","Station_Nam":"NORTH CREEK 5 SE","Latitude":"43.66110","Longitude":"-73.89690","Snowdepth":"7.000","Units":"in","Rept_Date":"2020-12-22 12"},"coordinates":[5478,4981]},{"type":"Point","properties":{"Station_ID":"MI-OT-16","Station_Nam":"GAYLORD 2.2 SSE, MI","Latitude":"44.99441","Longitude":"-84.65820","Snowdepth":"7.000","Units":"in","Rept_Date":"2020-12-22 11"},"coordinates":[2953,5810]},{"type":"Point","properties":{"Station_ID":"MI-BZ-6","Station_Nam":"LAKE ANN 2.0 N, MI","Latitude":"44.75487","Longitude":"-85.84505","Snowdepth":"7.000","Units":"in","Rept_Date":"2020-12-22 13"},"coordinates":[2674,5661]},{"type":"Point","properties":{"Station_ID":"ME-FR-2","Station_Nam":"TEMPLE 1.8 W, ME","Latitude":"44.68329","Longitude":"-70.26420","Snowdepth":"7.000","Units":"in","Rept_Date":"2020-12-22 11"},"coordinates":[6331,5617]},{"type":"Point","properties":{"Station_ID":"ME-CM-98","Station_Nam":"SEBAGO 2.4 ESE, ME","Latitude":"43.88000","Longitude":"-70.63000","Snowdepth":"7.000","Units":"in","Rept_Date":"2020-12-22 15"},"coordinates":[6245,5117]},{"type":"Point","properties":{"Station_ID":"ME-CM-137","Station_Nam":"GRAY 1.5 NE, ME","Latitude":"43.90034","Longitude":"-70.30883","Snowdepth":"7.000","Units":"in","Rept_Date":"2020-12-22 12"},"coordinates":[6320,5130]},{"type":"Point","properties":{"Station_ID":"MA-WR-89","Station_Nam":"HOLDEN 0.9 SSE, MA","Latitude":"42.33809","Longitude":"-71.85686","Snowdepth":"7.000","Units":"in","Rept_Date":"2020-12-22 12"},"coordinates":[5957,4158]},{"type":"Point","properties":{"Station_ID":"MA-PL-23","Station_Nam":"PEMBROKE 2.8 SW, MA","Latitude":"42.03841","Longitude":"-70.83937","Snowdepth":"7.000","Units":"in","Rept_Date":"2020-12-22 13"},"coordinates":[6196,3971]},{"type":"Point","properties":{"Station_ID":"MA-MD-89","Station_Nam":"SUDBURY 3.6 W, MA","Latitude":"42.36394","Longitude":"-71.47012","Snowdepth":"7.000","Units":"in","Rept_Date":"2020-12-22 12"},"coordinates":[6048,4174]},{"type":"Point","properties":{"Station_ID":"MA-MD-52","Station_Nam":"LEXINGTON 0.6 SW, MA","Latitude":"42.43983","Longitude":"-71.24047","Snowdepth":"7.000","Units":"in","Rept_Date":"2020-12-22 12"},"coordinates":[6102,4221]},{"type":"Point","properties":{"Station_ID":"MA-MD-47","Station_Nam":"WEST TOWNSEND 0.5 W, MA","Latitude":"42.67623","Longitude":"-71.74983","Snowdepth":"7.000","Units":"in","Rept_Date":"2020-12-22 11"},"coordinates":[5982,4368]},{"type":"Point","properties":{"Station_ID":"MA-MD-12","Station_Nam":"ACTON 1.3 SW, MA","Latitude":"42.46746","Longitude":"-71.48200","Snowdepth":"7.000","Units":"in","Rept_Date":"2020-12-22 12"},"coordinates":[6045,4238]},{"type":"Point","properties":{"Station_ID":"MA-MD-119","Station_Nam":"WATERTOWN 1.1 W, MA","Latitude":"42.37109","Longitude":"-71.19949","Snowdepth":"7.000","Units":"in","Rept_Date":"2020-12-22 12"},"coordinates":[6111,4178]},{"type":"Point","properties":{"Station_ID":"MA-ES-70","Station_Nam":"NEWBURYPORT 0.6 N, MA","Latitude":"42.82278","Longitude":"-70.88940","Snowdepth":"7.000","Units":"in","Rept_Date":"2020-12-22 12"},"coordinates":[6184,4459]},{"type":"Point","properties":{"Station_ID":"MA-ES-22","Station_Nam":"ROCKPORT 1.0 E, MA","Latitude":"42.64483","Longitude":"-70.59913","Snowdepth":"7.000","Units":"in","Rept_Date":"2020-12-22 12"},"coordinates":[6252,4349]},{"type":"Point","properties":{"Station_ID":"MA-ES-12","Station_Nam":"BOXFORD 2.4 S, MA","Latitude":"42.63970","Longitude":"-70.97970","Snowdepth":"7.000","Units":"in","Rept_Date":"2020-12-22 12"},"coordinates":[6163,4345]},{"type":"Point","properties":{"Station_ID":"MA-BR-3","Station_Nam":"NORTON 1.8 NNE, MA","Latitude":"41.99270","Longitude":"-71.16660","Snowdepth":"7.000","Units":"in","Rept_Date":"2020-12-22 12"},"coordinates":[6119,3943]},{"type":"Point","properties":{"Station_ID":"MA-BE-3","Station_Nam":"STOCKBRIDGE .2 NNE, MA","Latitude":"42.28983","Longitude":"-73.31950","Snowdepth":"7.000","Units":"in","Rept_Date":"2020-12-22 11"},"coordinates":[5614,4128]},{"type":"Point","properties":{"Station_ID":"LXDM3","Station_Nam":"LENOXDALE","Latitude":"42.33560","Longitude":"-73.25060","Snowdepth":"7.000","Units":"in","Rept_Date":"2020-12-22 12"},"coordinates":[5630,4156]},{"type":"Point","properties":{"Station_ID":"LWMM3","Station_Nam":"LAWRENCE","Latitude":"42.69930","Longitude":"-71.16590","Snowdepth":"7.000","Units":"in","Rept_Date":"2020-12-22 12"},"coordinates":[6119,4383]},{"type":"Point","properties":{"Station_ID":"LLLM3","Station_Nam":"LOWELL","Latitude":"42.64090","Longitude":"-71.36370","Snowdepth":"7.000","Units":"in","Rept_Date":"2020-12-22 11"},"coordinates":[6073,4346]},{"type":"Point","properties":{"Station_ID":"LEIM5","Station_Nam":"ORR 3E","Latitude":"48.05810","Longitude":"-92.75220","Snowdepth":"7.000","Units":"in","Rept_Date":"2020-12-22 12"},"coordinates":[1053,7716]},{"type":"Point","properties":{"Station_ID":"KMHT","Station_Nam":"MANCHESTER AIRPORT","Latitude":"42.93333","Longitude":"-71.43333","Snowdepth":"7.000","Units":"in","Rept_Date":"2020-12-22 18"},"coordinates":[6056,4528]},{"type":"Point","properties":{"Station_ID":"KLKM4","Station_Nam":"KALKASKA","Latitude":"44.72800","Longitude":"-85.17270","Snowdepth":"7.000","Units":"in","Rept_Date":"2020-12-22 13"},"coordinates":[2832,5645]},{"type":"Point","properties":{"Station_ID":"JRHM2","Station_Nam":"WEST VINDEX 1NW - SNOW","Latitude":"39.41670","Longitude":"-79.21670","Snowdepth":"7.000","Units":"in","Rept_Date":"2020-12-22 13"},"coordinates":[4230,2340]},{"type":"Point","properties":{"Station_ID":"JRFW2","Station_Nam":"BAYARD 2SW - SNOW","Latitude":"39.26670","Longitude":"-79.40000","Snowdepth":"7.000","Units":"in","Rept_Date":"2020-12-22 13"},"coordinates":[4187,2247]},{"type":"Point","properties":{"Station_ID":"JREW2","Station_Nam":"BISMARK - SNOW","Latitude":"38.21670","Longitude":"-79.21670","Snowdepth":"7.000","Units":"in","Rept_Date":"2020-12-22 13"},"coordinates":[4230,1594]},{"type":"Point","properties":{"Station_ID":"JAPN3","Station_Nam":"JAFFREY SILVER RANCH AIRPARK","Latitude":"42.80880","Longitude":"-72.00530","Snowdepth":"7.000","Units":"in","Rept_Date":"2020-12-22 12"},"coordinates":[5922,4451]},{"type":"Point","properties":{"Station_ID":"ITHN6","Station_Nam":"ITHACA,NY","Latitude":"42.45000","Longitude":"-76.45000","Snowdepth":"7.000","Units":"in","Rept_Date":"2020-12-22 12"},"coordinates":[4879,4227]},{"type":"Point","properties":{"Station_ID":"HRTM1","Station_Nam":"HARTFORD","Latitude":"44.37440","Longitude":"-70.31620","Snowdepth":"7.000","Units":"in","Rept_Date":"2020-12-22 12"},"coordinates":[6318,5425]},{"type":"Point","properties":{"Station_ID":"HRLN6","Station_Nam":"HORNELL ALMOND DAM","Latitude":"42.34880","Longitude":"-77.70440","Snowdepth":"7.000","Units":"in","Rept_Date":"2020-12-22 11"},"coordinates":[4585,4164]},{"type":"Point","properties":{"Station_ID":"HRKM3","Station_Nam":"HARDWICK 2 ESE","Latitude":"42.34570","Longitude":"-72.15410","Snowdepth":"7.000","Units":"in","Rept_Date":"2020-12-22 13"},"coordinates":[5887,4163]},{"type":"Point","properties":{"Station_ID":"HINM3","Station_Nam":"HINGHAM","Latitude":"42.22690","Longitude":"-70.91250","Snowdepth":"7.000","Units":"in","Rept_Date":"2020-12-23 00"},"coordinates":[6179,4089]},{"type":"Point","properties":{"Station_ID":"HGHN6","Station_Nam":"HIGHMARKET","Latitude":"43.60510","Longitude":"-75.55430","Snowdepth":"7.000","Units":"in","Rept_Date":"2020-12-22 11"},"coordinates":[5089,4946]},{"type":"Point","properties":{"Station_ID":"HGHN4","Station_Nam":"HIGHLAND LAKES 1SW","Latitude":"41.16330","Longitude":"-74.45930","Snowdepth":"7.000","Units":"in","Rept_Date":"2020-12-22 11"},"coordinates":[5346,3427]},{"type":"Point","properties":{"Station_ID":"GYX","Station_Nam":"PORTLAND, ME","Latitude":"43.89250","Longitude":"-70.25500","Snowdepth":"7.000","Units":"in","Rept_Date":"2020-12-22 12"},"coordinates":[6333,5125]},{"type":"Point","properties":{"Station_ID":"GRFM3","Station_Nam":"GREENFIELD NO. 3","Latitude":"42.57190","Longitude":"-72.59750","Snowdepth":"7.000","Units":"in","Rept_Date":"2020-12-22 12"},"coordinates":[5783,4303]},{"type":"Point","properties":{"Station_ID":"GREN3","Station_Nam":"GREENVILLE 1 NNE","Latitude":"42.78270","Longitude":"-71.79850","Snowdepth":"7.000","Units":"in","Rept_Date":"2020-12-22 12"},"coordinates":[5971,4434]},{"type":"Point","properties":{"Station_ID":"GHMN3","Station_Nam":"PINKHAM NOTCH","Latitude":"44.25800","Longitude":"-71.25250","Snowdepth":"7.000","Units":"in","Rept_Date":"2020-12-22 10"},"coordinates":[6099,5352]},{"type":"Point","properties":{"Station_ID":"FLAM4","Station_Nam":"FIFE LAKE 2WNW","Latitude":"44.58480","Longitude":"-85.36530","Snowdepth":"7.000","Units":"in","Rept_Date":"2020-12-22 12"},"coordinates":[2787,5556]},{"type":"Point","properties":{"Station_ID":"ESGM1","Station_Nam":"EAST SANGERVILLE","Latitude":"45.13690","Longitude":"-69.28060","Snowdepth":"7.000","Units":"in","Rept_Date":"2020-12-22 12"},"coordinates":[6562,5899]},{"type":"Point","properties":{"Station_ID":"CT-WN-8","Station_Nam":"MOOSUP 1.7 NE, CT","Latitude":"41.73180","Longitude":"-71.84667","Snowdepth":"7.000","Units":"in","Rept_Date":"2020-12-22 11"},"coordinates":[5959,3781]},{"type":"Point","properties":{"Station_ID":"CT-TL-40","Station_Nam":"COVENTRY 0.3 NNE, CT","Latitude":"41.78805","Longitude":"-72.33738","Snowdepth":"7.000","Units":"in","Rept_Date":"2020-12-22 12"},"coordinates":[5844,3816]},{"type":"Point","properties":{"Station_ID":"CT-TL-2","Station_Nam":"STAFFORDVILLE 0.4 NNW, CT","Latitude":"41.99874","Longitude":"-72.26100","Snowdepth":"7.000","Units":"in","Rept_Date":"2020-12-22 10"},"coordinates":[5862,3947]},{"type":"Point","properties":{"Station_ID":"CT-NL-10","Station_Nam":"NORWICH 2.5 NNE, CT","Latitude":"41.58485","Longitude":"-72.07674","Snowdepth":"7.000","Units":"in","Rept_Date":"2020-12-22 11"},"coordinates":[5905,3689]},{"type":"Point","properties":{"Station_ID":"CT-NH-43","Station_Nam":"WALLINGFORD CENTER 3.3 NNW, CT","Latitude":"41.49109","Longitude":"-72.85065","Snowdepth":"7.000","Units":"in","Rept_Date":"2020-12-22 12"},"coordinates":[5724,3631]},{"type":"Point","properties":{"Station_ID":"CT-LT-37","Station_Nam":"NEW MILFORD 3.1 WNW, CT","Latitude":"41.59784","Longitude":"-73.46574","Snowdepth":"7.000","Units":"in","Rept_Date":"2020-12-22 12"},"coordinates":[5579,3697]},{"type":"Point","properties":{"Station_ID":"CT-HR-8","Station_Nam":"NORTH GRANBY 1.3 ENE, CT","Latitude":"42.02440","Longitude":"-72.82070","Snowdepth":"7.000","Units":"in","Rept_Date":"2020-12-22 12"},"coordinates":[5731,3963]},{"type":"Point","properties":{"Station_ID":"CT-FR-41","Station_Nam":"BETHEL 3.5 NNE, CT","Latitude":"41.42154","Longitude":"-73.39820","Snowdepth":"7.000","Units":"in","Rept_Date":"2020-12-22 13"},"coordinates":[5595,3588]},{"type":"Point","properties":{"Station_ID":"BRMM5","Station_Nam":"BRIMSON 2S","Latitude":"47.24720","Longitude":"-91.86240","Snowdepth":"7.000","Units":"in","Rept_Date":"2020-12-23 01"},"coordinates":[1262,7212]},{"type":"Point","properties":{"Station_ID":"BEVM3","Station_Nam":"BEVERLY","Latitude":"42.58800","Longitude":"-70.83710","Snowdepth":"7.000","Units":"in","Rept_Date":"2020-12-22 12"},"coordinates":[6196,4313]},{"type":"Point","properties":{"Station_ID":"BARW2","Station_Nam":"BARTOW 1S","Latitude":"38.53120","Longitude":"-79.77140","Snowdepth":"7.000","Units":"in","Rept_Date":"2020-12-22 12"},"coordinates":[4099,1789]},{"type":"Point","properties":{"Station_ID":"APXM4","Station_Nam":"GAYLORD 9SSW","Latitude":"44.90720","Longitude":"-84.71880","Snowdepth":"7.000","Units":"in","Rept_Date":"2020-12-23 05"},"coordinates":[2938,5756]},{"type":"Point","properties":{"Station_ID":"APN","Station_Nam":"PHELPS COLLINS FIELD","Latitude":"45.07810","Longitude":"-83.56030","Snowdepth":"7.000","Units":"in","Rept_Date":"2020-12-23 00"},"coordinates":[3210,5863]},{"type":"Point","properties":{"Station_ID":"ALPM4","Station_Nam":"SNOW PAID OBSERVER FOR KAPN","Latitude":"45.03110","Longitude":"-83.55970","Snowdepth":"7.000","Units":"in","Rept_Date":"2020-12-22 18"},"coordinates":[3210,5833]},{"type":"Point","properties":{"Station_ID":"WV-PR-19","Station_Nam":"TERRA ALTA 3.3 ENE, WV","Latitude":"39.45929","Longitude":"-79.48470","Snowdepth":"6.800","Units":"in","Rept_Date":"2020-12-22 12"},"coordinates":[4167,2367]},{"type":"Point","properties":{"Station_ID":"CT-MD-21","Station_Nam":"KILLINGWORTH 2.6 ESE, CT","Latitude":"41.34499","Longitude":"-72.51757","Snowdepth":"6.700","Units":"in","Rept_Date":"2020-12-22 12"},"coordinates":[5802,3540]},{"type":"Point","properties":{"Station_ID":"CAN-MB-368","Station_Nam":"WHITESHELL 1.3 NE, CAN","Latitude":"49.74405","Longitude":"-95.19123","Snowdepth":"6.600","Units":"in","Rept_Date":"2020-12-22 14"},"coordinates":[481,8765]},{"type":"Point","properties":{"Station_ID":"RI-PR-28","Station_Nam":"NORTH SMITHFIELD 0.7 SE, RI","Latitude":"41.95910","Longitude":"-71.54201","Snowdepth":"6.500","Units":"in","Rept_Date":"2020-12-22 12"},"coordinates":[6031,3922]},