{"type":"Topology","objects":{"snowdepth_geo":{"type":"GeometryCollection","name":"snowdepth","crs":{"type":"name","properties":{"name":"urn:ogc:def:crs:OGC:1.3:CRS84"}},"geometries":[{"type":"Point","properties":{"Station_ID":"MMSV1","Station_Nam":"MOUNT MANSFIELD","Latitude":"44.53330","Longitude":"-72.83330","Snowdepth":"84.000","Units":"in","Rept_Date":"2019-11-09 05"},"coordinates":[6318,4321]},{"type":"Point","properties":{"Station_ID":"PRKM4","Station_Nam":"MUNISING EAST","Latitude":"46.42580","Longitude":"-86.62000","Snowdepth":"76.500","Units":"in","Rept_Date":"2019-11-09 06"},"coordinates":[2748,5815]},{"type":"Point","properties":{"Station_ID":"OGIQ6","Station_Nam":"OGOKI CAMP","Latitude":"50.76680","Longitude":"-87.85820","Snowdepth":"61.100","Units":"in","Rept_Date":"2019-11-09 06"},"coordinates":[2428,9241]},{"type":"Point","properties":{"Station_ID":"AUDQ6","Station_Nam":"AUDEN","Latitude":"48.52600","Longitude":"-82.57570","Snowdepth":"47.640","Units":"in","Rept_Date":"2019-11-09 06"},"coordinates":[3795,7472]},{"type":"Point","properties":{"Station_ID":"DVLQ6","Station_Nam":"DEVIOUS LAKE","Latitude":"49.19890","Longitude":"-87.76440","Snowdepth":"43.460","Units":"in","Rept_Date":"2019-11-09 06"},"coordinates":[2452,8004]},{"type":"Point","properties":{"Station_ID":"GMSM4","Station_Nam":"GRAND MARAIS 10S","Latitude":"46.50940","Longitude":"-85.96310","Snowdepth":"14.000","Units":"in","Rept_Date":"2019-11-08 12"},"coordinates":[2918,5881]},{"type":"Point","properties":{"Station_ID":"PRDM4","Station_Nam":"PARADISE","Latitude":"46.60380","Longitude":"-85.03960","Snowdepth":"13.000","Units":"in","Rept_Date":"2019-11-08 11"},"coordinates":[3157,5955]},{"type":"Point","properties":{"Station_ID":"MI-AT-6","Station_Nam":"MANCELONA 0.5 ESE, MI","Latitude":"44.89981","Longitude":"-85.05100","Snowdepth":"13.000","Units":"in","Rept_Date":"2019-11-08 13"},"coordinates":[3155,4610]},{"type":"Point","properties":{"Station_ID":"FLAM4","Station_Nam":"FIFE LAKE 2WNW","Latitude":"44.58480","Longitude":"-85.36530","Snowdepth":"12.000","Units":"in","Rept_Date":"2019-11-08 12"},"coordinates":[3073,4362]},{"type":"Point","properties":{"Station_ID":"MFU","Station_Nam":"MFU","Latitude":"51.52170","Longitude":"-66.91110","Snowdepth":"11.457","Units":"in","Rept_Date":"2019-11-08 12"},"coordinates":[7852,9837]},{"type":"Point","properties":{"Station_ID":"QGD","Station_Nam":"QGD","Latitude":"51.11140","Longitude":"-67.13940","Snowdepth":"11.299","Units":"in","Rept_Date":"2019-11-08 12"},"coordinates":[7793,9513]},{"type":"Point","properties":{"Station_ID":"MI-GT-21","Station_Nam":"KINGSLEY 2.7 ENE, MI","Latitude":"44.59871","Longitude":"-85.48426","Snowdepth":"11.000","Units":"in","Rept_Date":"2019-11-08 11"},"coordinates":[3042,4373]},{"type":"Point","properties":{"Station_ID":"QOU","Station_Nam":"QOU","Latitude":"50.79250","Longitude":"-69.67470","Snowdepth":"10.354","Units":"in","Rept_Date":"2019-11-08 12"},"coordinates":[7136,9261]},{"type":"Point","properties":{"Station_ID":"WLNM4","Station_Nam":"WELLSTON 1N","Latitude":"44.22940","Longitude":"-85.95690","Snowdepth":"10.000","Units":"in","Rept_Date":"2019-11-08 12"},"coordinates":[2920,4081]},{"type":"Point","properties":{"Station_ID":"KLKM4","Station_Nam":"KALKASKA","Latitude":"44.72800","Longitude":"-85.17270","Snowdepth":"10.000","Units":"in","Rept_Date":"2019-11-08 13"},"coordinates":[3123,4475]},{"type":"Point","properties":{"Station_ID":"GNLM4","Station_Nam":"GREENLAND 6N","Latitude":"46.87360","Longitude":"-89.10060","Snowdepth":"10.000","Units":"in","Rept_Date":"2019-11-08 13"},"coordinates":[2106,6168]},{"type":"Point","properties":{"Station_ID":"MRQM4","Station_Nam":"MARQUETTE WFP","Latitude":"46.54580","Longitude":"-87.37950","Snowdepth":"9.000","Units":"in","Rept_Date":"2019-11-08 13"},"coordinates":[2552,5910]},{"type":"Point","properties":{"Station_ID":"QMA","Station_Nam":"QMA","Latitude":"50.10330","Longitude":"-70.47190","Snowdepth":"8.976","Units":"in","Rept_Date":"2019-11-08 12"},"coordinates":[6930,8717]},{"type":"Point","properties":{"Station_ID":"PDLM4","Station_Nam":"PAINESDALE","Latitude":"47.04160","Longitude":"-88.67170","Snowdepth":"8.000","Units":"in","Rept_Date":"2019-11-08 13"},"coordinates":[2217,6301]},{"type":"Point","properties":{"Station_ID":"MI-KW-2","Station_Nam":"DELAWARE 5.2 SW, MI","Latitude":"47.36928","Longitude":"-88.17919","Snowdepth":"8.000","Units":"in","Rept_Date":"2019-11-08 09"},"coordinates":[2344,6559]},{"type":"Point","properties":{"Station_ID":"QMD","Station_Nam":"QMD","Latitude":"49.29060","Longitude":"-75.84500","Snowdepth":"7.913","Units":"in","Rept_Date":"2019-11-08 12"},"coordinates":[5538,8076]},{"type":"Point","properties":{"Station_ID":"QGO","Station_Nam":"QGO","Latitude":"48.85500","Longitude":"-74.20640","Snowdepth":"7.559","Units":"in","Rept_Date":"2019-11-08 12"},"coordinates":[5963,7732]},{"type":"Point","properties":{"Station_ID":"CAN-NB-89","Station_Nam":"MEMRAMCOOK 4.0 W, CAN","Latitude":"46.01133","Longitude":"-64.60244","Snowdepth":"7.100","Units":"in","Rept_Date":"2019-11-08 22"},"coordinates":[8450,5488]},{"type":"Point","properties":{"Station_ID":"SLNV1","Station_Nam":"SOUTH LINCOLN","Latitude":"44.07460","Longitude":"-72.97180","Snowdepth":"7.000","Units":"in","Rept_Date":"2019-11-08 12"},"coordinates":[6282,3959]},{"type":"Point","properties":{"Station_ID":"SCOM4","Station_Nam":"SCOTTVILLE 2 SE","Latitude":"43.93310","Longitude":"-86.24530","Snowdepth":"7.000","Units":"in","Rept_Date":"2019-11-08 12"},"coordinates":[2845,3847]},{"type":"Point","properties":{"Station_ID":"MWN","Station_Nam":"MOUNT WASHINGTON","Latitude":"44.26670","Longitude":"-71.30000","Snowdepth":"7.000","Units":"in","Rept_Date":"2019-11-09 05"},"coordinates":[6715,4111]},{"type":"Point","properties":{"Station_ID":"MNSM4","Station_Nam":"MUNISING","Latitude":"46.41210","Longitude":"-86.66250","Snowdepth":"7.000","Units":"in","Rept_Date":"2019-11-08 11"},"coordinates":[2737,5804]},{"type":"Point","properties":{"Station_ID":"KZAP1","Station_Nam":"KINZUA","Latitude":"41.90060","Longitude":"-79.11860","Snowdepth":"7.000","Units":"in","Rept_Date":"2019-11-08 12"},"coordinates":[4691,2243]},{"type":"Point","properties":{"Station_ID":"KMWN","Station_Nam":"MOUNT WASHINGTON","Latitude":"44.26666","Longitude":"-71.30000","Snowdepth":"7.000","Units":"in","Rept_Date":"2019-11-09 06"},"coordinates":[6715,4111]},{"type":"Point","properties":{"Station_ID":"GGRM4","Station_Nam":"GREEN GARDEN NO.2","Latitude":"46.45330","Longitude":"-87.30380","Snowdepth":"7.000","Units":"in","Rept_Date":"2019-11-08 11"},"coordinates":[2571,5836]},{"type":"Point","properties":{"Station_ID":"CDLM4","Station_Nam":"CADILLAC 9&10 NEWS","Latitude":"44.21130","Longitude":"-85.40860","Snowdepth":"7.000","Units":"in","Rept_Date":"2019-11-08 12"},"coordinates":[3062,4067]},{"type":"Point","properties":{"Station_ID":"42.0037_079.8102","Station_Nam":"WATTSBURG  SNOW SPOTTER (X4200798)","Latitude":"42.00370","Longitude":"-79.81020","Snowdepth":"7.000","Units":"in","Rept_Date":"2019-11-08 11"},"coordinates":[4512,2324]},{"type":"Point","properties":{"Station_ID":"MI-CX-7","Station_Nam":"EAST JORDAN 2.1 NNW, MI","Latitude":"45.18639","Longitude":"-85.14750","Snowdepth":"6.500","Units":"in","Rept_Date":"2019-11-08 13"},"coordinates":[3130,4837]},{"type":"Point","properties":{"Station_ID":"QTM","Station_Nam":"QTM","Latitude":"51.05780","Longitude":"-72.57190","Snowdepth":"6.378","Units":"in","Rept_Date":"2019-11-08 12"},"coordinates":[6386,9471]},{"type":"Point","properties":{"Station_ID":"QFT","Station_Nam":"QFT","Latitude":"50.83280","Longitude":"-74.40390","Snowdepth":"6.299","Units":"in","Rept_Date":"2019-11-08 12"},"coordinates":[5911,9293]},{"type":"Point","properties":{"Station_ID":"QCO","Station_Nam":"QCO","Latitude":"51.45280","Longitude":"-72.20110","Snowdepth":"6.299","Units":"in","Rept_Date":"2019-11-08 12"},"coordinates":[6482,9783]},{"type":"Point","properties":{"Station_ID":"QCX","Station_Nam":"QCX","Latitude":"51.32830","Longitude":"-70.08060","Snowdepth":"6.260","Units":"in","Rept_Date":"2019-11-08 12"},"coordinates":[7031,9684]},{"type":"Point","properties":{"Station_ID":"TCMM4","Station_Nam":"TRAVERSE CITY MUNSON","Latitude":"44.76070","Longitude":"-85.64430","Snowdepth":"6.000","Units":"in","Rept_Date":"2019-11-08 11"},"coordinates":[3001,4501]},{"type":"Point","properties":{"Station_ID":"NWFM4","Station_Nam":"NW MICHIGAN RESEARCH FARM","Latitude":"44.88300","Longitude":"-85.67520","Snowdepth":"6.000","Units":"in","Rept_Date":"2019-11-08 13"},"coordinates":[2993,4597]},{"type":"Point","properties":{"Station_ID":"MKNM4","Station_Nam":"MUSKEGON 4 SE","Latitude":"43.18390","Longitude":"-86.20370","Snowdepth":"6.000","Units":"in","Rept_Date":"2019-11-09 06"},"coordinates":[2856,3256]},{"type":"Point","properties":{"Station_ID":"MKG","Station_Nam":"MUSKEGON COUNTY AIRPORT","Latitude":"43.16940","Longitude":"-86.23810","Snowdepth":"6.000","Units":"in","Rept_Date":"2019-11-09 00"},"coordinates":[2847,3244]},{"type":"Point","properties":{"Station_ID":"MI-HG-6","Station_Nam":"CALUMET 5.8 ENE, MI","Latitude":"47.27200","Longitude":"-88.33400","Snowdepth":"6.000","Units":"in","Rept_Date":"2019-11-08 11"},"coordinates":[2304,6483]},{"type":"Point","properties":{"Station_ID":"LKCM4","Station_Nam":"LAKE CITY EXP FARM","Latitude":"44.30880","Longitude":"-85.20500","Snowdepth":"6.000","Units":"in","Rept_Date":"2019-11-08 13"},"coordinates":[3115,4144]},{"type":"Point","properties":{"Station_ID":"HRVM4","Station_Nam":"HARVEY","Latitude":"46.49080","Longitude":"-87.35470","Snowdepth":"6.000","Units":"in","Rept_Date":"2019-11-08 12"},"coordinates":[2558,5866]},{"type":"Point","properties":{"Station_ID":"HERM4","Station_Nam":"HERMAN,MI","Latitude":"46.65000","Longitude":"-88.33330","Snowdepth":"6.000","Units":"in","Rept_Date":"2019-11-08 13"},"coordinates":[2305,5992]},{"type":"Point","properties":{"Station_ID":"EJNM4","Station_Nam":"EAST JORDAN 2NW","Latitude":"45.18630","Longitude":"-85.14770","Snowdepth":"6.000","Units":"in","Rept_Date":"2019-11-08 13"},"coordinates":[3129,4836]},{"type":"Point","properties":{"Station_ID":"ATMM4","Station_Nam":"ATLANTIC MINE 5NW","Latitude":"47.15440","Longitude":"-88.71670","Snowdepth":"6.000","Units":"in","Rept_Date":"2019-11-08 15"},"coordinates":[2205,6390]},{"type":"Point","properties":{"Station_ID":"41.9034_079.6523","Station_Nam":"CORRY (CLE0230)","Latitude":"41.90340","Longitude":"-79.65230","Snowdepth":"6.000","Units":"in","Rept_Date":"2019-11-08 14"},"coordinates":[4552,2245]},{"type":"Point","properties":{"Station_ID":"41.8210_079.8343","Station_Nam":"CANADOHTA LAKE (CLE0326)","Latitude":"41.82100","Longitude":"-79.83430","Snowdepth":"6.000","Units":"in","Rept_Date":"2019-11-08 13"},"coordinates":[4505,2180]},{"type":"Point","properties":{"Station_ID":"QCU","Station_Nam":"QCU","Latitude":"47.82750","Longitude":"-76.59830","Snowdepth":"5.866","Units":"in","Rept_Date":"2019-11-08 12"},"coordinates":[5343,6921]},{"type":"Point","properties":{"Station_ID":"SVBQ6","Station_Nam":"SAVANT BASE","Latitude":"50.28730","Longitude":"-90.65670","Snowdepth":"5.240","Units":"in","Rept_Date":"2019-11-09 06"},"coordinates":[1703,8863]},{"type":"Point","properties":{"Station_ID":"WELM5","Station_Nam":"WELLS","Latitude":"43.74680","Longitude":"-93.73680","Snowdepth":"5.000","Units":"in","Rept_Date":"2019-11-08 14"},"coordinates":[905,3700]},{"type":"Point","properties":{"Station_ID":"WELM4","Station_Nam":"WELLSTON TIPPY DAM","Latitude":"44.25860","Longitude":"-85.93940","Snowdepth":"5.000","Units":"in","Rept_Date":"2019-11-08 13"},"coordinates":[2924,4104]},{"type":"Point","properties":{"Station_ID":"QNCM4","Station_Nam":"QUINCY HILL","Latitude":"47.13640","Longitude":"-88.57950","Snowdepth":"5.000","Units":"in","Rept_Date":"2019-11-08 12"},"coordinates":[2241,6376]},{"type":"Point","properties":{"Station_ID":"OH-GG-7","Station_Nam":"MIDDLEFIELD 0.6 NE, OH","Latitude":"41.46438","Longitude":"-81.06520","Snowdepth":"5.000","Units":"in","Rept_Date":"2019-11-08 13"},"coordinates":[4187,1899]},{"type":"Point","properties":{"Station_ID":"MMNV1","Station_Nam":"MT. MANSFIELD","Latitude":"44.52480","Longitude":"-72.81540","Snowdepth":"5.000","Units":"in","Rept_Date":"2019-11-08 21"},"coordinates":[6323,4314]},{"type":"Point","properties":{"Station_ID":"MI-OT-4","Station_Nam":"GAYLORD 1.7 WNW, MI","Latitude":"45.03280","Longitude":"-84.71090","Snowdepth":"5.000","Units":"in","Rept_Date":"2019-11-08 13"},"coordinates":[3243,4715]},{"type":"Point","properties":{"Station_ID":"MI-OC-3","Station_Nam":"HART 3 WSW, MI","Latitude":"43.67470","Longitude":"-86.42250","Snowdepth":"5.000","Units":"in","Rept_Date":"2019-11-08 12"},"coordinates":[2799,3643]},{"type":"Point","properties":{"Station_ID":"MI-BZ-1","Station_Nam":"BENZONIA 5.3 S, MI","Latitude":"44.53976","Longitude":"-86.10650","Snowdepth":"5.000","Units":"in","Rept_Date":"2019-11-08 13"},"coordinates":[2881,4326]},{"type":"Point","properties":{"Station_ID":"MAPM4","Station_Nam":"MAPLE CITY 1E","Latitude":"44.85500","Longitude":"-85.83520","Snowdepth":"5.000","Units":"in","Rept_Date":"2019-11-08 23"},"coordinates":[2951,4575]},{"type":"Point","properties":{"Station_ID":"MALN6","Station_Nam":"MALONE","Latitude":"44.84180","Longitude":"-74.30600","Snowdepth":"5.000","Units":"in","Rept_Date":"2019-11-08 12"},"coordinates":[5937,4565]},{"type":"Point","properties":{"Station_ID":"KTVC","Station_Nam":"CHERRY CAPITAL AIRPORT","Latitude":"44.73333","Longitude":"-85.56666","Snowdepth":"5.000","Units":"in","Rept_Date":"2019-11-09 00"},"coordinates":[3021,4479]},{"type":"Point","properties":{"Station_ID":"KSEM4","Station_Nam":"KALKASKA 11SE","Latitude":"44.58970","Longitude":"-85.04860","Snowdepth":"5.000","Units":"in","Rept_Date":"2019-11-08 13"},"coordinates":[3155,4366]},{"type":"Point","properties":{"Station_ID":"HRTM4","Station_Nam":"HART,MI","Latitude":"43.70000","Longitude":"-86.36670","Snowdepth":"5.000","Units":"in","Rept_Date":"2019-11-08 12"},"coordinates":[2814,3663]},{"type":"Point","properties":{"Station_ID":"GAYM4","Station_Nam":"GAYLORD","Latitude":"45.03320","Longitude":"-84.71130","Snowdepth":"5.000","Units":"in","Rept_Date":"2019-11-08 13"},"coordinates":[3242,4716]},{"type":"Point","properties":{"Station_ID":"CAN-ON-178","Station_Nam":"GODERICH 10.2 S - MVCA, CAN","Latitude":"43.64655","Longitude":"-81.70734","Snowdepth":"5.000","Units":"in","Rept_Date":"2019-11-08 13"},"coordinates":[4020,3621]},{"type":"Point","properties":{"Station_ID":"CAN-NB-96","Station_Nam":"SAINT-IGNACE 2.6 NE, CAN","Latitude":"46.71424","Longitude":"-65.05609","Snowdepth":"5.000","Units":"in","Rept_Date":"2019-11-08 11"},"coordinates":[8332,6042]},{"type":"Point","properties":{"Station_ID":"41.9492_079.7821","Station_Nam":"AMITY TWP (CLE0216)","Latitude":"41.94920","Longitude":"-79.78210","Snowdepth":"5.000","Units":"in","Rept_Date":"2019-11-08 13"},"coordinates":[4519,2281]},{"type":"Point","properties":{"Station_ID":"41.6533_080.1440","Station_Nam":"MEADVILLE  SNOW SPOTTER (X4170801)","Latitude":"41.65330","Longitude":"-80.14400","Snowdepth":"5.000","Units":"in","Rept_Date":"2019-11-08 13"},"coordinates":[4425,2048]},{"type":"Point","properties":{"Station_ID":"41.5909_081.0473","Station_Nam":"MONTVILLE (CLE1322)","Latitude":"41.59090","Longitude":"-81.04730","Snowdepth":"5.000","Units":"in","Rept_Date":"2019-11-08 23"},"coordinates":[4191,1999]},{"type":"Point","properties":{"Station_ID":"CAN-ON-452","Station_Nam":"CHATSWORTH 1.8 ENE - GSCA, CAN","Latitude":"44.46118","Longitude":"-80.87506","Snowdepth":"4.900","Units":"in","Rept_Date":"2019-11-08 12"},"coordinates":[4236,4264]},{"type":"Point","properties":{"Station_ID":"SOCQ6","Station_Nam":"SOCKET LAKE","Latitude":"50.77870","Longitude":"-91.79300","Snowdepth":"4.800","Units":"in","Rept_Date":"2019-11-09 06"},"coordinates":[1409,9251]},{"type":"Point","properties":{"Station_ID":"CAN-ON-46","Station_Nam":"WROXETER 0.3 WSW - MVCA, CAN","Latitude":"43.86365","Longitude":"-81.15225","Snowdepth":"4.700","Units":"in","Rept_Date":"2019-11-08 13"},"coordinates":[4164,3792]},{"type":"Point","properties":{"Station_ID":"CAN-ON-342","Station_Nam":"LURGAN BEACH 1.4 NNE - LHCC, CAN","Latitude":"44.09777","Longitude":"-81.72765","Snowdepth":"4.700","Units":"in","Rept_Date":"2019-11-08 12"},"coordinates":[4015,3977]},{"type":"Point","properties":{"Station_ID":"MLZ","Station_Nam":"MLZ","Latitude":"50.66170","Longitude":"-68.82360","Snowdepth":"4.646","Units":"in","Rept_Date":"2019-11-08 12"},"coordinates":[7356,9158]},{"type":"Point","properties":{"Station_ID":"NY-OG-61","Station_Nam":"SKANEATELES 0.8 NNW, NY","Latitude":"42.95538","Longitude":"-76.43362","Snowdepth":"4.500","Units":"in","Rept_Date":"2019-11-08 12"},"coordinates":[5386,3076]},{"type":"Point","properties":{"Station_ID":"MI-OT-17","Station_Nam":"GAYLORD 4.1 S, MI","Latitude":"44.96388","Longitude":"-84.68467","Snowdepth":"4.500","Units":"in","Rept_Date":"2019-11-08 12"},"coordinates":[3249,4661]},{"type":"Point","properties":{"Station_ID":"MI-GT-25","Station_Nam":"TRAVERSE CITY 4.7 ESE, MI","Latitude":"44.73370","Longitude":"-85.51189","Snowdepth":"4.500","Units":"in","Rept_Date":"2019-11-08 12"},"coordinates":[3035,4479]},{"type":"Point","properties":{"Station_ID":"CAN-ON-109","Station_Nam":"MILDMAY 5.9 SSE, CA","Latitude":"43.98733","Longitude":"-81.10330","Snowdepth":"4.500","Units":"in","Rept_Date":"2019-11-08 13"},"coordinates":[4177,3890]},{"type":"Point","properties":{"Station_ID":"MRL","Station_Nam":"MRL","Latitude":"51.28330","Longitude":"-68.84060","Snowdepth":"4.331","Units":"in","Rept_Date":"2019-11-08 12"},"coordinates":[7352,9649]},{"type":"Point","properties":{"Station_ID":"CAN-NB-16","Station_Nam":"DORCHESTER 1.0 SSE, CAN","Latitude":"45.89160","Longitude":"-64.51269","Snowdepth":"4.200","Units":"in","Rept_Date":"2019-11-08 10"},"coordinates":[8473,5393]},{"type":"Point","properties":{"Station_ID":"MI-ME-11","Station_Nam":"BIG RAPIDS 5.4 S, MI","Latitude":"43.62630","Longitude":"-85.47600","Snowdepth":"4.100","Units":"in","Rept_Date":"2019-11-08 12"},"coordinates":[3044,3605]},{"type":"Point","properties":{"Station_ID":"WSFW3","Station_Nam":"TOWN OF WESTFORD","Latitude":"43.47190","Longitude":"-88.88250","Snowdepth":"4.000","Units":"in","Rept_Date":"2019-11-08 13"},"coordinates":[2162,3483]},{"type":"Point","properties":{"Station_ID":"WI-WS-1","Station_Nam":"HARTFORD 3.8 E, WI","Latitude":"43.32410","Longitude":"-88.31340","Snowdepth":"4.000","Units":"in","Rept_Date":"2019-11-08 13"},"coordinates":[2310,3367]},{"type":"Point","properties":{"Station_ID":"WI-WD-7","Station_Nam":"NEKOOSA 3.7 SSW, WI","Latitude":"44.26305","Longitude":"-89.93526","Snowdepth":"4.000","Units":"in","Rept_Date":"2019-11-08 13"},"coordinates":[1890,4108]},{"type":"Point","properties":{"Station_ID":"WDOM5","Station_Nam":"WINDOM","Latitude":"43.87700","Longitude":"-95.11590","Snowdepth":"4.000","Units":"in","Rept_Date":"2019-11-08 14"},"coordinates":[548,3803]},{"type":"Point","properties":{"Station_ID":"WBRM4","Station_Nam":"WEST BRANCH 3SE","Latitude":"44.25410","Longitude":"-84.20110","Snowdepth":"4.000","Units":"in","Rept_Date":"2019-11-08 13"},"coordinates":[3375,4101]},{"type":"Point","properties":{"Station_ID":"VQAW3","Station_Nam":"VIROQUA","Latitude":"43.55970","Longitude":"-90.87560","Snowdepth":"4.000","Units":"in","Rept_Date":"2019-11-08 13"},"coordinates":[1646,3553]},{"type":"Point","properties":{"Station_ID":"TSVP1","Station_Nam":"TITUSVILLE,PA","Latitude":"41.63330","Longitude":"-79.70000","Snowdepth":"4.000","Units":"in","Rept_Date":"2019-11-08 12"},"coordinates":[4540,2032]},{"type":"Point","properties":{"Station_ID":"TCEM4","Station_Nam":"TRAVERSE CITY 5ESE","Latitude":"44.73370","Longitude":"-85.51180","Snowdepth":"4.000","Units":"in","Rept_Date":"2019-11-08 12"},"coordinates":[3035,4479]},{"type":"Point","properties":{"Station_ID":"SSMM4","Station_Nam":"SAULT STE MARIE","Latitude":"46.48660","Longitude":"-84.40250","Snowdepth":"4.000","Units":"in","Rept_Date":"2019-11-08 13"},"coordinates":[3322,5863]},{"type":"Point","properties":{"Station_ID":"RDCM4","Station_Nam":"WASTE WATER TREATMENT PLANT","Latitude":"43.86670","Longitude":"-85.50000","Snowdepth":"4.000","Units":"in","Rept_Date":"2019-11-08 12"},"coordinates":[3038,3795]},{"type":"Point","properties":{"Station_ID":"PORW3","Station_Nam":"PORTAGE,WI","Latitude":"43.53190","Longitude":"-89.43780","Snowdepth":"4.000","Units":"in","Rept_Date":"2019-11-08 14"},"coordinates":[2019,3531]},{"type":"Point","properties":{"Station_ID":"OWAM5","Station_Nam":"OWATONNA","Latitude":"44.09760","Longitude":"-93.23180","Snowdepth":"4.000","Units":"in","Rept_Date":"2019-11-08 14"},"coordinates":[1036,3977]},{"type":"Point","properties":{"Station_ID":"OH-GG-4","Station_Nam":"MONTVILLE 1.2 SSE, OH","Latitude":"41.59030","Longitude":"-81.04800","Snowdepth":"4.000","Units":"in","Rept_Date":"2019-11-08 12"},"coordinates":[4191,1998]},{"type":"Point","properties":{"Station_ID":"OH-GG-16","Station_Nam":"CHARDON 5.1 SSE, OH","Latitude":"41.50776","Longitude":"-81.18304","Snowdepth":"4.000","Units":"in","Rept_Date":"2019-11-08 12"},"coordinates":[4156,1933]},{"type":"Point","properties":{"Station_ID":"NY-MD-10","Station_Nam":"CAZENOVIA 2.9 SE, NY","Latitude":"42.90003","Longitude":"-75.81140","Snowdepth":"4.000","Units":"in","Rept_Date":"2019-11-08 12"},"coordinates":[5547,3032]},{"type":"Point","properties":{"Station_ID":"MXON6","Station_Nam":"MEXICO","Latitude":"43.43830","Longitude":"-76.26560","Snowdepth":"4.000","Units":"in","Rept_Date":"2019-11-08 12"},"coordinates":[5429,3457]},{"type":"Point","properties":{"Station_ID":"MN-SE-2","Station_Nam":"OWATONNA 0.8 E, MN","Latitude":"44.09170","Longitude":"-93.21380","Snowdepth":"4.000","Units":"in","Rept_Date":"2019-11-08 12"},"coordinates":[1041,3972]},{"type":"Point","properties":{"Station_ID":"MN-MT-6","Station_Nam":"FAIRMONT 0.7 E, MN","Latitude":"43.64501","Longitude":"-94.44860","Snowdepth":"4.000","Units":"in","Rept_Date":"2019-11-08 13"},"coordinates":[721,3620]},{"type":"Point","properties":{"Station_ID":"MI-OT-16","Station_Nam":"GAYLORD 2.2 SSE, MI","Latitude":"44.99441","Longitude":"-84.65820","Snowdepth":"4.000","Units":"in","Rept_Date":"2019-11-08 11"},"coordinates":[3256,4685]},{"type":"Point","properties":{"Station_ID":"MI-OG-6","Station_Nam":"WEST BRANCH 2.1 SSW, MI","Latitude":"44.24814","Longitude":"-84.25089","Snowdepth":"4.000","Units":"in","Rept_Date":"2019-11-08 13"},"coordinates":[3362,4096]},{"type":"Point","properties":{"Station_ID":"MI-NW-8","Station_Nam":"WHITE CLOUD 7.5 ENE, MI","Latitude":"43.60630","Longitude":"-85.64190","Snowdepth":"4.000","Units":"in","Rept_Date":"2019-11-08 12"},"coordinates":[3002,3589]},{"type":"Point","properties":{"Station_ID":"MI-BG-3","Station_Nam":"L'ANSE 17.8 SE, MI","Latitude":"46.55730","Longitude":"-88.20770","Snowdepth":"4.000","Units":"in","Rept_Date":"2019-11-08 13"},"coordinates":[2337,5919]},{"type":"Point","properties":{"Station_ID":"LKFM5","Station_Nam":"LAKEFIELD,MN","Latitude":"43.68330","Longitude":"-95.18330","Snowdepth":"4.000","Units":"in","Rept_Date":"2019-11-08 13"},"coordinates":[531,3650]},{"type":"Point","properties":{"Station_ID":"LAFW3","Station_Nam":"LA FARGE","Latitude":"43.57340","Longitude":"-90.63200","Snowdepth":"4.000","Units":"in","Rept_Date":"2019-11-08 13"},"coordinates":[1709,3563]},{"type":"Point","properties":{"Station_ID":"KUKN6","Station_Nam":"LAKESIDE","Latitude":"43.37140","Longitude":"-78.26630","Snowdepth":"4.000","Units":"in","Rept_Date":"2019-11-08 12"},"coordinates":[4911,3404]},{"type":"Point","properties":{"Station_ID":"KMKG","Station_Nam":"MUSKEGON COUNTY AIRPORT","Latitude":"43.16666","Longitude":"-86.23333","Snowdepth":"4.000","Units":"in","Rept_Date":"2019-11-09 00"},"coordinates":[2848,3242]},{"type":"Point","properties":{"Station_ID":"KANP1","Station_Nam":"KANE,PA","Latitude":"41.68330","Longitude":"-78.80000","Snowdepth":"4.000","Units":"in","Rept_Date":"2019-11-08 12"},"coordinates":[4773,2071]},{"type":"Point","properties":{"Station_ID":"GMDM5","Station_Nam":"GRAND MEADOW","Latitude":"43.70740","Longitude":"-92.56440","Snowdepth":"4.000","Units":"in","Rept_Date":"2019-11-08 12"},"coordinates":[1209,3669]},{"type":"Point","properties":{"Station_ID":"FREM4","Station_Nam":"FREMONT,MI","Latitude":"43.45000","Longitude":"-86.03330","Snowdepth":"4.000","Units":"in","Rept_Date":"2019-11-08 12"},"coordinates":[2900,3466]},{"type":"Point","properties":{"Station_ID":"DCRI4","Station_Nam":"DECORAH","Latitude":"43.30430","Longitude":"-91.79520","Snowdepth":"4.000","Units":"in","Rept_Date":"2019-11-09 00"},"coordinates":[1408,3351]},{"type":"Point","properties":{"Station_ID":"CLDM5","Station_Nam":"CALEDONIA","Latitude":"43.63090","Longitude":"-91.50270","Snowdepth":"4.000","Units":"in","Rept_Date":"2019-11-08 13"},"coordinates":[1484,3609]},{"type":"Point","properties":{"Station_ID":"CGPM4","Station_Nam":"DOLLAR BAY","Latitude":"47.11670","Longitude":"-88.51370","Snowdepth":"4.000","Units":"in","Rept_Date":"2019-11-08 13"},"coordinates":[2258,6360]},{"type":"Point","properties":{"Station_ID":"CAN-NB-2","Station_Nam":"GRAFTON 2.7 NNE, CA","Latitude":"46.17062","Longitude":"-67.55330","Snowdepth":"4.000","Units":"in","Rept_Date":"2019-11-08 10"},"coordinates":[7685,5613]},{"type":"Point","properties":{"Station_ID":"BGRM4","Station_Nam":"WATER WORKS","Latitude":"43.70000","Longitude":"-85.48330","Snowdepth":"4.000","Units":"in","Rept_Date":"2019-11-08 12"},"coordinates":[3043,3663]},{"type":"Point","properties":{"Station_ID":"APXM4","Station_Nam":"GAYLORD 9SSW","Latitude":"44.90720","Longitude":"-84.71880","Snowdepth":"4.000","Units":"in","Rept_Date":"2019-11-09 06"},"coordinates":[3241,4616]},{"type":"Point","properties":{"Station_ID":"41.8222_080.1028","Station_Nam":"CAMBRIDGE SPRINGS  SNOW SPOTTER (CLE0344)","Latitude":"41.82220","Longitude":"-80.10280","Snowdepth":"4.000","Units":"in","Rept_Date":"2019-11-08 14"},"coordinates":[4436,2181]},{"type":"Point","properties":{"Station_ID":"41.7291_079.9267","Station_Nam":"4 NW Townville  Trained Spotter (CLE0349)","Latitude":"41.72911","Longitude":"-79.92672","Snowdepth":"4.000","Units":"in","Rept_Date":"2019-11-08 21"},"coordinates":[4481,2108]},{"type":"Point","properties":{"Station_ID":"41.6267_079.6709","Station_Nam":"Titusville  Co-Op Observer (X4160797)","Latitude":"41.62670","Longitude":"-79.67090","Snowdepth":"4.000","Units":"in","Rept_Date":"2019-11-08 14"},"coordinates":[4548,2027]},{"type":"Point","properties":{"Station_ID":"41.5903_081.0480","Station_Nam":"1 SSE Montville  CoCoRaHS (OH-GG-4)","Latitude":"41.59030","Longitude":"-81.04800","Snowdepth":"4.000","Units":"in","Rept_Date":"2019-11-08 10"},"coordinates":[4191,1998]},{"type":"Point","properties":{"Station_ID":"41.5078_081.1830","Station_Nam":"5 SSE Chardon  CoCoRaHS (OH-GG-16)","Latitude":"41.50780","Longitude":"-81.18300","Snowdepth":"4.000","Units":"in","Rept_Date":"2019-11-08 11"},"coordinates":[4156,1933]},{"type":"Point","properties":{"Station_ID":"WI-SK-16","Station_Nam":"LA VALLE 3.5 W, WI","Latitude":"43.58731","Longitude":"-90.20020","Snowdepth":"3.800","Units":"in","Rept_Date":"2019-11-08 13"},"coordinates":[1821,3574]},{"type":"Point","properties":{"Station_ID":"QYR","Station_Nam":"QYR","Latitude":"48.87220","Longitude":"-75.61470","Snowdepth":"3.543","Units":"in","Rept_Date":"2019-11-08 12"},"coordinates":[5598,7746]},{"type":"Point","properties":{"Station_ID":"WI-WS-28","Station_Nam":"JACKSON 0.9 SSE, WI","Latitude":"43.30781","Longitude":"-88.15942","Snowdepth":"3.500","Units":"in","Rept_Date":"2019-11-08 13"},"coordinates":[2350,3354]},{"type":"Point","properties":{"Station_ID":"WI-WD-2","Station_Nam":"WISCONSIN RAPIDS 4.6 SSE, WI","Latitude":"44.33823","Longitude":"-89.78200","Snowdepth":"3.500","Units":"in","Rept_Date":"2019-11-08 13"},"coordinates":[1929,4167]},{"type":"Point","properties":{"Station_ID":"WI-OZ-12","Station_Nam":"PORT WASHINGTON 0.5 S, WI","Latitude":"43.38610","Longitude":"-87.87900","Snowdepth":"3.500","Units":"in","Rept_Date":"2019-11-08 13"},"coordinates":[2422,3416]},{"type":"Point","properties":{"Station_ID":"MN-FM-10","Station_Nam":"WYKOFF 3.1 NW, MN","Latitude":"43.74340","Longitude":"-92.30650","Snowdepth":"3.500","Units":"in","Rept_Date":"2019-11-08 13"},"coordinates":[1276,3698]},{"type":"Point","properties":{"Station_ID":"MI-ME-10","Station_Nam":"MECOSTA 4.6 SSW, MI","Latitude":"43.56269","Longitude":"-85.28063","Snowdepth":"3.500","Units":"in","Rept_Date":"2019-11-08 13"},"coordinates":[3095,3555]},{"type":"Point","properties":{"Station_ID":"IA-WH-1","Station_Nam":"DECORAH 7.9 ENE, IA","Latitude":"43.34391","Longitude":"-91.64430","Snowdepth":"3.500","Units":"in","Rept_Date":"2019-11-08 14"},"coordinates":[1447,3382]},{"type":"Point","properties":{"Station_ID":"CAN-NL-65","Station_Nam":"KIPPENS 0.7 NE, CA","Latitude":"48.55436","Longitude":"-58.61850","Snowdepth":"3.500","Units":"in","Rept_Date":"2019-11-08 12"},"coordinates":[9999,7495]},{"type":"Point","properties":{"Station_ID":"CATQ6","Station_Nam":"CAT LAKE","Latitude":"51.72690","Longitude":"-91.82210","Snowdepth":"3.460","Units":"in","Rept_Date":"2019-11-09 06"},"coordinates":[1401,9999]},{"type":"Point","properties":{"Station_ID":"QWG","Station_Nam":"QWG","Latitude":"48.48890","Longitude":"-73.45940","Snowdepth":"3.425","Units":"in","Rept_Date":"2019-11-08 12"},"coordinates":[6156,7443]},{"type":"Point","properties":{"Station_ID":"MI-NW-10","Station_Nam":"WHITE CLOUD 9.6 E, MI","Latitude":"43.52587","Longitude":"-85.58461","Snowdepth":"3.250","Units":"in","Rept_Date":"2019-11-08 12"},"coordinates":[3016,3526]},{"type":"Point","properties":{"Station_ID":"FTHQ6","Station_Nam":"FORT HOPE","Latitude":"51.55820","Longitude":"-87.90510","Snowdepth":"3.230","Units":"in","Rept_Date":"2019-11-09 06"},"coordinates":[2415,9866]},{"type":"Point","properties":{"Station_ID":"MI-IS-7","Station_Nam":"MOUNT PLEASANT 3.8 ESE, MI","Latitude":"43.57860","Longitude":"-84.70720","Snowdepth":"3.200","Units":"in","Rept_Date":"2019-11-08 13"},"coordinates":[3244,3567]},{"type":"Point","properties":{"Station_ID":"VT-OL-5","Station_Nam":"DERBY CENTER 1.8 NW, VT","Latitude":"44.97200","Longitude":"-72.14780","Snowdepth":"3.100","Units":"in","Rept_Date":"2019-11-08 12"},"coordinates":[6496,4667]},{"type":"Point","properties":{"Station_ID":"NY-OG-12","Station_Nam":"CLAY 4.6 NW, NY","Latitude":"43.20000","Longitude":"-76.26000","Snowdepth":"3.100","Units":"in","Rept_Date":"2019-11-08 13"},"coordinates":[5431,3269]},{"type":"Point","properties":{"Station_ID":"CAN-NB-98","Station_Nam":"HOYT 4.2 S, CAN","Latitude":"45.54763","Longitude":"-66.55440","Snowdepth":"3.100","Units":"in","Rept_Date":"2019-11-08 10"},"coordinates":[7944,5122]},{"type":"Point","properties":{"Station_ID":"WTNM4","Station_Nam":"WATTON 2WSW","Latitude":"46.52660","Longitude":"-88.64240","Snowdepth":"3.000","Units":"in","Rept_Date":"2019-11-08 13"},"coordinates":[2225,5894]},{"type":"Point","properties":{"Station_ID":"WTBW3","Station_Nam":"WEST BEND PUBLIC WORKS","Latitude":"43.41110","Longitude":"-88.19380","Snowdepth":"3.000","Units":"in","Rept_Date":"2019-11-08 13"},"coordinates":[2341,3435]},{"type":"Point","properties":{"Station_ID":"WSTW3","Station_Nam":"WEST BEND -FIRE","Latitude":"43.43138","Longitude":"-88.16111","Snowdepth":"3.000","Units":"in","Rept_Date":"2019-11-08 13"},"coordinates":[2349,3451]},{"type":"Point","properties":{"Station_ID":"WRUM5","Station_Nam":"WARROAD 4W","Latitude":"48.89600","Longitude":"-95.40700","Snowdepth":"3.000","Units":"in","Rept_Date":"2019-11-09 04"},"coordinates":[473,7765]},{"type":"Point","properties":{"Station_ID":"WRNW3","Station_Nam":"WARRENS 4WSW","Latitude":"44.10390","Longitude":"-90.58870","Snowdepth":"3.000","Units":"in","Rept_Date":"2019-11-08 13"},"coordinates":[1721,3982]},{"type":"Point","properties":{"Station_ID":"WORV1","Station_Nam":"WORCESTER 2 W","Latitude":"44.37470","Longitude":"-72.58220","Snowdepth":"3.000","Units":"in","Rept_Date":"2019-11-08 12"},"coordinates":[6383,4196]},{"type":"Point","properties":{"Station_ID":"WNNM5","Station_Nam":"WINNEBAGO","Latitude":"43.76920","Longitude":"-94.18730","Snowdepth":"3.000","Units":"in","Rept_Date":"2019-11-08 14"},"coordinates":[789,3718]},{"type":"Point","properties":{"Station_ID":"WLXP1","Station_Nam":"GLEN HAZEL,PA","Latitude":"41.56670","Longitude":"-78.60000","Snowdepth":"3.000","Units":"in","Rept_Date":"2019-11-08 12"},"coordinates":[4825,1979]},{"type":"Point","properties":{"Station_ID":"WIPW3","Station_Nam":"WISCONSIN RAPIDS-SOUTHEAST","Latitude":"44.38190","Longitude":"-89.80470","Snowdepth":"3.000","Units":"in","Rept_Date":"2019-11-08 12"},"coordinates":[1924,4202]},{"type":"Point","properties":{"Station_ID":"WI-WS-5","Station_Nam":"JACKSON 0.2 WSW, WI","Latitude":"43.32007","Longitude":"-88.16820","Snowdepth":"3.000","Units":"in","Rept_Date":"2019-11-08 12"},"coordinates":[2347,3363]},{"type":"Point","properties":{"Station_ID":"WI-WN-15","Station_Nam":"OSHKOSH 2.0 W, WI","Latitude":"44.01962","Longitude":"-88.59359","Snowdepth":"3.000","Units":"in","Rept_Date":"2019-11-08 13"},"coordinates":[2237,3916]},{"type":"Point","properties":{"Station_ID":"WI-WK-61","Station_Nam":"HARTLAND 5.0 NNE, WI","Latitude":"43.16351","Longitude":"-88.30400","Snowdepth":"3.000","Units":"in","Rept_Date":"2019-11-08 13"},"coordinates":[2312,3240]},{"type":"Point","properties":{"Station_ID":"WI-WK-29","Station_Nam":"OCONOMOWOC 4.6 NE, WI","Latitude":"43.14621","Longitude":"-88.42860","Snowdepth":"3.000","Units":"in","Rept_Date":"2019-11-08 15"},"coordinates":[2280,3226]},{"type":"Point","properties":{"Station_ID":"WI-SK-2","Station_Nam":"ROCK SPRINGS 2.8 WSW, WI","Latitude":"43.45901","Longitude":"-89.96540","Snowdepth":"3.000","Units":"in","Rept_Date":"2019-11-08 13"},"coordinates":[1882,3473]},{"type":"Point","properties":{"Station_ID":"WI-SB-10","Station_Nam":"RANDOM LAKE 0.5 SSE, WI","Latitude":"43.54812","Longitude":"-87.95050","Snowdepth":"3.000","Units":"in","Rept_Date":"2019-11-08 13"},"coordinates":[2404,3543]},{"type":"Point","properties":{"Station_ID":"WI-OZ-17","Station_Nam":"WEST BEND 7.3 E, WI","Latitude":"43.42860","Longitude":"-88.03870","Snowdepth":"3.000","Units":"in","Rept_Date":"2019-11-08 13"},"coordinates":[2381,3449]},{"type":"Point","properties":{"Station_ID":"WI-OG-12","Station_Nam":"KAUKAUNA 1.5 SW, WI","Latitude":"44.26062","Longitude":"-88.28590","Snowdepth":"3.000","Units":"in","Rept_Date":"2019-11-08 12"},"coordinates":[2317,4106]},{"type":"Point","properties":{"Station_ID":"WI-MW-14","Station_Nam":"MILWAUKEE 3.6 NNW, WI","Latitude":"43.11300","Longitude":"-87.98730","Snowdepth":"3.000","Units":"in","Rept_Date":"2019-11-08 11"},"coordinates":[2394,3200]},{"type":"Point","properties":{"Station_ID":"WI-DD-4","Station_Nam":"BEAVER DAM 1.4 SSW, WI","Latitude":"43.44719","Longitude":"-88.85260","Snowdepth":"3.000","Units":"in","Rept_Date":"2019-11-08 14"},"coordinates":[2170,3464]},{"type":"Point","properties":{"Station_ID":"WI-DD-15","Station_Nam":"COLUMBUS 4.8 ENE, WI","Latitude":"43.35742","Longitude":"-88.93819","Snowdepth":"3.000","Units":"in","Rept_Date":"2019-11-08 14"},"coordinates":[2148,3393]},{"type":"Point","properties":{"Station_ID":"WI-AD-10","Station_Nam":"OXFORD 4.0 W, WI","Latitude":"43.78638","Longitude":"-89.64166","Snowdepth":"3.000","Units":"in","Rept_Date":"2019-11-08 13"},"coordinates":[1966,3731]},{"type":"Point","properties":{"Station_ID":"VT-OL-12","Station_Nam":"GREENSBORO 3.9 NNE, VT","Latitude":"44.63100","Longitude":"-72.28000","Snowdepth":"3.000","Units":"in","Rept_Date":"2019-11-08 12"},"coordinates":[6461,4398]},{"type":"Point","properties":{"Station_ID":"TAHW3","Station_Nam":"TAYCHEEDAH","Latitude":"43.83390","Longitude":"-88.34690","Snowdepth":"3.000","Units":"in","Rept_Date":"2019-11-08 13"},"coordinates":[2301,3769]},{"type":"Point","properties":{"Station_ID":"SLRW3","Station_Nam":"SLINGER","Latitude":"43.33390","Longitude":"-88.29780","Snowdepth":"3.000","Units":"in","Rept_Date":"2019-11-08 13"},"coordinates":[2314,3374]},{"type":"Point","properties":{"Station_ID":"SKAN6","Station_Nam":"SKANEATELES","Latitude":"42.94610","Longitude":"-76.43130","Snowdepth":"3.000","Units":"in","Rept_Date":"2019-11-08 13"},"coordinates":[5387,3068]},{"type":"Point","properties":{"Station_ID":"SAVW3","Station_Nam":"SAUKVILLE WWTP","Latitude":"43.37470","Longitude":"-87.93940","Snowdepth":"3.000","Units":"in","Rept_Date":"2019-11-08 12"},"coordinates":[2407,3407]},{"type":"Point","properties":{"Station_ID":"SANI4","Station_Nam":"ST ANSGAR","Latitude":"43.38170","Longitude":"-92.92320","Snowdepth":"3.000","Units":"in","Rept_Date":"2019-11-08 12"},"coordinates":[1116,3412]},{"type":"Point","properties":{"Station_ID":"SACW3","Station_Nam":"SAUK CITY","Latitude":"43.26000","Longitude":"-89.73580","Snowdepth":"3.000","Units":"in","Rept_Date":"2019-11-08 12"},"coordinates":[1941,3316]},{"type":"Point","properties":{"Station_ID":"RUDM5","Station_Nam":"RUSHFORD","Latitude":"43.80520","Longitude":"-91.75010","Snowdepth":"3.000","Units":"in","Rept_Date":"2019-11-08 13"},"coordinates":[1420,3746]},{"type":"Point","properties":{"Station_ID":"RST","Station_Nam":"ROCHESTER INTERNATIONAL ARPT","Latitude":"43.90890","Longitude":"-92.49780","Snowdepth":"3.000","Units":"in","Rept_Date":"2019-11-09 00"},"coordinates":[1226,3828]},{"type":"Point","properties":{"Station_ID":"RSRM5","Station_Nam":"ROCHESTER AP 2NE","Latitude":"43.92810","Longitude":"-92.47580","Snowdepth":"3.000","Units":"in","Rept_Date":"2019-11-08 18"},"coordinates":[1232,3843]},{"type":"Point","properties":{"Station_ID":"RKNW3","Station_Nam":"MARKESAN","Latitude":"43.70280","Longitude":"-88.99890","Snowdepth":"3.000","Units":"in","Rept_Date":"2019-11-08 13"},"coordinates":[2132,3665]},{"type":"Point","properties":{"Station_ID":"RCHW3","Station_Nam":"RICHRIELD,WI","Latitude":"43.21080","Longitude":"-88.20940","Snowdepth":"3.000","Units":"in","Rept_Date":"2019-11-08 12"},"coordinates":[2337,3277]},{"type":"Point","properties":{"Station_ID":"RBGW3","Station_Nam":"REEDSBURG","Latitude":"43.52060","Longitude":"-89.99970","Snowdepth":"3.000","Units":"in","Rept_Date":"2019-11-08 14"},"coordinates":[1873,3522]},{"type":"Point","properties":{"Station_ID":"PTNM5","Station_Nam":"PRESTON","Latitude":"43.67250","Longitude":"-92.07470","Snowdepth":"3.000","Units":"in","Rept_Date":"2019-11-08 14"},"coordinates":[1336,3642]},{"type":"Point","properties":{"Station_ID":"POYW3","Station_Nam":"POY SIPPI - 2 SW","Latitude":"44.10810","Longitude":"-89.01610","Snowdepth":"3.000","Units":"in","Rept_Date":"2019-11-08 12"},"coordinates":[2128,3985]},{"type":"Point","properties":{"Station_ID":"PIPM5","Station_Nam":"PIPESTONE,MN","Latitude":"44.01390","Longitude":"-96.32580","Snowdepth":"3.000","Units":"in","Rept_Date":"2019-11-08 14"},"coordinates":[235,3911]},{"type":"Point","properties":{"Station_ID":"OSAI4","Station_Nam":"OSAGE","Latitude":"43.27940","Longitude":"-92.81060","Snowdepth":"3.000","Units":"in","Rept_Date":"2019-11-08 13"},"coordinates":[1145,3331]},{"type":"Point","properties":{"Station_ID":"OOSW3","Station_Nam":"OSHKOSH 6 S","Latitude":"43.93750","Longitude":"-88.54250","Snowdepth":"3.000","Units":"in","Rept_Date":"2019-11-08 13"},"coordinates":[2250,3851]},{"type":"Point","properties":{"Station_ID":"OILM4","Station_Nam":"OIL CITY 3E","Latitude":"43.61140","Longitude":"-84.52810","Snowdepth":"3.000","Units":"in","Rept_Date":"2019-11-08 12"},"coordinates":[3290,3593]},{"type":"Point","properties":{"Station_ID":"NY-ON-16","Station_Nam":"GENEVA 0.8 W, NY","Latitude":"42.86511","Longitude":"-76.99875","Snowdepth":"3.000","Units":"in","Rept_Date":"2019-11-08 12"},"coordinates":[5240,3004]},{"type":"Point","properties":{"Station_ID":"NY-CY-27","Station_Nam":"MORAVIA 5.9 ENE, NY","Latitude":"42.73491","Longitude":"-76.31137","Snowdepth":"3.000","Units":"in","Rept_Date":"2019-11-08 12"},"coordinates":[5418,2902]},{"type":"Point","properties":{"Station_ID":"NY-CQ-39","Station_Nam":"GERRY 0.8 N, NY","Latitude":"42.20500","Longitude":"-79.24700","Snowdepth":"3.000","Units":"in","Rept_Date":"2019-11-08 13"},"coordinates":[4657,2483]},{"type":"Point","properties":{"Station_ID":"NY-CQ-34","Station_Nam":"KENNEDY 2.6 SE, NY","Latitude":"42.12567","Longitude":"-79.07235","Snowdepth":"3.000","Units":"in","Rept_Date":"2019-11-08 12"},"coordinates":[4703,2421]},{"type":"Point","properties":{"Station_ID":"NUMM5","Station_Nam":"NEW ULM 3SE","Latitude":"44.29450","Longitude":"-94.40840","Snowdepth":"3.000","Units":"in","Rept_Date":"2019-11-08 12"},"coordinates":[731,4133]},{"type":"Point","properties":{"Station_ID":"NPTM4","Station_Nam":"NORTHPORT 2W","Latitude":"45.13220","Longitude":"-85.64720","Snowdepth":"3.000","Units":"in","Rept_Date":"2019-11-08 13"},"coordinates":[3000,4794]},{"type":"Point","properties":{"Station_ID":"NALN6","Station_Nam":"CATTARAUGUS","Latitude":"42.32450","Longitude":"-78.86700","Snowdepth":"3.000","Units":"in","Rept_Date":"2019-11-08 13"},"coordinates":[4756,2578]},{"type":"Point","properties":{"Station_ID":"MNEY8CTB","Station_Nam":"MIDLAND JUNCTION 2.2 ENE","Latitude":"44.33041","Longitude":"-91.95891","Snowdepth":"3.000","Units":"in","Rept_Date":"2019-11-08 14"},"coordinates":[1366,4161]},{"type":"Point","properties":{"Station_ID":"MN-MW-8","Station_Nam":"AUSTIN 2.4 W, MN","Latitude":"43.67190","Longitude":"-93.02280","Snowdepth":"3.000","Units":"in","Rept_Date":"2019-11-08 13"},"coordinates":[1090,3641]},{"type":"Point","properties":{"Station_ID":"MI-HG-1","Station_Nam":"HOUGHTON 1.6 ESE, MI","Latitude":"47.10774","Longitude":"-88.52940","Snowdepth":"3.000","Units":"in","Rept_Date":"2019-11-08 13"},"coordinates":[2254,6353]},{"type":"Point","properties":{"Station_ID":"MI-CF-9","Station_Nam":"GRAYLING 15.8 NE, MI","Latitude":"44.80464","Longitude":"-84.46313","Snowdepth":"3.000","Units":"in","Rept_Date":"2019-11-08 11"},"coordinates":[3307,4535]},{"type":"Point","properties":{"Station_ID":"MI-AR-2","Station_Nam":"ALGER 2.4 ENE, MI","Latitude":"44.13373","Longitude":"-84.07430","Snowdepth":"3.000","Units":"in","Rept_Date":"2019-11-08 12"},"coordinates":[3407,4006]},{"type":"Point","properties":{"Station_ID":"ME-PN-45","Station_Nam":"MILLINOCKET 2.7 ESE, ME","Latitude":"45.65002","Longitude":"-68.64472","Snowdepth":"3.000","Units":"in","Rept_Date":"2019-11-08 12"},"coordinates":[7403,5202]},{"type":"Point","properties":{"Station_ID":"MAUW3","Station_Nam":"MAUSTON 1SE","Latitude":"43.78990","Longitude":"-90.05970","Snowdepth":"3.000","Units":"in","Rept_Date":"2019-11-08 14"},"coordinates":[1858,3734]},{"type":"Point","properties":{"Station_ID":"MATW3","Station_Nam":"MATHER 3NW","Latitude":"44.17460","Longitude":"-90.34820","Snowdepth":"3.000","Units":"in","Rept_Date":"2019-11-08 13"},"coordinates":[1783,4038]},{"type":"Point","properties":{"Station_ID":"LSNW3","Station_Nam":"LA CROSSE SNOW","Latitude":"43.86220","Longitude":"-91.26660","Snowdepth":"3.000","Units":"in","Rept_Date":"2019-11-08 18"},"coordinates":[1545,3791]},{"type":"Point","properties":{"Station_ID":"LSE","Station_Nam":"LA CROSSE MUNICIPAL AIRPORT","Latitude":"43.87920","Longitude":"-91.25610","Snowdepth":"3.000","Units":"in","Rept_Date":"2019-11-09 00"},"coordinates":[1548,3805]},{"type":"Point","properties":{"Station_ID":"LCFW3","Station_Nam":"LA CROSSE 4NNW","Latitude":"43.86690","Longitude":"-91.27250","Snowdepth":"3.000","Units":"in","Rept_Date":"2019-11-08 13"},"coordinates":[1544,3795]},{"type":"Point","properties":{"Station_ID":"LBKV1","Station_Nam":"LYE BROOK","Latitude":"43.05000","Longitude":"-73.03330","Snowdepth":"3.000","Units":"in","Rept_Date":"2019-11-09 06"},"coordinates":[6266,3150]},{"type":"Point","properties":{"Station_ID":"KBTV","Station_Nam":"BURLINGTON INTERNATIONAL","Latitude":"44.46666","Longitude":"-73.15000","Snowdepth":"3.000","Units":"in","Rept_Date":"2019-11-09 00"},"coordinates":[6236,4268]},{"type":"Point","properties":{"Station_ID":"JSTN6","Station_Nam":"JAMESTOWN 4 ENE","Latitude":"42.11000","Longitude":"-79.15910","Snowdepth":"3.000","Units":"in","Rept_Date":"2019-11-08 12"},"coordinates":[4680,2408]},{"type":"Point","properties":{"Station_ID":"JEFV1","Station_Nam":"JEFFERSONVILLE","Latitude":"44.58430","Longitude":"-72.78700","Snowdepth":"3.000","Units":"in","Rept_Date":"2019-11-08 12"},"coordinates":[6330,4361]},{"type":"Point","properties":{"Station_ID":"JEFN3","Station_Nam":"JEFFERSON","Latitude":"44.41690","Longitude":"-71.50080","Snowdepth":"3.000","Units":"in","Rept_Date":"2019-11-08 12"},"coordinates":[6663,4229]},{"type":"Point","properties":{"Station_ID":"JACW3","Station_Nam":"JACKSON","Latitude":"43.31940","Longitude":"-88.16810","Snowdepth":"3.000","Units":"in","Rept_Date":"2019-11-08 12"},"coordinates":[2347,3363]},{"type":"Point","properties":{"Station_ID":"INDM5","Station_Nam":"INDUS,MN","Latitude":"48.61670","Longitude":"-93.90000","Snowdepth":"3.000","Units":"in","Rept_Date":"2019-11-08 14"},"coordinates":[863,7544]},{"type":"Point","properties":{"Station_ID":"HMNW3","Station_Nam":"HOLMEN 2S","Latitude":"43.93430","Longitude":"-91.24550","Snowdepth":"3.000","Units":"in","Rept_Date":"2019-11-08 13"},"coordinates":[1550,3848]},{"type":"Point","properties":{"Station_ID":"HARW3","Station_Nam":"HARTFORD,WI","Latitude":"43.31670","Longitude":"-88.40000","Snowdepth":"3.000","Units":"in","Rept_Date":"2019-11-08 12"},"coordinates":[2287,3361]},{"type":"Point","properties":{"Station_ID":"GENW3","Station_Nam":"GENOA DAM 8","Latitude":"43.57050","Longitude":"-91.22950","Snowdepth":"3.000","Units":"in","Rept_Date":"2019-11-08 14"},"coordinates":[1555,3561]},{"type":"Point","properties":{"Station_ID":"GDCM4","Station_Nam":"GARDEN CORNERS","Latitude":"45.89830","Longitude":"-86.54850","Snowdepth":"3.000","Units":"in","Rept_Date":"2019-11-08 13"},"coordinates":[2767,5398]},{"type":"Point","properties":{"Station_ID":"GATW3","Station_Nam":"GRAFTON WWTP","Latitude":"43.30810","Longitude":"-87.95530","Snowdepth":"3.000","Units":"in","Rept_Date":"2019-11-08 13"},"coordinates":[2402,3354]},{"type":"Point","properties":{"Station_ID":"FRSW3","Station_Nam":"FRIENDSHIP","Latitude":"43.97500","Longitude":"-89.83080","Snowdepth":"3.000","Units":"in","Rept_Date":"2019-11-08 13"},"coordinates":[1917,3880]},{"type":"Point","properties":{"Station_ID":"FDLW3","Station_Nam":"SEWAGE TREATMENT PLANT","Latitude":"43.80000","Longitude":"-88.45000","Snowdepth":"3.000","Units":"in","Rept_Date":"2019-11-08 12"},"coordinates":[2274,3742]},{"type":"Point","properties":{"Station_ID":"FCLN3","Station_Nam":"FIRST CONNECTICUT LAKE","Latitude":"45.08990","Longitude":"-71.29060","Snowdepth":"3.000","Units":"in","Rept_Date":"2019-11-08 12"},"coordinates":[6718,4760]},{"type":"Point","properties":{"Station_ID":"FCDW3","Station_Nam":"FOND DU LAC-AM","Latitude":"43.76670","Longitude":"-88.46670","Snowdepth":"3.000","Units":"in","Rept_Date":"2019-11-08 13"},"coordinates":[2270,3716]},{"type":"Point","properties":{"Station_ID":"ETTW3","Station_Nam":"ETTRICK 4WNW","Latitude":"44.19000","Longitude":"-91.34240","Snowdepth":"3.000","Units":"in","Rept_Date":"2019-11-08 13"},"coordinates":[1525,4050]},{"type":"Point","properties":{"Station_ID":"ENFV1","Station_Nam":"ENOSBURG FALLS 2","Latitude":"44.90960","Longitude":"-72.81370","Snowdepth":"3.000","Units":"in","Rept_Date":"2019-11-08 10"},"coordinates":[6323,4618]},{"type":"Point","properties":{"Station_ID":"CVWP1","Station_Nam":"CHANDLER VALLEY 1SE","Latitude":"41.93010","Longitude":"-79.29700","Snowdepth":"3.000","Units":"in","Rept_Date":"2019-11-08 12"},"coordinates":[4644,2266]},{"type":"Point","properties":{"Station_ID":"CRCI4","Station_Nam":"CRESCO 1NE","Latitude":"43.38940","Longitude":"-92.09380","Snowdepth":"3.000","Units":"in","Rept_Date":"2019-11-08 13"},"coordinates":[1331,3418]},{"type":"Point","properties":{"Station_ID":"COVP1","Station_Nam":"COVINGTON 2WSW","Latitude":"41.73330","Longitude":"-77.11670","Snowdepth":"3.000","Units":"in","Rept_Date":"2019-11-08 12"},"coordinates":[5209,2111]},{"type":"Point","properties":{"Station_ID":"CJRP1","Station_Nam":"COUDERSPORT 7SE","Latitude":"41.73920","Longitude":"-77.97110","Snowdepth":"3.000","Units":"in","Rept_Date":"2019-11-08 12"},"coordinates":[4988,2116]},{"type":"Point","properties":{"Station_ID":"CAN-ON-5","Station_Nam":"OWEN SOUND 1.5 NW - GSCA, CAN","Latitude":"44.57837","Longitude":"-80.95461","Snowdepth":"3.000","Units":"in","Rept_Date":"2019-11-08 13"},"coordinates":[4215,4357]},{"type":"Point","properties":{"Station_ID":"CAN-ON-118","Station_Nam":"DURHAM 1.4 S, CAN","Latitude":"44.16525","Longitude":"-80.82064","Snowdepth":"3.000","Units":"in","Rept_Date":"2019-11-08 12"},"coordinates":[4250,4031]},{"type":"Point","properties":{"Station_ID":"CAN-NB-11","Station_Nam":"MIRAMICHI 3.3 S, CAN","Latitude":"46.99343","Longitude":"-65.50690","Snowdepth":"3.000","Units":"in","Rept_Date":"2019-11-08 11"},"coordinates":[8215,6263]},{"type":"Point","properties":{"Station_ID":"BWTN6","Station_Nam":"BREWERTON LOCK 23","Latitude":"43.23860","Longitude":"-76.19640","Snowdepth":"3.000","Units":"in","Rept_Date":"2019-11-08 11"},"coordinates":[5447,3299]},{"type":"Point","properties":{"Station_ID":"BTV","Station_Nam":"BURLINGTON, VT","Latitude":"44.47140","Longitude":"-73.15330","Snowdepth":"3.000","Units":"in","Rept_Date":"2019-11-09 01"},"coordinates":[6235,4272]},{"type":"Point","properties":{"Station_ID":"BTHM5","Station_Nam":"BLUE EARTH 1S","Latitude":"43.62370","Longitude":"-94.09470","Snowdepth":"3.000","Units":"in","Rept_Date":"2019-11-08 14"},"coordinates":[813,3603]},{"type":"Point","properties":{"Station_ID":"BROS2","Station_Nam":"BROOKINGS,SD","Latitude":"44.31670","Longitude":"-96.76670","Snowdepth":"3.000","Units":"in","Rept_Date":"2019-11-08 14"},"coordinates":[121,4150]},{"type":"Point","properties":{"Station_ID":"BRCM5","Station_Nam":"BRICELYN","Latitude":"43.54400","Longitude":"-93.84230","Snowdepth":"3.000","Units":"in","Rept_Date":"2019-11-08 13"},"coordinates":[878,3540]},{"type":"Point","properties":{"Station_ID":"BLGW3","Station_Nam":"BELGIUM WWTP","Latitude":"43.51310","Longitude":"-87.85440","Snowdepth":"3.000","Units":"in","Rept_Date":"2019-11-08 13"},"coordinates":[2429,3516]},{"type":"Point","properties":{"Station_ID":"BEUM4","Station_Nam":"BEULAH 7SSW","Latitude":"44.53160","Longitude":"-86.13110","Snowdepth":"3.000","Units":"in","Rept_Date":"2019-11-08 13"},"coordinates":[2875,4320]},{"type":"Point","properties":{"Station_ID":"BEAW3","Station_Nam":"BEAVER DAM,WI","Latitude":"43.45000","Longitude":"-88.85000","Snowdepth":"3.000","Units":"in","Rept_Date":"2019-11-08 13"},"coordinates":[2171,3466]},{"type":"Point","properties":{"Station_ID":"ARX","Station_Nam":"LA CROSSE, WI","Latitude":"43.82280","Longitude":"-91.19190","Snowdepth":"3.000","Units":"in","Rept_Date":"2019-11-09 06"},"coordinates":[1564,3760]},{"type":"Point","properties":{"Station_ID":"ARLW3","Station_Nam":"UNIV FARM","Latitude":"43.30000","Longitude":"-89.35000","Snowdepth":"3.000","Units":"in","Rept_Date":"2019-11-08 14"},"coordinates":[2041,3348]},{"type":"Point","properties":{"Station_ID":"APLW3","Station_Nam":"APPLETON WHBY RADIO","Latitude":"44.25110","Longitude":"-88.36440","Snowdepth":"3.000","Units":"in","Rept_Date":"2019-11-08 14"},"coordinates":[2297,4098]},{"type":"Point","properties":{"Station_ID":"ANJM4","Station_Nam":"SNOW PAID OBSERVER FOR KANJ","Latitude":"46.48670","Longitude":"-84.40260","Snowdepth":"3.000","Units":"in","Rept_Date":"2019-11-09 06"},"coordinates":[3322,5863]},{"type":"Point","properties":{"Station_ID":"ANJ","Station_Nam":"SAULT STE MARIE","Latitude":"46.46670","Longitude":"-84.36670","Snowdepth":"3.000","Units":"in","Rept_Date":"2019-11-09 00"},"coordinates":[3332,5847]},{"type":"Point","properties":{"Station_ID":"AMDW3","Station_Nam":"ALMOND-5 NE","Latitude":"44.30830","Longitude":"-89.34640","Snowdepth":"3.000","Units":"in","Rept_Date":"2019-11-08 14"},"coordinates":[2042,4143]},{"type":"Point","properties":{"Station_ID":"ALBM5","Station_Nam":"ALBERT LEA 3 SE","Latitude":"43.60640","Longitude":"-93.30190","Snowdepth":"3.000","Units":"in","Rept_Date":"2019-11-08 14"},"coordinates":[1018,3589]},{"type":"Point","properties":{"Station_ID":"42.1284_079.8945","Station_Nam":"NORTHEAST 6SW (CLE0249)","Latitude":"42.12840","Longitude":"-79.89450","Snowdepth":"3.000","Units":"in","Rept_Date":"2019-11-08 11"},"coordinates":[4490,2423]},{"type":"Point","properties":{"Station_ID":"41.8966_080.1567","Station_Nam":"2 NW EDINBORO  SNOW SPOTTER (CLE0251)","Latitude":"41.89660","Longitude":"-80.15670","Snowdepth":"3.000","Units":"in","Rept_Date":"2019-11-08 22"},"coordinates":[4422,2240]},{"type":"Point","properties":{"Station_ID":"41.6333_080.1432","Station_Nam":"1 S Meadville  Trained Spotter (CLE0350)","Latitude":"41.63328","Longitude":"-80.14322","Snowdepth":"3.000","Units":"in","Rept_Date":"2019-11-08 11"},"coordinates":[4425,2032]},{"type":"Point","properties":{"Station_ID":"41.4659_081.0677","Station_Nam":"1 NE Middlefield  Trained Spotter (X4150811)","Latitude":"41.46585","Longitude":"-81.06772","Snowdepth":"3.000","Units":"in","Rept_Date":"2019-11-09 00"},"coordinates":[4186,1900]},{"type":"Point","properties":{"Station_ID":"QLB","Station_Nam":"QLB","Latitude":"50.72360","Longitude":"-75.10000","Snowdepth":"2.874","Units":"in","Rept_Date":"2019-11-08 12"},"coordinates":[5731,9207]},{"type":"Point","properties":{"Station_ID":"NY-CY-30","Station_Nam":"AUBURN 8.1 SSE, NY","Latitude":"42.82141","Longitude":"-76.52040","Snowdepth":"2.800","Units":"in","Rept_Date":"2019-11-08 13"},"coordinates":[5363,2970]},{"type":"Point","properties":{"Station_ID":"NH-CS-4","Station_Nam":"PITTSBURG 6.1 NE, NH","Latitude":"45.11060","Longitude":"-71.29760","Snowdepth":"2.800","Units":"in","Rept_Date":"2019-11-08 12"},"coordinates":[6716,4777]},{"type":"Point","properties":{"Station_ID":"MI-DL-1","Station_Nam":"GARDEN CORNERS 0.8 NW, MI","Latitude":"45.89815","Longitude":"-86.54850","Snowdepth":"2.700","Units":"in","Rept_Date":"2019-11-08 13"},"coordinates":[2767,5398]},{"type":"Point","properties":{"Station_ID":"VT-WS-30","Station_Nam":"WOODBURY 3.4 NNW, VT","Latitude":"44.48825","Longitude":"-72.43258","Snowdepth":"2.600","Units":"in","Rept_Date":"2019-11-08 12"},"coordinates":[6422,4285]},{"type":"Point","properties":{"Station_ID":"NY-CR-3","Station_Nam":"WILLET 1.8 E, NY","Latitude":"42.47385","Longitude":"-75.87250","Snowdepth":"2.600","Units":"in","Rept_Date":"2019-11-08 12"},"coordinates":[5531,2695]},{"type":"Point","properties":{"Station_ID":"WI-WS-4","Station_Nam":"KEWASKUM 1.8 WNW, WI","Latitude":"43.52880","Longitude":"-88.26570","Snowdepth":"2.500","Units":"in","Rept_Date":"2019-11-08 13"},"coordinates":[2322,3528]},{"type":"Point","properties":{"Station_ID":"WI-SK-15","Station_Nam":"REEDSBURG 1.3 N, WI","Latitude":"43.55348","Longitude":"-89.99739","Snowdepth":"2.500","Units":"in","Rept_Date":"2019-11-08 11"},"coordinates":[1874,3548]},{"type":"Point","properties":{"Station_ID":"WI-SB-19","Station_Nam":"SHEBOYGAN 0.7 SSW, WI","Latitude":"43.73560","Longitude":"-87.73490","Snowdepth":"2.500","Units":"in","Rept_Date":"2019-11-08 14"},"coordinates":[2460,3691]},{"type":"Point","properties":{"Station_ID":"WI-SB-14","Station_Nam":"SHEBOYGAN 2.7 N, WI","Latitude":"43.78416","Longitude":"-87.72303","Snowdepth":"2.500","Units":"in","Rept_Date":"2019-11-08 11"},"coordinates":[2463,3730]},{"type":"Point","properties":{"Station_ID":"WI-GL-4","Station_Nam":"GREEN LAKE 0.8 E, WI","Latitude":"43.84369","Longitude":"-88.94066","Snowdepth":"2.500","Units":"in","Rept_Date":"2019-11-08 13"},"coordinates":[2147,3777]},{"type":"Point","properties":{"Station_ID":"WI-CB-4","Station_Nam":"PORTAGE 5.7 WSW, WI","Latitude":"43.51411","Longitude":"-89.56910","Snowdepth":"2.500","Units":"in","Rept_Date":"2019-11-08 12"},"coordinates":[1985,3517]},{"type":"Point","properties":{"Station_ID":"VT-WS-33","Station_Nam":"WAITSFIELD 3.5 WNW, VT","Latitude":"44.20052","Longitude":"-72.89421","Snowdepth":"2.500","Units":"in","Rept_Date":"2019-11-08 12"},"coordinates":[6302,4058]},{"type":"Point","properties":{"Station_ID":"VT-OL-9","Station_Nam":"GREENSBORO 2.1 NNW, VT","Latitude":"44.60528","Longitude":"-72.30940","Snowdepth":"2.500","Units":"in","Rept_Date":"2019-11-08 12"},"coordinates":[6454,4378]},{"type":"Point","properties":{"Station_ID":"VT-OL-1","Station_Nam":"WESTFIELD 0.7 WNW, VT","Latitude":"44.89160","Longitude":"-72.44350","Snowdepth":"2.500","Units":"in","Rept_Date":"2019-11-08 11"},"coordinates":[6419,4604]},{"type":"Point","properties":{"Station_ID":"VT-CH-11","Station_Nam":"UNDERHILL 5.1 NNE, VT","Latitude":"44.59811","Longitude":"-72.91880","Snowdepth":"2.500","Units":"in","Rept_Date":"2019-11-08 12"},"coordinates":[6296,4372]},{"type":"Point","properties":{"Station_ID":"PA-VN-7","Station_Nam":"COOPERSTOWN 1.3 E, PA","Latitude":"41.50067","Longitude":"-79.84970","Snowdepth":"2.500","Units":"in","Rept_Date":"2019-11-08 12"},"coordinates":[4501,1927]},{"type":"Point","properties":{"Station_ID":"OH-TR-4","Station_Nam":"NEWTON FALLS 0.6 N, OH","Latitude":"41.19773","Longitude":"-80.97210","Snowdepth":"2.500","Units":"in","Rept_Date":"2019-11-08 12"},"coordinates":[4211,1688]},{"type":"Point","properties":{"Station_ID":"OH-PT-9","Station_Nam":"HIRAM 0.4 N, OH","Latitude":"41.31595","Longitude":"-81.14340","Snowdepth":"2.500","Units":"in","Rept_Date":"2019-11-08 12"},"coordinates":[4166,1782]},{"type":"Point","properties":{"Station_ID":"OH-PT-13","Station_Nam":"MANTUA 1.0 NNW, OH","Latitude":"41.29421","Longitude":"-81.23160","Snowdepth":"2.500","Units":"in","Rept_Date":"2019-11-08 12"},"coordinates":[4144,1764]},{"type":"Point","properties":{"Station_ID":"NY-WN-18","Station_Nam":"MACEDON 2.6 ESE, NY","Latitude":"43.05200","Longitude":"-77.25700","Snowdepth":"2.500","Units":"in","Rept_Date":"2019-11-08 13"},"coordinates":[5173,3152]},{"type":"Point","properties":{"Station_ID":"NY-TM-38","Station_Nam":"TRUMANSBURG 0.4 WNW, NY","Latitude":"42.54205","Longitude":"-76.66870","Snowdepth":"2.500","Units":"in","Rept_Date":"2019-11-08 12"},"coordinates":[5325,2749]},{"type":"Point","properties":{"Station_ID":"NY-OG-10","Station_Nam":"CAMILLUS 1.0 W, NY","Latitude":"43.03962","Longitude":"-76.32830","Snowdepth":"2.500","Units":"in","Rept_Date":"2019-11-08 12"},"coordinates":[5413,3142]},{"type":"Point","properties":{"Station_ID":"NY-MD-14","Station_Nam":"MUNNSVILLE 2.0 SW, NY","Latitude":"42.95335","Longitude":"-75.61170","Snowdepth":"2.500","Units":"in","Rept_Date":"2019-11-08 12"},"coordinates":[5599,3074]},{"type":"Point","properties":{"Station_ID":"NY-ER-65","Station_Nam":"BOSTON 1.5 NE, NY","Latitude":"42.65470","Longitude":"-78.72010","Snowdepth":"2.500","Units":"in","Rept_Date":"2019-11-08 12"},"coordinates":[4794,2838]},{"type":"Point","properties":{"Station_ID":"NY-CY-8","Station_Nam":"AUBURN 8.3 SSE, NY","Latitude":"42.82869","Longitude":"-76.48670","Snowdepth":"2.500","Units":"in","Rept_Date":"2019-11-08 11"},"coordinates":[5372,2976]},{"type":"Point","properties":{"Station_ID":"NY-CY-5","Station_Nam":"DUCK LAKE, NY","Latitude":"43.14205","Longitude":"-76.68890","Snowdepth":"2.500","Units":"in","Rept_Date":"2019-11-08 13"},"coordinates":[5320,3223]},{"type":"Point","properties":{"Station_ID":"NY-CR-5","Station_Nam":"MARATHON 1.0 NW, NY","Latitude":"42.45161","Longitude":"-76.04370","Snowdepth":"2.500","Units":"in","Rept_Date":"2019-11-08 12"},"coordinates":[5487,2678]},{"type":"Point","properties":{"Station_ID":"NY-CR-1","Station_Nam":"FREETOWN 1.0 NE, NY","Latitude":"42.53299","Longitude":"-76.02111","Snowdepth":"2.500","Units":"in","Rept_Date":"2019-11-08 12"},"coordinates":[5493,2742]},{"type":"Point","properties":{"Station_ID":"NY-AL-11","Station_Nam":"WELLSVILLE 2.4 ENE, NY","Latitude":"42.13750","Longitude":"-77.90550","Snowdepth":"2.500","Units":"in","Rept_Date":"2019-11-08 12"},"coordinates":[5005,2430]},{"type":"Point","properties":{"Station_ID":"MN-WC-5","Station_Nam":"WASECA 0.9 NNE, MN","Latitude":"44.09451","Longitude":"-93.49289","Snowdepth":"2.500","Units":"in","Rept_Date":"2019-11-08 13"},"coordinates":[969,3975]},{"type":"Point","properties":{"Station_ID":"MI-PI-1","Station_Nam":"ROGERS CITY 0.2 WSW, MI","Latitude":"45.41740","Longitude":"-83.81060","Snowdepth":"2.500","Units":"in","Rept_Date":"2019-11-08 13"},"coordinates":[3476,5019]},{"type":"Point","properties":{"Station_ID":"MI-MD-10","Station_Nam":"MIDLAND 1.5 NNE, MI","Latitude":"43.64412","Longitude":"-84.21729","Snowdepth":"2.500","Units":"in","Rept_Date":"2019-11-08 11"},"coordinates":[3370,3619]},{"type":"Point","properties":{"Station_ID":"MI-EM-5","Station_Nam":"HARBOR SPRINGS 0.7 ENE, MI","Latitude":"45.43450","Longitude":"-84.97540","Snowdepth":"2.500","Units":"in","Rept_Date":"2019-11-08 12"},"coordinates":[3174,5032]},{"type":"Point","properties":{"Station_ID":"MI-CX-4","Station_Nam":"CHARLEVOIX 4.3 SSE, MI","Latitude":"45.25720","Longitude":"-85.21650","Snowdepth":"2.500","Units":"in","Rept_Date":"2019-11-08 12"},"coordinates":[3112,4892]},{"type":"Point","properties":{"Station_ID":"IA-WH-5","Station_Nam":"DECORAH 4.9SE, IA","Latitude":"43.26481","Longitude":"-91.70294","Snowdepth":"2.500","Units":"in","Rept_Date":"2019-11-08 13"},"coordinates":[1432,3320]},{"type":"Point","properties":{"Station_ID":"41.2942_081.2316","Station_Nam":"1 NNW Mantua  CoCoRaHS (OH-PT-13)","Latitude":"41.29420","Longitude":"-81.23160","Snowdepth":"2.500","Units":"in","Rept_Date":"2019-11-08 12"},"coordinates":[4144,1764]},{"type":"Point","properties":{"Station_ID":"41.1977_080.9721","Station_Nam":"1 N Newton Falls  CoCoRaHS (OH-TR-4)","Latitude":"41.19770","Longitude":"-80.97210","Snowdepth":"2.500","Units":"in","Rept_Date":"2019-11-08 12"},"coordinates":[4211,1688]},{"type":"Point","properties":{"Station_ID":"NY-WN-10","Station_Nam":"WALWORTH 1.7 SW, NY","Latitude":"43.12500","Longitude":"-77.29900","Snowdepth":"2.400","Units":"in","Rept_Date":"2019-11-08 12"},"coordinates":[5162,3209]},{"type":"Point","properties":{"Station_ID":"VT-CH-38","Station_Nam":"WILLISTON 0.2 WSW, VT","Latitude":"44.43669","Longitude":"-73.07154","Snowdepth":"2.300","Units":"in","Rept_Date":"2019-11-08 12"},"coordinates":[6257,4245]},{"type":"Point","properties":{"Station_ID":"PA-ER-2","Station_Nam":"ERIE 5.6 SW, PA","Latitude":"42.06086","Longitude":"-80.15260","Snowdepth":"2.200","Units":"in","Rept_Date":"2019-11-08 12"},"coordinates":[4423,2369]},{"type":"Point","properties":{"Station_ID":"NY-OG-71","Station_Nam":"LIVERPOOL 6.1 NNW, NY","Latitude":"43.18876","Longitude":"-76.25193","Snowdepth":"2.200","Units":"in","Rept_Date":"2019-11-08 11"},"coordinates":[5433,3260]},{"type":"Point","properties":{"Station_ID":"NY-ER-63","Station_Nam":"GLENWOOD 1.5 SE, NY","Latitude":"42.60195","Longitude":"-78.63910","Snowdepth":"2.200","Units":"in","Rept_Date":"2019-11-08 12"},"coordinates":[4815,2797]},{"type":"Point","properties":{"Station_ID":"MN-HS-10","Station_Nam":"BROWNSVILLE 3.1 S, MN","Latitude":"43.65410","Longitude":"-91.27894","Snowdepth":"2.200","Units":"in","Rept_Date":"2019-11-08 11"},"coordinates":[1542,3627]},{"type":"Point","properties":{"Station_ID":"42.0609_080.1526","Station_Nam":"6 SW Erie  CoCoRaHS (PA-ER-2)","Latitude":"42.06090","Longitude":"-80.15260","Snowdepth":"2.200","Units":"in","Rept_Date":"2019-11-08 11"},"coordinates":[4423,2370]},{"type":"Point","properties":{"Station_ID":"VT-WR-17","Station_Nam":"ROCHESTER 2.3 NE, VT","Latitude":"43.89418","Longitude":"-72.76992","Snowdepth":"2.100","Units":"in","Rept_Date":"2019-11-08 12"},"coordinates":[6335,3817]},{"type":"Point","properties":{"Station_ID":"NY-FK-9","Station_Nam":"GABRIELS 1.3 SE, NY","Latitude":"44.41934","Longitude":"-74.16194","Snowdepth":"2.100","Units":"in","Rept_Date":"2019-11-08 12"},"coordinates":[5974,4231]},{"type":"Point","properties":{"Station_ID":"WRNM5","Station_Nam":"WORTHINGTON,MN","Latitude":"43.65440","Longitude":"-95.57920","Snowdepth":"2.000","Units":"in","Rept_Date":"2019-11-08 13"},"coordinates":[428,3627]},{"type":"Point","properties":{"Station_ID":"WIRW3","Station_Nam":"WIS RAPIDS GRAND AV B","Latitude":"44.39940","Longitude":"-89.83050","Snowdepth":"2.000","Units":"in","Rept_Date":"2019-11-08 13"},"coordinates":[1917,4215]},{"type":"Point","properties":{"Station_ID":"WI-WN-9","Station_Nam":"NEENAH 1.1 ENE, WI","Latitude":"44.17370","Longitude":"-88.45130","Snowdepth":"2.000","Units":"in","Rept_Date":"2019-11-08 13"},"coordinates":[2274,4037]},{"type":"Point","properties":{"Station_ID":"WI-WN-7","Station_Nam":"OMRO 2.3 WSW, WI","Latitude":"44.02074","Longitude":"-88.77970","Snowdepth":"2.000","Units":"in","Rept_Date":"2019-11-08 13"},"coordinates":[2189,3916]},{"type":"Point","properties":{"Station_ID":"WI-WK-68","Station_Nam":"OCONOMOWOC 0.9 W, WI","Latitude":"43.10089","Longitude":"-88.51441","Snowdepth":"2.000","Units":"in","Rept_Date":"2019-11-08 14"},"coordinates":[2258,3190]},{"type":"Point","properties":{"Station_ID":"WI-WH-7","Station_Nam":"WILD ROSE 0.5 E, WI","Latitude":"44.17764","Longitude":"-89.23812","Snowdepth":"2.000","Units":"in","Rept_Date":"2019-11-08 13"},"coordinates":[2070,4040]},{"type":"Point","properties":{"Station_ID":"WI-VR-6","Station_Nam":"STODDARD 0.1 SW, WI","Latitude":"43.66050","Longitude":"-91.21930","Snowdepth":"2.000","Units":"in","Rept_Date":"2019-11-08 13"},"coordinates":[1557,3632]},{"type":"Point","properties":{"Station_ID":"WI-PT-8","Station_Nam":"RUDOLPH 2.1 NNE, WI","Latitude":"44.52553","Longitude":"-89.78677","Snowdepth":"2.000","Units":"in","Rept_Date":"2019-11-08 11"},"coordinates":[1928,4315]},{"type":"Point","properties":{"Station_ID":"WI-MW-43","Station_Nam":"BROWN DEER 0.8 NW, WI","Latitude":"43.18438","Longitude":"-87.98401","Snowdepth":"2.000","Units":"in","Rept_Date":"2019-11-08 13"},"coordinates":[2395,3256]},{"type":"Point","properties":{"Station_ID":"WI-MW-18","Station_Nam":"WEST ALLIS 0.7 SSE, WI","Latitude":"42.99802","Longitude":"-88.02380","Snowdepth":"2.000","Units":"in","Rept_Date":"2019-11-08 14"},"coordinates":[2385,3109]},{"type":"Point","properties":{"Station_ID":"WI-MC-4","Station_Nam":"TWO RIVERS 1.4 N, WI","Latitude":"44.17617","Longitude":"-87.58330","Snowdepth":"2.000","Units":"in","Rept_Date":"2019-11-08 12"},"coordinates":[2499,4039]},{"type":"Point","properties":{"Station_ID":"WI-DA-62","Station_Nam":"WAUNAKEE 4.9 W, WI","Latitude":"43.19755","Longitude":"-89.54904","Snowdepth":"2.000","Units":"in","Rept_Date":"2019-11-08 13"},"coordinates":[1990,3267]},{"type":"Point","properties":{"Station_ID":"WI-BN-14","Station_Nam":"GREEN BAY 3.8 SSE, WI","Latitude":"44.46772","Longitude":"-87.97350","Snowdepth":"2.000","Units":"in","Rept_Date":"2019-11-08 13"},"coordinates":[2398,4269]},{"type":"Point","properties":{"Station_ID":"WHTN6","Station_Nam":"WHITESVILLE","Latitude":"42.05980","Longitude":"-77.75530","Snowdepth":"2.000","Units":"in","Rept_Date":"2019-11-08 12"},"coordinates":[5044,2369]},{"type":"Point","properties":{"Station_ID":"WATW3","Station_Nam":"WATERTOWN,WI","Latitude":"43.17500","Longitude":"-88.73530","Snowdepth":"2.000","Units":"in","Rept_Date":"2019-11-08 13"},"coordinates":[2200,3249]},{"type":"Point","properties":{"Station_ID":"WAOW3","Station_Nam":"WAUTOMA SILVER LAKE SANITARY DISTRICT","Latitude":"44.04110","Longitude":"-89.24330","Snowdepth":"2.000","Units":"in","Rept_Date":"2019-11-08 14"},"coordinates":[2069,3933]},{"type":"Point","properties":{"Station_ID":"WAIV1","Station_Nam":"WAITSFIELD","Latitude":"44.17560","Longitude":"-72.79610","Snowdepth":"2.000","Units":"in","Rept_Date":"2019-11-08 12"},"coordinates":[6328,4039]},{"type":"Point","properties":{"Station_ID":"WABM5","Station_Nam":"WABASHA","Latitude":"44.38500","Longitude":"-92.04860","Snowdepth":"2.000","Units":"in","Rept_Date":"2019-11-08 13"},"coordinates":[1343,4204]},{"type":"Point","properties":{"Station_ID":"VT-WS-7","Station_Nam":"MIDDLESEX 3.1 ENE, VT","Latitude":"44.31799","Longitude":"-72.62650","Snowdepth":"2.000","Units":"in","Rept_Date":"2019-11-08 13"},"coordinates":[6372,4151]},{"type":"Point","properties":{"Station_ID":"VT-WS-11","Station_Nam":"WAITSFIELD 1.8 SE, VT","Latitude":"44.17551","Longitude":"-72.79540","Snowdepth":"2.000","Units":"in","Rept_Date":"2019-11-08 12"},"coordinates":[6328,4039]},{"type":"Point","properties":{"Station_ID":"VT-RT-24","Station_Nam":"MIDDLETOWN SPRINGS 0.9 WNW, VT","Latitude":"43.49194","Longitude":"-73.13350","Snowdepth":"2.000","Units":"in","Rept_Date":"2019-11-08 12"},"coordinates":[6240,3499]},{"type":"Point","properties":{"Station_ID":"VT-OL-2","Station_Nam":"BARTON 3.0 ENE, VT","Latitude":"44.75863","Longitude":"-72.11680","Snowdepth":"2.000","Units":"in","Rept_Date":"2019-11-08 12"},"coordinates":[6504,4499]},{"type":"Point","properties":{"Station_ID":"VT-LM-7","Station_Nam":"HYDE PARK 2.9 NE, VT","Latitude":"44.62080","Longitude":"-72.57250","Snowdepth":"2.000","Units":"in","Rept_Date":"2019-11-08 13"},"coordinates":[6386,4390]},{"type":"Point","properties":{"Station_ID":"VT-ES-3","Station_Nam":"LUNENBURG 2.3 NNW, VT","Latitude":"44.49324","Longitude":"-71.70446","Snowdepth":"2.000","Units":"in","Rept_Date":"2019-11-08 11"},"coordinates":[6610,4289]},{"type":"Point","properties":{"Station_ID":"VT-CH-4","Station_Nam":"UNDERHILL 4.4 NNE, VT","Latitude":"44.58774","Longitude":"-72.92250","Snowdepth":"2.000","Units":"in","Rept_Date":"2019-11-08 12"},"coordinates":[6295,4364]},{"type":"Point","properties":{"Station_ID":"VT-BN-12","Station_Nam":"STAMFORD 5.0 NNE, VT","Latitude":"42.82000","Longitude":"-73.02000","Snowdepth":"2.000","Units":"in","Rept_Date":"2019-11-08 21"},"coordinates":[6270,2969]},{"type":"Point","properties":{"Station_ID":"VANM4","Station_Nam":"VANDERBILT 11ENE","Latitude":"45.17020","Longitude":"-84.43970","Snowdepth":"2.000","Units":"in","Rept_Date":"2019-11-08 13"},"coordinates":[3313,4824]},{"type":"Point","properties":{"Station_ID":"TWOW3","Station_Nam":"TWO RIVERS","Latitude":"44.14300","Longitude":"-87.56770","Snowdepth":"2.000","Units":"in","Rept_Date":"2019-11-08 13"},"coordinates":[2503,4013]},{"type":"Point","properties":{"Station_ID":"TIOP1","Station_Nam":"TIONESTA DAM","Latitude":"41.47530","Longitude":"-79.44190","Snowdepth":"2.000","Units":"in","Rept_Date":"2019-11-08 12"},"coordinates":[4607,1907]},{"type":"Point","properties":{"Station_ID":"THRM5","Station_Nam":"THORHULT,MN","Latitude":"48.21670","Longitude":"-95.25000","Snowdepth":"2.000","Units":"in","Rept_Date":"2019-11-08 23"},"coordinates":[514,7228]},{"type":"Point","properties":{"Station_ID":"THLM5","Station_Nam":"THEILMAN 1SSW","Latitude":"44.28130","Longitude":"-92.19430","Snowdepth":"2.000","Units":"in","Rept_Date":"2019-11-08 13"},"coordinates":[1305,4122]},{"type":"Point","properties":{"Station_ID":"SUTV1","Station_Nam":"SUTTON","Latitude":"44.61220","Longitude":"-72.04810","Snowdepth":"2.000","Units":"in","Rept_Date":"2019-11-08 13"},"coordinates":[6522,4383]},{"type":"Point","properties":{"Station_ID":"STPW3","Station_Nam":"STEVENS POINT","Latitude":"44.51130","Longitude":"-89.58550","Snowdepth":"2.000","Units":"in","Rept_Date":"2019-11-08 13"},"coordinates":[1980,4304]},{"type":"Point","properties":{"Station_ID":"STDW3","Station_Nam":"STODDARD","Latitude":"43.66020","Longitude":"-91.21930","Snowdepth":"2.000","Units":"in","Rept_Date":"2019-11-08 13"},"coordinates":[1557,3632]},{"type":"Point","properties":{"Station_ID":"STAM4","Station_Nam":"STANDISH 4NE","Latitude":"44.01260","Longitude":"-83.89770","Snowdepth":"2.000","Units":"in","Rept_Date":"2019-11-08 13"},"coordinates":[3453,3910]},{"type":"Point","properties":{"Station_ID":"SHIW3","Station_Nam":"SHIOCTON","Latitude":"44.43890","Longitude":"-88.58390","Snowdepth":"2.000","Units":"in","Rept_Date":"2019-11-08 14"},"coordinates":[2240,4247]},{"type":"Point","properties":{"Station_ID":"RWGM5","Station_Nam":"RED WING","Latitude":"44.57120","Longitude":"-92.52830","Snowdepth":"2.000","Units":"in","Rept_Date":"2019-11-08 14"},"coordinates":[1218,4351]},{"type":"Point","properties":{"Station_ID":"RUHN6","Station_Nam":"RUSHFORD","Latitude":"42.42620","Longitude":"-78.19200","Snowdepth":"2.000","Units":"in","Rept_Date":"2019-11-08 13"},"coordinates":[4931,2658]},{"type":"Point","properties":{"Station_ID":"PTYM4","Station_Nam":"PETOSKEY NCMC","Latitude":"45.36120","Longitude":"-84.95110","Snowdepth":"2.000","Units":"in","Rept_Date":"2019-11-08 13"},"coordinates":[3180,4974]},{"type":"Point","properties":{"Station_ID":"PRGN6","Station_Nam":"PERRYSBURG","Latitude":"42.46470","Longitude":"-79.00310","Snowdepth":"2.000","Units":"in","Rept_Date":"2019-11-08 12"},"coordinates":[4721,2688]},{"type":"Point","properties":{"Station_ID":"PLFV1","Station_Nam":"PLAINFIELD","Latitude":"44.27610","Longitude":"-72.41500","Snowdepth":"2.000","Units":"in","Rept_Date":"2019-11-08 12"},"coordinates":[6427,4118]},{"type":"Point","properties":{"Station_ID":"PA-PT-2","Station_Nam":"ROULETTE 1.8 NNE, PA","Latitude":"41.80759","Longitude":"-78.14140","Snowdepth":"2.000","Units":"in","Rept_Date":"2019-11-08 12"},"coordinates":[4944,2170]},{"type":"Point","properties":{"Station_ID":"PA-CW-18","Station_Nam":"CONNEAUT LAKE 1.3 WNW, PA","Latitude":"41.60816","Longitude":"-80.33371","Snowdepth":"2.000","Units":"in","Rept_Date":"2019-11-08 12"},"coordinates":[4376,2012]},{"type":"Point","properties":{"Station_ID":"OTRW3","Station_Nam":"ONTARIO 3E","Latitude":"43.71940","Longitude":"-90.53010","Snowdepth":"2.000","Units":"in","Rept_Date":"2019-11-08 13"},"coordinates":[1736,3679]},{"type":"Point","properties":{"Station_ID":"ONCW3","Station_Nam":"SOUTH","Latitude":"43.11170","Longitude":"-88.49970","Snowdepth":"2.000","Units":"in","Rept_Date":"2019-11-08 14"},"coordinates":[2262,3199]},{"type":"Point","properties":{"Station_ID":"OMWW3","Station_Nam":"OMRO - 2 SW","Latitude":"44.02080","Longitude":"-88.77970","Snowdepth":"2.000","Units":"in","Rept_Date":"2019-11-08 13"},"coordinates":[2189,3916]},{"type":"Point","properties":{"Station_ID":"OCOW3","Station_Nam":"OCONOMOWOC,WI","Latitude":"43.10190","Longitude":"-88.50330","Snowdepth":"2.000","Units":"in","Rept_Date":"2019-11-08 13"},"coordinates":[2261,3191]},{"type":"Point","properties":{"Station_ID":"NY-TM-42","Station_Nam":"ITHACA 6.4 E, NY","Latitude":"42.43350","Longitude":"-76.37860","Snowdepth":"2.000","Units":"in","Rept_Date":"2019-11-08 12"},"coordinates":[5400,2664]},{"type":"Point","properties":{"Station_ID":"NY-SL-6","Station_Nam":"HANNAWA FALLS 0.1 SW, NY","Latitude":"44.61154","Longitude":"-74.97190","Snowdepth":"2.000","Units":"in","Rept_Date":"2019-11-08 12"},"coordinates":[5764,4383]},{"type":"Point","properties":{"Station_ID":"NY-OS-20","Station_Nam":"FULTON 0.2 W, NY","Latitude":"43.31650","Longitude":"-76.41850","Snowdepth":"2.000","Units":"in","Rept_Date":"2019-11-08 10"},"coordinates":[5390,3361]},{"type":"Point","properties":{"Station_ID":"NY-OS-15","Station_Nam":"MINETTO 0.1 SE, NY","Latitude":"43.39771","Longitude":"-76.47960","Snowdepth":"2.000","Units":"in","Rept_Date":"2019-11-08 13"},"coordinates":[5374,3425]},{"type":"Point","properties":{"Station_ID":"NY-ON-15","Station_Nam":"GENEVA COOP, NY","Latitude":"42.87660","Longitude":"-77.03080","Snowdepth":"2.000","Units":"in","Rept_Date":"2019-11-08 13"},"coordinates":[5231,3013]},{"type":"Point","properties":{"Station_ID":"NY-OG-46","Station_Nam":"BALDWINSVILLE 3.5 NE, NY","Latitude":"43.19506","Longitude":"-76.28830","Snowdepth":"2.000","Units":"in","Rept_Date":"2019-11-08 13"},"coordinates":[5424,3265]},{"type":"Point","properties":{"Station_ID":"NY-MD-16","Station_Nam":"CHITTENANGO 2.1 ESE, NY","Latitude":"43.03297","Longitude":"-75.83480","Snowdepth":"2.000","Units":"in","Rept_Date":"2019-11-08 14"},"coordinates":[5541,3137]},{"type":"Point","properties":{"Station_ID":"NY-FK-7","Station_Nam":"SARANAC LAKE 6.2 N, NY","Latitude":"44.41359","Longitude":"-74.15211","Snowdepth":"2.000","Units":"in","Rept_Date":"2019-11-08 12"},"coordinates":[5977,4227]},{"type":"Point","properties":{"Station_ID":"NY-CT-2","Station_Nam":"RANDOLPH 1.1 ENE, NY","Latitude":"42.17056","Longitude":"-78.96120","Snowdepth":"2.000","Units":"in","Rept_Date":"2019-11-08 12"},"coordinates":[4731,2456]},{"type":"Point","properties":{"Station_ID":"NY-CQ-5","Station_Nam":"KENNEDY 0.3 NE, NY","Latitude":"42.15935","Longitude":"-79.09670","Snowdepth":"2.000","Units":"in","Rept_Date":"2019-11-08 11"},"coordinates":[4696,2447]},{"type":"Point","properties":{"Station_ID":"NY-CQ-35","Station_Nam":"FALCONER 0.3 WSW, NY","Latitude":"42.11766","Longitude":"-79.20278","Snowdepth":"2.000","Units":"in","Rept_Date":"2019-11-08 12"},"coordinates":[4669,2414]},{"type":"Point","properties":{"Station_ID":"NY-CQ-27","Station_Nam":"SILVER CREEK 1.0 SSE, NY","Latitude":"42.53088","Longitude":"-79.15986","Snowdepth":"2.000","Units":"in","Rept_Date":"2019-11-08 12"},"coordinates":[4680,2740]},{"type":"Point","properties":{"Station_ID":"NVLV1","Station_Nam":"NASHVILLE","Latitude":"44.44970","Longitude":"-72.92640","Snowdepth":"2.000","Units":"in","Rept_Date":"2019-11-08 12"},"coordinates":[6294,4255]},{"type":"Point","properties":{"Station_ID":"NUNV1","Station_Nam":"NORTH UNDERHILL","Latitude":"44.58760","Longitude":"-72.92150","Snowdepth":"2.000","Units":"in","Rept_Date":"2019-11-08 12"},"coordinates":[6295,4364]},{"type":"Point","properties":{"Station_ID":"MWTM1","Station_Nam":"MILLINOCKET WWTP","Latitude":"45.64030","Longitude":"-68.67480","Snowdepth":"2.000","Units":"in","Rept_Date":"2019-11-08 12"},"coordinates":[7395,5195]},{"type":"Point","properties":{"Station_ID":"MTLW3","Station_Nam":"MONTELLO,WI","Latitude":"43.78000","Longitude":"-89.30000","Snowdepth":"2.000","Units":"in","Rept_Date":"2019-11-08 13"},"coordinates":[2054,3726]},{"type":"Point","properties":{"Station_ID":"MSN","Station_Nam":"MADISON DANE COUNTY RGNL","Latitude":"43.13970","Longitude":"-89.33750","Snowdepth":"2.000","Units":"in","Rept_Date":"2019-11-09 00"},"coordinates":[2045,3221]},{"type":"Point","properties":{"Station_ID":"MRFS2","Station_Nam":"MADISON,SD","Latitude":"44.00000","Longitude":"-97.23330","Snowdepth":"2.000","Units":"in","Rept_Date":"2019-11-08 15"},"coordinates":[0,3900]},{"type":"Point","properties":{"Station_ID":"MRBW3","Station_Nam":"MT HOREB","Latitude":"42.98030","Longitude":"-89.73940","Snowdepth":"2.000","Units":"in","Rept_Date":"2019-11-08 13"},"coordinates":[1940,3095]},{"type":"Point","properties":{"Station_ID":"MOSO1","Station_Nam":"MOSQUITO CREEK DAM","Latitude":"41.28830","Longitude":"-80.76470","Snowdepth":"2.000","Units":"in","Rept_Date":"2019-11-08 12"},"coordinates":[4264,1760]},{"type":"Point","properties":{"Station_ID":"MNG0GYSN","Station_Nam":"LONSDALE 1.1 SSW","Latitude":"44.46445","Longitude":"-93.43293","Snowdepth":"2.000","Units":"in","Rept_Date":"2019-11-08 12"},"coordinates":[984,4267]},{"type":"Point","properties":{"Station_ID":"MNE9SLWI","Station_Nam":"LEAVENWORTH 5.4 S","Latitude":"44.14481","Longitude":"-94.78882","Snowdepth":"2.000","Units":"in","Rept_Date":"2019-11-08 13"},"coordinates":[633,4014]},{"type":"Point","properties":{"Station_ID":"MN-RC-11","Station_Nam":"NEW PRAGUE 4.8 ESE, MN","Latitude":"44.51999","Longitude":"-93.48470","Snowdepth":"2.000","Units":"in","Rept_Date":"2019-11-08 11"},"coordinates":[971,4311]},{"type":"Point","properties":{"Station_ID":"MN-RC-1","Station_Nam":"MONTGOMERY 3.2 ENE, MN","Latitude":"44.46400","Longitude":"-93.51980","Snowdepth":"2.000","Units":"in","Rept_Date":"2019-11-08 11"},"coordinates":[962,4266]},{"type":"Point","properties":{"Station_ID":"MN-BW-8","Station_Nam":"COMFREY 6.5 ENE, MN","Latitude":"44.15109","Longitude":"-94.78516","Snowdepth":"2.000","Units":"in","Rept_Date":"2019-11-08 13"},"coordinates":[634,4019]},{"type":"Point","properties":{"Station_ID":"MMRN6","Station_Nam":"MOUNT MORRIS 2 W","Latitude":"42.73130","Longitude":"-77.90540","Snowdepth":"2.000","Units":"in","Rept_Date":"2019-11-08 13"},"coordinates":[5005,2899]},{"type":"Point","properties":{"Station_ID":"MIEM4","Station_Nam":"MICHIGAMME 3WNW","Latitude":"46.54530","Longitude":"-88.18000","Snowdepth":"2.000","Units":"in","Rept_Date":"2019-11-08 13"},"coordinates":[2344,5909]},{"type":"Point","properties":{"Station_ID":"MECN6","Station_Nam":"MECKLENBURG 4 SW","Latitude":"42.44220","Longitude":"-76.75740","Snowdepth":"2.000","Units":"in","Rept_Date":"2019-11-08 12"},"coordinates":[5302,2670]},{"type":"Point","properties":{"Station_ID":"MANW3","Station_Nam":"MANITOWOC","Latitude":"44.08690","Longitude":"-87.65220","Snowdepth":"2.000","Units":"in","Rept_Date":"2019-11-09 00"},"coordinates":[2481,3969]},{"type":"Point","properties":{"Station_ID":"LTVN6","Station_Nam":"LITTLE VALLEY","Latitude":"42.24730","Longitude":"-78.81250","Snowdepth":"2.000","Units":"in","Rept_Date":"2019-11-08 12"},"coordinates":[4770,2517]},{"type":"Point","properties":{"Station_ID":"LOOW3","Station_Nam":"WATERLOO","Latitude":"43.18830","Longitude":"-88.98440","Snowdepth":"2.000","Units":"in","Rept_Date":"2019-11-08 14"},"coordinates":[2136,3259]},{"type":"Point","properties":{"Station_ID":"KYNG","Station_Nam":"YOUNGSTOWN-WARREN REG AIRPRT","Latitude":"41.25000","Longitude":"-80.66666","Snowdepth":"2.000","Units":"in","Rept_Date":"2019-11-08 12"},"coordinates":[4290,1729]},{"type":"Point","properties":{"Station_ID":"KMSN","Station_Nam":"MADISON DANE COUNTY RGNL","Latitude":"43.13333","Longitude":"-89.35000","Snowdepth":"2.000","Units":"in","Rept_Date":"2019-11-09 06"},"coordinates":[2041,3216]},{"type":"Point","properties":{"Station_ID":"JFNW3","Station_Nam":"JEFFERSON - WWTP","Latitude":"42.99470","Longitude":"-88.80390","Snowdepth":"2.000","Units":"in","Rept_Date":"2019-11-08 13"},"coordinates":[2183,3107]},{"type":"Point","properties":{"Station_ID":"JCBM4","Station_Nam":"JACOBSVILLE","Latitude":"47.00830","Longitude":"-88.43180","Snowdepth":"2.000","Units":"in","Rept_Date":"2019-11-08 12"},"coordinates":[2279,6275]},{"type":"Point","properties":{"Station_ID":"ISLV1","Station_Nam":"ISLAND POND","Latitude":"44.81280","Longitude":"-71.89020","Snowdepth":"2.000","Units":"in","Rept_Date":"2019-11-08 16"},"coordinates":[6562,4542]},{"type":"Point","properties":{"Station_ID":"IFSM5","Station_Nam":"INTERNATIONAL FALLS SNOW","Latitude":"48.57780","Longitude":"-93.39640","Snowdepth":"2.000","Units":"in","Rept_Date":"2019-11-09 06"},"coordinates":[994,7513]},{"type":"Point","properties":{"Station_ID":"IBLM5","Station_Nam":"ISABELLA 14W","Latitude":"47.59360","Longitude":"-91.65140","Snowdepth":"2.000","Units":"in","Rept_Date":"2019-11-08 15"},"coordinates":[1445,6737]},{"type":"Point","properties":{"Station_ID":"HTLM4","Station_Nam":"SNOW PAID OBSERVER FOR KHTL","Latitude":"44.34470","Longitude":"-84.67730","Snowdepth":"2.000","Units":"in","Rept_Date":"2019-11-08 18"},"coordinates":[3251,4172]},{"type":"Point","properties":{"Station_ID":"HTL","Station_Nam":"ROSCOMMON COUNTY AIRPORT","Latitude":"44.35000","Longitude":"-84.66670","Snowdepth":"2.000","Units":"in","Rept_Date":"2019-11-09 00"},"coordinates":[3254,4176]},{"type":"Point","properties":{"Station_ID":"HORW3","Station_Nam":"HORICON WWTP","Latitude":"43.45000","Longitude":"-88.63330","Snowdepth":"2.000","Units":"in","Rept_Date":"2019-11-08 13"},"coordinates":[2227,3466]},{"type":"Point","properties":{"Station_ID":"HLBW3","Station_Nam":"HILLSBORO 2SW","Latitude":"43.63410","Longitude":"-90.37920","Snowdepth":"2.000","Units":"in","Rept_Date":"2019-11-08 13"},"coordinates":[1775,3611]},{"type":"Point","properties":{"Station_ID":"HBHM4","Station_Nam":"HARBOR BEACH,MI","Latitude":"43.83330","Longitude":"-82.63330","Snowdepth":"2.000","Units":"in","Rept_Date":"2019-11-08 13"},"coordinates":[3781,3768]},{"type":"Point","properties":{"Station_ID":"GNEN6","Station_Nam":"GREENE","Latitude":"42.32440","Longitude":"-75.77170","Snowdepth":"2.000","Units":"in","Rept_Date":"2019-11-08 12"},"coordinates":[5557,2578]},{"type":"Point","properties":{"Station_ID":"GIBW3","Station_Nam":"GIBBSVILLE,WI","Latitude":"43.65670","Longitude":"-87.81170","Snowdepth":"2.000","Units":"in","Rept_Date":"2019-11-08 13"},"coordinates":[2440,3629]},{"type":"Point","properties":{"Station_ID":"GERW3","Station_Nam":"GERMANTOWN,WI","Latitude":"43.21670","Longitude":"-88.11670","Snowdepth":"2.000","Units":"in","Rept_Date":"2019-11-08 13"},"coordinates":[2361,3282]},{"type":"Point","properties":{"Station_ID":"GENN6","Station_Nam":"GENEVA RESEARCH FARM","Latitude":"42.87660","Longitude":"-77.03070","Snowdepth":"2.000","Units":"in","Rept_Date":"2019-11-08 13"},"coordinates":[5231,3013]},{"type":"Point","properties":{"Station_ID":"FUTN6","Station_Nam":"FULTON","Latitude":"43.30500","Longitude":"-76.39380","Snowdepth":"2.000","Units":"in","Rept_Date":"2019-11-08 12"},"coordinates":[5396,3352]},{"type":"Point","properties":{"Station_ID":"FDCW3","Station_Nam":"FOND DU LAC-MID","Latitude":"43.63330","Longitude":"-88.45000","Snowdepth":"2.000","Units":"in","Rept_Date":"2019-11-09 06"},"coordinates":[2274,3611]},{"type":"Point","properties":{"Station_ID":"FBTM5","Station_Nam":"FARIBAULT","Latitude":"44.30920","Longitude":"-93.26600","Snowdepth":"2.000","Units":"in","Rept_Date":"2019-11-08 13"},"coordinates":[1027,4144]},{"type":"Point","properties":{"Station_ID":"ELMI4","Station_Nam":"ELMA IOWA","Latitude":"43.24190","Longitude":"-92.44330","Snowdepth":"2.000","Units":"in","Rept_Date":"2019-11-08 13"},"coordinates":[1240,3302]},{"type":"Point","properties":{"Station_ID":"EGNM5","Station_Nam":"ELGIN 2SSW","Latitude":"44.09700","Longitude":"-92.27010","Snowdepth":"2.000","Units":"in","Rept_Date":"2019-11-08 13"},"coordinates":[1285,3977]},{"type":"Point","properties":{"Station_ID":"DRYW3","Station_Nam":"APPLETON-4 SE DARBOY","Latitude":"44.24970","Longitude":"-88.32780","Snowdepth":"2.000","Units":"in","Rept_Date":"2019-11-08 11"},"coordinates":[2306,4097]},{"type":"Point","properties":{"Station_ID":"CTNW3","Station_Nam":"CASHTON 3NNW","Latitude":"43.78600","Longitude":"-90.79520","Snowdepth":"2.000","Units":"in","Rept_Date":"2019-11-08 13"},"coordinates":[1667,3731]},{"type":"Point","properties":{"Station_ID":"CSBP1","Station_Nam":"COOKSBURG","Latitude":"41.35750","Longitude":"-79.21720","Snowdepth":"2.000","Units":"in","Rept_Date":"2019-11-08 12"},"coordinates":[4665,1814]},{"type":"Point","properties":{"Station_ID":"COKM5","Station_Nam":"COOK","Latitude":"47.85060","Longitude":"-92.69250","Snowdepth":"2.000","Units":"in","Rept_Date":"2019-11-08 12"},"coordinates":[1176,6939]},{"type":"Point","properties":{"Station_ID":"CMRI4","Station_Nam":"CALMAR NE","Latitude":"43.18760","Longitude":"-91.86200","Snowdepth":"2.000","Units":"in","Rept_Date":"2019-11-08 13"},"coordinates":[1391,3259]},{"type":"Point","properties":{"Station_ID":"CLKM4","Station_Nam":"CLARKSBURG","Latitude":"46.49910","Longitude":"-87.84500","Snowdepth":"2.000","Units":"in","Rept_Date":"2019-11-08 12"},"coordinates":[2431,5873]},{"type":"Point","properties":{"Station_ID":"CHRO1","Station_Nam":"CHARDON,OH","Latitude":"41.58330","Longitude":"-81.18330","Snowdepth":"2.000","Units":"in","Rept_Date":"2019-11-08 13"},"coordinates":[4156,1993]},{"type":"Point","properties":{"Station_ID":"CHMW3","Station_Nam":"MADISON,WI","Latitude":"43.06030","Longitude":"-89.47810","Snowdepth":"2.000","Units":"in","Rept_Date":"2019-11-08 13"},"coordinates":[2008,3158]},{"type":"Point","properties":{"Station_ID":"CHES2","Station_Nam":"CHESTER 2N","Latitude":"43.92830","Longitude":"-96.93160","Snowdepth":"2.000","Units":"in","Rept_Date":"2019-11-08 13"},"coordinates":[78,3843]},{"type":"Point","properties":{"Station_ID":"CAN-ON-42","Station_Nam":"VANKLEEK HILL 3.4 S, CA","Latitude":"45.48987","Longitude":"-74.64570","Snowdepth":"2.000","Units":"in","Rept_Date":"2019-11-08 12"},"coordinates":[5849,5076]},{"type":"Point","properties":{"Station_ID":"CAN-ON-31","Station_Nam":"KOMOKA 2.8 W, CAN","Latitude":"42.95424","Longitude":"-81.43488","Snowdepth":"2.000","Units":"in","Rept_Date":"2019-11-08 14"},"coordinates":[4091,3075]},{"type":"Point","properties":{"Station_ID":"CAN-NB-64","Station_Nam":"KESWICK RIDGE 4.0 SE, CAN","Latitude":"45.97014","Longitude":"-66.85538","Snowdepth":"2.000","Units":"in","Rept_Date":"2019-11-08 12"},"coordinates":[7866,5455]},{"type":"Point","properties":{"Station_ID":"CAN-NB-28","Station_Nam":"SUSSEX CORNER 1.4 NE - KWRC, CAN","Latitude":"45.71691","Longitude":"-65.46217","Snowdepth":"2.000","Units":"in","Rept_Date":"2019-11-08 10"},"coordinates":[8227,5255]},{"type":"Point","properties":{"Station_ID":"CAN-NB-18","Station_Nam":"MCLEOD HILL 1.1 ENE, CA","Latitude":"46.02725","Longitude":"-66.67460","Snowdepth":"2.000","Units":"in","Rept_Date":"2019-11-08 12"},"coordinates":[7913,5500]},{"type":"Point","properties":{"Station_ID":"BRLW3","Station_Nam":"BRILLION,WI","Latitude":"44.18330","Longitude":"-88.06670","Snowdepth":"2.000","Units":"in","Rept_Date":"2019-11-08 12"},"coordinates":[2374,4045]},{"type":"Point","properties":{"Station_ID":"BNDM5","Station_Nam":"ELY 25E","Latitude":"47.97190","Longitude":"-91.44860","Snowdepth":"2.000","Units":"in","Rept_Date":"2019-11-08 13"},"coordinates":[1498,7035]},{"type":"Point","properties":{"Station_ID":"BLNW3","Station_Nam":"BERLIN WWTP","Latitude":"43.99000","Longitude":"-88.94170","Snowdepth":"2.000","Units":"in","Rept_Date":"2019-11-08 13"},"coordinates":[2147,3892]},{"type":"Point","properties":{"Station_ID":"BFDW3","Station_Nam":"BROOKFIELD","Latitude":"43.05390","Longitude":"-88.17640","Snowdepth":"2.000","Units":"in","Rept_Date":"2019-11-08 14"},"coordinates":[2345,3153]},{"type":"Point","properties":{"Station_ID":"BBDW3","Station_Nam":"BIG BEND","Latitude":"42.88140","Longitude":"-88.20670","Snowdepth":"2.000","Units":"in","Rept_Date":"2019-11-08 13"},"coordinates":[2337,3017]},{"type":"Point","properties":{"Station_ID":"BBCW3","Station_Nam":"BABCOCK 1 WNW","Latitude":"44.30770","Longitude":"-90.13130","Snowdepth":"2.000","Units":"in","Rept_Date":"2019-11-08 14"},"coordinates":[1839,4143]},{"type":"Point","properties":{"Station_ID":"BABW3","Station_Nam":"BARABOO WWTP","Latitude":"43.48330","Longitude":"-89.63330","Snowdepth":"2.000","Units":"in","Rept_Date":"2019-11-08 13"},"coordinates":[1968,3492]},{"type":"Point","properties":{"Station_ID":"AURN6","Station_Nam":"AURORA RESEARCH FARM","Latitude":"42.73380","Longitude":"-76.65910","Snowdepth":"2.000","Units":"in","Rept_Date":"2019-11-08 12"},"coordinates":[5328,2901]},{"type":"Point","properties":{"Station_ID":"AUBN6","Station_Nam":"AUBURN","Latitude":"42.93270","Longitude":"-76.54470","Snowdepth":"2.000","Units":"in","Rept_Date":"2019-11-08 11"},"coordinates":[5357,3058]},{"type":"Point","properties":{"Station_ID":"APPW3","Station_Nam":"APPLETON","Latitude":"44.27690","Longitude":"-88.43770","Snowdepth":"2.000","Units":"in","Rept_Date":"2019-11-08 12"},"coordinates":[2278,4119]},{"type":"Point","properties":{"Station_ID":"ANGN6","Station_Nam":"ANGELICA","Latitude":"42.31080","Longitude":"-78.02300","Snowdepth":"2.000","Units":"in","Rept_Date":"2019-11-08 12"},"coordinates":[4974,2567]},{"type":"Point","properties":{"Station_ID":"ALTM5","Station_Nam":"ALTURA 5W","Latitude":"44.06330","Longitude":"-92.03970","Snowdepth":"2.000","Units":"in","Rept_Date":"2019-11-08 13"},"coordinates":[1345,3950]},{"type":"Point","properties":{"Station_ID":"ALLW3","Station_Nam":"ALLENTON","Latitude":"43.42360","Longitude":"-88.35110","Snowdepth":"2.000","Units":"in","Rept_Date":"2019-11-08 14"},"coordinates":[2300,3445]},{"type":"Point","properties":{"Station_ID":"AGSW3","Station_Nam":"AUGUSTA RANGER STATION","Latitude":"44.68250","Longitude":"-91.13570","Snowdepth":"2.000","Units":"in","Rept_Date":"2019-11-08 14"},"coordinates":[1579,4439]},{"type":"Point","properties":{"Station_ID":"42.1154_080.1310","Station_Nam":"ERIE  SNOW SPOTTER (CLE0161)","Latitude":"42.11540","Longitude":"-80.13100","Snowdepth":"2.000","Units":"in","Rept_Date":"2019-11-08 12"},"coordinates":[4429,2413]},{"type":"Point","properties":{"Station_ID":"42.0800_080.0143","Station_Nam":"ERIE 5SE  SNOW SPOTTER (X4210800)","Latitude":"42.08000","Longitude":"-80.01430","Snowdepth":"2.000","Units":"in","Rept_Date":"2019-11-08 11"},"coordinates":[4459,2385]},{"type":"Point","properties":{"Station_ID":"41.6612_080.1377","Station_Nam":"MEADVILLE (CLE0332)","Latitude":"41.66120","Longitude":"-80.13770","Snowdepth":"2.000","Units":"in","Rept_Date":"2019-11-08 12"},"coordinates":[4427,2054]},{"type":"Point","properties":{"Station_ID":"41.6544_080.1373","Station_Nam":"MEADVILLE  SNOW SPOTTER (CLE0342)","Latitude":"41.65440","Longitude":"-80.13730","Snowdepth":"2.000","Units":"in","Rept_Date":"2019-11-08 13"},"coordinates":[4427,2049]},{"type":"Point","properties":{"Station_ID":"41.5847_081.2519","Station_Nam":"CHARDON 2N  SNOW SPOTTER (X4160813)","Latitude":"41.58470","Longitude":"-81.25190","Snowdepth":"2.000","Units":"in","Rept_Date":"2019-11-08 11"},"coordinates":[4138,1994]},{"type":"Point","properties":{"Station_ID":"41.5844_081.2035","Station_Nam":"CHARDON (CLE1302)","Latitude":"41.58440","Longitude":"-81.20350","Snowdepth":"2.000","Units":"in","Rept_Date":"2019-11-08 11"},"coordinates":[4151,1993]},{"type":"Point","properties":{"Station_ID":"41.5833_081.1833","Station_Nam":"1 NE CHARDON  CO-OP OBSERVER (CHRO1)","Latitude":"41.58330","Longitude":"-81.18330","Snowdepth":"2.000","Units":"in","Rept_Date":"2019-11-08 13"},"coordinates":[4156,1993]},{"type":"Point","properties":{"Station_ID":"41.2883_080.7647","Station_Nam":"Mosquito Creek Lake  Co-Op Observer (MOSO1)","Latitude":"41.28830","Longitude":"-80.76470","Snowdepth":"2.000","Units":"in","Rept_Date":"2019-11-08 12"},"coordinates":[4264,1760]},{"type":"Point","properties":{"Station_ID":"NY-CY-14","Station_Nam":"CAYUGA 4.0 NNE, NY","Latitude":"42.97516","Longitude":"-76.70720","Snowdepth":"1.800","Units":"in","Rept_Date":"2019-11-08 12"},"coordinates":[5315,3091]},{"type":"Point","properties":{"Station_ID":"CAN-NB-84","Station_Nam":"NORTON 7.1 WNW - KWRC, CAN","Latitude":"45.66195","Longitude":"-65.78279","Snowdepth":"1.800","Units":"in","Rept_Date":"2019-11-08 11"},"coordinates":[8144,5212]},{"type":"Point","properties":{"Station_ID":"QWE","Station_Nam":"QWE","Latitude":"47.84610","Longitude":"-73.80670","Snowdepth":"1.732","Units":"in","Rept_Date":"2019-11-08 12"},"coordinates":[6066,6936]},{"type":"Point","properties":{"Station_ID":"WI-DA-77","Station_Nam":"VERONA 3.9 WSW, WI","Latitude":"42.97286","Longitude":"-89.61041","Snowdepth":"1.700","Units":"in","Rept_Date":"2019-11-08 13"},"coordinates":[1974,3089]},{"type":"Point","properties":{"Station_ID":"VT-WS-15","Station_Nam":"EAST CALAIS 1.5 SW, VT","Latitude":"44.35523","Longitude":"-72.45540","Snowdepth":"1.700","Units":"in","Rept_Date":"2019-11-08 12"},"coordinates":[6416,4180]},{"type":"Point","properties":{"Station_ID":"VT-ES-1","Station_Nam":"GRANBY 1.4 NW, VT","Latitude":"44.58330","Longitude":"-71.77870","Snowdepth":"1.700","Units":"in","Rept_Date":"2019-11-08 12"},"coordinates":[6591,4360]},{"type":"Point","properties":{"Station_ID":"TRIQ6","Station_Nam":"TRIO LAKE","Latitude":"49.22880","Longitude":"-87.22920","Snowdepth":"1.690","Units":"in","Rept_Date":"2019-11-09 06"},"coordinates":[2590,8027]},{"type":"Point","properties":{"Station_ID":"CAN-ON-132","Station_Nam":"ORANGEVILLE 5.1 SSW - CANWARN, CAN","Latitude":"43.87372","Longitude":"-80.13428","Snowdepth":"1.600","Units":"in","Rept_Date":"2019-11-08 11"},"coordinates":[4428,3800]},{"type":"Point","properties":{"Station_ID":"WI-WK-65","Station_Nam":"EAGLE 3.4 SW, WI","Latitude":"42.85067","Longitude":"-88.52596","Snowdepth":"1.500","Units":"in","Rept_Date":"2019-11-08 14"},"coordinates":[2255,2993]},{"type":"Point","properties":{"Station_ID":"WI-OG-7","Station_Nam":"APPLETON 1.3 N, WI","Latitude":"44.28580","Longitude":"-88.39470","Snowdepth":"1.500","Units":"in","Rept_Date":"2019-11-08 13"},"coordinates":[2289,4126]},{"type":"Point","properties":{"Station_ID":"WI-JF-10","Station_Nam":"PALMYRA 1.5 N, WI","Latitude":"42.90084","Longitude":"-88.58620","Snowdepth":"1.500","Units":"in","Rept_Date":"2019-11-08 11"},"coordinates":[2239,3032]},{"type":"Point","properties":{"Station_ID":"WI-IW-3","Station_Nam":"MINERAL POINT 7.3 ENE, WI","Latitude":"42.91400","Longitude":"-90.05700","Snowdepth":"1.500","Units":"in","Rept_Date":"2019-11-08 13"},"coordinates":[1858,3043]},{"type":"Point","properties":{"Station_ID":"WI-DA-39","Station_Nam":"MADISON 4.0 W, WI","Latitude":"43.07741","Longitude":"-89.46757","Snowdepth":"1.500","Units":"in","Rept_Date":"2019-11-08 13"},"coordinates":[2011,3172]},{"type":"Point","properties":{"Station_ID":"WI-DA-31","Station_Nam":"DEERFIELD 0.6 N, WI","Latitude":"43.05958","Longitude":"-89.07340","Snowdepth":"1.500","Units":"in","Rept_Date":"2019-11-08 12"},"coordinates":[2113,3158]},{"type":"Point","properties":{"Station_ID":"WI-DA-13","Station_Nam":"MADISON 3.7 WSW, WI","Latitude":"43.06230","Longitude":"-89.45650","Snowdepth":"1.500","Units":"in","Rept_Date":"2019-11-08 13"},"coordinates":[2014,3160]},{"type":"Point","properties":{"Station_ID":"WI-BN-22","Station_Nam":"WRIGHTSTOWN 0.4 ENE, WI","Latitude":"44.32735","Longitude":"-88.16669","Snowdepth":"1.500","Units":"in","Rept_Date":"2019-11-08 13"},"coordinates":[2348,4158]},{"type":"Point","properties":{"Station_ID":"VT-WS-19","Station_Nam":"WATERBURY 3.0 NW, VT","Latitude":"44.36060","Longitude":"-72.80770","Snowdepth":"1.500","Units":"in","Rept_Date":"2019-11-08 11"},"coordinates":[6325,4185]},{"type":"Point","properties":{"Station_ID":"VT-RT-23","Station_Nam":"POULTNEY 3.5 E, VT","Latitude":"43.52631","Longitude":"-73.16514","Snowdepth":"1.500","Units":"in","Rept_Date":"2019-11-08 12"},"coordinates":[6232,3526]},{"type":"Point","properties":{"Station_ID":"VT-CL-18","Station_Nam":"WHEELOCK 1.6 S, VT","Latitude":"44.56491","Longitude":"-72.08830","Snowdepth":"1.500","Units":"in","Rept_Date":"2019-11-08 12"},"coordinates":[6511,4346]},{"type":"Point","properties":{"Station_ID":"PA-FR-1","Station_Nam":"TIONESTA 7.3 SSE, PA","Latitude":"41.39404","Longitude":"-79.41310","Snowdepth":"1.500","Units":"in","Rept_Date":"2019-11-08 12"},"coordinates":[4614,1843]},{"type":"Point","properties":{"Station_ID":"PA-EL-1","Station_Nam":"ST. MARYS 1.7 SE, PA","Latitude":"41.41069","Longitude":"-78.53480","Snowdepth":"1.500","Units":"in","Rept_Date":"2019-11-08 11"},"coordinates":[4842,1856]},{"type":"Point","properties":{"Station_ID":"NY-WS-8","Station_Nam":"GRANVILLE 9.5 SW, NY","Latitude":"43.31163","Longitude":"-73.39613","Snowdepth":"1.500","Units":"in","Rept_Date":"2019-11-08 12"},"coordinates":[6172,3357]},{"type":"Point","properties":{"Station_ID":"NY-TM-27","Station_Nam":"GROTON 3.2 SSW, NY","Latitude":"42.54725","Longitude":"-76.39960","Snowdepth":"1.500","Units":"in","Rept_Date":"2019-11-08 12"},"coordinates":[5395,2753]},{"type":"Point","properties":{"Station_ID":"NY-TG-5","Station_Nam":"BERKSHIRE 2.0 N, NY","Latitude":"42.33463","Longitude":"-76.18990","Snowdepth":"1.500","Units":"in","Rept_Date":"2019-11-08 12"},"coordinates":[5449,2586]},{"type":"Point","properties":{"Station_ID":"NY-SY-11","Station_Nam":"DUNDEE 6.2 E, NY","Latitude":"42.52210","Longitude":"-76.85580","Snowdepth":"1.500","Units":"in","Rept_Date":"2019-11-08 12"},"coordinates":[5277,2734]},{"type":"Point","properties":{"Station_ID":"NY-SY-1","Station_Nam":"SMITH VALLEY 1.9 SE, NY","Latitude":"42.39072","Longitude":"-76.71760","Snowdepth":"1.500","Units":"in","Rept_Date":"2019-11-08 12"},"coordinates":[5312,2630]},{"type":"Point","properties":{"Station_ID":"NY-MR-71","Station_Nam":"ROCHESTER 4.7 NE, NY","Latitude":"43.21668","Longitude":"-77.55016","Snowdepth":"1.500","Units":"in","Rept_Date":"2019-11-08 11"},"coordinates":[5097,3282]},{"type":"Point","properties":{"Station_ID":"NY-ER-77","Station_Nam":"COLDEN 2.4 ENE, NY","Latitude":"42.65088","Longitude":"-78.61060","Snowdepth":"1.500","Units":"in","Rept_Date":"2019-11-08 13"},"coordinates":[4822,2835]},