{"type":"Topology","objects":{"snowdepth_geo":{"type":"GeometryCollection","name":"snowdepth","crs":{"type":"name","properties":{"name":"urn:ogc:def:crs:OGC:1.3:CRS84"}},"geometries":[{"type":"Point","properties":{"Station_ID":"HTLN3","Station_Nam":"HERMIT LAKE SNOWPLOT","Latitude":"44.26130","Longitude":"-71.28330","Snowdepth":"87.000","Units":"in","Rept_Date":"2020-04-11 10"},"coordinates":[5730,3647]},{"type":"Point","properties":{"Station_ID":"PRKM4","Station_Nam":"MUNISING EAST","Latitude":"46.42580","Longitude":"-86.62000","Snowdepth":"76.500","Units":"in","Rept_Date":"2020-04-12 06"},"coordinates":[1798,5488]},{"type":"Point","properties":{"Station_ID":"OGIQ6","Station_Nam":"OGOKI CAMP","Latitude":"50.76680","Longitude":"-87.85820","Snowdepth":"61.100","Units":"in","Rept_Date":"2020-04-12 06"},"coordinates":[1481,9182]},{"type":"Point","properties":{"Station_ID":"DVLQ6","Station_Nam":"DEVIOUS LAKE","Latitude":"49.19890","Longitude":"-87.76440","Snowdepth":"43.460","Units":"in","Rept_Date":"2020-04-12 06"},"coordinates":[1505,7848]},{"type":"Point","properties":{"Station_ID":"CAN-NS-39","Station_Nam":"ST. ANNS 2.8 NW, CA","Latitude":"46.25082","Longitude":"-60.64340","Snowdepth":"32.000","Units":"in","Rept_Date":"2020-04-11 12"},"coordinates":[8458,5339]},{"type":"Point","properties":{"Station_ID":"CAN-NB-13","Station_Nam":"BATHURST 3.8 NW, CAN","Latitude":"47.64212","Longitude":"-65.68756","Snowdepth":"28.000","Units":"in","Rept_Date":"2020-04-11 11"},"coordinates":[7165,6523]},{"type":"Point","properties":{"Station_ID":"NH-CS-10","Station_Nam":"RANDOLPH 1.4 NE, NH","Latitude":"44.38824","Longitude":"-71.26950","Snowdepth":"27.500","Units":"in","Rept_Date":"2020-04-11 12"},"coordinates":[5734,3755]},{"type":"Point","properties":{"Station_ID":"CAN-NB-11","Station_Nam":"MIRAMICHI 3.3 S, CAN","Latitude":"46.99343","Longitude":"-65.50690","Snowdepth":"27.500","Units":"in","Rept_Date":"2020-04-11 11"},"coordinates":[7211,5971]},{"type":"Point","properties":{"Station_ID":"PDLM4","Station_Nam":"PAINESDALE","Latitude":"47.04160","Longitude":"-88.67170","Snowdepth":"27.000","Units":"in","Rept_Date":"2020-04-11 12"},"coordinates":[1272,6012]},{"type":"Point","properties":{"Station_ID":"ME-AR-18","Station_Nam":"NEW SWEDEN 4.9 NNW, ME","Latitude":"47.01080","Longitude":"-68.14390","Snowdepth":"27.000","Units":"in","Rept_Date":"2020-04-11 12"},"coordinates":[6535,5986]},{"type":"Point","properties":{"Station_ID":"BRAM1","Station_Nam":"BRASSUA DAM","Latitude":"45.66020","Longitude":"-69.81190","Snowdepth":"26.000","Units":"in","Rept_Date":"2020-04-11 11"},"coordinates":[6108,4837]},{"type":"Point","properties":{"Station_ID":"CAN-NL-82","Station_Nam":"GANDER 2.7 NW, CAN","Latitude":"48.97737","Longitude":"-54.63396","Snowdepth":"24.400","Units":"in","Rept_Date":"2020-04-11 10"},"coordinates":[9999,7659]},{"type":"Point","properties":{"Station_ID":"RKWM1","Station_Nam":"MOOSEHEAD LAKE","Latitude":"45.58330","Longitude":"-69.71670","Snowdepth":"23.000","Units":"in","Rept_Date":"2020-04-11 11"},"coordinates":[6132,4771]},{"type":"Point","properties":{"Station_ID":"FISM1","Station_Nam":"FORT KENT COOP","Latitude":"47.23850","Longitude":"-68.61240","Snowdepth":"22.000","Units":"in","Rept_Date":"2020-04-11 10"},"coordinates":[6415,6180]},{"type":"Point","properties":{"Station_ID":"MWN","Station_Nam":"MOUNT WASHINGTON","Latitude":"44.26670","Longitude":"-71.30000","Snowdepth":"21.000","Units":"in","Rept_Date":"2020-04-11 12"},"coordinates":[5726,3651]},{"type":"Point","properties":{"Station_ID":"KMWN","Station_Nam":"MOUNT WASHINGTON","Latitude":"44.26666","Longitude":"-71.30000","Snowdepth":"21.000","Units":"in","Rept_Date":"2020-04-12 06"},"coordinates":[5726,3651]},{"type":"Point","properties":{"Station_ID":"MNSM4","Station_Nam":"MUNISING","Latitude":"46.41210","Longitude":"-86.66250","Snowdepth":"19.000","Units":"in","Rept_Date":"2020-04-11 10"},"coordinates":[1787,5477]},{"type":"Point","properties":{"Station_ID":"ME-AR-15","Station_Nam":"PRESQUE ISLE 1.3 WSW, ME","Latitude":"46.67960","Longitude":"-68.01270","Snowdepth":"18.000","Units":"in","Rept_Date":"2020-04-11 12"},"coordinates":[6569,5704]},{"type":"Point","properties":{"Station_ID":"GHMN3","Station_Nam":"PINKHAM NOTCH","Latitude":"44.25800","Longitude":"-71.25250","Snowdepth":"18.000","Units":"in","Rept_Date":"2020-04-11 10"},"coordinates":[5738,3644]},{"type":"Point","properties":{"Station_ID":"WLFM5","Station_Nam":"WOLF RIDGE ENVIRON LEARNING CENTER","Latitude":"47.38240","Longitude":"-91.19730","Snowdepth":"17.000","Units":"in","Rept_Date":"2020-04-11 12"},"coordinates":[625,6302]},{"type":"Point","properties":{"Station_ID":"CNRM1","Station_Nam":"CONNOR TWP","Latitude":"46.95830","Longitude":"-68.03330","Snowdepth":"17.000","Units":"in","Rept_Date":"2020-04-11 12"},"coordinates":[6564,5941]},{"type":"Point","properties":{"Station_ID":"CARM1","Station_Nam":"CARIBOU WFO","Latitude":"46.86810","Longitude":"-68.01250","Snowdepth":"17.000","Units":"in","Rept_Date":"2020-04-12 04"},"coordinates":[6569,5865]},{"type":"Point","properties":{"Station_ID":"CAR","Station_Nam":"CARIBOU, ME","Latitude":"46.86830","Longitude":"-68.01360","Snowdepth":"17.000","Units":"in","Rept_Date":"2020-04-11 12"},"coordinates":[6569,5865]},{"type":"Point","properties":{"Station_ID":"RGNM1","Station_Nam":"RANGELEY 2NW","Latitude":"44.98940","Longitude":"-70.67220","Snowdepth":"16.000","Units":"in","Rept_Date":"2020-04-11 13"},"coordinates":[5887,4266]},{"type":"Point","properties":{"Station_ID":"QNCM4","Station_Nam":"QUINCY HILL","Latitude":"47.13640","Longitude":"-88.57950","Snowdepth":"16.000","Units":"in","Rept_Date":"2020-04-11 12"},"coordinates":[1296,6093]},{"type":"Point","properties":{"Station_ID":"HERM4","Station_Nam":"HERMAN,MI","Latitude":"46.65000","Longitude":"-88.33330","Snowdepth":"16.000","Units":"in","Rept_Date":"2020-04-11 12"},"coordinates":[1359,5679]},{"type":"Point","properties":{"Station_ID":"CAN-NL-65","Station_Nam":"KIPPENS 0.7 NE, CA","Latitude":"48.55436","Longitude":"-58.61850","Snowdepth":"16.000","Units":"in","Rept_Date":"2020-04-11 12"},"coordinates":[8977,7300]},{"type":"Point","properties":{"Station_ID":"CAN-NB-96","Station_Nam":"SAINT-IGNACE 2.6 NE, CAN","Latitude":"46.71424","Longitude":"-65.05609","Snowdepth":"15.700","Units":"in","Rept_Date":"2020-04-11 11"},"coordinates":[7327,5734]},{"type":"Point","properties":{"Station_ID":"SVBQ6","Station_Nam":"SAVANT BASE","Latitude":"50.28730","Longitude":"-90.65670","Snowdepth":"15.390","Units":"in","Rept_Date":"2020-04-12 06"},"coordinates":[763,8774]},{"type":"Point","properties":{"Station_ID":"TRIQ6","Station_Nam":"TRIO LAKE","Latitude":"49.22880","Longitude":"-87.22920","Snowdepth":"15.160","Units":"in","Rept_Date":"2020-04-12 06"},"coordinates":[1642,7873]},{"type":"Point","properties":{"Station_ID":"KSGM4","Station_Nam":"KEARSARGE","Latitude":"47.27520","Longitude":"-88.41700","Snowdepth":"15.000","Units":"in","Rept_Date":"2020-04-11 12"},"coordinates":[1338,6211]},{"type":"Point","properties":{"Station_ID":"CAN-QC-47","Station_Nam":"SAINTE-FOY 1.8 ENE, CAN","Latitude":"46.76934","Longitude":"-71.27124","Snowdepth":"14.600","Units":"in","Rept_Date":"2020-04-11 12"},"coordinates":[5733,5781]},{"type":"Point","properties":{"Station_ID":"PTLQ6","Station_Nam":"PORTAGE LAKE","Latitude":"49.06950","Longitude":"-86.65940","Snowdepth":"14.530","Units":"in","Rept_Date":"2020-04-12 06"},"coordinates":[1788,7738]},{"type":"Point","properties":{"Station_ID":"VT-OL-12","Station_Nam":"GREENSBORO 3.9 NNE, VT","Latitude":"44.63100","Longitude":"-72.28000","Snowdepth":"14.000","Units":"in","Rept_Date":"2020-04-11 12"},"coordinates":[5475,3961]},{"type":"Point","properties":{"Station_ID":"MI-BG-3","Station_Nam":"L'ANSE 17.8 SE, MI","Latitude":"46.55730","Longitude":"-88.20770","Snowdepth":"14.000","Units":"in","Rept_Date":"2020-04-11 13"},"coordinates":[1391,5600]},{"type":"Point","properties":{"Station_ID":"DHMM1","Station_Nam":"DEDHAM","Latitude":"44.67880","Longitude":"-68.63560","Snowdepth":"14.000","Units":"in","Rept_Date":"2020-04-11 11"},"coordinates":[6409,4002]},{"type":"Point","properties":{"Station_ID":"VANM1","Station_Nam":"VAN BUREN","Latitude":"47.16600","Longitude":"-67.93900","Snowdepth":"12.000","Units":"in","Rept_Date":"2020-04-11 11"},"coordinates":[6588,6118]},{"type":"Point","properties":{"Station_ID":"IBLM5","Station_Nam":"ISABELLA 14W","Latitude":"47.59360","Longitude":"-91.65140","Snowdepth":"12.000","Units":"in","Rept_Date":"2020-04-11 14"},"coordinates":[508,6482]},{"type":"Point","properties":{"Station_ID":"ESGM1","Station_Nam":"EAST SANGERVILLE","Latitude":"45.13690","Longitude":"-69.28060","Snowdepth":"12.000","Units":"in","Rept_Date":"2020-04-11 11"},"coordinates":[6244,4392]},{"type":"Point","properties":{"Station_ID":"AUDQ6","Station_Nam":"AUDEN","Latitude":"48.52600","Longitude":"-82.57570","Snowdepth":"11.180","Units":"in","Rept_Date":"2020-04-12 06"},"coordinates":[2835,7275]},{"type":"Point","properties":{"Station_ID":"HRTM1","Station_Nam":"HARTFORD","Latitude":"44.37440","Longitude":"-70.31620","Snowdepth":"11.000","Units":"in","Rept_Date":"2020-04-11 11"},"coordinates":[5978,3743]},{"type":"Point","properties":{"Station_ID":"AVLV1","Station_Nam":"AVERILL","Latitude":"45.00570","Longitude":"-71.69030","Snowdepth":"11.000","Units":"in","Rept_Date":"2020-04-11 12"},"coordinates":[5626,4280]},{"type":"Point","properties":{"Station_ID":"ME-KX-6","Station_Nam":"UNION 3.0 NW, ME","Latitude":"44.24435","Longitude":"-69.31540","Snowdepth":"10.500","Units":"in","Rept_Date":"2020-04-11 12"},"coordinates":[6235,3632]},{"type":"Point","properties":{"Station_ID":"CAN-NB-105","Station_Nam":"SISSON BROOK 3.8 E, CAN","Latitude":"46.98305","Longitude":"-67.32532","Snowdepth":"10.100","Units":"in","Rept_Date":"2020-04-11 12"},"coordinates":[6745,5963]},{"type":"Point","properties":{"Station_ID":"MQT","Station_Nam":"MARQUETTE, MI","Latitude":"46.53140","Longitude":"-87.54920","Snowdepth":"10.000","Units":"in","Rept_Date":"2020-04-12 06"},"coordinates":[1560,5578]},{"type":"Point","properties":{"Station_ID":"ME-PN-55","Station_Nam":"ORONO 1.1 SSW, ME","Latitude":"44.87005","Longitude":"-68.69446","Snowdepth":"10.000","Units":"in","Rept_Date":"2020-04-11 12"},"coordinates":[6394,4165]},{"type":"Point","properties":{"Station_ID":"TOPM1","Station_Nam":"TOPSFIELD","Latitude":"45.43470","Longitude":"-67.72020","Snowdepth":"9.000","Units":"in","Rept_Date":"2020-04-11 11"},"coordinates":[6644,4645]},{"type":"Point","properties":{"Station_ID":"KINM1","Station_Nam":"KINGFIELD","Latitude":"44.95950","Longitude":"-70.17530","Snowdepth":"9.000","Units":"in","Rept_Date":"2020-04-11 13"},"coordinates":[6014,4241]},{"type":"Point","properties":{"Station_ID":"CAN-NB-2","Station_Nam":"GRAFTON 2.7 NNE, CA","Latitude":"46.17062","Longitude":"-67.55330","Snowdepth":"9.000","Units":"in","Rept_Date":"2020-04-11 11"},"coordinates":[6687,5271]},{"type":"Point","properties":{"Station_ID":"VT-CL-3","Station_Nam":"GROTON 4.4 WSW, VT","Latitude":"44.19440","Longitude":"-72.28240","Snowdepth":"8.500","Units":"in","Rept_Date":"2020-04-11 11"},"coordinates":[5474,3590]},{"type":"Point","properties":{"Station_ID":"RANM1","Station_Nam":"RANGELEY","Latitude":"44.98910","Longitude":"-70.67190","Snowdepth":"8.000","Units":"in","Rept_Date":"2020-04-11 13"},"coordinates":[5887,4266]},{"type":"Point","properties":{"Station_ID":"PTBN3","Station_Nam":"PITTSBURG RESERVOIR","Latitude":"45.04690","Longitude":"-71.38300","Snowdepth":"8.000","Units":"in","Rept_Date":"2020-04-11 12"},"coordinates":[5705,4315]},{"type":"Point","properties":{"Station_ID":"NH-CS-4","Station_Nam":"PITTSBURG 6.1 NE, NH","Latitude":"45.11060","Longitude":"-71.29760","Snowdepth":"8.000","Units":"in","Rept_Date":"2020-04-11 12"},"coordinates":[5727,4369]},{"type":"Point","properties":{"Station_ID":"JKMM1","Station_Nam":"JACKMAN","Latitude":"45.62600","Longitude":"-70.24600","Snowdepth":"8.000","Units":"in","Rept_Date":"2020-04-11 11"},"coordinates":[5996,4808]},{"type":"Point","properties":{"Station_ID":"CAN-NB-97","Station_Nam":"NEW MARYLAND 0.6 NW, CAN","Latitude":"45.90112","Longitude":"-66.68739","Snowdepth":"7.900","Units":"in","Rept_Date":"2020-04-11 11"},"coordinates":[6909,5042]},{"type":"Point","properties":{"Station_ID":"CAN-NB-98","Station_Nam":"HOYT 4.2 S, CAN","Latitude":"45.54763","Longitude":"-66.55440","Snowdepth":"7.500","Units":"in","Rept_Date":"2020-04-11 11"},"coordinates":[6943,4741]},{"type":"Point","properties":{"Station_ID":"SOCQ6","Station_Nam":"SOCKET LAKE","Latitude":"50.77870","Longitude":"-91.79300","Snowdepth":"7.240","Units":"in","Rept_Date":"2020-04-12 06"},"coordinates":[472,9192]},{"type":"Point","properties":{"Station_ID":"PRDM4","Station_Nam":"PARADISE","Latitude":"46.60380","Longitude":"-85.03960","Snowdepth":"7.000","Units":"in","Rept_Date":"2020-04-11 10"},"coordinates":[2204,5640]},{"type":"Point","properties":{"Station_ID":"ME-KX-10","Station_Nam":"UNION 2.1 NNE, ME","Latitude":"44.23693","Longitude":"-69.27170","Snowdepth":"7.000","Units":"in","Rept_Date":"2020-04-11 12"},"coordinates":[6246,3626]},{"type":"Point","properties":{"Station_ID":"CAN-NB-18","Station_Nam":"MCLEOD HILL 1.1 ENE, CA","Latitude":"46.02725","Longitude":"-66.67460","Snowdepth":"7.000","Units":"in","Rept_Date":"2020-04-11 12"},"coordinates":[6912,5149]},{"type":"Point","properties":{"Station_ID":"BRDM1","Station_Nam":"BRIDGEWATER","Latitude":"46.42870","Longitude":"-67.84370","Snowdepth":"7.000","Units":"in","Rept_Date":"2020-04-11 22"},"coordinates":[6612,5491]},{"type":"Point","properties":{"Station_ID":"CAN-NB-64","Station_Nam":"KESWICK RIDGE 4.0 SE, CAN","Latitude":"45.97014","Longitude":"-66.85538","Snowdepth":"6.500","Units":"in","Rept_Date":"2020-04-11 13"},"coordinates":[6866,5101]},{"type":"Point","properties":{"Station_ID":"ME-KX-12","Station_Nam":"UNION 3.0 W, ME","Latitude":"44.21320","Longitude":"-69.34160","Snowdepth":"6.300","Units":"in","Rept_Date":"2020-04-11 11"},"coordinates":[6228,3606]},{"type":"Point","properties":{"Station_ID":"WI-IR-3","Station_Nam":"PENCE 0.1 E, WI","Latitude":"46.41555","Longitude":"-90.27013","Snowdepth":"6.000","Units":"in","Rept_Date":"2020-04-11 13"},"coordinates":[863,5480]},{"type":"Point","properties":{"Station_ID":"MWTM1","Station_Nam":"MILLINOCKET WWTP","Latitude":"45.64030","Longitude":"-68.67480","Snowdepth":"6.000","Units":"in","Rept_Date":"2020-04-11 10"},"coordinates":[6399,4820]},{"type":"Point","properties":{"Station_ID":"MN-CK-18","Station_Nam":"GRAND MARAIS 4.4 WSW, MN","Latitude":"47.74462","Longitude":"-90.43796","Snowdepth":"6.000","Units":"in","Rept_Date":"2020-04-11 13"},"coordinates":[819,6611]},{"type":"Point","properties":{"Station_ID":"MI-HG-1","Station_Nam":"HOUGHTON 1.6 ESE, MI","Latitude":"47.10774","Longitude":"-88.52940","Snowdepth":"6.000","Units":"in","Rept_Date":"2020-04-11 13"},"coordinates":[1309,6069]},{"type":"Point","properties":{"Station_ID":"GNFM5","Station_Nam":"GUNFLINT LAKE","Latitude":"48.16670","Longitude":"-90.88750","Snowdepth":"6.000","Units":"in","Rept_Date":"2020-04-11 12"},"coordinates":[704,6970]},{"type":"Point","properties":{"Station_ID":"CAN-NS-60","Station_Nam":"SYDNEY FORKS, CAN","Latitude":"46.05645","Longitude":"-60.31510","Snowdepth":"6.000","Units":"in","Rept_Date":"2020-04-11 14"},"coordinates":[8542,5174]},{"type":"Point","properties":{"Station_ID":"VT-ES-1","Station_Nam":"GRANBY 1.4 NW, VT","Latitude":"44.58330","Longitude":"-71.77870","Snowdepth":"5.500","Units":"in","Rept_Date":"2020-04-11 13"},"coordinates":[5603,3921]},{"type":"Point","properties":{"Station_ID":"NH-CR-15","Station_Nam":"JACKSON 3.7 NW, NH","Latitude":"44.19069","Longitude":"-71.22598","Snowdepth":"5.500","Units":"in","Rept_Date":"2020-04-11 12"},"coordinates":[5745,3587]},{"type":"Point","properties":{"Station_ID":"ME-KB-25","Station_Nam":"SIDNEY 2.6 NNW, ME","Latitude":"44.44985","Longitude":"-69.73840","Snowdepth":"5.500","Units":"in","Rept_Date":"2020-04-11 12"},"coordinates":[6126,3807]},{"type":"Point","properties":{"Station_ID":"CAN-NB-1","Station_Nam":"FREDERICTON 4.0 SSE, CA","Latitude":"45.92897","Longitude":"-66.62830","Snowdepth":"5.500","Units":"in","Rept_Date":"2020-04-11 12"},"coordinates":[6924,5066]},{"type":"Point","properties":{"Station_ID":"KABQ6","Station_Nam":"CAB LAKE","Latitude":"49.59950","Longitude":"-89.17990","Snowdepth":"5.040","Units":"in","Rept_Date":"2020-04-12 06"},"coordinates":[1142,8189]},{"type":"Point","properties":{"Station_ID":"VT-OL-1","Station_Nam":"WESTFIELD 0.7 WNW, VT","Latitude":"44.89160","Longitude":"-72.44350","Snowdepth":"5.000","Units":"in","Rept_Date":"2020-04-11 12"},"coordinates":[5433,4183]},{"type":"Point","properties":{"Station_ID":"MN-CK-6","Station_Nam":"GRAND MARAIS 4.4 W, MN","Latitude":"47.74865","Longitude":"-90.43760","Snowdepth":"5.000","Units":"in","Rept_Date":"2020-04-11 13"},"coordinates":[820,6614]},{"type":"Point","properties":{"Station_ID":"ME-HN-2","Station_Nam":"EAST SURRY, ME","Latitude":"44.49367","Longitude":"-68.45775","Snowdepth":"5.000","Units":"in","Rept_Date":"2020-04-11 13"},"coordinates":[6455,3844]},{"type":"Point","properties":{"Station_ID":"ME-FR-4","Station_Nam":"NEW SHARON 2.0 NW, ME","Latitude":"44.66582","Longitude":"-70.02720","Snowdepth":"5.000","Units":"in","Rept_Date":"2020-04-11 12"},"coordinates":[6052,3991]},{"type":"Point","properties":{"Station_ID":"LILM1","Station_Nam":"LILLE","Latitude":"47.27770","Longitude":"-68.10520","Snowdepth":"5.000","Units":"in","Rept_Date":"2020-04-11 11"},"coordinates":[6545,6213]},{"type":"Point","properties":{"Station_ID":"ISLV1","Station_Nam":"ISLAND POND","Latitude":"44.81280","Longitude":"-71.89020","Snowdepth":"5.000","Units":"in","Rept_Date":"2020-04-11 15"},"coordinates":[5575,4116]},{"type":"Point","properties":{"Station_ID":"FARM1","Station_Nam":"FARMINGTON","Latitude":"44.68930","Longitude":"-70.15640","Snowdepth":"5.000","Units":"in","Rept_Date":"2020-04-11 12"},"coordinates":[6019,4011]},{"type":"Point","properties":{"Station_ID":"CAN-NS-103","Station_Nam":"TRAFALGAR 4.9 WSW, CAN","Latitude":"45.26217","Longitude":"-62.72285","Snowdepth":"5.000","Units":"in","Rept_Date":"2020-04-11 11"},"coordinates":[7925,4498]},{"type":"Point","properties":{"Station_ID":"VT-ES-3","Station_Nam":"LUNENBURG 2.3 NNW, VT","Latitude":"44.49324","Longitude":"-71.70446","Snowdepth":"4.500","Units":"in","Rept_Date":"2020-04-11 12"},"coordinates":[5622,3844]},{"type":"Point","properties":{"Station_ID":"HPN04_MADIS","Station_Nam":"HANOVER","Latitude":"45.16770","Longitude":"-93.63430","Snowdepth":"4.040","Units":"in","Rept_Date":"2020-04-12 06"},"coordinates":[0,4418]},{"type":"Point","properties":{"Station_ID":"VT-BN-3","Station_Nam":"LANDGROVE 1.1 NNE, VT","Latitude":"43.29092","Longitude":"-72.83260","Snowdepth":"4.000","Units":"in","Rept_Date":"2020-04-11 11"},"coordinates":[5333,2821]},{"type":"Point","properties":{"Station_ID":"SLNV1","Station_Nam":"SOUTH LINCOLN","Latitude":"44.07460","Longitude":"-72.97180","Snowdepth":"4.000","Units":"in","Rept_Date":"2020-04-11 11"},"coordinates":[5298,3488]},{"type":"Point","properties":{"Station_ID":"RDFN6","Station_Nam":"REDFIELD 8N","Latitude":"43.64130","Longitude":"-75.88400","Snowdepth":"4.000","Units":"in","Rept_Date":"2020-04-11 11"},"coordinates":[4551,3119]},{"type":"Point","properties":{"Station_ID":"POLM1","Station_Nam":"POLAND","Latitude":"44.00700","Longitude":"-70.36140","Snowdepth":"4.000","Units":"in","Rept_Date":"2020-04-11 11"},"coordinates":[5967,3430]},{"type":"Point","properties":{"Station_ID":"MRRN6","Station_Nam":"MORRISVILLE 6 SW","Latitude":"42.84160","Longitude":"-75.72630","Snowdepth":"4.000","Units":"in","Rept_Date":"2020-04-11 11"},"coordinates":[4591,2439]},{"type":"Point","properties":{"Station_ID":"ME-CM-137","Station_Nam":"GRAY 1.5 NE, ME","Latitude":"43.90034","Longitude":"-70.30883","Snowdepth":"4.000","Units":"in","Rept_Date":"2020-04-11 12"},"coordinates":[5980,3339]},{"type":"Point","properties":{"Station_ID":"LPLN6","Station_Nam":"LAKE PLACID 2 S","Latitude":"44.30420","Longitude":"-73.98390","Snowdepth":"4.000","Units":"in","Rept_Date":"2020-04-11 13"},"coordinates":[5038,3683]},{"type":"Point","properties":{"Station_ID":"JEFN3","Station_Nam":"JEFFERSON","Latitude":"44.41690","Longitude":"-71.50080","Snowdepth":"4.000","Units":"in","Rept_Date":"2020-04-11 11"},"coordinates":[5675,3779]},{"type":"Point","properties":{"Station_ID":"COLN3","Station_Nam":"COLEBROOK 3SW","Latitude":"44.86100","Longitude":"-71.53920","Snowdepth":"4.000","Units":"in","Rept_Date":"2020-04-11 11"},"coordinates":[5665,4157]},{"type":"Point","properties":{"Station_ID":"BGR","Station_Nam":"BANGOR INTERNATIONAL AIRPORT","Latitude":"44.79780","Longitude":"-68.81840","Snowdepth":"4.000","Units":"in","Rept_Date":"2020-04-11 12"},"coordinates":[6362,4103]},{"type":"Point","properties":{"Station_ID":"CAN-NB-104","Station_Nam":"PENNFIELD RIDGE 2.7 SSW, CAN","Latitude":"45.09355","Longitude":"-66.71389","Snowdepth":"3.900","Units":"in","Rept_Date":"2020-04-11 11"},"coordinates":[6902,4355]},{"type":"Point","properties":{"Station_ID":"CAN-PE-7","Station_Nam":"MORELL 1.4 NNW, CA","Latitude":"46.42741","Longitude":"-62.70870","Snowdepth":"3.600","Units":"in","Rept_Date":"2020-04-11 12"},"coordinates":[7929,5490]},{"type":"Point","properties":{"Station_ID":"VT-WS-30","Station_Nam":"WOODBURY 3.4 NNW, VT","Latitude":"44.48825","Longitude":"-72.43258","Snowdepth":"3.500","Units":"in","Rept_Date":"2020-04-11 12"},"coordinates":[5436,3840]},{"type":"Point","properties":{"Station_ID":"VT-WR-17","Station_Nam":"ROCHESTER 2.3 NE, VT","Latitude":"43.89418","Longitude":"-72.76992","Snowdepth":"3.500","Units":"in","Rept_Date":"2020-04-11 12"},"coordinates":[5349,3334]},{"type":"Point","properties":{"Station_ID":"VT-OL-9","Station_Nam":"GREENSBORO 2.1 NNW, VT","Latitude":"44.60528","Longitude":"-72.30940","Snowdepth":"3.500","Units":"in","Rept_Date":"2020-04-11 12"},"coordinates":[5467,3939]},{"type":"Point","properties":{"Station_ID":"VT-LM-7","Station_Nam":"HYDE PARK 2.9 NE, VT","Latitude":"44.62080","Longitude":"-72.57250","Snowdepth":"3.500","Units":"in","Rept_Date":"2020-04-11 12"},"coordinates":[5400,3953]},{"type":"Point","properties":{"Station_ID":"NY-MD-10","Station_Nam":"CAZENOVIA 2.9 SE, NY","Latitude":"42.90003","Longitude":"-75.81140","Snowdepth":"3.500","Units":"in","Rept_Date":"2020-04-11 12"},"coordinates":[4569,2488]},{"type":"Point","properties":{"Station_ID":"NY-ES-11","Station_Nam":"VERMONTVILLE 2.8 S, NY","Latitude":"44.41205","Longitude":"-74.06760","Snowdepth":"3.500","Units":"in","Rept_Date":"2020-04-11 12"},"coordinates":[5017,3775]},{"type":"Point","properties":{"Station_ID":"ME-LN-21","Station_Nam":"WESTPORT ISLAND 2.2 SSW, ME","Latitude":"43.88806","Longitude":"-69.70890","Snowdepth":"3.500","Units":"in","Rept_Date":"2020-04-11 13"},"coordinates":[6134,3329]},{"type":"Point","properties":{"Station_ID":"ME-AN-41","Station_Nam":"AUBURN 2.1 NNW, ME","Latitude":"44.11275","Longitude":"-70.26452","Snowdepth":"3.500","Units":"in","Rept_Date":"2020-04-11 12"},"coordinates":[5992,3520]},{"type":"Point","properties":{"Station_ID":"CAN-PE-3","Station_Nam":"WELLINGTON 1.6 NE, CA","Latitude":"46.46672","Longitude":"-63.98920","Snowdepth":"3.500","Units":"in","Rept_Date":"2020-04-11 11"},"coordinates":[7600,5523]},{"type":"Point","properties":{"Station_ID":"CATQ6","Station_Nam":"CAT LAKE","Latitude":"51.72690","Longitude":"-91.82210","Snowdepth":"3.460","Units":"in","Rept_Date":"2020-04-12 06"},"coordinates":[465,9999]},{"type":"Point","properties":{"Station_ID":"CAN-NB-84","Station_Nam":"NORTON 7.1 WNW - KWRC, CAN","Latitude":"45.66195","Longitude":"-65.78279","Snowdepth":"3.100","Units":"in","Rept_Date":"2020-04-11 12"},"coordinates":[7141,4838]},{"type":"Point","properties":{"Station_ID":"CAN-NB-57","Station_Nam":"JOLICURE 2.8 NE, CAN","Latitude":"45.96081","Longitude":"-64.18848","Snowdepth":"3.100","Units":"in","Rept_Date":"2020-04-11 12"},"coordinates":[7549,5093]},{"type":"Point","properties":{"Station_ID":"CAN-NB-46","Station_Nam":"MACES BAY 7.3 SSW, CAN","Latitude":"45.06409","Longitude":"-66.82160","Snowdepth":"3.100","Units":"in","Rept_Date":"2020-04-11 12"},"coordinates":[6874,4330]},{"type":"Point","properties":{"Station_ID":"CAN-NB-16","Station_Nam":"DORCHESTER 1.0 SSE, CAN","Latitude":"45.89160","Longitude":"-64.51269","Snowdepth":"3.100","Units":"in","Rept_Date":"2020-04-11 12"},"coordinates":[7466,5034]},{"type":"Point","properties":{"Station_ID":"WI-VL-10","Station_Nam":"LAND O LAKES 4.3 WNW, WI","Latitude":"46.17440","Longitude":"-89.30380","Snowdepth":"3.000","Units":"in","Rept_Date":"2020-04-11 13"},"coordinates":[1110,5274]},{"type":"Point","properties":{"Station_ID":"SUTV1","Station_Nam":"SUTTON","Latitude":"44.61220","Longitude":"-72.04810","Snowdepth":"3.000","Units":"in","Rept_Date":"2020-04-11 12"},"coordinates":[5534,3945]},{"type":"Point","properties":{"Station_ID":"ME-SG-1","Station_Nam":"BATH 1.1 WSW, ME","Latitude":"43.93063","Longitude":"-69.85730","Snowdepth":"3.000","Units":"in","Rept_Date":"2020-04-11 11"},"coordinates":[6096,3365]},{"type":"Point","properties":{"Station_ID":"LNCM1","Station_Nam":"LINCOLN WATER DISTRICT","Latitude":"45.32410","Longitude":"-68.58300","Snowdepth":"3.000","Units":"in","Rept_Date":"2020-04-11 11"},"coordinates":[6423,4551]},{"type":"Point","properties":{"Station_ID":"JEFV1","Station_Nam":"JEFFERSONVILLE","Latitude":"44.58430","Longitude":"-72.78700","Snowdepth":"3.000","Units":"in","Rept_Date":"2020-04-11 11"},"coordinates":[5345,3921]},{"type":"Point","properties":{"Station_ID":"GYX","Station_Nam":"PORTLAND, ME","Latitude":"43.89250","Longitude":"-70.25500","Snowdepth":"3.000","Units":"in","Rept_Date":"2020-04-11 12"},"coordinates":[5994,3333]},{"type":"Point","properties":{"Station_ID":"DURM1","Station_Nam":"DURHAM","Latitude":"43.99960","Longitude":"-70.09630","Snowdepth":"3.000","Units":"in","Rept_Date":"2020-04-11 11"},"coordinates":[6035,3424]},{"type":"Point","properties":{"Station_ID":"BTHM1","Station_Nam":"BATH","Latitude":"43.93160","Longitude":"-69.85640","Snowdepth":"3.000","Units":"in","Rept_Date":"2020-04-11 10"},"coordinates":[6096,3366]},{"type":"Point","properties":{"Station_ID":"BETM1","Station_Nam":"BETHEL 6 SSE","Latitude":"44.32000","Longitude":"-70.75680","Snowdepth":"3.000","Units":"in","Rept_Date":"2020-04-11 12"},"coordinates":[5865,3697]},{"type":"Point","properties":{"Station_ID":"CAN-NB-55","Station_Nam":"FREDERICTON 4.5 N, CAN","Latitude":"45.99547","Longitude":"-66.64252","Snowdepth":"2.900","Units":"in","Rept_Date":"2020-04-11 12"},"coordinates":[6920,5122]},{"type":"Point","properties":{"Station_ID":"VT-WS-7","Station_Nam":"MIDDLESEX 3.1 ENE, VT","Latitude":"44.31799","Longitude":"-72.62650","Snowdepth":"2.800","Units":"in","Rept_Date":"2020-04-11 13"},"coordinates":[5386,3695]},{"type":"Point","properties":{"Station_ID":"VT-WS-33","Station_Nam":"WAITSFIELD 3.5 WNW, VT","Latitude":"44.20052","Longitude":"-72.89421","Snowdepth":"2.800","Units":"in","Rept_Date":"2020-04-11 12"},"coordinates":[5317,3595]},{"type":"Point","properties":{"Station_ID":"PA-PT-2","Station_Nam":"ROULETTE 1.8 NNE, PA","Latitude":"41.80759","Longitude":"-78.14140","Snowdepth":"2.500","Units":"in","Rept_Date":"2020-04-11 12"},"coordinates":[3972,1559]},{"type":"Point","properties":{"Station_ID":"NY-DL-28","Station_Nam":"FLEISCHMANNS 5.7 N, NY","Latitude":"42.23779","Longitude":"-74.52335","Snowdepth":"2.500","Units":"in","Rept_Date":"2020-04-11 12"},"coordinates":[4900,1925]},{"type":"Point","properties":{"Station_ID":"NY-CQ-39","Station_Nam":"GERRY 0.8 N, NY","Latitude":"42.20500","Longitude":"-79.24700","Snowdepth":"2.500","Units":"in","Rept_Date":"2020-04-11 13"},"coordinates":[3689,1897]},{"type":"Point","properties":{"Station_ID":"ME-HN-4","Station_Nam":"MARIAVILLE 1.4 ESE, ME","Latitude":"44.71810","Longitude":"-68.38810","Snowdepth":"2.500","Units":"in","Rept_Date":"2020-04-11 13"},"coordinates":[6473,4035]},{"type":"Point","properties":{"Station_ID":"CAN-PE-19","Station_Nam":"CHARLOTTETOWN 6.5 NNW, CAN","Latitude":"46.29235","Longitude":"-63.17271","Snowdepth":"2.400","Units":"in","Rept_Date":"2020-04-11 12"},"coordinates":[7810,5375]},{"type":"Point","properties":{"Station_ID":"CAN-NB-5","Station_Nam":"OAK POINT 0.9 SSW, CA","Latitude":"45.50752","Longitude":"-66.09860","Snowdepth":"2.400","Units":"in","Rept_Date":"2020-04-11 12"},"coordinates":[7060,4707]},{"type":"Point","properties":{"Station_ID":"WVLM1","Station_Nam":"WATERVILLE TREATMENT PLT","Latitude":"44.52720","Longitude":"-69.65440","Snowdepth":"2.000","Units":"in","Rept_Date":"2020-04-11 11"},"coordinates":[6148,3873]},{"type":"Point","properties":{"Station_ID":"WSWN6","Station_Nam":"WARSAW","Latitude":"42.74220","Longitude":"-78.20850","Snowdepth":"2.000","Units":"in","Rept_Date":"2020-04-11 11"},"coordinates":[3955,2354]},{"type":"Point","properties":{"Station_ID":"WORV1","Station_Nam":"WORCESTER 2 W","Latitude":"44.37470","Longitude":"-72.58220","Snowdepth":"2.000","Units":"in","Rept_Date":"2020-04-11 11"},"coordinates":[5397,3743]},{"type":"Point","properties":{"Station_ID":"WITM1","Station_Nam":"WHITING","Latitude":"44.74240","Longitude":"-67.30520","Snowdepth":"2.000","Units":"in","Rept_Date":"2020-04-11 11"},"coordinates":[6750,4056]},{"type":"Point","properties":{"Station_ID":"WI-VL-9","Station_Nam":"LAND O' LAKES 11.7 W, WI","Latitude":"46.19023","Longitude":"-89.45790","Snowdepth":"2.000","Units":"in","Rept_Date":"2020-04-11 13"},"coordinates":[1071,5288]},{"type":"Point","properties":{"Station_ID":"VT-OL-5","Station_Nam":"DERBY CENTER 1.8 NW, VT","Latitude":"44.97200","Longitude":"-72.14780","Snowdepth":"2.000","Units":"in","Rept_Date":"2020-04-11 12"},"coordinates":[5509,4251]},{"type":"Point","properties":{"Station_ID":"VT-OL-2","Station_Nam":"BARTON 3.0 ENE, VT","Latitude":"44.75863","Longitude":"-72.11680","Snowdepth":"2.000","Units":"in","Rept_Date":"2020-04-11 12"},"coordinates":[5517,4070]},{"type":"Point","properties":{"Station_ID":"VT-BN-12","Station_Nam":"STAMFORD 5.0 NNE, VT","Latitude":"42.82000","Longitude":"-73.02000","Snowdepth":"2.000","Units":"in","Rept_Date":"2020-04-11 21"},"coordinates":[5285,2420]},{"type":"Point","properties":{"Station_ID":"RUHN6","Station_Nam":"RUSHFORD","Latitude":"42.42610","Longitude":"-78.19220","Snowdepth":"2.000","Units":"in","Rept_Date":"2020-04-11 12"},"coordinates":[3959,2085]},{"type":"Point","properties":{"Station_ID":"ROBM1","Station_Nam":"ROBBINSTON","Latitude":"45.08520","Longitude":"-67.12050","Snowdepth":"2.000","Units":"in","Rept_Date":"2020-04-12 04"},"coordinates":[6798,4348]},{"type":"Point","properties":{"Station_ID":"PERV1","Station_Nam":"PERU","Latitude":"43.26670","Longitude":"-72.90000","Snowdepth":"2.000","Units":"in","Rept_Date":"2020-04-11 11"},"coordinates":[5316,2800]},{"type":"Point","properties":{"Station_ID":"OLNN6","Station_Nam":"OLEAN","Latitude":"42.07370","Longitude":"-78.45180","Snowdepth":"2.000","Units":"in","Rept_Date":"2020-04-11 11"},"coordinates":[3893,1785]},{"type":"Point","properties":{"Station_ID":"NY-MD-16","Station_Nam":"CHITTENANGO 2.1 ESE, NY","Latitude":"43.03297","Longitude":"-75.83480","Snowdepth":"2.000","Units":"in","Rept_Date":"2020-04-11 14"},"coordinates":[4563,2601]},{"type":"Point","properties":{"Station_ID":"NY-CQ-34","Station_Nam":"KENNEDY 2.6 SE, NY","Latitude":"42.12567","Longitude":"-79.07235","Snowdepth":"2.000","Units":"in","Rept_Date":"2020-04-11 13"},"coordinates":[3733,1829]},{"type":"Point","properties":{"Station_ID":"MN-SL-15","Station_Nam":"CHISHOLM 0.4 WSW, MN","Latitude":"47.48557","Longitude":"-92.88690","Snowdepth":"2.000","Units":"in","Rept_Date":"2020-04-11 13"},"coordinates":[192,6390]},{"type":"Point","properties":{"Station_ID":"ME-CM-86","Station_Nam":"POWNAL 4.1 S, ME","Latitude":"43.85370","Longitude":"-70.17210","Snowdepth":"2.000","Units":"in","Rept_Date":"2020-04-11 12"},"coordinates":[6015,3300]},{"type":"Point","properties":{"Station_ID":"ME-CM-3","Station_Nam":"NEW GLOUCESTER 3.0 SE, ME","Latitude":"43.92372","Longitude":"-70.25790","Snowdepth":"2.000","Units":"in","Rept_Date":"2020-04-11 12"},"coordinates":[5993,3359]},{"type":"Point","properties":{"Station_ID":"ME-AN-43","Station_Nam":"LISBON 0.6 S, ME","Latitude":"44.02320","Longitude":"-70.10550","Snowdepth":"2.000","Units":"in","Rept_Date":"2020-04-11 12"},"coordinates":[6032,3444]},{"type":"Point","properties":{"Station_ID":"LNOW3","Station_Nam":"LAND O LAKES","Latitude":"46.19000","Longitude":"-89.45700","Snowdepth":"2.000","Units":"in","Rept_Date":"2020-04-11 12"},"coordinates":[1071,5288]},{"type":"Point","properties":{"Station_ID":"KISM4","Station_Nam":"K.I. SAWYER WWTP","Latitude":"46.33410","Longitude":"-87.37790","Snowdepth":"2.000","Units":"in","Rept_Date":"2020-04-11 12"},"coordinates":[1604,5410]},{"type":"Point","properties":{"Station_ID":"KBGR","Station_Nam":"BANGOR INTL AIRPORT","Latitude":"44.80000","Longitude":"-68.81666","Snowdepth":"2.000","Units":"in","Rept_Date":"2020-04-12 00"},"coordinates":[6363,4105]},{"type":"Point","properties":{"Station_ID":"JOHV1","Station_Nam":"JOHNSON 2 N","Latitude":"44.65790","Longitude":"-72.67850","Snowdepth":"2.000","Units":"in","Rept_Date":"2020-04-11 11"},"coordinates":[5373,3984]},{"type":"Point","properties":{"Station_ID":"HGHN6","Station_Nam":"HIGHMARKET","Latitude":"43.57520","Longitude":"-75.52070","Snowdepth":"2.000","Units":"in","Rept_Date":"2020-04-11 10"},"coordinates":[4644,3063]},{"type":"Point","properties":{"Station_ID":"GNLM4","Station_Nam":"GREENLAND 6N","Latitude":"46.87360","Longitude":"-89.10060","Snowdepth":"2.000","Units":"in","Rept_Date":"2020-04-11 12"},"coordinates":[1162,5869]},{"type":"Point","properties":{"Station_ID":"EAHV1","Station_Nam":"EAST HAVEN","Latitude":"44.64250","Longitude":"-71.89120","Snowdepth":"2.000","Units":"in","Rept_Date":"2020-04-11 11"},"coordinates":[5575,3971]},{"type":"Point","properties":{"Station_ID":"COVM4","Station_Nam":"COVINGTON","Latitude":"46.55880","Longitude":"-88.54190","Snowdepth":"2.000","Units":"in","Rept_Date":"2020-04-11 12"},"coordinates":[1306,5602]},{"type":"Point","properties":{"Station_ID":"COKM5","Station_Nam":"COOK","Latitude":"47.85060","Longitude":"-92.69250","Snowdepth":"2.000","Units":"in","Rept_Date":"2020-04-11 11"},"coordinates":[241,6701]},{"type":"Point","properties":{"Station_ID":"BNDM5","Station_Nam":"ELY 25E","Latitude":"47.97190","Longitude":"-91.44860","Snowdepth":"2.000","Units":"in","Rept_Date":"2020-04-11 12"},"coordinates":[560,6804]},{"type":"Point","properties":{"Station_ID":"BGRM1","Station_Nam":"BANGOR FSS","Latitude":"44.80440","Longitude":"-68.81330","Snowdepth":"2.000","Units":"in","Rept_Date":"2020-04-12 06"},"coordinates":[6364,4109]},{"type":"Point","properties":{"Station_ID":"VT-CL-40","Station_Nam":"LYNDONVILLE 4.2 NNW, VT","Latitude":"44.59440","Longitude":"-72.02389","Snowdepth":"1.800","Units":"in","Rept_Date":"2020-04-11 12"},"coordinates":[5541,3930]},{"type":"Point","properties":{"Station_ID":"NY-OD-2","Station_Nam":"POINT ROCK 0.6 SE, NY","Latitude":"43.37335","Longitude":"-75.53840","Snowdepth":"1.500","Units":"in","Rept_Date":"2020-04-11 13"},"coordinates":[4639,2891]},{"type":"Point","properties":{"Station_ID":"NY-ER-77","Station_Nam":"COLDEN 2.4 ENE, NY","Latitude":"42.65088","Longitude":"-78.61060","Snowdepth":"1.500","Units":"in","Rept_Date":"2020-04-11 14"},"coordinates":[3852,2276]},{"type":"Point","properties":{"Station_ID":"CAN-PE-26","Station_Nam":"GRAND TRACADIE 2.3 SE, CAN","Latitude":"46.37550","Longitude":"-63.03530","Snowdepth":"1.500","Units":"in","Rept_Date":"2020-04-11 11"},"coordinates":[7845,5446]},{"type":"Point","properties":{"Station_ID":"CAN-PE-10","Station_Nam":"NEW LONDON 1.6 ENE, CA","Latitude":"46.46985","Longitude":"-63.49200","Snowdepth":"1.500","Units":"in","Rept_Date":"2020-04-11 12"},"coordinates":[7728,5526]},{"type":"Point","properties":{"Station_ID":"CAN-PE-1","Station_Nam":"STRATFORD 2.3 NNE, CAN","Latitude":"46.23576","Longitude":"-63.08208","Snowdepth":"1.200","Units":"in","Rept_Date":"2020-04-11 11"},"coordinates":[7833,5327]},{"type":"Point","properties":{"Station_ID":"CAN-NB-28","Station_Nam":"SUSSEX CORNER 1.4 NE - KWRC, CAN","Latitude":"45.71691","Longitude":"-65.46217","Snowdepth":"1.200","Units":"in","Rept_Date":"2020-04-11 10"},"coordinates":[7223,4885]},{"type":"Point","properties":{"Station_ID":"WRRP1","Station_Nam":"ALLEGHENY RIVER AT WARREN","Latitude":"41.84380","Longitude":"-79.15000","Snowdepth":"1.000","Units":"in","Rept_Date":"2020-04-11 11"},"coordinates":[3714,1590]},{"type":"Point","properties":{"Station_ID":"WNDP1","Station_Nam":"WINDBER COUNTY CLUB","Latitude":"40.28780","Longitude":"-78.77530","Snowdepth":"1.000","Units":"in","Rept_Date":"2020-04-11 11"},"coordinates":[3810,266]},{"type":"Point","properties":{"Station_ID":"WNDM1","Station_Nam":"WINDHAM 2NW","Latitude":"43.85670","Longitude":"-70.46630","Snowdepth":"1.000","Units":"in","Rept_Date":"2020-04-11 11"},"coordinates":[5940,3302]},{"type":"Point","properties":{"Station_ID":"WAIV1","Station_Nam":"WAITSFIELD","Latitude":"44.17560","Longitude":"-72.79610","Snowdepth":"1.000","Units":"in","Rept_Date":"2020-04-11 12"},"coordinates":[5343,3574]},{"type":"Point","properties":{"Station_ID":"VT-WS-11","Station_Nam":"WAITSFIELD 1.8 SE, VT","Latitude":"44.17551","Longitude":"-72.79540","Snowdepth":"1.000","Units":"in","Rept_Date":"2020-04-11 13"},"coordinates":[5343,3574]},{"type":"Point","properties":{"Station_ID":"VT-RT-24","Station_Nam":"MIDDLETOWN SPRINGS 0.9 WNW, VT","Latitude":"43.49194","Longitude":"-73.13350","Snowdepth":"1.000","Units":"in","Rept_Date":"2020-04-11 12"},"coordinates":[5256,2992]},{"type":"Point","properties":{"Station_ID":"VT-LM-1","Station_Nam":"STOWE 0.2 SW, VT","Latitude":"44.46399","Longitude":"-72.69070","Snowdepth":"1.000","Units":"in","Rept_Date":"2020-04-11 12"},"coordinates":[5370,3819]},{"type":"Point","properties":{"Station_ID":"VT-CL-18","Station_Nam":"WHEELOCK 1.6 S, VT","Latitude":"44.56491","Longitude":"-72.08830","Snowdepth":"1.000","Units":"in","Rept_Date":"2020-04-11 12"},"coordinates":[5524,3905]},{"type":"Point","properties":{"Station_ID":"VT-AD-20","Station_Nam":"HANCOCK 0.3 S, VT","Latitude":"43.92166","Longitude":"-72.84042","Snowdepth":"1.000","Units":"in","Rept_Date":"2020-04-11 12"},"coordinates":[5331,3358]},{"type":"Point","properties":{"Station_ID":"SVSN6","Station_Nam":"SILVER SPRINGS 3N","Latitude":"42.70580","Longitude":"-78.09370","Snowdepth":"1.000","Units":"in","Rept_Date":"2020-04-11 11"},"coordinates":[3984,2323]},{"type":"Point","properties":{"Station_ID":"ROWM3","Station_Nam":"ROWE 3NE","Latitude":"42.73500","Longitude":"-72.86920","Snowdepth":"1.000","Units":"in","Rept_Date":"2020-04-11 11"},"coordinates":[5324,2348]},{"type":"Point","properties":{"Station_ID":"PVLN6","Station_Nam":"PAVILION 2","Latitude":"42.87340","Longitude":"-77.99240","Snowdepth":"1.000","Units":"in","Rept_Date":"2020-04-11 11"},"coordinates":[4010,2466]},{"type":"Point","properties":{"Station_ID":"PA-BD-6","Station_Nam":"EVERETT 3.4 SW, PA","Latitude":"39.97565","Longitude":"-78.40870","Snowdepth":"1.000","Units":"in","Rept_Date":"2020-04-11 12"},"coordinates":[3904,0]},{"type":"Point","properties":{"Station_ID":"NY-WY-11","Station_Nam":"SILVER SPRINGS COOP, NY","Latitude":"42.70580","Longitude":"-78.09370","Snowdepth":"1.000","Units":"in","Rept_Date":"2020-04-11 12"},"coordinates":[3984,2323]},{"type":"Point","properties":{"Station_ID":"NY-HR-18","Station_Nam":"SALISBURY CENTER 1.8 NW, NY","Latitude":"43.16260","Longitude":"-74.80880","Snowdepth":"1.000","Units":"in","Rept_Date":"2020-04-11 11"},"coordinates":[4827,2712]},{"type":"Point","properties":{"Station_ID":"NY-FK-9","Station_Nam":"GABRIELS 1.3 SE, NY","Latitude":"44.41934","Longitude":"-74.16194","Snowdepth":"1.000","Units":"in","Rept_Date":"2020-04-11 12"},"coordinates":[4992,3781]},{"type":"Point","properties":{"Station_ID":"NY-FK-7","Station_Nam":"SARANAC LAKE 6.2 N, NY","Latitude":"44.41359","Longitude":"-74.15211","Snowdepth":"1.000","Units":"in","Rept_Date":"2020-04-11 14"},"coordinates":[4995,3776]},{"type":"Point","properties":{"Station_ID":"NY-CT-22","Station_Nam":"FRANKLINVILLE 0.5 NNE, NY","Latitude":"42.34166","Longitude":"-78.45280","Snowdepth":"1.000","Units":"in","Rept_Date":"2020-04-11 13"},"coordinates":[3892,2013]},{"type":"Point","properties":{"Station_ID":"NY-CR-1","Station_Nam":"FREETOWN 1.0 NE, NY","Latitude":"42.53299","Longitude":"-76.02111","Snowdepth":"1.000","Units":"in","Rept_Date":"2020-04-11 12"},"coordinates":[4516,2176]},{"type":"Point","properties":{"Station_ID":"NUMN3","Station_Nam":"NORTHUMBERLAND","Latitude":"44.52830","Longitude":"-71.50440","Snowdepth":"1.000","Units":"in","Rept_Date":"2020-04-11 12"},"coordinates":[5674,3874]},{"type":"Point","properties":{"Station_ID":"NH-CR-26","Station_Nam":"CENTER SANDWICH 4.9 E, NH","Latitude":"43.80976","Longitude":"-71.34150","Snowdepth":"1.000","Units":"in","Rept_Date":"2020-04-11 11"},"coordinates":[5715,3262]},{"type":"Point","properties":{"Station_ID":"ME-CM-54","Station_Nam":"WINDHAM 3.9 NW, ME","Latitude":"43.85787","Longitude":"-70.46200","Snowdepth":"1.000","Units":"in","Rept_Date":"2020-04-11 12"},"coordinates":[5941,3303]},{"type":"Point","properties":{"Station_ID":"ME-CM-18","Station_Nam":"PORTLAND 5.5 WNW, ME","Latitude":"43.70288","Longitude":"-70.30550","Snowdepth":"1.000","Units":"in","Rept_Date":"2020-04-11 12"},"coordinates":[5981,3171]},{"type":"Point","properties":{"Station_ID":"MALN6","Station_Nam":"MALONE","Latitude":"44.84180","Longitude":"-74.30600","Snowdepth":"1.000","Units":"in","Rept_Date":"2020-04-11 11"},"coordinates":[4955,4141]},{"type":"Point","properties":{"Station_ID":"LTVN6","Station_Nam":"LITTLE VALLEY","Latitude":"42.24730","Longitude":"-78.81250","Snowdepth":"1.000","Units":"in","Rept_Date":"2020-04-11 11"},"coordinates":[3800,1933]},{"type":"Point","properties":{"Station_ID":"LERN6","Station_Nam":"LE ROY 1E","Latitude":"42.97360","Longitude":"-77.96710","Snowdepth":"1.000","Units":"in","Rept_Date":"2020-04-11 11"},"coordinates":[4017,2551]},{"type":"Point","properties":{"Station_ID":"KZAP1","Station_Nam":"KINZUA","Latitude":"41.90060","Longitude":"-79.11860","Snowdepth":"1.000","Units":"in","Rept_Date":"2020-04-11 11"},"coordinates":[3722,1638]},{"type":"Point","properties":{"Station_ID":"KANP1","Station_Nam":"KANE,PA","Latitude":"41.68330","Longitude":"-78.80000","Snowdepth":"1.000","Units":"in","Rept_Date":"2020-04-11 11"},"coordinates":[3803,1453]},{"type":"Point","properties":{"Station_ID":"ESDN3","Station_Nam":"EAST SANDWICH","Latitude":"43.80990","Longitude":"-71.34250","Snowdepth":"1.000","Units":"in","Rept_Date":"2020-04-11 10"},"coordinates":[5715,3263]},{"type":"Point","properties":{"Station_ID":"EHYM3","Station_Nam":"EAST HAWLEY","Latitude":"42.57410","Longitude":"-72.86790","Snowdepth":"1.000","Units":"in","Rept_Date":"2020-04-11 12"},"coordinates":[5324,2211]},{"type":"Point","properties":{"Station_ID":"DLSN6","Station_Nam":"DELANSON 2NE","Latitude":"42.76720","Longitude":"-74.17110","Snowdepth":"1.000","Units":"in","Rept_Date":"2020-04-11 11"},"coordinates":[4990,2375]},{"type":"Point","properties":{"Station_ID":"CJRP1","Station_Nam":"COUDERSPORT 7SE","Latitude":"41.73920","Longitude":"-77.97110","Snowdepth":"1.000","Units":"in","Rept_Date":"2020-04-11 11"},"coordinates":[4016,1501]},{"type":"Point","properties":{"Station_ID":"CAN-PE-47","Station_Nam":"LONG CREEK 0.3 NNW, CAN","Latitude":"46.17420","Longitude":"-63.27320","Snowdepth":"1.000","Units":"in","Rept_Date":"2020-04-11 12"},"coordinates":[7784,5274]},{"type":"Point","properties":{"Station_ID":"CAN-NS-3","Station_Nam":"WOLFVILLE 7.1 ESE, CAN","Latitude":"45.07921","Longitude":"-64.27107","Snowdepth":"1.000","Units":"in","Rept_Date":"2020-04-11 11"},"coordinates":[7528,4343]},{"type":"Point","properties":{"Station_ID":"BTLN3","Station_Nam":"BARTLETT","Latitude":"44.08380","Longitude":"-71.29340","Snowdepth":"1.000","Units":"in","Rept_Date":"2020-04-11 11"},"coordinates":[5728,3496]},{"type":"Point","properties":{"Station_ID":"BDFP1","Station_Nam":"BRADFORD,PA","Latitude":"41.95000","Longitude":"-78.73330","Snowdepth":"1.000","Units":"in","Rept_Date":"2020-04-11 12"},"coordinates":[3820,1680]}]}},"arcs":[],"transform":{"scale":[0.0039004240424042403,0.001175242524252425],"translate":[-93.6343,39.97565]}}