{"type":"Topology","objects":{"snowdepth_geo":{"type":"GeometryCollection","name":"snowdepth","crs":{"type":"name","properties":{"name":"urn:ogc:def:crs:OGC:1.3:CRS84"}},"geometries":[{"type":"Point","properties":{"Station_ID":"PRKM4","Station_Nam":"MUNISING EAST","Latitude":"46.42580","Longitude":"-86.62000","Snowdepth":"76.500","Units":"in","Rept_Date":"2021-03-01 06"},"coordinates":[2492,6043]},{"type":"Point","properties":{"Station_ID":"MMNV1","Station_Nam":"MT. MANSFIELD","Latitude":"44.52480","Longitude":"-72.81540","Snowdepth":"54.000","Units":"in","Rept_Date":"2021-02-28 21"},"coordinates":[5732,4624]},{"type":"Point","properties":{"Station_ID":"HTLN3","Station_Nam":"HERMIT LAKE SNOWPLOT","Latitude":"44.26130","Longitude":"-71.28330","Snowdepth":"50.000","Units":"in","Rept_Date":"2021-02-28 10"},"coordinates":[6092,4428]},{"type":"Point","properties":{"Station_ID":"HLSN3","Station_Nam":"HERMIT LAKE SNOTEL","Latitude":"44.26130","Longitude":"-71.28320","Snowdepth":"44.960","Units":"in","Rept_Date":"2021-03-01 06"},"coordinates":[6092,4428]},{"type":"Point","properties":{"Station_ID":"GKBN3","Station_Nam":"GRAY KNOB","Latitude":"44.33260","Longitude":"-71.30930","Snowdepth":"43.000","Units":"in","Rept_Date":"2021-02-28 10"},"coordinates":[6085,4481]},{"type":"Point","properties":{"Station_ID":"PDLM4","Station_Nam":"PAINESDALE","Latitude":"47.04160","Longitude":"-88.67170","Snowdepth":"37.000","Units":"in","Rept_Date":"2021-02-28 13"},"coordinates":[2011,6502]},{"type":"Point","properties":{"Station_ID":"HGHN6","Station_Nam":"HIGHMARKET","Latitude":"43.60510","Longitude":"-75.55430","Snowdepth":"37.000","Units":"in","Rept_Date":"2021-02-28 11"},"coordinates":[5089,3938]},{"type":"Point","properties":{"Station_ID":"CAN-NB-11","Station_Nam":"MIRAMICHI 3.3 S, CAN","Latitude":"46.99343","Longitude":"-65.50690","Snowdepth":"37.000","Units":"in","Rept_Date":"2021-02-28 12"},"coordinates":[7447,6467]},{"type":"Point","properties":{"Station_ID":"PTLQ6","Station_Nam":"PORTAGE LAKE","Latitude":"49.06950","Longitude":"-86.65940","Snowdepth":"33.820","Units":"in","Rept_Date":"2021-03-01 06"},"coordinates":[2483,8016]},{"type":"Point","properties":{"Station_ID":"KSGM4","Station_Nam":"KEARSARGE","Latitude":"47.27520","Longitude":"-88.41700","Snowdepth":"32.000","Units":"in","Rept_Date":"2021-02-28 13"},"coordinates":[2070,6677]},{"type":"Point","properties":{"Station_ID":"RDFN6","Station_Nam":"REDFIELD 8N","Latitude":"43.64130","Longitude":"-75.88400","Snowdepth":"31.000","Units":"in","Rept_Date":"2021-02-28 12"},"coordinates":[5012,3965]},{"type":"Point","properties":{"Station_ID":"VT-BN-12","Station_Nam":"STAMFORD 5.0 NNE, VT","Latitude":"42.82000","Longitude":"-73.02000","Snowdepth":"30.500","Units":"in","Rept_Date":"2021-02-28 21"},"coordinates":[5684,3352]},{"type":"Point","properties":{"Station_ID":"PERV1","Station_Nam":"PERU","Latitude":"43.26670","Longitude":"-72.90000","Snowdepth":"30.000","Units":"in","Rept_Date":"2021-02-28 12"},"coordinates":[5712,3685]},{"type":"Point","properties":{"Station_ID":"LBKV1","Station_Nam":"LYE BROOK","Latitude":"43.05000","Longitude":"-73.03330","Snowdepth":"30.000","Units":"in","Rept_Date":"2021-03-01 06"},"coordinates":[5681,3524]},{"type":"Point","properties":{"Station_ID":"NY-HR-18","Station_Nam":"SALISBURY CENTER 1.8 NW, NY","Latitude":"43.16260","Longitude":"-74.80880","Snowdepth":"29.500","Units":"in","Rept_Date":"2021-02-28 11"},"coordinates":[5264,3608]},{"type":"Point","properties":{"Station_ID":"TRIQ6","Station_Nam":"TRIO LAKE","Latitude":"49.22880","Longitude":"-87.22920","Snowdepth":"29.450","Units":"in","Rept_Date":"2021-03-01 06"},"coordinates":[2349,8135]},{"type":"Point","properties":{"Station_ID":"DVLQ6","Station_Nam":"DEVIOUS LAKE","Latitude":"49.19890","Longitude":"-87.76440","Snowdepth":"29.020","Units":"in","Rept_Date":"2021-03-01 06"},"coordinates":[2224,8112]},{"type":"Point","properties":{"Station_ID":"QNCM4","Station_Nam":"QUINCY HILL","Latitude":"47.13640","Longitude":"-88.57950","Snowdepth":"29.000","Units":"in","Rept_Date":"2021-02-28 12"},"coordinates":[2032,6573]},{"type":"Point","properties":{"Station_ID":"ME-SM-45","Station_Nam":"BRIGHTON PLANTATION 2.1 N, ME","Latitude":"45.07098","Longitude":"-69.69860","Snowdepth":"29.000","Units":"in","Rept_Date":"2021-02-28 12"},"coordinates":[6463,5032]},{"type":"Point","properties":{"Station_ID":"CAN-NS-39","Station_Nam":"ST. ANNS 2.8 NW, CA","Latitude":"46.25082","Longitude":"-60.64340","Snowdepth":"29.000","Units":"in","Rept_Date":"2021-02-28 12"},"coordinates":[8589,5912]},{"type":"Point","properties":{"Station_ID":"QGO","Station_Nam":"QGO","Latitude":"48.85500","Longitude":"-74.20640","Snowdepth":"28.976","Units":"in","Rept_Date":"2021-02-28 12"},"coordinates":[5405,7856]},{"type":"Point","properties":{"Station_ID":"VT-BN-3","Station_Nam":"LANDGROVE 1.1 NNE, VT","Latitude":"43.29092","Longitude":"-72.83260","Snowdepth":"28.500","Units":"in","Rept_Date":"2021-02-28 12"},"coordinates":[5728,3703]},{"type":"Point","properties":{"Station_ID":"AUDQ6","Station_Nam":"AUDEN","Latitude":"48.52600","Longitude":"-82.57570","Snowdepth":"28.150","Units":"in","Rept_Date":"2021-03-01 06"},"coordinates":[3441,7610]},{"type":"Point","properties":{"Station_ID":"BOON6","Station_Nam":"BOONVILLE 4 SSW","Latitude":"43.43610","Longitude":"-75.36970","Snowdepth":"28.000","Units":"in","Rept_Date":"2021-02-28 12"},"coordinates":[5132,3812]},{"type":"Point","properties":{"Station_ID":"VT-OL-12","Station_Nam":"GREENSBORO 3.9 NNE, VT","Latitude":"44.63100","Longitude":"-72.28000","Snowdepth":"27.000","Units":"in","Rept_Date":"2021-02-28 14"},"coordinates":[5858,4703]},{"type":"Point","properties":{"Station_ID":"NH-CS-10","Station_Nam":"RANDOLPH 1.4 NE, NH","Latitude":"44.38824","Longitude":"-71.26950","Snowdepth":"27.000","Units":"in","Rept_Date":"2021-02-28 12"},"coordinates":[6095,4522]},{"type":"Point","properties":{"Station_ID":"CAN-ON-208","Station_Nam":"PAKENHAM 7.8 NNW, CAN","Latitude":"45.39166","Longitude":"-76.34111","Snowdepth":"27.000","Units":"in","Rept_Date":"2021-02-28 12"},"coordinates":[4904,5271]},{"type":"Point","properties":{"Station_ID":"QLB","Station_Nam":"QLB","Latitude":"50.72360","Longitude":"-75.10000","Snowdepth":"26.693","Units":"in","Rept_Date":"2021-02-28 12"},"coordinates":[5196,9250]},{"type":"Point","properties":{"Station_ID":"ME-FR-2","Station_Nam":"TEMPLE 1.8 W, ME","Latitude":"44.68329","Longitude":"-70.26420","Snowdepth":"26.500","Units":"in","Rept_Date":"2021-02-28 12"},"coordinates":[6331,4743]},{"type":"Point","properties":{"Station_ID":"CAN-NB-96","Station_Nam":"SAINT-IGNACE 2.6 NE, CAN","Latitude":"46.71424","Longitude":"-65.05609","Snowdepth":"26.400","Units":"in","Rept_Date":"2021-02-28 11"},"coordinates":[7553,6258]},{"type":"Point","properties":{"Station_ID":"MI-KW-2","Station_Nam":"DELAWARE 5.2 SW, MI","Latitude":"47.36928","Longitude":"-88.17919","Snowdepth":"26.000","Units":"in","Rept_Date":"2021-02-28 09"},"coordinates":[2126,6747]},{"type":"Point","properties":{"Station_ID":"LVDW3","Station_Nam":"LAC VIEUX DESERT","Latitude":"46.12110","Longitude":"-89.07580","Snowdepth":"26.000","Units":"in","Rept_Date":"2021-02-28 13"},"coordinates":[1916,5816]},{"type":"Point","properties":{"Station_ID":"GHMN3","Station_Nam":"PINKHAM NOTCH","Latitude":"44.25800","Longitude":"-71.25250","Snowdepth":"26.000","Units":"in","Rept_Date":"2021-02-28 10"},"coordinates":[6099,4425]},{"type":"Point","properties":{"Station_ID":"FISM1","Station_Nam":"FORT KENT COOP","Latitude":"47.23850","Longitude":"-68.61240","Snowdepth":"26.000","Units":"in","Rept_Date":"2021-02-28 11"},"coordinates":[6718,6649]},{"type":"Point","properties":{"Station_ID":"CAN-QC-47","Station_Nam":"SAINTE-FOY 1.8 ENE, CAN","Latitude":"46.76934","Longitude":"-71.27124","Snowdepth":"26.000","Units":"in","Rept_Date":"2021-02-28 12"},"coordinates":[6094,6299]},{"type":"Point","properties":{"Station_ID":"CAN-NB-13","Station_Nam":"BATHURST 3.8 NW, CAN","Latitude":"47.64212","Longitude":"-65.68756","Snowdepth":"26.000","Units":"in","Rept_Date":"2021-02-28 11"},"coordinates":[7405,6951]},{"type":"Point","properties":{"Station_ID":"CAN-NB-105","Station_Nam":"SISSON BROOK 3.8 E, CAN","Latitude":"46.98305","Longitude":"-67.32532","Snowdepth":"26.000","Units":"in","Rept_Date":"2021-02-28 12"},"coordinates":[7020,6459]},{"type":"Point","properties":{"Station_ID":"NY-HM-10","Station_Nam":"LAKE PLEASANT 2.3 WSW, NY","Latitude":"43.45490","Longitude":"-74.45287","Snowdepth":"25.000","Units":"in","Rept_Date":"2021-02-28 12"},"coordinates":[5348,3826]},{"type":"Point","properties":{"Station_ID":"CAN-NB-18","Station_Nam":"MCLEOD HILL 1.1 ENE, CA","Latitude":"46.02725","Longitude":"-66.67460","Snowdepth":"25.000","Units":"in","Rept_Date":"2021-02-28 12"},"coordinates":[7173,5745]},{"type":"Point","properties":{"Station_ID":"RFDM1","Station_Nam":"RUMFORD 7SW","Latitude":"44.49470","Longitude":"-70.65640","Snowdepth":"24.000","Units":"in","Rept_Date":"2021-02-28 14"},"coordinates":[6239,4602]},{"type":"Point","properties":{"Station_ID":"PTBN3","Station_Nam":"PITTSBURG RESERVOIR","Latitude":"45.04690","Longitude":"-71.38300","Snowdepth":"24.000","Units":"in","Rept_Date":"2021-02-28 12"},"coordinates":[6068,5014]},{"type":"Point","properties":{"Station_ID":"MNSM4","Station_Nam":"MUNISING","Latitude":"46.41210","Longitude":"-86.66250","Snowdepth":"24.000","Units":"in","Rept_Date":"2021-02-28 11"},"coordinates":[2482,6033]},{"type":"Point","properties":{"Station_ID":"GFDN6","Station_Nam":"CHASES LAKE","Latitude":"43.75920","Longitude":"-75.29980","Snowdepth":"24.000","Units":"in","Rept_Date":"2021-02-28 11"},"coordinates":[5149,4053]},{"type":"Point","properties":{"Station_ID":"CAN-ON-42","Station_Nam":"VANKLEEK HILL 3.4 S, CA","Latitude":"45.48987","Longitude":"-74.64570","Snowdepth":"24.000","Units":"in","Rept_Date":"2021-02-28 12"},"coordinates":[5302,5344]},{"type":"Point","properties":{"Station_ID":"AVLV1","Station_Nam":"AVERILL","Latitude":"45.00570","Longitude":"-71.69030","Snowdepth":"24.000","Units":"in","Rept_Date":"2021-02-28 13"},"coordinates":[5996,4983]},{"type":"Point","properties":{"Station_ID":"QFT","Station_Nam":"QFT","Latitude":"50.83280","Longitude":"-74.40390","Snowdepth":"23.622","Units":"in","Rept_Date":"2021-02-28 12"},"coordinates":[5359,9332]},{"type":"Point","properties":{"Station_ID":"CAN-NB-97","Station_Nam":"NEW MARYLAND 0.6 NW, CAN","Latitude":"45.90112","Longitude":"-66.68739","Snowdepth":"23.600","Units":"in","Rept_Date":"2021-02-28 12"},"coordinates":[7170,5651]},{"type":"Point","properties":{"Station_ID":"NY-LW-12","Station_Nam":"CHASES LAKE COOP, NY","Latitude":"43.75924","Longitude":"-75.29982","Snowdepth":"23.500","Units":"in","Rept_Date":"2021-02-28 11"},"coordinates":[5149,4053]},{"type":"Point","properties":{"Station_ID":"ME-FR-22","Station_Nam":"FARMINGTON 4.8 NNW, ME","Latitude":"44.73396","Longitude":"-70.18007","Snowdepth":"23.500","Units":"in","Rept_Date":"2021-02-28 14"},"coordinates":[6350,4780]},{"type":"Point","properties":{"Station_ID":"CAN-QC-51","Station_Nam":"BELOEIL 0.7 NW, CAN","Latitude":"45.58049","Longitude":"-73.21218","Snowdepth":"23.300","Units":"in","Rept_Date":"2021-02-28 12"},"coordinates":[5639,5412]},{"type":"Point","properties":{"Station_ID":"CAN-NL-82","Station_Nam":"GANDER 2.7 NW, CAN","Latitude":"48.97737","Longitude":"-54.63396","Snowdepth":"23.200","Units":"in","Rept_Date":"2021-02-28 10"},"coordinates":[9999,7947]},{"type":"Point","properties":{"Station_ID":"QWE","Station_Nam":"QWE","Latitude":"47.84610","Longitude":"-73.80670","Snowdepth":"23.150","Units":"in","Rept_Date":"2021-02-28 12"},"coordinates":[5499,7103]},{"type":"Point","properties":{"Station_ID":"ROWM3","Station_Nam":"ROWE 3NE","Latitude":"42.73500","Longitude":"-72.86920","Snowdepth":"23.000","Units":"in","Rept_Date":"2021-02-28 12"},"coordinates":[5719,3289]},{"type":"Point","properties":{"Station_ID":"NH-CR-26","Station_Nam":"CENTER SANDWICH 4.9 E, NH","Latitude":"43.80976","Longitude":"-71.34150","Snowdepth":"23.000","Units":"in","Rept_Date":"2021-02-28 12"},"coordinates":[6078,4091]},{"type":"Point","properties":{"Station_ID":"ME-AR-15","Station_Nam":"PRESQUE ISLE 1.3 WSW, ME","Latitude":"46.67960","Longitude":"-68.01270","Snowdepth":"23.000","Units":"in","Rept_Date":"2021-02-28 12"},"coordinates":[6859,6232]},{"type":"Point","properties":{"Station_ID":"LPLN6","Station_Nam":"LAKE PLACID 2 S","Latitude":"44.30420","Longitude":"-73.98390","Snowdepth":"23.000","Units":"in","Rept_Date":"2021-02-28 13"},"coordinates":[5458,4460]},{"type":"Point","properties":{"Station_ID":"HERM4","Station_Nam":"HERMAN,MI","Latitude":"46.65000","Longitude":"-88.33330","Snowdepth":"23.000","Units":"in","Rept_Date":"2021-02-28 13"},"coordinates":[2090,6210]},{"type":"Point","properties":{"Station_ID":"GMSM4","Station_Nam":"GRAND MARAIS 10S","Latitude":"46.50940","Longitude":"-85.96310","Snowdepth":"23.000","Units":"in","Rept_Date":"2021-02-28 12"},"coordinates":[2646,6105]},{"type":"Point","properties":{"Station_ID":"ESDN3","Station_Nam":"EAST SANDWICH","Latitude":"43.80990","Longitude":"-71.34250","Snowdepth":"23.000","Units":"in","Rept_Date":"2021-02-28 11"},"coordinates":[6078,4091]},{"type":"Point","properties":{"Station_ID":"CARM1","Station_Nam":"CARIBOU WFO","Latitude":"46.86810","Longitude":"-68.01250","Snowdepth":"23.000","Units":"in","Rept_Date":"2021-03-01 05"},"coordinates":[6859,6373]},{"type":"Point","properties":{"Station_ID":"CAR","Station_Nam":"CARIBOU, ME","Latitude":"46.86830","Longitude":"-68.01360","Snowdepth":"23.000","Units":"in","Rept_Date":"2021-02-28 12"},"coordinates":[6859,6373]},{"type":"Point","properties":{"Station_ID":"VT-WR-2","Station_Nam":"POMFRET 2.6 N, VT","Latitude":"43.74230","Longitude":"-72.52550","Snowdepth":"22.500","Units":"in","Rept_Date":"2021-02-28 12"},"coordinates":[5800,4040]},{"type":"Point","properties":{"Station_ID":"VT-WR-17","Station_Nam":"ROCHESTER 2.3 NE, VT","Latitude":"43.89418","Longitude":"-72.76992","Snowdepth":"22.000","Units":"in","Rept_Date":"2021-02-28 12"},"coordinates":[5743,4154]},{"type":"Point","properties":{"Station_ID":"PHEW3","Station_Nam":"PHELPS","Latitude":"46.06630","Longitude":"-89.07520","Snowdepth":"22.000","Units":"in","Rept_Date":"2021-02-28 13"},"coordinates":[1916,5775]},{"type":"Point","properties":{"Station_ID":"PEKN6","Station_Nam":"PECK LAKE","Latitude":"43.11500","Longitude":"-74.42360","Snowdepth":"22.000","Units":"in","Rept_Date":"2021-02-28 12"},"coordinates":[5355,3572]},{"type":"Point","properties":{"Station_ID":"MQT","Station_Nam":"MARQUETTE, MI","Latitude":"46.53140","Longitude":"-87.54920","Snowdepth":"22.000","Units":"in","Rept_Date":"2021-03-01 00"},"coordinates":[2274,6122]},{"type":"Point","properties":{"Station_ID":"JKMM1","Station_Nam":"JACKMAN","Latitude":"45.62600","Longitude":"-70.24600","Snowdepth":"22.000","Units":"in","Rept_Date":"2021-02-28 12"},"coordinates":[6335,5446]},{"type":"Point","properties":{"Station_ID":"JEFV1","Station_Nam":"JEFFERSONVILLE","Latitude":"44.58430","Longitude":"-72.78700","Snowdepth":"22.000","Units":"in","Rept_Date":"2021-02-28 12"},"coordinates":[5739,4669]},{"type":"Point","properties":{"Station_ID":"HRTM1","Station_Nam":"HARTFORD","Latitude":"44.37440","Longitude":"-70.31620","Snowdepth":"22.000","Units":"in","Rept_Date":"2021-02-28 12"},"coordinates":[6318,4512]},{"type":"Point","properties":{"Station_ID":"GNLM4","Station_Nam":"GREENLAND 6N","Latitude":"46.87360","Longitude":"-89.10060","Snowdepth":"22.000","Units":"in","Rept_Date":"2021-02-28 13"},"coordinates":[1910,6377]},{"type":"Point","properties":{"Station_ID":"CHRM4","Station_Nam":"CHARLEVOIX","Latitude":"45.31720","Longitude":"-85.26720","Snowdepth":"22.000","Units":"in","Rept_Date":"2021-02-28 13"},"coordinates":[2810,5216]},{"type":"Point","properties":{"Station_ID":"CAN-NL-65","Station_Nam":"KIPPENS 0.7 NE, CA","Latitude":"48.55436","Longitude":"-58.61850","Snowdepth":"22.000","Units":"in","Rept_Date":"2021-02-28 12"},"coordinates":[9064,7631]},{"type":"Point","properties":{"Station_ID":"CAN-NB-64","Station_Nam":"KESWICK RIDGE 4.0 SE, CAN","Latitude":"45.97014","Longitude":"-66.85538","Snowdepth":"22.000","Units":"in","Rept_Date":"2021-02-28 13"},"coordinates":[7131,5703]},{"type":"Point","properties":{"Station_ID":"OGIQ6","Station_Nam":"OGOKI CAMP","Latitude":"50.76680","Longitude":"-87.85820","Snowdepth":"21.890","Units":"in","Rept_Date":"2021-03-01 06"},"coordinates":[2202,9283]},{"type":"Point","properties":{"Station_ID":"VT-BN-7","Station_Nam":"MANCHESTER 2.8 ENE, VT","Latitude":"43.17274","Longitude":"-73.01811","Snowdepth":"21.500","Units":"in","Rept_Date":"2021-02-28 12"},"coordinates":[5684,3615]},{"type":"Point","properties":{"Station_ID":"NY-ER-166","Station_Nam":"BOSTON 2.5 NE, NY","Latitude":"42.65480","Longitude":"-78.70300","Snowdepth":"21.500","Units":"in","Rept_Date":"2021-02-28 12"},"coordinates":[4350,3229]},{"type":"Point","properties":{"Station_ID":"MI-BG-3","Station_Nam":"THREE LAKES, MI","Latitude":"46.55730","Longitude":"-88.20770","Snowdepth":"21.500","Units":"in","Rept_Date":"2021-02-28 13"},"coordinates":[2119,6141]},{"type":"Point","properties":{"Station_ID":"VT-OL-1","Station_Nam":"WESTFIELD 0.7 WNW, VT","Latitude":"44.89160","Longitude":"-72.44350","Snowdepth":"21.000","Units":"in","Rept_Date":"2021-02-28 13"},"coordinates":[5819,4898]},{"type":"Point","properties":{"Station_ID":"NY-FK-9","Station_Nam":"GABRIELS 1.3 SE, NY","Latitude":"44.41934","Longitude":"-74.16194","Snowdepth":"21.000","Units":"in","Rept_Date":"2021-02-28 12"},"coordinates":[5416,4546]},{"type":"Point","properties":{"Station_ID":"MRLV1","Station_Nam":"MARLBORO","Latitude":"42.86000","Longitude":"-72.72000","Snowdepth":"21.000","Units":"in","Rept_Date":"2021-02-28 12"},"coordinates":[5754,3382]},{"type":"Point","properties":{"Station_ID":"LVRM1","Station_Nam":"LIVERMORE FALLS 1 E","Latitude":"44.47160","Longitude":"-70.15940","Snowdepth":"21.000","Units":"in","Rept_Date":"2021-02-28 12"},"coordinates":[6355,4585]},{"type":"Point","properties":{"Station_ID":"ISLV1","Station_Nam":"ISLAND POND","Latitude":"44.81280","Longitude":"-71.89020","Snowdepth":"21.000","Units":"in","Rept_Date":"2021-02-28 13"},"coordinates":[5949,4839]},{"type":"Point","properties":{"Station_ID":"DTVM4","Station_Nam":"DETOUR VILLAGE","Latitude":"45.99830","Longitude":"-83.90130","Snowdepth":"21.000","Units":"in","Rept_Date":"2021-02-28 13"},"coordinates":[3130,5724]},{"type":"Point","properties":{"Station_ID":"BERM4","Station_Nam":"BERGLAND DAM","Latitude":"46.58690","Longitude":"-89.54750","Snowdepth":"21.000","Units":"in","Rept_Date":"2021-02-28 13"},"coordinates":[1805,6163]},{"type":"Point","properties":{"Station_ID":"MI-HG-1","Station_Nam":"HOUGHTON 1.6 ESE, MI","Latitude":"47.10774","Longitude":"-88.52940","Snowdepth":"20.500","Units":"in","Rept_Date":"2021-02-28 13"},"coordinates":[2044,6552]},{"type":"Point","properties":{"Station_ID":"QTM","Station_Nam":"QTM","Latitude":"51.05780","Longitude":"-72.57190","Snowdepth":"20.157","Units":"in","Rept_Date":"2021-02-28 12"},"coordinates":[5789,9500]},{"type":"Point","properties":{"Station_ID":"WNDP1","Station_Nam":"WINDBER COUNTY CLUB","Latitude":"40.28780","Longitude":"-78.77530","Snowdepth":"20.000","Units":"in","Rept_Date":"2021-02-28 12"},"coordinates":[4333,1462]},{"type":"Point","properties":{"Station_ID":"VT-WS-30","Station_Nam":"WOODBURY 3.4 NNW, VT","Latitude":"44.48825","Longitude":"-72.43258","Snowdepth":"20.000","Units":"in","Rept_Date":"2021-02-28 12"},"coordinates":[5822,4597]},{"type":"Point","properties":{"Station_ID":"VT-WS-23","Station_Nam":"CABOT 2.3 E, VT","Latitude":"44.39807","Longitude":"-72.26570","Snowdepth":"20.000","Units":"in","Rept_Date":"2021-02-28 12"},"coordinates":[5861,4530]},{"type":"Point","properties":{"Station_ID":"TOPM1","Station_Nam":"TOPSFIELD","Latitude":"45.43470","Longitude":"-67.72020","Snowdepth":"20.000","Units":"in","Rept_Date":"2021-02-28 12"},"coordinates":[6928,5303]},{"type":"Point","properties":{"Station_ID":"SUTV1","Station_Nam":"SUTTON","Latitude":"44.61220","Longitude":"-72.04810","Snowdepth":"20.000","Units":"in","Rept_Date":"2021-02-28 13"},"coordinates":[5912,4689]},{"type":"Point","properties":{"Station_ID":"SSMM4","Station_Nam":"SAULT STE MARIE","Latitude":"46.48660","Longitude":"-84.40250","Snowdepth":"20.000","Units":"in","Rept_Date":"2021-02-28 13"},"coordinates":[3013,6088]},{"type":"Point","properties":{"Station_ID":"OCON6","Station_Nam":"OSCEOLA","Latitude":"43.50370","Longitude":"-75.72170","Snowdepth":"20.000","Units":"in","Rept_Date":"2021-02-28 13"},"coordinates":[5050,3862]},{"type":"Point","properties":{"Station_ID":"NY-FK-7","Station_Nam":"SARANAC LAKE 6.2 N, NY","Latitude":"44.41359","Longitude":"-74.15211","Snowdepth":"20.000","Units":"in","Rept_Date":"2021-02-28 12"},"coordinates":[5418,4541]},{"type":"Point","properties":{"Station_ID":"NY-ER-65","Station_Nam":"BOSTON 1.5 NE, NY","Latitude":"42.65470","Longitude":"-78.72010","Snowdepth":"20.000","Units":"in","Rept_Date":"2021-02-28 12"},"coordinates":[4346,3229]},{"type":"Point","properties":{"Station_ID":"NH-CR-41","Station_Nam":"ALBANY 2.8 SW, NH","Latitude":"43.92648","Longitude":"-71.21556","Snowdepth":"20.000","Units":"in","Rept_Date":"2021-02-28 13"},"coordinates":[6107,4178]},{"type":"Point","properties":{"Station_ID":"NCBN6","Station_Nam":"NEWCOMB","Latitude":"43.97070","Longitude":"-74.22200","Snowdepth":"20.000","Units":"in","Rept_Date":"2021-02-28 12"},"coordinates":[5402,4211]},{"type":"Point","properties":{"Station_ID":"MWTM1","Station_Nam":"MILLINOCKET WWTP","Latitude":"45.64030","Longitude":"-68.67480","Snowdepth":"20.000","Units":"in","Rept_Date":"2021-02-28 12"},"coordinates":[6704,5457]},{"type":"Point","properties":{"Station_ID":"MI-EM-8","Station_Nam":"PETOSKEY 1.7 SSW, MI","Latitude":"45.34209","Longitude":"-84.96530","Snowdepth":"20.000","Units":"in","Rept_Date":"2021-02-28 11"},"coordinates":[2880,5234]},{"type":"Point","properties":{"Station_ID":"ME-FR-4","Station_Nam":"NEW SHARON 2.0 NW, ME","Latitude":"44.66582","Longitude":"-70.02720","Snowdepth":"20.000","Units":"in","Rept_Date":"2021-02-28 12"},"coordinates":[6386,4729]},{"type":"Point","properties":{"Station_ID":"LNCM1","Station_Nam":"LINCOLN WATER DISTRICT","Latitude":"45.32410","Longitude":"-68.58300","Snowdepth":"20.000","Units":"in","Rept_Date":"2021-02-28 13"},"coordinates":[6725,5221]},{"type":"Point","properties":{"Station_ID":"KINM1","Station_Nam":"KINGFIELD","Latitude":"44.95950","Longitude":"-70.17530","Snowdepth":"20.000","Units":"in","Rept_Date":"2021-02-28 13"},"coordinates":[6352,4949]},{"type":"Point","properties":{"Station_ID":"IWOM4","Station_Nam":"IRONWOOD#2","Latitude":"46.46520","Longitude":"-90.13820","Snowdepth":"20.000","Units":"in","Rept_Date":"2021-02-28 13"},"coordinates":[1666,6072]},{"type":"Point","properties":{"Station_ID":"HUBN3","Station_Nam":"HUBBARD BROOK","Latitude":"43.93330","Longitude":"-71.71670","Snowdepth":"20.000","Units":"in","Rept_Date":"2021-03-01 06"},"coordinates":[5990,4183]},{"type":"Point","properties":{"Station_ID":"FARM1","Station_Nam":"FARMINGTON","Latitude":"44.68930","Longitude":"-70.15640","Snowdepth":"20.000","Units":"in","Rept_Date":"2021-02-28 12"},"coordinates":[6356,4747]},{"type":"Point","properties":{"Station_ID":"ANJM4","Station_Nam":"SNOW PAID OBSERVER FOR KANJ","Latitude":"46.48670","Longitude":"-84.40260","Snowdepth":"20.000","Units":"in","Rept_Date":"2021-03-01 00"},"coordinates":[3013,6088]},{"type":"Point","properties":{"Station_ID":"ANJ","Station_Nam":"SAULT STE MARIE","Latitude":"46.46670","Longitude":"-84.36670","Snowdepth":"20.000","Units":"in","Rept_Date":"2021-03-01 00"},"coordinates":[3021,6073]},{"type":"Point","properties":{"Station_ID":"QGA","Station_Nam":"QGA","Latitude":"47.25640","Longitude":"-73.73810","Snowdepth":"19.961","Units":"in","Rept_Date":"2021-02-28 12"},"coordinates":[5515,6663]},{"type":"Point","properties":{"Station_ID":"SOCQ6","Station_Nam":"SOCKET LAKE","Latitude":"50.77870","Longitude":"-91.79300","Snowdepth":"19.720","Units":"in","Rept_Date":"2021-03-01 06"},"coordinates":[1278,9291]},{"type":"Point","properties":{"Station_ID":"NY-ES-6","Station_Nam":"OLMSTEDVILLE 4.6 NNE, NY","Latitude":"43.83350","Longitude":"-73.89780","Snowdepth":"19.500","Units":"in","Rept_Date":"2021-02-28 13"},"coordinates":[5478,4108]},{"type":"Point","properties":{"Station_ID":"MA-HS-7","Station_Nam":"PLAINFIELD 2.2 SW, MA","Latitude":"42.49272","Longitude":"-72.94540","Snowdepth":"19.500","Units":"in","Rept_Date":"2021-02-28 13"},"coordinates":[5701,3108]},{"type":"Point","properties":{"Station_ID":"QOU","Station_Nam":"QOU","Latitude":"50.79250","Longitude":"-69.67470","Snowdepth":"19.488","Units":"in","Rept_Date":"2021-02-28 12"},"coordinates":[6469,9302]},{"type":"Point","properties":{"Station_ID":"CAN-NB-98","Station_Nam":"HOYT 4.2 S, CAN","Latitude":"45.54763","Longitude":"-66.55440","Snowdepth":"19.300","Units":"in","Rept_Date":"2021-02-28 11"},"coordinates":[7201,5388]},{"type":"Point","properties":{"Station_ID":"RGNM1","Station_Nam":"RANGELEY 2NW","Latitude":"44.98940","Longitude":"-70.67220","Snowdepth":"19.000","Units":"in","Rept_Date":"2021-02-28 15"},"coordinates":[6235,4971]},{"type":"Point","properties":{"Station_ID":"RANM1","Station_Nam":"RANGELEY","Latitude":"44.98910","Longitude":"-70.67190","Snowdepth":"19.000","Units":"in","Rept_Date":"2021-02-28 14"},"coordinates":[6235,4971]},{"type":"Point","properties":{"Station_ID":"NY-ER-56","Station_Nam":"COLDEN 1.4 NNW, NY","Latitude":"42.64740","Longitude":"-78.71120","Snowdepth":"19.000","Units":"in","Rept_Date":"2021-02-28 12"},"coordinates":[4348,3223]},{"type":"Point","properties":{"Station_ID":"NWSM1","Station_Nam":"NEW SHARON","Latitude":"44.63520","Longitude":"-70.00020","Snowdepth":"19.000","Units":"in","Rept_Date":"2021-02-28 12"},"coordinates":[6393,4707]},{"type":"Point","properties":{"Station_ID":"NH-MR-41","Station_Nam":"NEWBURY 1.6 NW, NH","Latitude":"43.33667","Longitude":"-72.06060","Snowdepth":"19.000","Units":"in","Rept_Date":"2021-02-28 12"},"coordinates":[5909,3738]},{"type":"Point","properties":{"Station_ID":"NH-CR-11","Station_Nam":"NORTH CONWAY 1.4 SSW, NH","Latitude":"44.03556","Longitude":"-71.14010","Snowdepth":"19.000","Units":"in","Rept_Date":"2021-02-28 12"},"coordinates":[6125,4259]},{"type":"Point","properties":{"Station_ID":"MI-SH-1","Station_Nam":"MANISTIQUE 2.7 NW, MI","Latitude":"45.99042","Longitude":"-86.28266","Snowdepth":"19.000","Units":"in","Rept_Date":"2021-02-28 11"},"coordinates":[2571,5718]},{"type":"Point","properties":{"Station_ID":"MI-CP-14","Station_Nam":"SAULT STE. MARIE 2.2 E, MI","Latitude":"46.48933","Longitude":"-84.31971","Snowdepth":"19.000","Units":"in","Rept_Date":"2021-02-28 13"},"coordinates":[3032,6090]},{"type":"Point","properties":{"Station_ID":"ESGM1","Station_Nam":"EAST SANGERVILLE","Latitude":"45.13690","Longitude":"-69.28060","Snowdepth":"19.000","Units":"in","Rept_Date":"2021-02-28 12"},"coordinates":[6562,5081]},{"type":"Point","properties":{"Station_ID":"EHYM3","Station_Nam":"EAST HAWLEY","Latitude":"42.57410","Longitude":"-72.86790","Snowdepth":"19.000","Units":"in","Rept_Date":"2021-02-28 13"},"coordinates":[5720,3168]},{"type":"Point","properties":{"Station_ID":"CODN6","Station_Nam":"COLDEN","Latitude":"42.64720","Longitude":"-78.71110","Snowdepth":"19.000","Units":"in","Rept_Date":"2021-02-28 12"},"coordinates":[4348,3223]},{"type":"Point","properties":{"Station_ID":"BETM1","Station_Nam":"BETHEL 6 SSE","Latitude":"44.32000","Longitude":"-70.75680","Snowdepth":"19.000","Units":"in","Rept_Date":"2021-02-28 12"},"coordinates":[6215,4471]},{"type":"Point","properties":{"Station_ID":"QLP","Station_Nam":"QLP","Latitude":"48.13920","Longitude":"-72.63830","Snowdepth":"18.976","Units":"in","Rept_Date":"2021-02-28 12"},"coordinates":[5774,7322]},{"type":"Point","properties":{"Station_ID":"CAN-ON-92","Station_Nam":"DUNROBIN 1.9 W - MVCA, CAN","Latitude":"45.42318","Longitude":"-76.04525","Snowdepth":"18.700","Units":"in","Rept_Date":"2021-02-28 12"},"coordinates":[4974,5295]},{"type":"Point","properties":{"Station_ID":"VT-WS-7","Station_Nam":"MIDDLESEX 3.1 ENE, VT","Latitude":"44.31799","Longitude":"-72.62650","Snowdepth":"18.500","Units":"in","Rept_Date":"2021-02-28 14"},"coordinates":[5776,4470]},{"type":"Point","properties":{"Station_ID":"QCO","Station_Nam":"QCO","Latitude":"51.45280","Longitude":"-72.20110","Snowdepth":"18.346","Units":"in","Rept_Date":"2021-02-28 12"},"coordinates":[5876,9794]},{"type":"Point","properties":{"Station_ID":"CAN-ON-757","Station_Nam":"SAULT STE. MARIE 2.8 ESE - GLFC, CAN","Latitude":"46.50300","Longitude":"-84.30300","Snowdepth":"18.300","Units":"in","Rept_Date":"2021-02-28 13"},"coordinates":[3036,6101]},{"type":"Point","properties":{"Station_ID":"WORV1","Station_Nam":"WORCESTER 2 W","Latitude":"44.37470","Longitude":"-72.58220","Snowdepth":"18.000","Units":"in","Rept_Date":"2021-02-28 12"},"coordinates":[5787,4512]},{"type":"Point","properties":{"Station_ID":"WLFM5","Station_Nam":"WOLF RIDGE ENVIRON LEARNING CENTER","Latitude":"47.38240","Longitude":"-91.19730","Snowdepth":"18.000","Units":"in","Rept_Date":"2021-02-28 13"},"coordinates":[1418,6757]},{"type":"Point","properties":{"Station_ID":"WELM4","Station_Nam":"WELLSTON TIPPY DAM","Latitude":"44.25860","Longitude":"-85.93940","Snowdepth":"18.000","Units":"in","Rept_Date":"2021-02-28 13"},"coordinates":[2652,4426]},{"type":"Point","properties":{"Station_ID":"WAIV1","Station_Nam":"WAITSFIELD","Latitude":"44.17560","Longitude":"-72.79610","Snowdepth":"18.000","Units":"in","Rept_Date":"2021-02-28 12"},"coordinates":[5736,4364]},{"type":"Point","properties":{"Station_ID":"VT-WS-33","Station_Nam":"WAITSFIELD 3.5 WNW, VT","Latitude":"44.20052","Longitude":"-72.89421","Snowdepth":"18.000","Units":"in","Rept_Date":"2021-02-28 13"},"coordinates":[5713,4382]},{"type":"Point","properties":{"Station_ID":"VT-WS-19","Station_Nam":"WATERBURY 3.0 NW, VT","Latitude":"44.36060","Longitude":"-72.80770","Snowdepth":"18.000","Units":"in","Rept_Date":"2021-02-28 11"},"coordinates":[5734,4502]},{"type":"Point","properties":{"Station_ID":"VT-WS-11","Station_Nam":"WAITSFIELD 1.8 SE, VT","Latitude":"44.17551","Longitude":"-72.79540","Snowdepth":"18.000","Units":"in","Rept_Date":"2021-02-28 12"},"coordinates":[5737,4364]},{"type":"Point","properties":{"Station_ID":"VT-WR-10","Station_Nam":"WEST WINDSOR 1.7 S, VT","Latitude":"43.46164","Longitude":"-72.49197","Snowdepth":"18.000","Units":"in","Rept_Date":"2021-02-28 12"},"coordinates":[5808,3831]},{"type":"Point","properties":{"Station_ID":"VT-ES-3","Station_Nam":"LUNENBURG 2.3 NNW, VT","Latitude":"44.49324","Longitude":"-71.70446","Snowdepth":"18.000","Units":"in","Rept_Date":"2021-02-28 12"},"coordinates":[5993,4601]},{"type":"Point","properties":{"Station_ID":"TMWN3","Station_Nam":"TAMWORTH 4","Latitude":"43.86390","Longitude":"-71.26610","Snowdepth":"18.000","Units":"in","Rept_Date":"2021-02-28 12"},"coordinates":[6096,4131]},{"type":"Point","properties":{"Station_ID":"NH-CR-27","Station_Nam":"TAMWORTH 0.4 NNW, NH","Latitude":"43.86449","Longitude":"-71.26610","Snowdepth":"18.000","Units":"in","Rept_Date":"2021-02-28 12"},"coordinates":[6096,4131]},{"type":"Point","properties":{"Station_ID":"MIEM4","Station_Nam":"MICHIGAMME 3WNW","Latitude":"46.54530","Longitude":"-88.18000","Snowdepth":"18.000","Units":"in","Rept_Date":"2021-02-28 13"},"coordinates":[2126,6132]},{"type":"Point","properties":{"Station_ID":"ME-OX-34","Station_Nam":"ANDOVER 3.8 W, ME","Latitude":"44.64156","Longitude":"-70.82782","Snowdepth":"18.000","Units":"in","Rept_Date":"2021-02-28 12"},"coordinates":[6198,4711]},{"type":"Point","properties":{"Station_ID":"ME-OX-26","Station_Nam":"OXFORD 5.3 SW, ME","Latitude":"44.09787","Longitude":"-70.59612","Snowdepth":"18.000","Units":"in","Rept_Date":"2021-02-28 12"},"coordinates":[6253,4306]},{"type":"Point","properties":{"Station_ID":"MALN6","Station_Nam":"MALONE","Latitude":"44.84180","Longitude":"-74.30600","Snowdepth":"18.000","Units":"in","Rept_Date":"2021-02-28 12"},"coordinates":[5382,4861]},{"type":"Point","properties":{"Station_ID":"INDN6","Station_Nam":"INDIAN LAKE","Latitude":"43.75500","Longitude":"-74.27560","Snowdepth":"18.000","Units":"in","Rept_Date":"2021-02-28 13"},"coordinates":[5389,4050]},{"type":"Point","properties":{"Station_ID":"CLKM4","Station_Nam":"CLARKSBURG","Latitude":"46.49910","Longitude":"-87.84500","Snowdepth":"18.000","Units":"in","Rept_Date":"2021-02-28 12"},"coordinates":[2205,6098]},{"type":"Point","properties":{"Station_ID":"CAN-NB-1","Station_Nam":"FREDERICTON 4.0 SSE, CA","Latitude":"45.92897","Longitude":"-66.62830","Snowdepth":"17.700","Units":"in","Rept_Date":"2021-02-28 12"},"coordinates":[7184,5672]},{"type":"Point","properties":{"Station_ID":"SVBQ6","Station_Nam":"SAVANT BASE","Latitude":"50.28730","Longitude":"-90.65670","Snowdepth":"17.600","Units":"in","Rept_Date":"2021-03-01 06"},"coordinates":[1545,8925]},{"type":"Point","properties":{"Station_ID":"VT-WS-10","Station_Nam":"NORTHFIELD 1.5 N, VT","Latitude":"44.16986","Longitude":"-72.65200","Snowdepth":"17.500","Units":"in","Rept_Date":"2021-02-28 12"},"coordinates":[5770,4359]},{"type":"Point","properties":{"Station_ID":"NY-OT-29","Station_Nam":"NEW BERLIN 1.5 NE, NY","Latitude":"42.63689","Longitude":"-75.31090","Snowdepth":"17.500","Units":"in","Rept_Date":"2021-02-28 13"},"coordinates":[5146,3215]},{"type":"Point","properties":{"Station_ID":"NH-CS-19","Station_Nam":"CARROLL 4.6 NE, NH","Latitude":"44.33765","Longitude":"-71.46461","Snowdepth":"17.500","Units":"in","Rept_Date":"2021-02-28 12"},"coordinates":[6049,4485]},{"type":"Point","properties":{"Station_ID":"NH-CR-46","Station_Nam":"NORTH CONWAY 1.8 SSE, NH","Latitude":"44.02955","Longitude":"-71.11664","Snowdepth":"17.500","Units":"in","Rept_Date":"2021-02-28 14"},"coordinates":[6131,4255]},{"type":"Point","properties":{"Station_ID":"MI-MQ-28","Station_Nam":"CARLSHEND, MI","Latitude":"46.31638","Longitude":"-87.19944","Snowdepth":"17.500","Units":"in","Rept_Date":"2021-02-28 13"},"coordinates":[2356,5961]},{"type":"Point","properties":{"Station_ID":"WTNM4","Station_Nam":"WATTON 2WSW","Latitude":"46.52660","Longitude":"-88.64240","Snowdepth":"17.000","Units":"in","Rept_Date":"2021-02-28 13"},"coordinates":[2017,6118]},{"type":"Point","properties":{"Station_ID":"WI-VL-9","Station_Nam":"LAND O' LAKES 11.7 W, WI","Latitude":"46.19023","Longitude":"-89.45790","Snowdepth":"17.000","Units":"in","Rept_Date":"2021-02-28 13"},"coordinates":[1826,5867]},{"type":"Point","properties":{"Station_ID":"VANM1","Station_Nam":"VAN BUREN","Latitude":"47.16600","Longitude":"-67.93900","Snowdepth":"17.000","Units":"in","Rept_Date":"2021-02-28 12"},"coordinates":[6876,6595]},{"type":"Point","properties":{"Station_ID":"TURM1","Station_Nam":"TURNER","Latitude":"44.28220","Longitude":"-70.25610","Snowdepth":"17.000","Units":"in","Rept_Date":"2021-02-28 12"},"coordinates":[6333,4443]},{"type":"Point","properties":{"Station_ID":"RKHN6","Station_Nam":"ROCK HILL 3 SW","Latitude":"41.59170","Longitude":"-74.61410","Snowdepth":"17.000","Units":"in","Rept_Date":"2021-02-28 12"},"coordinates":[5310,2435]},{"type":"Point","properties":{"Station_ID":"PLEP1","Station_Nam":"PLEASANT MOUNT 1 W","Latitude":"41.73940","Longitude":"-75.44650","Snowdepth":"17.000","Units":"in","Rept_Date":"2021-02-28 15"},"coordinates":[5114,2546]},{"type":"Point","properties":{"Station_ID":"PA-MN-16","Station_Nam":"MOUNT POCONO 0.7 N, PA","Latitude":"41.13190","Longitude":"-75.35804","Snowdepth":"17.000","Units":"in","Rept_Date":"2021-02-28 12"},"coordinates":[5135,2092]},{"type":"Point","properties":{"Station_ID":"NH-MR-60","Station_Nam":"SOUTH SUTTON 1.3 SE, NH","Latitude":"43.29531","Longitude":"-71.90238","Snowdepth":"17.000","Units":"in","Rept_Date":"2021-02-28 13"},"coordinates":[5946,3707]},{"type":"Point","properties":{"Station_ID":"NFKC3","Station_Nam":"NORFOLK","Latitude":"41.97250","Longitude":"-73.22080","Snowdepth":"17.000","Units":"in","Rept_Date":"2021-02-28 13"},"coordinates":[5637,2720]},{"type":"Point","properties":{"Station_ID":"MSRN3","Station_Nam":"MASCOMA RIVER","Latitude":"43.78330","Longitude":"-72.03330","Snowdepth":"17.000","Units":"in","Rept_Date":"2021-03-01 06"},"coordinates":[5916,4071]},{"type":"Point","properties":{"Station_ID":"LNOW3","Station_Nam":"LAND O LAKES","Latitude":"46.19000","Longitude":"-89.45700","Snowdepth":"17.000","Units":"in","Rept_Date":"2021-02-28 13"},"coordinates":[1826,5867]},{"type":"Point","properties":{"Station_ID":"HURW3","Station_Nam":"HURLEY","Latitude":"46.46250","Longitude":"-90.19550","Snowdepth":"17.000","Units":"in","Rept_Date":"2021-02-28 14"},"coordinates":[1653,6070]},{"type":"Point","properties":{"Station_ID":"CAN-NB-6","Station_Nam":"FREDERICTON 5.1 SSE, CAN","Latitude":"45.91895","Longitude":"-66.62685","Snowdepth":"16.900","Units":"in","Rept_Date":"2021-02-28 12"},"coordinates":[7184,5665]},{"type":"Point","properties":{"Station_ID":"QTV","Station_Nam":"QTV","Latitude":"49.66000","Longitude":"-69.35690","Snowdepth":"16.811","Units":"in","Rept_Date":"2021-02-28 12"},"coordinates":[6544,8457]},{"type":"Point","properties":{"Station_ID":"KABQ6","Station_Nam":"CAB LAKE","Latitude":"49.59950","Longitude":"-89.17990","Snowdepth":"16.570","Units":"in","Rept_Date":"2021-03-01 05"},"coordinates":[1891,8411]},{"type":"Point","properties":{"Station_ID":"NY-DL-23","Station_Nam":"LONG EDDY 6.5 NNE, NY","Latitude":"41.93510","Longitude":"-75.07840","Snowdepth":"16.500","Units":"in","Rept_Date":"2021-02-28 13"},"coordinates":[5201,2692]},{"type":"Point","properties":{"Station_ID":"NH-GR-49","Station_Nam":"PLYMOUTH 3.7 N, NH","Latitude":"43.79048","Longitude":"-71.68413","Snowdepth":"16.500","Units":"in","Rept_Date":"2021-02-28 12"},"coordinates":[5997,4076]},{"type":"Point","properties":{"Station_ID":"CAN-PE-7","Station_Nam":"MORELL 1.4 NNW, CA","Latitude":"46.42741","Longitude":"-62.70870","Snowdepth":"16.500","Units":"in","Rept_Date":"2021-02-28 12"},"coordinates":[8104,6044]},{"type":"Point","properties":{"Station_ID":"CAN-PE-19","Station_Nam":"CHARLOTTETOWN 6.5 NNW, CAN","Latitude":"46.29235","Longitude":"-63.17271","Snowdepth":"16.100","Units":"in","Rept_Date":"2021-02-28 12"},"coordinates":[7995,5943]},{"type":"Point","properties":{"Station_ID":"QLI","Station_Nam":"QLI","Latitude":"50.27080","Longitude":"-73.92280","Snowdepth":"16.024","Units":"in","Rept_Date":"2021-02-28 12"},"coordinates":[5472,8912]},{"type":"Point","properties":{"Station_ID":"WI-RC-3","Station_Nam":"RACINE 2.3 WSW, WI","Latitude":"42.71124","Longitude":"-87.84570","Snowdepth":"16.000","Units":"in","Rept_Date":"2021-02-28 13"},"coordinates":[2204,3271]},{"type":"Point","properties":{"Station_ID":"WI-PR-2","Station_Nam":"BUTTERNUT 5.9 SW, WI","Latitude":"45.96501","Longitude":"-90.59750","Snowdepth":"16.000","Units":"in","Rept_Date":"2021-02-28 12"},"coordinates":[1559,5699]},{"type":"Point","properties":{"Station_ID":"WI-IR-3","Station_Nam":"PENCE 0.1 E, WI","Latitude":"46.41555","Longitude":"-90.27013","Snowdepth":"16.000","Units":"in","Rept_Date":"2021-02-28 13"},"coordinates":[1635,6035]},{"type":"Point","properties":{"Station_ID":"VT-WH-19","Station_Nam":"EAST DOVER 1.8 N, VT","Latitude":"42.97658","Longitude":"-72.77637","Snowdepth":"16.000","Units":"in","Rept_Date":"2021-02-28 13"},"coordinates":[5741,3469]},{"type":"Point","properties":{"Station_ID":"VT-CL-18","Station_Nam":"WHEELOCK 1.6 S, VT","Latitude":"44.56491","Longitude":"-72.08830","Snowdepth":"16.000","Units":"in","Rept_Date":"2021-02-28 12"},"coordinates":[5903,4654]},{"type":"Point","properties":{"Station_ID":"VT-CH-4","Station_Nam":"UNDERHILL 4.4 NNE, VT","Latitude":"44.58774","Longitude":"-72.92250","Snowdepth":"16.000","Units":"in","Rept_Date":"2021-02-28 12"},"coordinates":[5707,4671]},{"type":"Point","properties":{"Station_ID":"TOPN6","Station_Nam":"TUPPER LAKE SUNMOUNT","Latitude":"44.23070","Longitude":"-74.43820","Snowdepth":"16.000","Units":"in","Rept_Date":"2021-02-28 12"},"coordinates":[5351,4405]},{"type":"Point","properties":{"Station_ID":"SUAW3","Station_Nam":"SUAMICO","Latitude":"44.60190","Longitude":"-88.09780","Snowdepth":"16.000","Units":"in","Rept_Date":"2021-02-28 12"},"coordinates":[2145,4682]},{"type":"Point","properties":{"Station_ID":"SLNV1","Station_Nam":"SOUTH LINCOLN","Latitude":"44.07460","Longitude":"-72.97180","Snowdepth":"16.000","Units":"in","Rept_Date":"2021-02-28 12"},"coordinates":[5695,4288]},{"type":"Point","properties":{"Station_ID":"NY-ER-63","Station_Nam":"GLENWOOD 1.5 SE, NY","Latitude":"42.60195","Longitude":"-78.63910","Snowdepth":"16.000","Units":"in","Rept_Date":"2021-02-28 13"},"coordinates":[4365,3189]},{"type":"Point","properties":{"Station_ID":"NUNV1","Station_Nam":"NORTH UNDERHILL","Latitude":"44.58760","Longitude":"-72.92150","Snowdepth":"16.000","Units":"in","Rept_Date":"2021-02-28 12"},"coordinates":[5707,4671]},{"type":"Point","properties":{"Station_ID":"MI-AG-6","Station_Nam":"MUNISING 11.1 SSW, MI","Latitude":"46.27805","Longitude":"-86.75747","Snowdepth":"16.000","Units":"in","Rept_Date":"2021-02-28 12"},"coordinates":[2460,5933]},{"type":"Point","properties":{"Station_ID":"LOWN6","Station_Nam":"LOWVILLE","Latitude":"43.79280","Longitude":"-75.48290","Snowdepth":"16.000","Units":"in","Rept_Date":"2021-02-28 12"},"coordinates":[5106,4078]},{"type":"Point","properties":{"Station_ID":"LILM1","Station_Nam":"LILLE","Latitude":"47.27770","Longitude":"-68.10520","Snowdepth":"16.000","Units":"in","Rept_Date":"2021-02-28 12"},"coordinates":[6837,6679]},{"type":"Point","properties":{"Station_ID":"JCBM4","Station_Nam":"JACOBSVILLE","Latitude":"47.00830","Longitude":"-88.43180","Snowdepth":"16.000","Units":"in","Rept_Date":"2021-02-28 12"},"coordinates":[2067,6478]},{"type":"Point","properties":{"Station_ID":"EAHV1","Station_Nam":"EAST HAVEN","Latitude":"44.64250","Longitude":"-71.89120","Snowdepth":"16.000","Units":"in","Rept_Date":"2021-02-28 12"},"coordinates":[5949,4712]},{"type":"Point","properties":{"Station_ID":"CORV1","Station_Nam":"CORINTH","Latitude":"44.00690","Longitude":"-72.31940","Snowdepth":"16.000","Units":"in","Rept_Date":"2021-02-28 12"},"coordinates":[5848,4238]},{"type":"Point","properties":{"Station_ID":"BRUM5","Station_Nam":"BRUNO,MN","Latitude":"46.28330","Longitude":"-92.50000","Snowdepth":"16.000","Units":"in","Rept_Date":"2021-02-28 14"},"coordinates":[1112,5937]},{"type":"Point","properties":{"Station_ID":"BKBW2","Station_Nam":"DAVIS.","Latitude":"39.09830","Longitude":"-79.43190","Snowdepth":"16.000","Units":"in","Rept_Date":"2021-02-28 12"},"coordinates":[4179,575]},{"type":"Point","properties":{"Station_ID":"CAN-PE-20","Station_Nam":"BONSHAW 6.6 NNE, CAN","Latitude":"46.25082","Longitude":"-63.33409","Snowdepth":"15.700","Units":"in","Rept_Date":"2021-02-28 12"},"coordinates":[7957,5912]},{"type":"Point","properties":{"Station_ID":"CAN-NL-81","Station_Nam":"GRAND FALLS-WINDSOR 1.2 S, CAN","Latitude":"48.93123","Longitude":"-55.65333","Snowdepth":"15.700","Units":"in","Rept_Date":"2021-02-28 11"},"coordinates":[9760,7913]},{"type":"Point","properties":{"Station_ID":"QMD","Station_Nam":"QMD","Latitude":"49.29060","Longitude":"-75.84500","Snowdepth":"15.669","Units":"in","Rept_Date":"2021-02-28 12"},"coordinates":[5021,8181]},{"type":"Point","properties":{"Station_ID":"WI-WB-2","Station_Nam":"STONE LAKE 2.0 NW, WI","Latitude":"45.85960","Longitude":"-91.57710","Snowdepth":"15.500","Units":"in","Rept_Date":"2021-02-28 13"},"coordinates":[1329,5620]},{"type":"Point","properties":{"Station_ID":"WI-IR-2","Station_Nam":"MERCER 2.0 SE, WI","Latitude":"46.14749","Longitude":"-90.03097","Snowdepth":"15.500","Units":"in","Rept_Date":"2021-02-28 13"},"coordinates":[1692,5835]},{"type":"Point","properties":{"Station_ID":"VT-CL-14","Station_Nam":"LYNDONVILLE 1.1 W, VT","Latitude":"44.53582","Longitude":"-72.02867","Snowdepth":"15.500","Units":"in","Rept_Date":"2021-02-28 12"},"coordinates":[5917,4632]},{"type":"Point","properties":{"Station_ID":"CAN-ON-5","Station_Nam":"OWEN SOUND 1.5 NW - GSCA, CAN","Latitude":"44.57837","Longitude":"-80.95461","Snowdepth":"15.500","Units":"in","Rept_Date":"2021-02-28 13"},"coordinates":[3822,4664]},{"type":"Point","properties":{"Station_ID":"WI-PR-8","Station_Nam":"PHILLIPS 0.4 SSW, WI","Latitude":"45.69086","Longitude":"-90.40200","Snowdepth":"15.000","Units":"in","Rept_Date":"2021-02-28 13"},"coordinates":[1605,5494]},{"type":"Point","properties":{"Station_ID":"WI-PR-6","Station_Nam":"PHILLIPS 1.3 S, WI","Latitude":"45.67677","Longitude":"-90.39543","Snowdepth":"15.000","Units":"in","Rept_Date":"2021-02-28 12"},"coordinates":[1606,5484]},{"type":"Point","properties":{"Station_ID":"STMM4","Station_Nam":"STAMBAUGH 2SSE","Latitude":"46.05550","Longitude":"-88.62780","Snowdepth":"15.000","Units":"in","Rept_Date":"2021-02-28 13"},"coordinates":[2021,5767]},{"type":"Point","properties":{"Station_ID":"SPRP1","Station_Nam":"SPRINGTOWN 1 NNE","Latitude":"40.57110","Longitude":"-75.27810","Snowdepth":"15.000","Units":"in","Rept_Date":"2021-02-28 12"},"coordinates":[5154,1674]},{"type":"Point","properties":{"Station_ID":"RLKW3","Station_Nam":"REST LAKE","Latitude":"46.12220","Longitude":"-89.87720","Snowdepth":"15.000","Units":"in","Rept_Date":"2021-02-28 13"},"coordinates":[1728,5816]},{"type":"Point","properties":{"Station_ID":"PA-PK-22","Station_Nam":"MILFORD 8.7 NW, PA","Latitude":"41.42018","Longitude":"-74.90953","Snowdepth":"15.000","Units":"in","Rept_Date":"2021-02-28 12"},"coordinates":[5240,2307]},{"type":"Point","properties":{"Station_ID":"NY-SL-6","Station_Nam":"HANNAWA FALLS 0.1 SW, NY","Latitude":"44.61154","Longitude":"-74.97190","Snowdepth":"15.000","Units":"in","Rept_Date":"2021-02-28 12"},"coordinates":[5226,4689]},{"type":"Point","properties":{"Station_ID":"NY-CR-5","Station_Nam":"MARATHON 1.0 NW, NY","Latitude":"42.45161","Longitude":"-76.04370","Snowdepth":"15.000","Units":"in","Rept_Date":"2021-02-28 12"},"coordinates":[4974,3077]},{"type":"Point","properties":{"Station_ID":"NPTV1","Station_Nam":"NEWPORT","Latitude":"44.94900","Longitude":"-72.19120","Snowdepth":"15.000","Units":"in","Rept_Date":"2021-02-28 12"},"coordinates":[5878,4941]},{"type":"Point","properties":{"Station_ID":"NJ-SS-54","Station_Nam":"SPARTA TWP 3.6 SSW, NJ","Latitude":"41.00503","Longitude":"-74.66358","Snowdepth":"15.000","Units":"in","Rept_Date":"2021-02-28 12"},"coordinates":[5298,1998]},{"type":"Point","properties":{"Station_ID":"IRMM4","Station_Nam":"WWTP","Latitude":"46.46670","Longitude":"-90.18330","Snowdepth":"15.000","Units":"in","Rept_Date":"2021-02-28 13"},"coordinates":[1656,6073]},{"type":"Point","properties":{"Station_ID":"COUW3","Station_Nam":"COUDERAY,WI","Latitude":"45.86670","Longitude":"-91.45000","Snowdepth":"15.000","Units":"in","Rept_Date":"2021-02-28 22"},"coordinates":[1359,5626]},{"type":"Point","properties":{"Station_ID":"CAN-QC-57","Station_Nam":"ACTON VALE 1.3 N, CAN","Latitude":"45.65868","Longitude":"-72.56645","Snowdepth":"15.000","Units":"in","Rept_Date":"2021-02-28 13"},"coordinates":[5790,5470]},{"type":"Point","properties":{"Station_ID":"BRLN3","Station_Nam":"BERLIN","Latitude":"44.45350","Longitude":"-71.18540","Snowdepth":"15.000","Units":"in","Rept_Date":"2021-02-28 15"},"coordinates":[6115,4571]},{"type":"Point","properties":{"Station_ID":"CAN-PE-47","Station_Nam":"LONG CREEK 0.3 NNW, CAN","Latitude":"46.17420","Longitude":"-63.27320","Snowdepth":"14.600","Units":"in","Rept_Date":"2021-02-28 12"},"coordinates":[7971,5855]},{"type":"Point","properties":{"Station_ID":"CAN-ON-526","Station_Nam":"HILTON BEACH 0.7 SW - MNRF, CAN","Latitude":"46.25357","Longitude":"-83.90014","Snowdepth":"14.600","Units":"in","Rept_Date":"2021-02-28 12"},"coordinates":[3130,5914]},{"type":"Point","properties":{"Station_ID":"CATQ6","Station_Nam":"CAT LAKE","Latitude":"51.72690","Longitude":"-91.82210","Snowdepth":"14.570","Units":"in","Rept_Date":"2021-03-01 05"},"coordinates":[1271,9999]},{"type":"Point","properties":{"Station_ID":"VT-FR-21","Station_Nam":"FAIRFAX 4.9 WNW, VT","Latitude":"44.68880","Longitude":"-73.10340","Snowdepth":"14.500","Units":"in","Rept_Date":"2021-02-28 14"},"coordinates":[5664,4747]},{"type":"Point","properties":{"Station_ID":"CAN-PE-3","Station_Nam":"WELLINGTON 1.6 NE, CA","Latitude":"46.46672","Longitude":"-63.98920","Snowdepth":"14.500","Units":"in","Rept_Date":"2021-02-28 11"},"coordinates":[7803,6073]},{"type":"Point","properties":{"Station_ID":"CAN-NB-16","Station_Nam":"DORCHESTER 1.0 SSE, CAN","Latitude":"45.89160","Longitude":"-64.51269","Snowdepth":"14.300","Units":"in","Rept_Date":"2021-02-28 11"},"coordinates":[7681,5644]},{"type":"Point","properties":{"Station_ID":"QMA","Station_Nam":"QMA","Latitude":"50.10330","Longitude":"-70.47190","Snowdepth":"14.134","Units":"in","Rept_Date":"2021-02-28 12"},"coordinates":[6282,8787]},{"type":"Point","properties":{"Station_ID":"QLM","Station_Nam":"QLM","Latitude":"48.92030","Longitude":"-70.25280","Snowdepth":"14.094","Units":"in","Rept_Date":"2021-02-28 12"},"coordinates":[6333,7905]},{"type":"Point","properties":{"Station_ID":"WRSN6","Station_Nam":"WARSAW 6SW","Latitude":"42.68550","Longitude":"-78.22020","Snowdepth":"14.000","Units":"in","Rept_Date":"2021-02-28 13"},"coordinates":[4463,3252]},{"type":"Point","properties":{"Station_ID":"WI-BY-29","Station_Nam":"BAYFIELD 5.1 NNW, WI","Latitude":"46.88063","Longitude":"-90.85854","Snowdepth":"14.000","Units":"in","Rept_Date":"2021-02-28 13"},"coordinates":[1497,6382]},{"type":"Point","properties":{"Station_ID":"WDSV1","Station_Nam":"WOODSTOCK","Latitude":"43.63030","Longitude":"-72.50720","Snowdepth":"14.000","Units":"in","Rept_Date":"2021-02-28 13"},"coordinates":[5804,3957]},{"type":"Point","properties":{"Station_ID":"VT-CH-7","Station_Nam":"HUNTINGTON 1.1 E, VT","Latitude":"44.32488","Longitude":"-72.96570","Snowdepth":"14.000","Units":"in","Rept_Date":"2021-02-28 12"},"coordinates":[5697,4475]},{"type":"Point","properties":{"Station_ID":"RHRW3","Station_Nam":"RHINELANDER WJFW TV-12","Latitude":"45.62220","Longitude":"-89.41000","Snowdepth":"14.000","Units":"in","Rept_Date":"2021-03-01 04"},"coordinates":[1837,5443]},{"type":"Point","properties":{"Station_ID":"PRDM4","Station_Nam":"PARADISE","Latitude":"46.60380","Longitude":"-85.03960","Snowdepth":"14.000","Units":"in","Rept_Date":"2021-02-28 11"},"coordinates":[2863,6176]},{"type":"Point","properties":{"Station_ID":"POLM1","Station_Nam":"POLAND","Latitude":"44.00700","Longitude":"-70.36140","Snowdepth":"14.000","Units":"in","Rept_Date":"2021-02-28 12"},"coordinates":[6308,4238]},{"type":"Point","properties":{"Station_ID":"PDGM4","Station_Nam":"PAULDING","Latitude":"46.39760","Longitude":"-89.17940","Snowdepth":"14.000","Units":"in","Rept_Date":"2021-02-28 13"},"coordinates":[1891,6022]},{"type":"Point","properties":{"Station_ID":"PA-BR-7","Station_Nam":"FLEETWOOD 2.0 ESE, PA","Latitude":"40.44292","Longitude":"-75.78720","Snowdepth":"14.000","Units":"in","Rept_Date":"2021-02-28 13"},"coordinates":[5034,1578]},{"type":"Point","properties":{"Station_ID":"NY-TG-15","Station_Nam":"BERKSHIRE 1.9 ENE, NY","Latitude":"42.31910","Longitude":"-76.21940","Snowdepth":"14.000","Units":"in","Rept_Date":"2021-02-28 13"},"coordinates":[4933,2978]},{"type":"Point","properties":{"Station_ID":"NVLV1","Station_Nam":"NASHVILLE","Latitude":"44.44970","Longitude":"-72.92640","Snowdepth":"14.000","Units":"in","Rept_Date":"2021-02-28 12"},"coordinates":[5706,4568]},{"type":"Point","properties":{"Station_ID":"NUMN3","Station_Nam":"NORTHUMBERLAND","Latitude":"44.52830","Longitude":"-71.50440","Snowdepth":"14.000","Units":"in","Rept_Date":"2021-02-28 13"},"coordinates":[6040,4627]},{"type":"Point","properties":{"Station_ID":"NOWM1","Station_Nam":"NORRIDGEWOCK","Latitude":"44.68080","Longitude":"-69.80280","Snowdepth":"14.000","Units":"in","Rept_Date":"2021-02-28 12"},"coordinates":[6439,4741]},{"type":"Point","properties":{"Station_ID":"NJ-SS-7","Station_Nam":"HARDYSTON TWP 3.2 SE, NJ","Latitude":"41.08903","Longitude":"-74.53990","Snowdepth":"14.000","Units":"in","Rept_Date":"2021-02-28 13"},"coordinates":[5327,2060]},{"type":"Point","properties":{"Station_ID":"NJ-SS-60","Station_Nam":"VERNON TWP 2.7 SSE, NJ","Latitude":"41.16332","Longitude":"-74.45938","Snowdepth":"14.000","Units":"in","Rept_Date":"2021-02-28 11"},"coordinates":[5346,2116]},{"type":"Point","properties":{"Station_ID":"NJ-SS-1","Station_Nam":"ANDOVER TWP 1.7 W, NJ","Latitude":"41.01974","Longitude":"-74.76110","Snowdepth":"14.000","Units":"in","Rept_Date":"2021-02-28 12"},"coordinates":[5275,2008]},{"type":"Point","properties":{"Station_ID":"NJ-MS-4","Station_Nam":"ROCKAWAY TWP 0.7 NE, NJ","Latitude":"40.96583","Longitude":"-74.48780","Snowdepth":"14.000","Units":"in","Rept_Date":"2021-02-28 13"},"coordinates":[5339,1968]},{"type":"Point","properties":{"Station_ID":"NH-MR-45","Station_Nam":"NORTHFIELD 2.8 E, NH","Latitude":"43.43945","Longitude":"-71.53730","Snowdepth":"14.000","Units":"in","Rept_Date":"2021-02-28 12"},"coordinates":[6032,3814]},{"type":"Point","properties":{"Station_ID":"NH-MR-4","Station_Nam":"BOW 1.6 NW, NH","Latitude":"43.14994","Longitude":"-71.55650","Snowdepth":"14.000","Units":"in","Rept_Date":"2021-02-28 12"},"coordinates":[6027,3598]},{"type":"Point","properties":{"Station_ID":"NH-GR-47","Station_Nam":"LITTLETON 7.3 W, NH","Latitude":"44.31847","Longitude":"-71.91086","Snowdepth":"14.000","Units":"in","Rept_Date":"2021-02-28 13"},"coordinates":[5944,4470]},{"type":"Point","properties":{"Station_ID":"NH-CR-15","Station_Nam":"JACKSON 3.7 NW, NH","Latitude":"44.19069","Longitude":"-71.22598","Snowdepth":"14.000","Units":"in","Rept_Date":"2021-02-28 12"},"coordinates":[6105,4375]},{"type":"Point","properties":{"Station_ID":"NCKN6","Station_Nam":"NORTH CREEK 5 SE","Latitude":"43.66110","Longitude":"-73.89690","Snowdepth":"14.000","Units":"in","Rept_Date":"2021-02-28 12"},"coordinates":[5478,3980]},{"type":"Point","properties":{"Station_ID":"MN-IS-18","Station_Nam":"BRAHAM 0.7 SW, MN","Latitude":"45.71379","Longitude":"-93.18095","Snowdepth":"14.000","Units":"in","Rept_Date":"2021-02-28 14"},"coordinates":[952,5512]},{"type":"Point","properties":{"Station_ID":"MN-CG-28","Station_Nam":"STANCHFIELD 4.9 ESE, MN","Latitude":"45.63631","Longitude":"-93.09058","Snowdepth":"14.000","Units":"in","Rept_Date":"2021-02-28 18"},"coordinates":[974,5454]},{"type":"Point","properties":{"Station_ID":"MI-OT-17","Station_Nam":"GAYLORD 4.1 S, MI","Latitude":"44.96388","Longitude":"-84.68467","Snowdepth":"14.000","Units":"in","Rept_Date":"2021-02-28 12"},"coordinates":[2946,4952]},{"type":"Point","properties":{"Station_ID":"MI-OG-6","Station_Nam":"WEST BRANCH 2.1 SSW, MI","Latitude":"44.24814","Longitude":"-84.25089","Snowdepth":"14.000","Units":"in","Rept_Date":"2021-02-28 12"},"coordinates":[3048,4418]},{"type":"Point","properties":{"Station_ID":"ME-YK-3","Station_Nam":"HOLLIS CENTER 5.4 NW, ME","Latitude":"43.64750","Longitude":"-70.67510","Snowdepth":"14.000","Units":"in","Rept_Date":"2021-02-28 12"},"coordinates":[6234,3970]},{"type":"Point","properties":{"Station_ID":"ME-CM-98","Station_Nam":"SEBAGO 2.4 ESE, ME","Latitude":"43.88000","Longitude":"-70.63000","Snowdepth":"14.000","Units":"in","Rept_Date":"2021-02-28 15"},"coordinates":[6245,4143]},{"type":"Point","properties":{"Station_ID":"JOHV1","Station_Nam":"JOHNSON 2 N","Latitude":"44.65790","Longitude":"-72.67850","Snowdepth":"14.000","Units":"in","Rept_Date":"2021-02-28 12"},"coordinates":[5764,4724]},{"type":"Point","properties":{"Station_ID":"IMNM4","Station_Nam":"IRON MOUTAIN 5N","Latitude":"45.87580","Longitude":"-88.04030","Snowdepth":"14.000","Units":"in","Rept_Date":"2021-03-01 01"},"coordinates":[2159,5632]},{"type":"Point","properties":{"Station_ID":"HOLM1","Station_Nam":"HOLLIS","Latitude":"43.64750","Longitude":"-70.67490","Snowdepth":"14.000","Units":"in","Rept_Date":"2021-02-28 12"},"coordinates":[6234,3970]},{"type":"Point","properties":{"Station_ID":"HGHN4","Station_Nam":"HIGHLAND LAKES 1SW","Latitude":"41.16330","Longitude":"-74.45930","Snowdepth":"14.000","Units":"in","Rept_Date":"2021-02-28 11"},"coordinates":[5346,2116]},{"type":"Point","properties":{"Station_ID":"EVRW3","Station_Nam":"EAGLE RIVER-4 E","Latitude":"45.91890","Longitude":"-89.15280","Snowdepth":"14.000","Units":"in","Rept_Date":"2021-02-28 12"},"coordinates":[1898,5665]},{"type":"Point","properties":{"Station_ID":"EJNM4","Station_Nam":"EAST JORDAN 2NW","Latitude":"45.18630","Longitude":"-85.14770","Snowdepth":"14.000","Units":"in","Rept_Date":"2021-02-28 13"},"coordinates":[2838,5118]},{"type":"Point","properties":{"Station_ID":"EGRW3","Station_Nam":"EAGLE RIVER-SOUTH","Latitude":"45.91360","Longitude":"-89.24360","Snowdepth":"14.000","Units":"in","Rept_Date":"2021-02-28 13"},"coordinates":[1876,5661]},{"type":"Point","properties":{"Station_ID":"CMKW3","Station_Nam":"CLAM LAKE 4W","Latitude":"46.16940","Longitude":"-90.98080","Snowdepth":"14.000","Units":"in","Rept_Date":"2021-02-28 13"},"coordinates":[1469,5852]},{"type":"Point","properties":{"Station_ID":"CDLM4","Station_Nam":"CADILLAC 9&10 NEWS","Latitude":"44.21130","Longitude":"-85.40860","Snowdepth":"14.000","Units":"in","Rept_Date":"2021-02-28 12"},"coordinates":[2776,4390]},{"type":"Point","properties":{"Station_ID":"AGNW3","Station_Nam":"ARGONNE-1.5 NW","Latitude":"45.67360","Longitude":"-88.90380","Snowdepth":"14.000","Units":"in","Rept_Date":"2021-02-28 13"},"coordinates":[1956,5482]},{"type":"Point","properties":{"Station_ID":"CAN-PE-50","Station_Nam":"BEDFORD CORNER 3.9 WNW, CAN","Latitude":"46.34628","Longitude":"-63.06157","Snowdepth":"13.800","Units":"in","Rept_Date":"2021-02-28 11"},"coordinates":[8021,5984]},{"type":"Point","properties":{"Station_ID":"QIQ","Station_Nam":"QIQ","Latitude":"49.82390","Longitude":"-68.54310","Snowdepth":"13.779","Units":"in","Rept_Date":"2021-02-28 12"},"coordinates":[6735,8579]},{"type":"Point","properties":{"Station_ID":"WI-BY-2","Station_Nam":"MELLEN 18.6 SW, WI","Latitude":"46.16937","Longitude":"-90.98090","Snowdepth":"13.700","Units":"in","Rept_Date":"2021-02-28 13"},"coordinates":[1469,5852]},{"type":"Point","properties":{"Station_ID":"MN-SL-105","Station_Nam":"DULUTH 11.8 NNE, MN","Latitude":"46.94680","Longitude":"-92.03925","Snowdepth":"13.600","Units":"in","Rept_Date":"2021-02-28 14"},"coordinates":[1220,6432]},{"type":"Point","properties":{"Station_ID":"WI-SR-1","Station_Nam":"HAYWARD 9.2 NNE, WI","Latitude":"46.13255","Longitude":"-91.40500","Snowdepth":"13.500","Units":"in","Rept_Date":"2021-02-28 12"},"coordinates":[1369,5824]},{"type":"Point","properties":{"Station_ID":"VT-LM-1","Station_Nam":"STOWE 0.2 SW, VT","Latitude":"44.46399","Longitude":"-72.69070","Snowdepth":"13.500","Units":"in","Rept_Date":"2021-02-28 12"},"coordinates":[5761,4579]},{"type":"Point","properties":{"Station_ID":"MI-CX-7","Station_Nam":"EAST JORDAN 2.1 NNW, MI","Latitude":"45.18639","Longitude":"-85.14750","Snowdepth":"13.500","Units":"in","Rept_Date":"2021-02-28 13"},"coordinates":[2838,5118]},{"type":"Point","properties":{"Station_ID":"MA-BE-24","Station_Nam":"HANCOCK 3.6 NNE, MA","Latitude":"42.59130","Longitude":"-73.29530","Snowdepth":"13.500","Units":"in","Rept_Date":"2021-02-28 17"},"coordinates":[5619,3181]},{"type":"Point","properties":{"Station_ID":"VT-CL-23","Station_Nam":"RYEGATE 1.5 N, VT","Latitude":"44.23024","Longitude":"-72.10523","Snowdepth":"13.400","Units":"in","Rept_Date":"2021-02-28 12"},"coordinates":[5899,4404]},{"type":"Point","properties":{"Station_ID":"WYON6","Station_Nam":"WYOMING 3W","Latitude":"42.82020","Longitude":"-78.14780","Snowdepth":"13.000","Units":"in","Rept_Date":"2021-02-28 12"},"coordinates":[4480,3352]},{"type":"Point","properties":{"Station_ID":"WTRM4","Station_Nam":"WATERSMEET 12WSW","Latitude":"46.22310","Longitude":"-89.40850","Snowdepth":"13.000","Units":"in","Rept_Date":"2021-02-28 13"},"coordinates":[1838,5892]},{"type":"Point","properties":{"Station_ID":"WSFW3","Station_Nam":"TOWN OF WESTFORD","Latitude":"43.47190","Longitude":"-88.88250","Snowdepth":"13.000","Units":"in","Rept_Date":"2021-02-28 13"},"coordinates":[1961,3838]},{"type":"Point","properties":{"Station_ID":"WRSM5","Station_Nam":"WRENSHALL","Latitude":"46.61550","Longitude":"-92.38380","Snowdepth":"13.000","Units":"in","Rept_Date":"2021-02-28 14"},"coordinates":[1139,6184]},{"type":"Point","properties":{"Station_ID":"STIM4","Station_Nam":"ST IGNACE","Latitude":"45.86080","Longitude":"-84.71960","Snowdepth":"13.000","Units":"in","Rept_Date":"2021-02-28 12"},"coordinates":[2938,5621]},{"type":"Point","properties":{"Station_ID":"RHIW3","Station_Nam":"RHINELANDER","Latitude":"45.59860","Longitude":"-89.45080","Snowdepth":"13.000","Units":"in","Rept_Date":"2021-02-28 13"},"coordinates":[1828,5426]},{"type":"Point","properties":{"Station_ID":"PLFV1","Station_Nam":"PLAINFIELD","Latitude":"44.27610","Longitude":"-72.41500","Snowdepth":"13.000","Units":"in","Rept_Date":"2021-02-28 12"},"coordinates":[5826,4439]},{"type":"Point","properties":{"Station_ID":"PA-CB-33","Station_Nam":"LAKE HARMONY 2.4 WNW, PA","Latitude":"41.07333","Longitude":"-75.63317","Snowdepth":"13.000","Units":"in","Rept_Date":"2021-02-28 12"},"coordinates":[5071,2048]},{"type":"Point","properties":{"Station_ID":"NY-DL-28","Station_Nam":"FLEISCHMANNS 5.7 N, NY","Latitude":"42.23779","Longitude":"-74.52335","Snowdepth":"13.000","Units":"in","Rept_Date":"2021-02-28 12"},"coordinates":[5331,2917]},{"type":"Point","properties":{"Station_ID":"NY-CR-1","Station_Nam":"FREETOWN 1.0 NE, NY","Latitude":"42.53299","Longitude":"-76.02111","Snowdepth":"13.000","Units":"in","Rept_Date":"2021-02-28 12"},"coordinates":[4980,3138]},{"type":"Point","properties":{"Station_ID":"NJ-MS-94","Station_Nam":"JEFFERSON TWP 4.4 SW, NJ","Latitude":"40.96404","Longitude":"-74.62162","Snowdepth":"13.000","Units":"in","Rept_Date":"2021-02-28 13"},"coordinates":[5308,1967]},{"type":"Point","properties":{"Station_ID":"NH-SL-3","Station_Nam":"WEST UNITY 0.7 WSW, NH","Latitude":"43.28652","Longitude":"-72.32970","Snowdepth":"13.000","Units":"in","Rept_Date":"2021-02-28 12"},"coordinates":[5846,3700]},{"type":"Point","properties":{"Station_ID":"NH-CS-7","Station_Nam":"LANCASTER 0.5 N, NH","Latitude":"44.49611","Longitude":"-71.57640","Snowdepth":"13.000","Units":"in","Rept_Date":"2021-02-28 12"},"coordinates":[6023,4603]},{"type":"Point","properties":{"Station_ID":"MWN","Station_Nam":"MOUNT WASHINGTON","Latitude":"44.26670","Longitude":"-71.30000","Snowdepth":"13.000","Units":"in","Rept_Date":"2021-02-28 12"},"coordinates":[6088,4432]},{"type":"Point","properties":{"Station_ID":"MTQM4","Station_Nam":"MANISTIQUE WWTP","Latitude":"45.95120","Longitude":"-86.25130","Snowdepth":"13.000","Units":"in","Rept_Date":"2021-02-28 12"},"coordinates":[2579,5689]},{"type":"Point","properties":{"Station_ID":"MLCM5","Station_Nam":"MILACA","Latitude":"45.75320","Longitude":"-93.66170","Snowdepth":"13.000","Units":"in","Rept_Date":"2021-02-28 13"},"coordinates":[839,5541]},{"type":"Point","properties":{"Station_ID":"MI-OT-4","Station_Nam":"GAYLORD 1.7 WNW, MI","Latitude":"45.03280","Longitude":"-84.71090","Snowdepth":"13.000","Units":"in","Rept_Date":"2021-02-28 13"},"coordinates":[2940,5003]},{"type":"Point","properties":{"Station_ID":"MI-MQ-19","Station_Nam":"ISHPEMING 7.2 SW, MI","Latitude":"46.40550","Longitude":"-87.75670","Snowdepth":"13.000","Units":"in","Rept_Date":"2021-02-28 11"},"coordinates":[2225,6028]},{"type":"Point","properties":{"Station_ID":"MI-MC-4","Station_Nam":"ST. IGNACE 0.5SE, MI","Latitude":"45.86057","Longitude":"-84.71980","Snowdepth":"13.000","Units":"in","Rept_Date":"2021-02-28 12"},"coordinates":[2938,5621]},{"type":"Point","properties":{"Station_ID":"MI-DL-1","Station_Nam":"GARDEN CORNERS 0.8 NW, MI","Latitude":"45.89815","Longitude":"-86.54850","Snowdepth":"13.000","Units":"in","Rept_Date":"2021-02-28 13"},"coordinates":[2509,5649]},{"type":"Point","properties":{"Station_ID":"MI-CP-7","Station_Nam":"DRUMMOND 2.9 NE, MI","Latitude":"46.05329","Longitude":"-83.69060","Snowdepth":"13.000","Units":"in","Rept_Date":"2021-02-28 14"},"coordinates":[3180,5765]},{"type":"Point","properties":{"Station_ID":"MI-AT-6","Station_Nam":"MANCELONA 0.5 ESE, MI","Latitude":"44.89981","Longitude":"-85.05100","Snowdepth":"13.000","Units":"in","Rept_Date":"2021-02-28 13"},"coordinates":[2860,4904]},{"type":"Point","properties":{"Station_ID":"LUCW3","Station_Nam":"LUCK","Latitude":"45.57330","Longitude":"-92.48520","Snowdepth":"13.000","Units":"in","Rept_Date":"2021-03-01 00"},"coordinates":[1116,5407]},{"type":"Point","properties":{"Station_ID":"KMWN","Station_Nam":"MOUNT WASHINGTON","Latitude":"44.26666","Longitude":"-71.30000","Snowdepth":"13.000","Units":"in","Rept_Date":"2021-03-01 06"},"coordinates":[6088,4432]},{"type":"Point","properties":{"Station_ID":"INL","Station_Nam":"FALLS INTERNATIONAL ARPT","Latitude":"48.56640","Longitude":"-93.40310","Snowdepth":"13.000","Units":"in","Rept_Date":"2021-03-01 00"},"coordinates":[900,7640]},{"type":"Point","properties":{"Station_ID":"IFSM5","Station_Nam":"INTERNATIONAL FALLS SNOW","Latitude":"48.57780","Longitude":"-93.39640","Snowdepth":"13.000","Units":"in","Rept_Date":"2021-02-28 12"},"coordinates":[902,7649]},{"type":"Point","properties":{"Station_ID":"GOVN6","Station_Nam":"GOUVERNEUR 3 NW","Latitude":"44.35400","Longitude":"-75.51230","Snowdepth":"13.000","Units":"in","Rept_Date":"2021-02-28 12"},"coordinates":[5099,4497]},{"type":"Point","properties":{"Station_ID":"GDCM4","Station_Nam":"GARDEN CORNERS","Latitude":"45.89830","Longitude":"-86.54850","Snowdepth":"13.000","Units":"in","Rept_Date":"2021-02-28 13"},"coordinates":[2509,5649]},{"type":"Point","properties":{"Station_ID":"GAYM4","Station_Nam":"GAYLORD","Latitude":"45.03320","Longitude":"-84.71130","Snowdepth":"13.000","Units":"in","Rept_Date":"2021-02-28 13"},"coordinates":[2940,5004]},{"type":"Point","properties":{"Station_ID":"ENFV1","Station_Nam":"ENOSBURG FALLS 2","Latitude":"44.90960","Longitude":"-72.81370","Snowdepth":"13.000","Units":"in","Rept_Date":"2021-02-28 12"},"coordinates":[5732,4911]},{"type":"Point","properties":{"Station_ID":"DLHM5","Station_Nam":"DULUTH NWS","Latitude":"46.83680","Longitude":"-92.21080","Snowdepth":"13.000","Units":"in","Rept_Date":"2021-03-01 06"},"coordinates":[1180,6350]},{"type":"Point","properties":{"Station_ID":"DLH","Station_Nam":"DULUTH, MN","Latitude":"46.83690","Longitude":"-92.21030","Snowdepth":"13.000","Units":"in","Rept_Date":"2021-03-01 00"},"coordinates":[1180,6350]},{"type":"Point","properties":{"Station_ID":"CNDP1","Station_Nam":"CANADENSIS","Latitude":"41.18980","Longitude":"-75.23830","Snowdepth":"13.000","Units":"in","Rept_Date":"2021-02-28 12"},"coordinates":[5163,2135]},{"type":"Point","properties":{"Station_ID":"CAN-NS-103","Station_Nam":"TRAFALGAR 4.9 WSW, CAN","Latitude":"45.26217","Longitude":"-62.72285","Snowdepth":"13.000","Units":"in","Rept_Date":"2021-02-28 12"},"coordinates":[8101,5175]},{"type":"Point","properties":{"Station_ID":"CAN-MB-32","Station_Nam":"PINAWA 1.0 SW, CA","Latitude":"50.14747","Longitude":"-95.89020","Snowdepth":"13.000","Units":"in","Rept_Date":"2021-02-28 13"},"coordinates":[316,8820]},{"type":"Point","properties":{"Station_ID":"ATAN6","Station_Nam":"ATTICA 7 SW","Latitude":"42.81070","Longitude":"-78.39790","Snowdepth":"13.000","Units":"in","Rept_Date":"2021-02-28 11"},"coordinates":[4422,3345]},{"type":"Point","properties":{"Station_ID":"NY-WY-10","Station_Nam":"WYOMING COOP, NY","Latitude":"42.82060","Longitude":"-78.14810","Snowdepth":"12.800","Units":"in","Rept_Date":"2021-02-28 12"},"coordinates":[4480,3352]},{"type":"Point","properties":{"Station_ID":"VT-WR-22","Station_Nam":"ROCHESTER 0.3 NE, VT","Latitude":"43.87816","Longitude":"-72.80459","Snowdepth":"12.600","Units":"in","Rept_Date":"2021-02-28 12"},"coordinates":[5734,4142]},{"type":"Point","properties":{"Station_ID":"CAN-ON-451","Station_Nam":"OWEN SOUND 1.2 N - GSCA, CAN","Latitude":"44.58092","Longitude":"-80.93025","Snowdepth":"12.600","Units":"in","Rept_Date":"2021-02-28 13"},"coordinates":[3827,4666]},{"type":"Point","properties":{"Station_ID":"WI-TY-3","Station_Nam":"MEDFORD 0.8 ENE, WI","Latitude":"45.14421","Longitude":"-90.33349","Snowdepth":"12.500","Units":"in","Rept_Date":"2021-02-28 14"},"coordinates":[1621,5086]},{"type":"Point","properties":{"Station_ID":"WI-ON-6","Station_Nam":"RHINELANDER 5.2 N, WI","Latitude":"45.71388","Longitude":"-89.42150","Snowdepth":"12.500","Units":"in","Rept_Date":"2021-02-28 14"},"coordinates":[1835,5512]},{"type":"Point","properties":{"Station_ID":"VT-FR-19","Station_Nam":"SWANTON 0.5 NNE, VT","Latitude":"44.92590","Longitude":"-73.12145","Snowdepth":"12.500","Units":"in","Rept_Date":"2021-02-28 12"},"coordinates":[5660,4924]},{"type":"Point","properties":{"Station_ID":"VT-CH-13","Station_Nam":"RICHMOND 3.4 SSE, VT","Latitude":"44.36084","Longitude":"-72.96400","Snowdepth":"12.500","Units":"in","Rept_Date":"2021-02-28 12"},"coordinates":[5697,4502]},{"type":"Point","properties":{"Station_ID":"VT-CH-11","Station_Nam":"UNDERHILL 5.1 NNE, VT","Latitude":"44.59811","Longitude":"-72.91880","Snowdepth":"12.500","Units":"in","Rept_Date":"2021-02-28 13"},"coordinates":[5708,4679]},{"type":"Point","properties":{"Station_ID":"NH-GR-55","Station_Nam":"BRISTOL 3.7 E, NH","Latitude":"43.60517","Longitude":"-71.67158","Snowdepth":"12.500","Units":"in","Rept_Date":"2021-02-28 11"},"coordinates":[6000,3938]},{"type":"Point","properties":{"Station_ID":"MN-WR-40","Station_Nam":"CLEARWATER 5.4 SSE, MN","Latitude":"45.34795","Longitude":"-94.03374","Snowdepth":"12.500","Units":"in","Rept_Date":"2021-02-28 14"},"coordinates":[752,5239]},{"type":"Point","properties":{"Station_ID":"MI-BZ-1","Station_Nam":"BENZONIA 5.3 S, MI","Latitude":"44.53976","Longitude":"-86.10650","Snowdepth":"12.500","Units":"in","Rept_Date":"2021-02-28 14"},"coordinates":[2613,4635]},{"type":"Point","properties":{"Station_ID":"MA-HS-2","Station_Nam":"WESTHAMPTON 1.8 SW, MA","Latitude":"42.27943","Longitude":"-72.78700","Snowdepth":"12.500","Units":"in","Rept_Date":"2021-02-28 13"},"coordinates":[5739,2949]},{"type":"Point","properties":{"Station_ID":"MA-FR-17","Station_Nam":"BUCKLAND 1.8 ESE, MA","Latitude":"42.58900","Longitude":"-72.75110","Snowdepth":"12.500","Units":"in","Rept_Date":"2021-02-28 13"},"coordinates":[5747,3180]},{"type":"Point","properties":{"Station_ID":"CAN-MB-368","Station_Nam":"WHITESHELL 1.3 NE, CAN","Latitude":"49.74405","Longitude":"-95.19123","Snowdepth":"12.100","Units":"in","Rept_Date":"2021-02-28 14"},"coordinates":[481,8519]},{"type":"Point","properties":{"Station_ID":"WI-VL-14","Station_Nam":"BOULDER JUNCTION 1.4 NE, WI","Latitude":"46.12840","Longitude":"-89.62470","Snowdepth":"12.000","Units":"in","Rept_Date":"2021-02-28 13"},"coordinates":[1787,5821]},{"type":"Point","properties":{"Station_ID":"WI-JF-22","Station_Nam":"SULLIVAN 2.6 SW, WI","Latitude":"42.98562","Longitude":"-88.62498","Snowdepth":"12.000","Units":"in","Rept_Date":"2021-02-28 13"},"coordinates":[2022,3476]},{"type":"Point","properties":{"Station_ID":"WI-DD-16","Station_Nam":"BEAVER DAM 2.4 WNW, WI","Latitude":"43.47210","Longitude":"-88.88280","Snowdepth":"12.000","Units":"in","Rept_Date":"2021-02-28 13"},"coordinates":[1961,3839]},{"type":"Point","properties":{"Station_ID":"WI-DA-99","Station_Nam":"FITCHBURG 1.1 NW, WI","Latitude":"42.99740","Longitude":"-89.44046","Snowdepth":"12.000","Units":"in","Rept_Date":"2021-02-28 13"},"coordinates":[1830,3484]},{"type":"Point","properties":{"Station_ID":"WI-CB-5","Station_Nam":"PORTAGE 7.2 SW, WI","Latitude":"43.47933","Longitude":"-89.57370","Snowdepth":"12.000","Units":"in","Rept_Date":"2021-02-28 13"},"coordinates":[1799,3844]},{"type":"Point","properties":{"Station_ID":"VT-RT-24","Station_Nam":"MIDDLETOWN SPRINGS 0.9 WNW, VT","Latitude":"43.49194","Longitude":"-73.13350","Snowdepth":"12.000","Units":"in","Rept_Date":"2021-02-28 12"},"coordinates":[5657,3853]},{"type":"Point","properties":{"Station_ID":"VT-OG-14","Station_Nam":"BRADFORD 2.2 NNW, VT","Latitude":"44.02268","Longitude":"-72.14756","Snowdepth":"12.000","Units":"in","Rept_Date":"2021-02-28 11"},"coordinates":[5889,4250]},{"type":"Point","properties":{"Station_ID":"STGW3","Station_Nam":"ST GERMAIN","Latitude":"45.91550","Longitude":"-89.48940","Snowdepth":"12.000","Units":"in","Rept_Date":"2021-02-28 12"},"coordinates":[1819,5662]},{"type":"Point","properties":{"Station_ID":"SGVN6","Station_Nam":"SPRINGVILLE","Latitude":"42.54970","Longitude":"-78.57670","Snowdepth":"12.000","Units":"in","Rept_Date":"2021-02-28 22"},"coordinates":[4380,3150]},{"type":"Point","properties":{"Station_ID":"RHLW3","Station_Nam":"RHINELANDER 4NE","Latitude":"45.65270","Longitude":"-89.30740","Snowdepth":"12.000","Units":"in","Rept_Date":"2021-02-28 12"},"coordinates":[1861,5466]},{"type":"Point","properties":{"Station_ID":"PHON6","Station_Nam":"PHOENICIA 2SW","Latitude":"42.06420","Longitude":"-74.34080","Snowdepth":"12.000","Units":"in","Rept_Date":"2021-02-28 12"},"coordinates":[5374,2788]},{"type":"Point","properties":{"Station_ID":"PA-NH-15","Station_Nam":"PORTLAND 2.7 WNW, PA","Latitude":"40.93750","Longitude":"-75.14450","Snowdepth":"12.000","Units":"in","Rept_Date":"2021-02-28 12"},"coordinates":[5185,1947]},{"type":"Point","properties":{"Station_ID":"OILM4","Station_Nam":"OIL CITY 3E","Latitude":"43.61140","Longitude":"-84.52810","Snowdepth":"12.000","Units":"in","Rept_Date":"2021-02-28 12"},"coordinates":[2983,3943]},{"type":"Point","properties":{"Station_ID":"NY-WR-10","Station_Nam":"WARRENSBURG 2.1 WNW, NY","Latitude":"43.51784","Longitude":"-73.81069","Snowdepth":"12.000","Units":"in","Rept_Date":"2021-02-28 13"},"coordinates":[5498,3873]},{"type":"Point","properties":{"Station_ID":"NH-MR-63","Station_Nam":"SUTTON MILLS 0.1 ENE, NH","Latitude":"43.33522","Longitude":"-71.95126","Snowdepth":"12.000","Units":"in","Rept_Date":"2021-02-28 12"},"coordinates":[5935,3736]},{"type":"Point","properties":{"Station_ID":"NH-HL-48","Station_Nam":"GREENVILLE 1.1 ENE, NH","Latitude":"42.77674","Longitude":"-71.77990","Snowdepth":"12.000","Units":"in","Rept_Date":"2021-02-28 13"},"coordinates":[5975,3320]},{"type":"Point","properties":{"Station_ID":"NH-GR-1","Station_Nam":"BRISTOL 0.4 SSE, NH","Latitude":"43.59490","Longitude":"-71.74140","Snowdepth":"12.000","Units":"in","Rept_Date":"2021-02-28 12"},"coordinates":[5984,3930]},{"type":"Point","properties":{"Station_ID":"NH-BK-9","Station_Nam":"MEREDITH 2.9 SSW, NH","Latitude":"43.62245","Longitude":"-71.53510","Snowdepth":"12.000","Units":"in","Rept_Date":"2021-02-28 12"},"coordinates":[6032,3951]},{"type":"Point","properties":{"Station_ID":"MONW3","Station_Nam":"MONROE,WI","Latitude":"42.60000","Longitude":"-89.66670","Snowdepth":"12.000","Units":"in","Rept_Date":"2021-02-28 13"},"coordinates":[1777,3188]},{"type":"Point","properties":{"Station_ID":"MN-SR-48","Station_Nam":"SAINT AUGUSTA 2.1 S, MN","Latitude":"45.41950","Longitude":"-94.19737","Snowdepth":"12.000","Units":"in","Rept_Date":"2021-02-28 13"},"coordinates":[714,5292]},{"type":"Point","properties":{"Station_ID":"MN-CN-36","Station_Nam":"CLOQUET 3.4 ENE, MN","Latitude":"46.74146","Longitude":"-92.42698","Snowdepth":"12.000","Units":"in","Rept_Date":"2021-02-28 13"},"coordinates":[1129,6278]},{"type":"Point","properties":{"Station_ID":"MN-CK-18","Station_Nam":"GRAND MARAIS 4.4 WSW, MN","Latitude":"47.74462","Longitude":"-90.43796","Snowdepth":"12.000","Units":"in","Rept_Date":"2021-02-28 13"},"coordinates":[1596,7027]},{"type":"Point","properties":{"Station_ID":"MI-OT-16","Station_Nam":"GAYLORD 2.2 SSE, MI","Latitude":"44.99441","Longitude":"-84.65820","Snowdepth":"12.000","Units":"in","Rept_Date":"2021-02-28 12"},"coordinates":[2953,4975]},{"type":"Point","properties":{"Station_ID":"ME-YK-67","Station_Nam":"CORNISH 5.6 ESE, ME","Latitude":"43.78308","Longitude":"-70.69539","Snowdepth":"12.000","Units":"in","Rept_Date":"2021-02-28 12"},"coordinates":[6230,4071]},{"type":"Point","properties":{"Station_ID":"ME-KB-53","Station_Nam":"READFIELD 2.0 NNE, ME","Latitude":"44.41620","Longitude":"-69.95190","Snowdepth":"12.000","Units":"in","Rept_Date":"2021-02-28 13"},"coordinates":[6404,4543]},{"type":"Point","properties":{"Station_ID":"ME-CM-133","Station_Nam":"STANDISH 1.3 SSW, ME","Latitude":"43.71756","Longitude":"-70.55923","Snowdepth":"12.000","Units":"in","Rept_Date":"2021-02-28 12"},"coordinates":[6261,4022]},{"type":"Point","properties":{"Station_ID":"MA-ES-48","Station_Nam":"ANDOVER 0.6 E, MA","Latitude":"42.65659","Longitude":"-71.13048","Snowdepth":"12.000","Units":"in","Rept_Date":"2021-02-28 10"},"coordinates":[6127,3230]},{"type":"Point","properties":{"Station_ID":"LAUP1","Station_Nam":"1.5MI S OF RT 30 ON SMIT (LAUREL RIDGE)","Latitude":"40.05000","Longitude":"-79.22060","Snowdepth":"12.000","Units":"in","Rept_Date":"2021-02-28 12"},"coordinates":[4229,1285]},{"type":"Point","properties":{"Station_ID":"KGTB","Station_Nam":"FORT DRUM / WHEELER-SACK U. S. ARMY AIRFIELD","Latitude":"44.05000","Longitude":"-75.73333","Snowdepth":"12.000","Units":"in","Rept_Date":"2021-03-01 06"},"coordinates":[5047,4270]},{"type":"Point","properties":{"Station_ID":"JEFN3","Station_Nam":"JEFFERSON","Latitude":"44.41690","Longitude":"-71.50080","Snowdepth":"12.000","Units":"in","Rept_Date":"2021-02-28 12"},"coordinates":[6040,4544]},{"type":"Point","properties":{"Station_ID":"JANW3","Station_Nam":"JANESVILLE-NE-HAM","Latitude":"42.70280","Longitude":"-88.99030","Snowdepth":"12.000","Units":"in","Rept_Date":"2021-02-28 13"},"coordinates":[1936,3265]},{"type":"Point","properties":{"Station_ID":"IL-SP-27","Station_Nam":"DAVIS 2.7 N, IL","Latitude":"42.46110","Longitude":"-89.40890","Snowdepth":"12.000","Units":"in","Rept_Date":"2021-02-28 13"},"coordinates":[1838,3084]},{"type":"Point","properties":{"Station_ID":"IL-MCH-13","Station_Nam":"BULL VALLEY 2.5 WNW, IL","Latitude":"42.32455","Longitude":"-88.39460","Snowdepth":"12.000","Units":"in","Rept_Date":"2021-02-28 14"},"coordinates":[2076,2982]},{"type":"Point","properties":{"Station_ID":"HMYM1","Station_Nam":"HARMONY","Latitude":"44.94660","Longitude":"-69.54560","Snowdepth":"12.000","Units":"in","Rept_Date":"2021-02-28 12"},"coordinates":[6499,4939]},{"type":"Point","properties":{"Station_ID":"FORM5","Station_Nam":"FOREST LAKE 5NE","Latitude":"45.33170","Longitude":"-92.89820","Snowdepth":"12.000","Units":"in","Rept_Date":"2021-02-28 13"},"coordinates":[1019,5226]},{"type":"Point","properties":{"Station_ID":"ELYM5","Station_Nam":"ELY","Latitude":"47.90560","Longitude":"-91.82830","Snowdepth":"12.000","Units":"in","Rept_Date":"2021-02-28 14"},"coordinates":[1270,7147]},{"type":"Point","properties":{"Station_ID":"DLNW3","Station_Nam":"WALWORTH COUNTYMETROPOLITAN SEWERAGE DISTRICT (DELEVAN)","Latitude":"42.63440","Longitude":"-88.66280","Snowdepth":"12.000","Units":"in","Rept_Date":"2021-02-28 12"},"coordinates":[2013,3213]},{"type":"Point","properties":{"Station_ID":"CRVW3","Station_Nam":"CRIVITZ HIGH FALLS","Latitude":"45.35750","Longitude":"-88.19190","Snowdepth":"12.000","Units":"in","Rept_Date":"2021-02-28 13"},"coordinates":[2123,5246]},{"type":"Point","properties":{"Station_ID":"CORM1","Station_Nam":"CORINNA","Latitude":"44.91980","Longitude":"-69.24180","Snowdepth":"12.000","Units":"in","Rept_Date":"2021-02-28 13"},"coordinates":[6571,4919]},{"type":"Point","properties":{"Station_ID":"AVTW3","Station_Nam":"ARBOR VITAE-JOHNSON LAKE","Latitude":"45.89940","Longitude":"-89.72670","Snowdepth":"12.000","Units":"in","Rept_Date":"2021-02-28 12"},"coordinates":[1763,5650]},{"type":"Point","properties":{"Station_ID":"APXM4","Station_Nam":"GAYLORD 9SSW","Latitude":"44.90720","Longitude":"-84.71880","Snowdepth":"12.000","Units":"in","Rept_Date":"2021-03-01 05"},"coordinates":[2938,4910]},{"type":"Point","properties":{"Station_ID":"CAN-ON-491","Station_Nam":"MILVERTON 1.1 ESE- CANWARN, CAN","Latitude":"43.56074","Longitude":"-80.90887","Snowdepth":"11.900","Units":"in","Rept_Date":"2021-02-28 11"},"coordinates":[3832,3905]},{"type":"Point","properties":{"Station_ID":"QWG","Station_Nam":"QWG","Latitude":"48.48890","Longitude":"-73.45940","Snowdepth":"11.890","Units":"in","Rept_Date":"2021-02-28 12"},"coordinates":[5581,7583]},{"type":"Point","properties":{"Station_ID":"PA-CR-1","Station_Nam":"EMPORIUM 2.6 S, PA","Latitude":"41.47342","Longitude":"-78.24330","Snowdepth":"11.800","Units":"in","Rept_Date":"2021-02-28 12"},"coordinates":[4458,2347]},{"type":"Point","properties":{"Station_ID":"CAN-ON-804","Station_Nam":"KEMBLE 1.6 S - GSCA, CAN","Latitude":"44.71013","Longitude":"-80.92735","Snowdepth":"11.800","Units":"in","Rept_Date":"2021-02-28 13"},"coordinates":[3828,4763]},{"type":"Point","properties":{"Station_ID":"WI-RK-12","Station_Nam":"JANESVILLE 3.1 W, WI","Latitude":"42.67576","Longitude":"-89.07614","Snowdepth":"11.500","Units":"in","Rept_Date":"2021-02-28 13"},"coordinates":[1916,3244]},{"type":"Point","properties":{"Station_ID":"NY-SC-30","Station_Nam":"AMSTERDAM 6.4 E, NY","Latitude":"42.93462","Longitude":"-74.06502","Snowdepth":"11.500","Units":"in","Rept_Date":"2021-02-28 14"},"coordinates":[5439,3438]},{"type":"Point","properties":{"Station_ID":"NY-CN-9","Station_Nam":"NORWICH 5.4 W, NY","Latitude":"42.53356","Longitude":"-75.63060","Snowdepth":"11.500","Units":"in","Rept_Date":"2021-02-28 12"},"coordinates":[5071,3138]},{"type":"Point","properties":{"Station_ID":"NY-BM-14","Station_Nam":"WHITNEY POINT 1.7 SSE, NY","Latitude":"42.30837","Longitude":"-75.95690","Snowdepth":"11.500","Units":"in","Rept_Date":"2021-02-28 12"},"coordinates":[4995,2970]},{"type":"Point","properties":{"Station_ID":"NJ-MS-42","Station_Nam":"RANDOLPH TWP 2.0 E, NJ","Latitude":"40.83980","Longitude":"-74.54320","Snowdepth":"11.500","Units":"in","Rept_Date":"2021-02-28 13"},"coordinates":[5326,1874]},{"type":"Point","properties":{"Station_ID":"NH-BK-26","Station_Nam":"MEREDITH 3.3 NNE, NH","Latitude":"43.69844","Longitude":"-71.46930","Snowdepth":"11.500","Units":"in","Rept_Date":"2021-02-28 13"},"coordinates":[6048,4008]},{"type":"Point","properties":{"Station_ID":"CT-LT-7","Station_Nam":"LITCHFIELD 2.3 NNE, CT","Latitude":"41.77445","Longitude":"-73.16900","Snowdepth":"11.500","Units":"in","Rept_Date":"2021-02-28 12"},"coordinates":[5649,2572]},{"type":"Point","properties":{"Station_ID":"CAN-PE-1","Station_Nam":"STRATFORD 2.3 NNE, CAN","Latitude":"46.23576","Longitude":"-63.08208","Snowdepth":"11.300","Units":"in","Rept_Date":"2021-02-28 11"},"coordinates":[8016,5901]},{"type":"Point","properties":{"Station_ID":"VT-AD-24","Station_Nam":"MIDDLEBURY 0.3 N, VT","Latitude":"44.01808","Longitude":"-73.16844","Snowdepth":"11.200","Units":"in","Rept_Date":"2021-02-28 09"},"coordinates":[5649,4246]},{"type":"Point","properties":{"Station_ID":"QGT","Station_Nam":"QGT","Latitude":"49.64720","Longitude":"-67.62640","Snowdepth":"11.181","Units":"in","Rept_Date":"2021-02-28 12"},"coordinates":[6950,8447]},{"type":"Point","properties":{"Station_ID":"WTHM1","Station_Nam":"WINTHROP","Latitude":"44.30650","Longitude":"-69.97010","Snowdepth":"11.000","Units":"in","Rept_Date":"2021-02-28 13"},"coordinates":[6400,4461]},{"type":"Point","properties":{"Station_ID":"WSWN6","Station_Nam":"WARSAW","Latitude":"42.74220","Longitude":"-78.20850","Snowdepth":"11.000","Units":"in","Rept_Date":"2021-02-28 12"},"coordinates":[4466,3294]},{"type":"Point","properties":{"Station_ID":"WLKW3","Station_Nam":"WHITE LAKE 1 SE","Latitude":"45.14520","Longitude":"-88.74160","Snowdepth":"11.000","Units":"in","Rept_Date":"2021-02-28 14"},"coordinates":[1994,5087]},{"type":"Point","properties":{"Station_ID":"WLDM5","Station_Nam":"WILD RIVER STATE PARK","Latitude":"45.52310","Longitude":"-92.74890","Snowdepth":"11.000","Units":"in","Rept_Date":"2021-02-28 14"},"coordinates":[1054,5369]},{"type":"Point","properties":{"Station_ID":"WI-WK-61","Station_Nam":"HARTLAND 5.0 NNE, WI","Latitude":"43.16351","Longitude":"-88.30400","Snowdepth":"11.000","Units":"in","Rept_Date":"2021-02-28 13"},"coordinates":[2097,3608]},{"type":"Point","properties":{"Station_ID":"WI-OZ-22","Station_Nam":"SAUKVILLE 0.9 SSW, WI","Latitude":"43.37254","Longitude":"-87.95009","Snowdepth":"11.000","Units":"in","Rept_Date":"2021-02-28 13"},"coordinates":[2180,3764]},{"type":"Point","properties":{"Station_ID":"WI-OC-1","Station_Nam":"MOUNTAIN 1.1 SW, WI","Latitude":"45.17239","Longitude":"-88.48990","Snowdepth":"11.000","Units":"in","Rept_Date":"2021-02-28 13"},"coordinates":[2053,5108]},{"type":"Point","properties":{"Station_ID":"WI-MW-14","Station_Nam":"MILWAUKEE 3.6 NNW, WI","Latitude":"43.11300","Longitude":"-87.98730","Snowdepth":"11.000","Units":"in","Rept_Date":"2021-02-28 11"},"coordinates":[2171,3571]},{"type":"Point","properties":{"Station_ID":"WI-MN-9","Station_Nam":"WARRENS 4.7 WSW, WI","Latitude":"44.10386","Longitude":"-90.58884","Snowdepth":"11.000","Units":"in","Rept_Date":"2021-02-28 14"},"coordinates":[1561,4310]},{"type":"Point","properties":{"Station_ID":"WBRM4","Station_Nam":"WEST BRANCH 3SE","Latitude":"44.25410","Longitude":"-84.20110","Snowdepth":"11.000","Units":"in","Rept_Date":"2021-02-28 13"},"coordinates":[3060,4422]},{"type":"Point","properties":{"Station_ID":"VT-GI-3","Station_Nam":"ALBURGH 4.6 SSE, VT","Latitude":"44.91280","Longitude":"-73.26890","Snowdepth":"11.000","Units":"in","Rept_Date":"2021-02-28 14"},"coordinates":[5626,4914]},{"type":"Point","properties":{"Station_ID":"VT-CH-38","Station_Nam":"WILLISTON 0.2 WSW, VT","Latitude":"44.43669","Longitude":"-73.07154","Snowdepth":"11.000","Units":"in","Rept_Date":"2021-02-28 12"},"coordinates":[5672,4558]},{"type":"Point","properties":{"Station_ID":"VT-AD-28","Station_Nam":"MONKTON 1.5 NE, VT","Latitude":"44.26760","Longitude":"-73.09940","Snowdepth":"11.000","Units":"in","Rept_Date":"2021-02-28 12"},"coordinates":[5665,4432]},{"type":"Point","properties":{"Station_ID":"SNYI4","Station_Nam":"STANLEY","Latitude":"42.63330","Longitude":"-91.86320","Snowdepth":"11.000","Units":"in","Rept_Date":"2021-02-28 13"},"coordinates":[1262,3213]},{"type":"Point","properties":{"Station_ID":"RLWM5","Station_Nam":"CAMP NORRIS DNR","Latitude":"48.61000","Longitude":"-95.18170","Snowdepth":"11.000","Units":"in","Rept_Date":"2021-02-28 13"},"coordinates":[483,7673]},{"type":"Point","properties":{"Station_ID":"RHI","Station_Nam":"RHINELANDER-ONEIDA COUNTY AIRPORT","Latitude":"45.63080","Longitude":"-89.46530","Snowdepth":"11.000","Units":"in","Rept_Date":"2021-02-28 12"},"coordinates":[1824,5450]},{"type":"Point","properties":{"Station_ID":"PA-BR-21","Station_Nam":"ALBURTIS 4.7 SW, PA","Latitude":"40.46515","Longitude":"-75.66820","Snowdepth":"11.000","Units":"in","Rept_Date":"2021-02-28 12"},"coordinates":[5062,1595]},{"type":"Point","properties":{"Station_ID":"NY-TM-45","Station_Nam":"NEWFIELD HAMLET 4.3 S, NY","Latitude":"42.29650","Longitude":"-76.60676","Snowdepth":"11.000","Units":"in","Rept_Date":"2021-02-28 14"},"coordinates":[4842,2961]},{"type":"Point","properties":{"Station_ID":"NY-OS-15","Station_Nam":"MINETTO 0.1 SE, NY","Latitude":"43.39771","Longitude":"-76.47960","Snowdepth":"11.000","Units":"in","Rept_Date":"2021-02-28 12"},"coordinates":[4872,3783]},{"type":"Point","properties":{"Station_ID":"NH-ST-31","Station_Nam":"STRAFFORD 2.9 N, NH","Latitude":"43.31175","Longitude":"-71.13510","Snowdepth":"11.000","Units":"in","Rept_Date":"2021-02-28 12"},"coordinates":[6126,3719]},{"type":"Point","properties":{"Station_ID":"MRAM5","Station_Nam":"MORA","Latitude":"45.87760","Longitude":"-93.31470","Snowdepth":"11.000","Units":"in","Rept_Date":"2021-02-28 13"},"coordinates":[921,5634]},{"type":"Point","properties":{"Station_ID":"MQRW3","Station_Nam":"MINOCQUA","Latitude":"45.88630","Longitude":"-89.73220","Snowdepth":"11.000","Units":"in","Rept_Date":"2021-02-28 12"},"coordinates":[1762,5640]},{"type":"Point","properties":{"Station_ID":"MOUW3","Station_Nam":"MOUNTAIN 1 SW","Latitude":"45.17220","Longitude":"-88.49390","Snowdepth":"11.000","Units":"in","Rept_Date":"2021-02-28 13"},"coordinates":[2052,5107]},{"type":"Point","properties":{"Station_ID":"MN-SL-108","Station_Nam":"IRON JUNCTION 3.4 NNW, MN","Latitude":"47.46150","Longitude":"-92.63130","Snowdepth":"11.000","Units":"in","Rept_Date":"2021-02-28 10"},"coordinates":[1081,6816]},{"type":"Point","properties":{"Station_ID":"MI-GT-21","Station_Nam":"KINGSLEY 2.7 ENE, MI","Latitude":"44.59871","Longitude":"-85.48426","Snowdepth":"11.000","Units":"in","Rept_Date":"2021-02-28 13"},"coordinates":[2759,4679]},{"type":"Point","properties":{"Station_ID":"MHRI4","Station_Nam":"MANCHESTER #2","Latitude":"42.47320","Longitude":"-91.45160","Snowdepth":"11.000","Units":"in","Rept_Date":"2021-02-28 13"},"coordinates":[1358,3093]},{"type":"Point","properties":{"Station_ID":"MECN6","Station_Nam":"MECKLENBURG 4 SW","Latitude":"42.44220","Longitude":"-76.75740","Snowdepth":"11.000","Units":"in","Rept_Date":"2021-02-28 12"},"coordinates":[4807,3070]},{"type":"Point","properties":{"Station_ID":"LGHP1","Station_Nam":"LEHIGHTON 1SSW","Latitude":"40.82230","Longitude":"-75.69620","Snowdepth":"11.000","Units":"in","Rept_Date":"2021-02-28 13"},"coordinates":[5056,1861]},{"type":"Point","properties":{"Station_ID":"LEIM5","Station_Nam":"ORR 3E","Latitude":"48.05810","Longitude":"-92.75220","Snowdepth":"11.000","Units":"in","Rept_Date":"2021-02-28 12"},"coordinates":[1053,7261]},{"type":"Point","properties":{"Station_ID":"KBTV","Station_Nam":"BURLINGTON INTERNATIONAL","Latitude":"44.46666","Longitude":"-73.15000","Snowdepth":"11.000","Units":"in","Rept_Date":"2021-03-01 00"},"coordinates":[5653,4581]},{"type":"Point","properties":{"Station_ID":"IL-LK-15","Station_Nam":"BANNOCKBURN 0.5 ESE, IL","Latitude":"42.18963","Longitude":"-87.86000","Snowdepth":"11.000","Units":"in","Rept_Date":"2021-02-28 13"},"coordinates":[2201,2882]},{"type":"Point","properties":{"Station_ID":"IL-JD-8","Station_Nam":"STOCKTON 3.4 NNE, IL","Latitude":"42.39960","Longitude":"-89.99020","Snowdepth":"11.000","Units":"in","Rept_Date":"2021-02-28 13"},"coordinates":[1701,3038]},{"type":"Point","properties":{"Station_ID":"IL-DP-157","Station_Nam":"WEST CHICAGO 3.5 NNE, IL","Latitude":"41.93718","Longitude":"-88.19884","Snowdepth":"11.000","Units":"in","Rept_Date":"2021-02-28 13"},"coordinates":[2122,2693]},{"type":"Point","properties":{"Station_ID":"HTLM4","Station_Nam":"SNOW PAID OBSERVER FOR KHTL","Latitude":"44.34470","Longitude":"-84.67730","Snowdepth":"11.000","Units":"in","Rept_Date":"2021-02-28 18"},"coordinates":[2948,4490]},{"type":"Point","properties":{"Station_ID":"HTL","Station_Nam":"ROSCOMMON COUNTY AIRPORT","Latitude":"44.35000","Longitude":"-84.66670","Snowdepth":"11.000","Units":"in","Rept_Date":"2021-03-01 00"},"coordinates":[2951,4494]},{"type":"Point","properties":{"Station_ID":"GLDM4","Station_Nam":"GLADSTONE NO. 2","Latitude":"45.84330","Longitude":"-87.03910","Snowdepth":"11.000","Units":"in","Rept_Date":"2021-02-28 12"},"coordinates":[2394,5608]},{"type":"Point","properties":{"Station_ID":"DLDI4","Station_Nam":"MISSISSIPPI RIVER","Latitude":"42.51670","Longitude":"-90.65000","Snowdepth":"11.000","Units":"in","Rept_Date":"2021-02-28 12"},"coordinates":[1546,3126]},{"type":"Point","properties":{"Station_ID":"COVP1","Station_Nam":"COVINGTON 2WSW","Latitude":"41.73330","Longitude":"-77.11670","Snowdepth":"11.000","Units":"in","Rept_Date":"2021-02-28 12"},"coordinates":[4722,2541]},{"type":"Point","properties":{"Station_ID":"CMRI4","Station_Nam":"CALMAR NE","Latitude":"43.18760","Longitude":"-91.86200","Snowdepth":"11.000","Units":"in","Rept_Date":"2021-02-28 13"},"coordinates":[1262,3626]},{"type":"Point","properties":{"Station_ID":"CAN-NS-60","Station_Nam":"SYDNEY FORKS, CAN","Latitude":"46.05645","Longitude":"-60.31510","Snowdepth":"11.000","Units":"in","Rept_Date":"2021-02-28 14"},"coordinates":[8666,5767]},{"type":"Point","properties":{"Station_ID":"CAN-NB-104","Station_Nam":"PENNFIELD RIDGE 2.7 SSW, CAN","Latitude":"45.09355","Longitude":"-66.71389","Snowdepth":"11.000","Units":"in","Rept_Date":"2021-02-28 11"},"coordinates":[7164,5049]},{"type":"Point","properties":{"Station_ID":"BTV","Station_Nam":"BURLINGTON, VT","Latitude":"44.47140","Longitude":"-73.15330","Snowdepth":"11.000","Units":"in","Rept_Date":"2021-03-01 01"},"coordinates":[5653,4584]},{"type":"Point","properties":{"Station_ID":"BROW3","Station_Nam":"BRODHEAD,WI","Latitude":"42.61720","Longitude":"-89.38970","Snowdepth":"11.000","Units":"in","Rept_Date":"2021-02-28 13"},"coordinates":[1842,3201]},{"type":"Point","properties":{"Station_ID":"BREW3","Station_Nam":"SURING","Latitude":"44.99580","Longitude":"-88.37860","Snowdepth":"11.000","Units":"in","Rept_Date":"2021-02-28 12"},"coordinates":[2079,4976]},{"type":"Point","properties":{"Station_ID":"MN-IT-7","Station_Nam":"GRAND RAPIDS 6.2 SSW, MN","Latitude":"47.13687","Longitude":"-93.56660","Snowdepth":"10.700","Units":"in","Rept_Date":"2021-02-28 12"},"coordinates":[862,6574]},{"type":"Point","properties":{"Station_ID":"WI-ON-8","Station_Nam":"HAZELHURST 2.1 SSE, WI","Latitude":"45.78186","Longitude":"-89.70330","Snowdepth":"10.500","Units":"in","Rept_Date":"2021-02-28 13"},"coordinates":[1768,5562]},{"type":"Point","properties":{"Station_ID":"NY-PT-2","Station_Nam":"BEACON 4.2 ESE, NY","Latitude":"41.48070","Longitude":"-73.89110","Snowdepth":"10.500","Units":"in","Rept_Date":"2021-02-28 12"},"coordinates":[5479,2352]},{"type":"Point","properties":{"Station_ID":"NY-OS-38","Station_Nam":"MEXICO COOP, NY","Latitude":"43.43830","Longitude":"-76.26570","Snowdepth":"10.500","Units":"in","Rept_Date":"2021-02-28 12"},"coordinates":[4922,3813]},{"type":"Point","properties":{"Station_ID":"NY-ER-75","Station_Nam":"ELMA CENTER 0.7 SE, NY","Latitude":"42.81936","Longitude":"-78.62140","Snowdepth":"10.500","Units":"in","Rept_Date":"2021-02-28 14"},"coordinates":[4369,3352]},{"type":"Point","properties":{"Station_ID":"MI-KZ-1","Station_Nam":"KALAMAZOO 6.0 SW, MI","Latitude":"42.20613","Longitude":"-85.65900","Snowdepth":"10.500","Units":"in","Rept_Date":"2021-02-28 13"},"coordinates":[2718,2894]},{"type":"Point","properties":{"Station_ID":"ME-WL-12","Station_Nam":"SEARSMONT 3.5 WNW, ME","Latitude":"44.37680","Longitude":"-69.26160","Snowdepth":"10.500","Units":"in","Rept_Date":"2021-02-28 13"},"coordinates":[6566,4514]},{"type":"Point","properties":{"Station_ID":"MA-FR-13","Station_Nam":"CONWAY 2.9 NW, MA","Latitude":"42.54419","Longitude":"-72.72743","Snowdepth":"10.500","Units":"in","Rept_Date":"2021-02-28 13"},"coordinates":[5753,3146]},{"type":"Point","properties":{"Station_ID":"IL-CR-12","Station_Nam":"MOUNT CARROLL 6.8 NNW, IL","Latitude":"42.18735","Longitude":"-90.02185","Snowdepth":"10.500","Units":"in","Rept_Date":"2021-02-28 14"},"coordinates":[1694,2880]},{"type":"Point","properties":{"Station_ID":"CT-HR-28","Station_Nam":"NORTH CANTON 0.8 SSW, CT","Latitude":"41.88514","Longitude":"-72.89729","Snowdepth":"10.500","Units":"in","Rept_Date":"2021-02-28 12"},"coordinates":[5713,2654]},{"type":"Point","properties":{"Station_ID":"HPN19_MADIS","Station_Nam":"GREENFIELD","Latitude":"45.20343","Longitude":"-93.69130","Snowdepth":"10.300","Units":"in","Rept_Date":"2021-03-01 06"},"coordinates":[833,5131]},{"type":"Point","properties":{"Station_ID":"QCX","Station_Nam":"QCX","Latitude":"51.32830","Longitude":"-70.08060","Snowdepth":"10.118","Units":"in","Rept_Date":"2021-02-28 12"},"coordinates":[6374,9702]},{"type":"Point","properties":{"Station_ID":"WMTI4","Station_Nam":"FORT DODGE,IA","Latitude":"42.50610","Longitude":"-94.20110","Snowdepth":"10.000","Units":"in","Rept_Date":"2021-02-28 13"},"coordinates":[713,3118]},{"type":"Point","properties":{"Station_ID":"WLLP1","Station_Nam":"WELLSBORO 4 SW","Latitude":"41.70030","Longitude":"-77.38940","Snowdepth":"10.000","Units":"in","Rept_Date":"2021-02-28 12"},"coordinates":[4658,2516]},{"type":"Point","properties":{"Station_ID":"WILW3","Station_Nam":"RESERVOIR","Latitude":"45.70000","Longitude":"-89.83330","Snowdepth":"10.000","Units":"in","Rept_Date":"2021-02-28 12"},"coordinates":[1738,5501]},{"type":"Point","properties":{"Station_ID":"WI-WK-34","Station_Nam":"MUKWONAGO 5.3 W, WI","Latitude":"42.85380","Longitude":"-88.43550","Snowdepth":"10.000","Units":"in","Rept_Date":"2021-02-28 13"},"coordinates":[2066,3377]},{"type":"Point","properties":{"Station_ID":"WI-SB-19","Station_Nam":"SHEBOYGAN 0.7 SSW, WI","Latitude":"43.73560","Longitude":"-87.73490","Snowdepth":"10.000","Units":"in","Rept_Date":"2021-02-28 13"},"coordinates":[2230,4035]},{"type":"Point","properties":{"Station_ID":"WI-MW-43","Station_Nam":"BROWN DEER 0.8 NW, WI","Latitude":"43.18438","Longitude":"-87.98401","Snowdepth":"10.000","Units":"in","Rept_Date":"2021-02-28 13"},"coordinates":[2172,3624]},{"type":"Point","properties":{"Station_ID":"WI-GL-4","Station_Nam":"GREEN LAKE 0.8 E, WI","Latitude":"43.84369","Longitude":"-88.94066","Snowdepth":"10.000","Units":"in","Rept_Date":"2021-02-28 13"},"coordinates":[1947,4116]},{"type":"Point","properties":{"Station_ID":"WI-BN-6","Station_Nam":"SUAMICO 4.4 WNW, WI","Latitude":"44.66111","Longitude":"-88.11780","Snowdepth":"10.000","Units":"in","Rept_Date":"2021-02-28 13"},"coordinates":[2141,4726]},{"type":"Point","properties":{"Station_ID":"VQAW3","Station_Nam":"VIROQUA","Latitude":"43.55970","Longitude":"-90.87560","Snowdepth":"10.000","Units":"in","Rept_Date":"2021-02-28 13"},"coordinates":[1493,3904]},{"type":"Point","properties":{"Station_ID":"THEN6","Station_Nam":"THERESA 4 NW","Latitude":"44.27540","Longitude":"-75.83690","Snowdepth":"10.000","Units":"in","Rept_Date":"2021-02-28 14"},"coordinates":[5023,4438]},{"type":"Point","properties":{"Station_ID":"SULW3","Station_Nam":"SUMMIT LAKE","Latitude":"45.37880","Longitude":"-89.19410","Snowdepth":"10.000","Units":"in","Rept_Date":"2021-02-28 11"},"coordinates":[1888,5262]},{"type":"Point","properties":{"Station_ID":"SPGM5","Station_Nam":"SPRING VALLEY","Latitude":"43.69330","Longitude":"-92.39260","Snowdepth":"10.000","Units":"in","Rept_Date":"2021-02-28 13"},"coordinates":[1137,4004]},{"type":"Point","properties":{"Station_ID":"SHHN6","Station_Nam":"SCHOHARIE VILLAGE","Latitude":"42.66500","Longitude":"-74.30360","Snowdepth":"10.000","Units":"in","Rept_Date":"2021-02-28 12"},"coordinates":[5383,3236]},{"type":"Point","properties":{"Station_ID":"ROCW3","Station_Nam":"ROCHESTER WWTP","Latitude":"42.72690","Longitude":"-88.22580","Snowdepth":"10.000","Units":"in","Rept_Date":"2021-02-28 13"},"coordinates":[2115,3283]},{"type":"Point","properties":{"Station_ID":"ROBM1","Station_Nam":"ROBBINSTON","Latitude":"45.08520","Longitude":"-67.12050","Snowdepth":"10.000","Units":"in","Rept_Date":"2021-03-01 05"},"coordinates":[7069,5042]},{"type":"Point","properties":{"Station_ID":"PA-PT-2","Station_Nam":"ROULETTE 1.8 NNE, PA","Latitude":"41.80759","Longitude":"-78.14140","Snowdepth":"10.000","Units":"in","Rept_Date":"2021-02-28 12"},"coordinates":[4482,2596]},{"type":"Point","properties":{"Station_ID":"PA-LH-5","Station_Nam":"SCHNECKSVILLE 2.7 SW, PA","Latitude":"40.64739","Longitude":"-75.65050","Snowdepth":"10.000","Units":"in","Rept_Date":"2021-02-28 12"},"coordinates":[5067,1731]},{"type":"Point","properties":{"Station_ID":"PA-CL-15","Station_Nam":"STRATTANVILLE 6.6 NE, PA","Latitude":"41.25777","Longitude":"-79.22476","Snowdepth":"10.000","Units":"in","Rept_Date":"2021-02-28 12"},"coordinates":[4228,2186]},{"type":"Point","properties":{"Station_ID":"NY-TM-42","Station_Nam":"ITHACA 6.4 E, NY","Latitude":"42.43350","Longitude":"-76.37860","Snowdepth":"10.000","Units":"in","Rept_Date":"2021-02-28 12"},"coordinates":[4896,3064]},{"type":"Point","properties":{"Station_ID":"NY-OT-31","Station_Nam":"MARYLAND 1.8 W, NY","Latitude":"42.53310","Longitude":"-74.92090","Snowdepth":"10.000","Units":"in","Rept_Date":"2021-02-28 13"},"coordinates":[5238,3138]},