{"type":"Topology","objects":{"snowdepth_geo":{"type":"GeometryCollection","name":"snowdepth","crs":{"type":"name","properties":{"name":"urn:ogc:def:crs:OGC:1.3:CRS84"}},"geometries":[{"type":"Point","properties":{"Station_ID":"PRKM4","Station_Nam":"MUNISING EAST","Latitude":"46.42580","Longitude":"-86.62000","Snowdepth":"76.500","Units":"in","Rept_Date":"2020-04-20 06"},"coordinates":[1798,6022]},{"type":"Point","properties":{"Station_ID":"OGIQ6","Station_Nam":"OGOKI CAMP","Latitude":"50.76680","Longitude":"-87.85820","Snowdepth":"61.100","Units":"in","Rept_Date":"2020-04-20 06"},"coordinates":[1481,9279]},{"type":"Point","properties":{"Station_ID":"CLUM4","Station_Nam":"CALUMET-TAMARACK","Latitude":"47.24550","Longitude":"-88.46790","Snowdepth":"33.000","Units":"in","Rept_Date":"2020-04-19 13"},"coordinates":[1325,6637]},{"type":"Point","properties":{"Station_ID":"PDLM4","Station_Nam":"PAINESDALE","Latitude":"47.04160","Longitude":"-88.67170","Snowdepth":"27.000","Units":"in","Rept_Date":"2020-04-19 12"},"coordinates":[1272,6484]},{"type":"Point","properties":{"Station_ID":"MNSM4","Station_Nam":"MUNISING","Latitude":"46.41210","Longitude":"-86.66250","Snowdepth":"26.000","Units":"in","Rept_Date":"2020-04-19 10"},"coordinates":[1787,6012]},{"type":"Point","properties":{"Station_ID":"MI-BG-3","Station_Nam":"L'ANSE 17.8 SE, MI","Latitude":"46.55730","Longitude":"-88.20770","Snowdepth":"19.000","Units":"in","Rept_Date":"2020-04-19 12"},"coordinates":[1391,6121]},{"type":"Point","properties":{"Station_ID":"HERM4","Station_Nam":"HERMAN,MI","Latitude":"46.65000","Longitude":"-88.33330","Snowdepth":"19.000","Units":"in","Rept_Date":"2020-04-19 13"},"coordinates":[1359,6190]},{"type":"Point","properties":{"Station_ID":"MQT","Station_Nam":"MARQUETTE, MI","Latitude":"46.53140","Longitude":"-87.54920","Snowdepth":"17.000","Units":"in","Rept_Date":"2020-04-20 06"},"coordinates":[1560,6101]},{"type":"Point","properties":{"Station_ID":"KSGM4","Station_Nam":"KEARSARGE","Latitude":"47.27520","Longitude":"-88.41700","Snowdepth":"15.000","Units":"in","Rept_Date":"2020-04-19 12"},"coordinates":[1338,6659]},{"type":"Point","properties":{"Station_ID":"DVLQ6","Station_Nam":"DEVIOUS LAKE","Latitude":"49.19890","Longitude":"-87.76440","Snowdepth":"14.960","Units":"in","Rept_Date":"2020-04-20 06"},"coordinates":[1505,8102]},{"type":"Point","properties":{"Station_ID":"PTLQ6","Station_Nam":"PORTAGE LAKE","Latitude":"49.06950","Longitude":"-86.65940","Snowdepth":"14.530","Units":"in","Rept_Date":"2020-04-20 06"},"coordinates":[1788,8005]},{"type":"Point","properties":{"Station_ID":"TRIQ6","Station_Nam":"TRIO LAKE","Latitude":"49.22880","Longitude":"-87.22920","Snowdepth":"14.490","Units":"in","Rept_Date":"2020-04-20 06"},"coordinates":[1642,8125]},{"type":"Point","properties":{"Station_ID":"QNCM4","Station_Nam":"QUINCY HILL","Latitude":"47.13640","Longitude":"-88.57950","Snowdepth":"14.000","Units":"in","Rept_Date":"2020-04-19 11"},"coordinates":[1296,6555]},{"type":"Point","properties":{"Station_ID":"SVBQ6","Station_Nam":"SAVANT BASE","Latitude":"50.28730","Longitude":"-90.65670","Snowdepth":"12.680","Units":"in","Rept_Date":"2020-04-20 06"},"coordinates":[763,8919]},{"type":"Point","properties":{"Station_ID":"NH-CS-10","Station_Nam":"RANDOLPH 1.4 NE, NH","Latitude":"44.38824","Longitude":"-71.26950","Snowdepth":"12.000","Units":"in","Rept_Date":"2020-04-19 11"},"coordinates":[5734,4493]},{"type":"Point","properties":{"Station_ID":"CAN-NB-13","Station_Nam":"BATHURST 3.8 NW, CAN","Latitude":"47.64212","Longitude":"-65.68756","Snowdepth":"12.000","Units":"in","Rept_Date":"2020-04-19 10"},"coordinates":[7165,6934]},{"type":"Point","properties":{"Station_ID":"STEM4","Station_Nam":"STEUBEN","Latitude":"46.18530","Longitude":"-86.46410","Snowdepth":"11.000","Units":"in","Rept_Date":"2020-04-19 13"},"coordinates":[1838,5842]},{"type":"Point","properties":{"Station_ID":"ME-AR-18","Station_Nam":"NEW SWEDEN 4.9 NNW, ME","Latitude":"47.01080","Longitude":"-68.14390","Snowdepth":"9.500","Units":"in","Rept_Date":"2020-04-19 11"},"coordinates":[6535,6461]},{"type":"Point","properties":{"Station_ID":"CAN-NL-82","Station_Nam":"GANDER 2.7 NW, CAN","Latitude":"48.97737","Longitude":"-54.63396","Snowdepth":"9.400","Units":"in","Rept_Date":"2020-04-19 09"},"coordinates":[9999,7936]},{"type":"Point","properties":{"Station_ID":"WLFM5","Station_Nam":"WOLF RIDGE ENVIRON LEARNING CENTER","Latitude":"47.38240","Longitude":"-91.19730","Snowdepth":"9.000","Units":"in","Rept_Date":"2020-04-19 12"},"coordinates":[625,6740]},{"type":"Point","properties":{"Station_ID":"AUDQ6","Station_Nam":"AUDEN","Latitude":"48.52600","Longitude":"-82.57570","Snowdepth":"8.900","Units":"in","Rept_Date":"2020-04-20 06"},"coordinates":[2835,7598]},{"type":"Point","properties":{"Station_ID":"KMWN","Station_Nam":"MOUNT WASHINGTON","Latitude":"44.26666","Longitude":"-71.30000","Snowdepth":"8.000","Units":"in","Rept_Date":"2020-04-20 06"},"coordinates":[5726,4402]},{"type":"Point","properties":{"Station_ID":"CAN-NL-65","Station_Nam":"KIPPENS 0.7 NE, CA","Latitude":"48.55436","Longitude":"-58.61850","Snowdepth":"7.500","Units":"in","Rept_Date":"2020-04-19 11"},"coordinates":[8977,7619]},{"type":"Point","properties":{"Station_ID":"MWN","Station_Nam":"MOUNT WASHINGTON","Latitude":"44.26670","Longitude":"-71.30000","Snowdepth":"7.000","Units":"in","Rept_Date":"2020-04-19 12"},"coordinates":[5726,4402]},{"type":"Point","properties":{"Station_ID":"CAN-NB-11","Station_Nam":"MIRAMICHI 3.3 S, CAN","Latitude":"46.99343","Longitude":"-65.50690","Snowdepth":"6.500","Units":"in","Rept_Date":"2020-04-19 12"},"coordinates":[7211,6448]},{"type":"Point","properties":{"Station_ID":"MI-HG-1","Station_Nam":"HOUGHTON 1.6 ESE, MI","Latitude":"47.10774","Longitude":"-88.52940","Snowdepth":"6.000","Units":"in","Rept_Date":"2020-04-19 12"},"coordinates":[1309,6534]},{"type":"Point","properties":{"Station_ID":"MI-GG-4","Station_Nam":"WATERSMEET 5.0 SE, MI","Latitude":"46.20333","Longitude":"-89.13170","Snowdepth":"6.000","Units":"in","Rept_Date":"2020-04-19 13"},"coordinates":[1154,5855]},{"type":"Point","properties":{"Station_ID":"IBLM5","Station_Nam":"ISABELLA 14W","Latitude":"47.59360","Longitude":"-91.65140","Snowdepth":"6.000","Units":"in","Rept_Date":"2020-04-19 14"},"coordinates":[508,6898]},{"type":"Point","properties":{"Station_ID":"FISM1","Station_Nam":"FORT KENT COOP","Latitude":"47.23850","Longitude":"-68.61240","Snowdepth":"6.000","Units":"in","Rept_Date":"2020-04-19 11"},"coordinates":[6415,6632]},{"type":"Point","properties":{"Station_ID":"SOCQ6","Station_Nam":"SOCKET LAKE","Latitude":"50.77870","Longitude":"-91.79300","Snowdepth":"4.410","Units":"in","Rept_Date":"2020-04-20 06"},"coordinates":[472,9288]},{"type":"Point","properties":{"Station_ID":"WI-IR-3","Station_Nam":"PENCE 0.1 E, WI","Latitude":"46.41555","Longitude":"-90.27013","Snowdepth":"4.000","Units":"in","Rept_Date":"2020-04-19 12"},"coordinates":[863,6014]},{"type":"Point","properties":{"Station_ID":"RGNM1","Station_Nam":"RANGELEY 2NW","Latitude":"44.98940","Longitude":"-70.67220","Snowdepth":"4.000","Units":"in","Rept_Date":"2020-04-19 15"},"coordinates":[5887,4944]},{"type":"Point","properties":{"Station_ID":"KISM4","Station_Nam":"K.I. SAWYER WWTP","Latitude":"46.33410","Longitude":"-87.37790","Snowdepth":"4.000","Units":"in","Rept_Date":"2020-04-19 12"},"coordinates":[1604,5953]},{"type":"Point","properties":{"Station_ID":"CJRP1","Station_Nam":"COUDERSPORT 7SE","Latitude":"41.73920","Longitude":"-77.97110","Snowdepth":"4.000","Units":"in","Rept_Date":"2020-04-19 11"},"coordinates":[4016,2506]},{"type":"Point","properties":{"Station_ID":"VT-CL-3","Station_Nam":"GROTON 4.4 WSW, VT","Latitude":"44.19440","Longitude":"-72.28240","Snowdepth":"3.500","Units":"in","Rept_Date":"2020-04-19 10"},"coordinates":[5474,4348]},{"type":"Point","properties":{"Station_ID":"HPN04_MADIS","Station_Nam":"HANOVER","Latitude":"45.16770","Longitude":"-93.63430","Snowdepth":"3.130","Units":"in","Rept_Date":"2020-04-20 06"},"coordinates":[0,5078]},{"type":"Point","properties":{"Station_ID":"KABQ6","Station_Nam":"CAB LAKE","Latitude":"49.59950","Longitude":"-89.17990","Snowdepth":"3.070","Units":"in","Rept_Date":"2020-04-20 06"},"coordinates":[1142,8403]},{"type":"Point","properties":{"Station_ID":"WI-VL-10","Station_Nam":"LAND O LAKES 4.3 WNW, WI","Latitude":"46.17440","Longitude":"-89.30380","Snowdepth":"3.000","Units":"in","Rept_Date":"2020-04-19 12"},"coordinates":[1110,5833]},{"type":"Point","properties":{"Station_ID":"VT-OL-12","Station_Nam":"GREENSBORO 3.9 NNE, VT","Latitude":"44.63100","Longitude":"-72.28000","Snowdepth":"3.000","Units":"in","Rept_Date":"2020-04-19 09"},"coordinates":[5475,4675]},{"type":"Point","properties":{"Station_ID":"PRDM4","Station_Nam":"PARADISE","Latitude":"46.60380","Longitude":"-85.03960","Snowdepth":"3.000","Units":"in","Rept_Date":"2020-04-19 11"},"coordinates":[2204,6155]},{"type":"Point","properties":{"Station_ID":"PA-CR-1","Station_Nam":"EMPORIUM 2.6 S, PA","Latitude":"41.47342","Longitude":"-78.24330","Snowdepth":"3.000","Units":"in","Rept_Date":"2020-04-19 12"},"coordinates":[3946,2307]},{"type":"Point","properties":{"Station_ID":"MN-CK-6","Station_Nam":"GRAND MARAIS 4.4 W, MN","Latitude":"47.74865","Longitude":"-90.43760","Snowdepth":"3.000","Units":"in","Rept_Date":"2020-04-19 12"},"coordinates":[820,7014]},{"type":"Point","properties":{"Station_ID":"MI-MQ-19","Station_Nam":"ISHPEMING 7.2 SW, MI","Latitude":"46.40550","Longitude":"-87.75670","Snowdepth":"3.000","Units":"in","Rept_Date":"2020-04-19 10"},"coordinates":[1507,6007]},{"type":"Point","properties":{"Station_ID":"LVDW3","Station_Nam":"LAC VIEUX DESERT","Latitude":"46.12110","Longitude":"-89.07580","Snowdepth":"3.000","Units":"in","Rept_Date":"2020-04-19 14"},"coordinates":[1169,5793]},{"type":"Point","properties":{"Station_ID":"LAPP1","Station_Nam":"LAPORTE,PA","Latitude":"41.42470","Longitude":"-76.49250","Snowdepth":"3.000","Units":"in","Rept_Date":"2020-04-19 10"},"coordinates":[4395,2270]},{"type":"Point","properties":{"Station_ID":"CT-LT-7","Station_Nam":"LITCHFIELD 2.3 NNE, CT","Latitude":"41.77445","Longitude":"-73.16900","Snowdepth":"3.000","Units":"in","Rept_Date":"2020-04-19 11"},"coordinates":[5247,2532]},{"type":"Point","properties":{"Station_ID":"COVP1","Station_Nam":"COVINGTON 2WSW","Latitude":"41.73330","Longitude":"-77.11670","Snowdepth":"3.000","Units":"in","Rept_Date":"2020-04-19 11"},"coordinates":[4235,2501]},{"type":"Point","properties":{"Station_ID":"BLHM3","Station_Nam":"BLUE HILL COOP","Latitude":"42.21230","Longitude":"-71.11370","Snowdepth":"3.000","Units":"in","Rept_Date":"2020-04-19 11"},"coordinates":[5774,2861]},{"type":"Point","properties":{"Station_ID":"BGBM4","Station_Nam":"BIG BAY 1NW","Latitude":"46.83250","Longitude":"-87.75040","Snowdepth":"3.000","Units":"in","Rept_Date":"2020-04-19 12"},"coordinates":[1509,6327]},{"type":"Point","properties":{"Station_ID":"CATQ6","Station_Nam":"CAT LAKE","Latitude":"51.72690","Longitude":"-91.82210","Snowdepth":"2.990","Units":"in","Rept_Date":"2020-04-20 06"},"coordinates":[465,9999]},{"type":"Point","properties":{"Station_ID":"MA-WR-6","Station_Nam":"SOUTHBRIDGE 0.6 E, MA","Latitude":"42.08422","Longitude":"-72.02250","Snowdepth":"2.800","Units":"in","Rept_Date":"2020-04-19 11"},"coordinates":[5541,2765]},{"type":"Point","properties":{"Station_ID":"CAN-NS-163","Station_Nam":"SYDNEY MINES 2.2 WNW, CAN","Latitude":"46.24851","Longitude":"-60.25161","Snowdepth":"2.800","Units":"in","Rept_Date":"2020-04-19 11"},"coordinates":[8559,5889]},{"type":"Point","properties":{"Station_ID":"NY-DL-23","Station_Nam":"LONG EDDY 6.5 NNE, NY","Latitude":"41.93510","Longitude":"-75.07840","Snowdepth":"2.500","Units":"in","Rept_Date":"2020-04-19 12"},"coordinates":[4757,2653]},{"type":"Point","properties":{"Station_ID":"WI-VL-9","Station_Nam":"LAND O' LAKES 11.7 W, WI","Latitude":"46.19023","Longitude":"-89.45790","Snowdepth":"2.000","Units":"in","Rept_Date":"2020-04-19 12"},"coordinates":[1071,5845]},{"type":"Point","properties":{"Station_ID":"NY-DL-28","Station_Nam":"FLEISCHMANNS 5.7 N, NY","Latitude":"42.23779","Longitude":"-74.52335","Snowdepth":"2.000","Units":"in","Rept_Date":"2020-04-19 11"},"coordinates":[4900,2880]},{"type":"Point","properties":{"Station_ID":"NFKC3","Station_Nam":"NORFOLK","Latitude":"41.97250","Longitude":"-73.22080","Snowdepth":"2.000","Units":"in","Rept_Date":"2020-04-19 12"},"coordinates":[5234,2681]},{"type":"Point","properties":{"Station_ID":"MA-WR-41","Station_Nam":"AUBURN 2.6 SW, MA","Latitude":"42.17336","Longitude":"-71.86869","Snowdepth":"2.000","Units":"in","Rept_Date":"2020-04-19 12"},"coordinates":[5580,2832]},{"type":"Point","properties":{"Station_ID":"MA-HS-7","Station_Nam":"PLAINFIELD 2.2 SW, MA","Latitude":"42.49272","Longitude":"-72.94540","Snowdepth":"2.000","Units":"in","Rept_Date":"2020-04-19 12"},"coordinates":[5304,3071]},{"type":"Point","properties":{"Station_ID":"LNOW3","Station_Nam":"LAND O LAKES","Latitude":"46.19000","Longitude":"-89.45700","Snowdepth":"2.000","Units":"in","Rept_Date":"2020-04-19 12"},"coordinates":[1071,5845]},{"type":"Point","properties":{"Station_ID":"GGRM4","Station_Nam":"GREEN GARDEN NO.2","Latitude":"46.45330","Longitude":"-87.30380","Snowdepth":"2.000","Units":"in","Rept_Date":"2020-04-19 12"},"coordinates":[1623,6043]},{"type":"Point","properties":{"Station_ID":"EHYM3","Station_Nam":"EAST HAWLEY","Latitude":"42.57410","Longitude":"-72.86790","Snowdepth":"2.000","Units":"in","Rept_Date":"2020-04-19 12"},"coordinates":[5324,3132]},{"type":"Point","properties":{"Station_ID":"CT-TL-33","Station_Nam":"TOLLAND 3.6 NNE, CT","Latitude":"41.91859","Longitude":"-72.33910","Snowdepth":"2.000","Units":"in","Rept_Date":"2020-04-19 11"},"coordinates":[5460,2641]},{"type":"Point","properties":{"Station_ID":"COVM4","Station_Nam":"COVINGTON","Latitude":"46.55880","Longitude":"-88.54190","Snowdepth":"2.000","Units":"in","Rept_Date":"2020-04-19 12"},"coordinates":[1306,6122]},{"type":"Point","properties":{"Station_ID":"CAN-NB-96","Station_Nam":"SAINT-IGNACE 2.6 NE, CAN","Latitude":"46.71424","Longitude":"-65.05609","Snowdepth":"2.000","Units":"in","Rept_Date":"2020-04-19 10"},"coordinates":[7327,6238]},{"type":"Point","properties":{"Station_ID":"CAN-NS-166","Station_Nam":"PORT MORIEN 5.7 SSE, CAN","Latitude":"46.08367","Longitude":"-59.85858","Snowdepth":"1.800","Units":"in","Rept_Date":"2020-04-19 09"},"coordinates":[8660,5765]},{"type":"Point","properties":{"Station_ID":"RI-PR-50","Station_Nam":"HARRISVILLE 1.2 SSE, RI","Latitude":"41.95128","Longitude":"-71.67171","Snowdepth":"1.500","Units":"in","Rept_Date":"2020-04-19 11"},"coordinates":[5631,2665]},{"type":"Point","properties":{"Station_ID":"NY-GR-14","Station_Nam":"LEXINGTON 1.5 N, NY","Latitude":"42.26024","Longitude":"-74.35875","Snowdepth":"1.500","Units":"in","Rept_Date":"2020-04-19 11"},"coordinates":[4942,2897]},{"type":"Point","properties":{"Station_ID":"MA-MD-158","Station_Nam":"SHERBORN 1.1 NW, MA","Latitude":"42.24460","Longitude":"-71.38130","Snowdepth":"1.500","Units":"in","Rept_Date":"2020-04-19 10"},"coordinates":[5705,2885]},{"type":"Point","properties":{"Station_ID":"CT-WN-6","Station_Nam":"DAYVILLE 2.0 ENE, CT","Latitude":"41.85585","Longitude":"-71.85170","Snowdepth":"1.500","Units":"in","Rept_Date":"2020-04-19 13"},"coordinates":[5585,2593]},{"type":"Point","properties":{"Station_ID":"CT-LT-29","Station_Nam":"GOSHEN 0.5 NW, CT","Latitude":"41.83707","Longitude":"-73.23003","Snowdepth":"1.500","Units":"in","Rept_Date":"2020-04-19 10"},"coordinates":[5231,2579]},{"type":"Point","properties":{"Station_ID":"CAN-NS-60","Station_Nam":"SYDNEY FORKS, CAN","Latitude":"46.05645","Longitude":"-60.31510","Snowdepth":"1.500","Units":"in","Rept_Date":"2020-04-19 12"},"coordinates":[8542,5745]},{"type":"Point","properties":{"Station_ID":"CAN-NS-19","Station_Nam":"DARTMOUTH 5.7 E, CA","Latitude":"44.66618","Longitude":"-63.49540","Snowdepth":"1.200","Units":"in","Rept_Date":"2020-04-19 11"},"coordinates":[7727,4702]},{"type":"Point","properties":{"Station_ID":"ZNOM4","Station_Nam":"NORWAY","Latitude":"45.77810","Longitude":"-87.89560","Snowdepth":"1.000","Units":"in","Rept_Date":"2020-04-19 12"},"coordinates":[1471,5536]},{"type":"Point","properties":{"Station_ID":"WTNM4","Station_Nam":"WATTON 2WSW","Latitude":"46.52660","Longitude":"-88.64240","Snowdepth":"1.000","Units":"in","Rept_Date":"2020-04-19 12"},"coordinates":[1280,6098]},{"type":"Point","properties":{"Station_ID":"WORM3","Station_Nam":"WORTHINGTON","Latitude":"42.38690","Longitude":"-72.92100","Snowdepth":"1.000","Units":"in","Rept_Date":"2020-04-19 11"},"coordinates":[5311,2992]},{"type":"Point","properties":{"Station_ID":"WALN6","Station_Nam":"WALTON 2","Latitude":"42.18470","Longitude":"-75.14550","Snowdepth":"1.000","Units":"in","Rept_Date":"2020-04-19 09"},"coordinates":[4740,2840]},{"type":"Point","properties":{"Station_ID":"WALM3","Station_Nam":"WALPOLE 2","Latitude":"42.16090","Longitude":"-71.24610","Snowdepth":"1.000","Units":"in","Rept_Date":"2020-04-19 11"},"coordinates":[5740,2822]},{"type":"Point","properties":{"Station_ID":"SNOW2","Station_Nam":"SNOWSHOE","Latitude":"38.39900","Longitude":"-79.99490","Snowdepth":"1.000","Units":"in","Rept_Date":"2020-04-19 10"},"coordinates":[3497,0]},{"type":"Point","properties":{"Station_ID":"SBRM3","Station_Nam":"SOUTHBRIDGE","Latitude":"42.05830","Longitude":"-72.07210","Snowdepth":"1.000","Units":"in","Rept_Date":"2020-04-19 11"},"coordinates":[5528,2745]},{"type":"Point","properties":{"Station_ID":"ROWM3","Station_Nam":"ROWE 3NE","Latitude":"42.73500","Longitude":"-72.86920","Snowdepth":"1.000","Units":"in","Rept_Date":"2020-04-19 11"},"coordinates":[5324,3253]},{"type":"Point","properties":{"Station_ID":"RKHN6","Station_Nam":"ROCK HILL 3 SW","Latitude":"41.59170","Longitude":"-74.61410","Snowdepth":"1.000","Units":"in","Rept_Date":"2020-04-19 11"},"coordinates":[4876,2395]},{"type":"Point","properties":{"Station_ID":"RI-PR-51","Station_Nam":"NORTH SMITHFIELD 0.6 S, RI","Latitude":"41.95440","Longitude":"-71.54944","Snowdepth":"1.000","Units":"in","Rept_Date":"2020-04-19 10"},"coordinates":[5662,2667]},{"type":"Point","properties":{"Station_ID":"RI-PR-33","Station_Nam":"GREENVILLE 0.7 NNW, RI","Latitude":"41.88890","Longitude":"-71.56030","Snowdepth":"1.000","Units":"in","Rept_Date":"2020-04-19 11"},"coordinates":[5659,2618]},{"type":"Point","properties":{"Station_ID":"PLEP1","Station_Nam":"PLEASANT MOUNT 1 W","Latitude":"41.73940","Longitude":"-75.44650","Snowdepth":"1.000","Units":"in","Rept_Date":"2020-04-19 11"},"coordinates":[4663,2506]},{"type":"Point","properties":{"Station_ID":"PA-SS-16","Station_Nam":"NEW MILFORD 1.6 SSE, PA","Latitude":"41.85540","Longitude":"-75.71110","Snowdepth":"1.000","Units":"in","Rept_Date":"2020-04-19 13"},"coordinates":[4595,2593]},{"type":"Point","properties":{"Station_ID":"NY-DL-32","Station_Nam":"DELHI 6.6 WNW, NY","Latitude":"42.32118","Longitude":"-75.02991","Snowdepth":"1.000","Units":"in","Rept_Date":"2020-04-19 11"},"coordinates":[4770,2943]},{"type":"Point","properties":{"Station_ID":"NH-HL-48","Station_Nam":"GREENVILLE 1.1 ENE, NH","Latitude":"42.77674","Longitude":"-71.77990","Snowdepth":"1.000","Units":"in","Rept_Date":"2020-04-19 12"},"coordinates":[5603,3284]},{"type":"Point","properties":{"Station_ID":"NH-CR-15","Station_Nam":"JACKSON 3.7 NW, NH","Latitude":"44.19069","Longitude":"-71.22598","Snowdepth":"1.000","Units":"in","Rept_Date":"2020-04-19 11"},"coordinates":[5745,4345]},{"type":"Point","properties":{"Station_ID":"MILM3","Station_Nam":"MILFORD","Latitude":"42.16330","Longitude":"-71.51190","Snowdepth":"1.000","Units":"in","Rept_Date":"2020-04-19 11"},"coordinates":[5672,2824]},{"type":"Point","properties":{"Station_ID":"MA-WR-42","Station_Nam":"NORTHBOROUGH 2.3 N, MA","Latitude":"42.34535","Longitude":"-71.64390","Snowdepth":"1.000","Units":"in","Rept_Date":"2020-04-19 11"},"coordinates":[5638,2961]},{"type":"Point","properties":{"Station_ID":"MA-MD-55","Station_Nam":"HOLLISTON 0.7 W, MA","Latitude":"42.19946","Longitude":"-71.44789","Snowdepth":"1.000","Units":"in","Rept_Date":"2020-04-19 12"},"coordinates":[5688,2851]},{"type":"Point","properties":{"Station_ID":"JCBM4","Station_Nam":"JACOBSVILLE","Latitude":"47.00830","Longitude":"-88.43180","Snowdepth":"1.000","Units":"in","Rept_Date":"2020-04-19 11"},"coordinates":[1334,6459]},{"type":"Point","properties":{"Station_ID":"IWOM4","Station_Nam":"IRONWOOD#2","Latitude":"46.46520","Longitude":"-90.13820","Snowdepth":"1.000","Units":"in","Rept_Date":"2020-04-19 12"},"coordinates":[896,6052]},{"type":"Point","properties":{"Station_ID":"IMNM4","Station_Nam":"IRON MOUTAIN 5N","Latitude":"45.87580","Longitude":"-88.04030","Snowdepth":"1.000","Units":"in","Rept_Date":"2020-04-19 23"},"coordinates":[1434,5609]},{"type":"Point","properties":{"Station_ID":"GLTP1","Station_Nam":"GALETON,PA","Latitude":"41.73330","Longitude":"-77.63330","Snowdepth":"1.000","Units":"in","Rept_Date":"2020-04-19 12"},"coordinates":[4102,2501]},{"type":"Point","properties":{"Station_ID":"GHMN3","Station_Nam":"PINKHAM NOTCH","Latitude":"44.25800","Longitude":"-71.25250","Snowdepth":"1.000","Units":"in","Rept_Date":"2020-04-19 10"},"coordinates":[5738,4396]},{"type":"Point","properties":{"Station_ID":"ELYM5","Station_Nam":"ELY","Latitude":"47.90560","Longitude":"-91.82830","Snowdepth":"1.000","Units":"in","Rept_Date":"2020-04-19 13"},"coordinates":[463,7132]},{"type":"Point","properties":{"Station_ID":"CT-LT-9","Station_Nam":"NEW HARTFORD CENTER 3.2 SW, CT","Latitude":"41.84170","Longitude":"-73.00920","Snowdepth":"1.000","Units":"in","Rept_Date":"2020-04-19 11"},"coordinates":[5288,2583]},{"type":"Point","properties":{"Station_ID":"CNRM1","Station_Nam":"CONNOR TWP","Latitude":"46.95830","Longitude":"-68.03330","Snowdepth":"1.000","Units":"in","Rept_Date":"2020-04-19 12"},"coordinates":[6564,6421]},{"type":"Point","properties":{"Station_ID":"CAN-NS-18","Station_Nam":"HAMMONDS PLAINS 2.1 NNW, CA","Latitude":"44.75181","Longitude":"-63.79100","Snowdepth":"1.000","Units":"in","Rept_Date":"2020-04-19 10"},"coordinates":[7651,4766]},{"type":"Point","properties":{"Station_ID":"BGMN6","Station_Nam":"BINGHAMTON WFO","Latitude":"42.21160","Longitude":"-75.98580","Snowdepth":"1.000","Units":"in","Rept_Date":"2020-04-20 04"},"coordinates":[4525,2860]},{"type":"Point","properties":{"Station_ID":"BAKC3","Station_Nam":"BAKERSVILLE","Latitude":"41.84180","Longitude":"-73.00850","Snowdepth":"1.000","Units":"in","Rept_Date":"2020-04-19 11"},"coordinates":[5288,2583]}]}},"arcs":[],"transform":{"scale":[0.0039004240424042403,0.0013329232923292326],"translate":[-93.6343,38.399]}}