{"type":"Topology","objects":{"snowdepth_geo":{"type":"GeometryCollection","name":"snowdepth","crs":{"type":"name","properties":{"name":"urn:ogc:def:crs:OGC:1.3:CRS84"}},"geometries":[{"type":"Point","properties":{"Station_ID":"PRKM4","Station_Nam":"MUNISING EAST","Latitude":"46.42580","Longitude":"-86.62000","Snowdepth":"76.500","Units":"in","Rept_Date":"2020-11-28 06"},"coordinates":[3460,3401]},{"type":"Point","properties":{"Station_ID":"QOU","Station_Nam":"QOU","Latitude":"50.79250","Longitude":"-69.67470","Snowdepth":"12.638","Units":"in","Rept_Date":"2020-11-27 12"},"coordinates":[9082,8836]},{"type":"Point","properties":{"Station_ID":"QTV","Station_Nam":"QTV","Latitude":"49.66000","Longitude":"-69.35690","Snowdepth":"11.850","Units":"in","Rept_Date":"2020-11-27 12"},"coordinates":[9188,7426]},{"type":"Point","properties":{"Station_ID":"MLZ","Station_Nam":"MLZ","Latitude":"50.66170","Longitude":"-68.82360","Snowdepth":"10.630","Units":"in","Rept_Date":"2020-11-27 12"},"coordinates":[9364,8673]},{"type":"Point","properties":{"Station_ID":"QGD","Station_Nam":"QGD","Latitude":"51.11140","Longitude":"-67.13940","Snowdepth":"9.685","Units":"in","Rept_Date":"2020-11-27 12"},"coordinates":[9923,9233]},{"type":"Point","properties":{"Station_ID":"TRIQ6","Station_Nam":"TRIO LAKE","Latitude":"49.22880","Longitude":"-87.22920","Snowdepth":"9.250","Units":"in","Rept_Date":"2020-11-28 06"},"coordinates":[3258,6890]},{"type":"Point","properties":{"Station_ID":"QLM","Station_Nam":"QLM","Latitude":"48.92030","Longitude":"-70.25280","Snowdepth":"8.976","Units":"in","Rept_Date":"2020-11-27 12"},"coordinates":[8890,6506]},{"type":"Point","properties":{"Station_ID":"MFU","Station_Nam":"MFU","Latitude":"51.52170","Longitude":"-66.91110","Snowdepth":"8.425","Units":"in","Rept_Date":"2020-11-27 12"},"coordinates":[9999,9744]},{"type":"Point","properties":{"Station_ID":"AUDQ6","Station_Nam":"AUDEN","Latitude":"48.52600","Longitude":"-82.57570","Snowdepth":"8.310","Units":"in","Rept_Date":"2020-11-28 06"},"coordinates":[4802,6015]},{"type":"Point","properties":{"Station_ID":"DVLQ6","Station_Nam":"DEVIOUS LAKE","Latitude":"49.19890","Longitude":"-87.76440","Snowdepth":"7.720","Units":"in","Rept_Date":"2020-11-28 06"},"coordinates":[3080,6853]},{"type":"Point","properties":{"Station_ID":"PTLQ6","Station_Nam":"PORTAGE LAKE","Latitude":"49.06950","Longitude":"-86.65940","Snowdepth":"6.690","Units":"in","Rept_Date":"2020-11-28 06"},"coordinates":[3447,6691]},{"type":"Point","properties":{"Station_ID":"QLB","Station_Nam":"QLB","Latitude":"50.72360","Longitude":"-75.10000","Snowdepth":"6.102","Units":"in","Rept_Date":"2020-11-27 12"},"coordinates":[7282,8750]},{"type":"Point","properties":{"Station_ID":"QCX","Station_Nam":"QCX","Latitude":"51.32830","Longitude":"-70.08060","Snowdepth":"6.063","Units":"in","Rept_Date":"2020-11-27 12"},"coordinates":[8947,9503]},{"type":"Point","properties":{"Station_ID":"QCO","Station_Nam":"QCO","Latitude":"51.45280","Longitude":"-72.20110","Snowdepth":"6.063","Units":"in","Rept_Date":"2020-11-27 12"},"coordinates":[8244,9658]},{"type":"Point","properties":{"Station_ID":"QGT","Station_Nam":"QGT","Latitude":"49.64720","Longitude":"-67.62640","Snowdepth":"5.591","Units":"in","Rept_Date":"2020-11-27 12"},"coordinates":[9762,7411]},{"type":"Point","properties":{"Station_ID":"QLP","Station_Nam":"QLP","Latitude":"48.13920","Longitude":"-72.63830","Snowdepth":"5.433","Units":"in","Rept_Date":"2020-11-27 12"},"coordinates":[8099,5534]},{"type":"Point","properties":{"Station_ID":"QTM","Station_Nam":"QTM","Latitude":"51.05780","Longitude":"-72.57190","Snowdepth":"5.276","Units":"in","Rept_Date":"2020-11-27 12"},"coordinates":[8121,9166]},{"type":"Point","properties":{"Station_ID":"QIQ","Station_Nam":"QIQ","Latitude":"49.82390","Longitude":"-68.54310","Snowdepth":"5.039","Units":"in","Rept_Date":"2020-11-27 12"},"coordinates":[9458,7630]},{"type":"Point","properties":{"Station_ID":"QWE","Station_Nam":"QWE","Latitude":"47.84610","Longitude":"-73.80670","Snowdepth":"5.000","Units":"in","Rept_Date":"2020-11-27 12"},"coordinates":[7711,5169]},{"type":"Point","properties":{"Station_ID":"ME-AR-18","Station_Nam":"NEW SWEDEN 4.9 NNW, ME","Latitude":"47.01080","Longitude":"-68.14390","Snowdepth":"5.000","Units":"in","Rept_Date":"2020-11-27 12"},"coordinates":[9590,4129]},{"type":"Point","properties":{"Station_ID":"FISM1","Station_Nam":"FORT KENT COOP","Latitude":"47.23850","Longitude":"-68.61240","Snowdepth":"5.000","Units":"in","Rept_Date":"2020-11-27 12"},"coordinates":[9435,4413]},{"type":"Point","properties":{"Station_ID":"CAN-ON-208","Station_Nam":"PAKENHAM 7.8 NNW, CAN","Latitude":"45.39166","Longitude":"-76.34111","Snowdepth":"5.000","Units":"in","Rept_Date":"2020-11-27 12"},"coordinates":[6870,2114]},{"type":"Point","properties":{"Station_ID":"QMA","Station_Nam":"QMA","Latitude":"50.10330","Longitude":"-70.47190","Snowdepth":"4.646","Units":"in","Rept_Date":"2020-11-27 12"},"coordinates":[8818,7978]},{"type":"Point","properties":{"Station_ID":"KABQ6","Station_Nam":"CAB LAKE","Latitude":"49.59950","Longitude":"-89.17990","Snowdepth":"4.370","Units":"in","Rept_Date":"2020-11-28 06"},"coordinates":[2610,7351]},{"type":"Point","properties":{"Station_ID":"CATQ6","Station_Nam":"CAT LAKE","Latitude":"51.72690","Longitude":"-91.82210","Snowdepth":"4.330","Units":"in","Rept_Date":"2020-11-28 06"},"coordinates":[1734,9999]},{"type":"Point","properties":{"Station_ID":"OGIQ6","Station_Nam":"OGOKI CAMP","Latitude":"50.76680","Longitude":"-87.85820","Snowdepth":"4.290","Units":"in","Rept_Date":"2020-11-28 06"},"coordinates":[3049,8804]},{"type":"Point","properties":{"Station_ID":"QGO","Station_Nam":"QGO","Latitude":"48.85500","Longitude":"-74.20640","Snowdepth":"4.213","Units":"in","Rept_Date":"2020-11-27 12"},"coordinates":[7578,6425]},{"type":"Point","properties":{"Station_ID":"MI-BG-3","Station_Nam":"THREE LAKES, MI","Latitude":"46.55730","Longitude":"-88.20770","Snowdepth":"4.200","Units":"in","Rept_Date":"2020-11-27 13"},"coordinates":[2933,3565]},{"type":"Point","properties":{"Station_ID":"FTHQ6","Station_Nam":"FORT HOPE","Latitude":"51.55820","Longitude":"-87.90510","Snowdepth":"4.130","Units":"in","Rept_Date":"2020-11-28 06"},"coordinates":[3033,9789]},{"type":"Point","properties":{"Station_ID":"MRL","Station_Nam":"MRL","Latitude":"51.28330","Longitude":"-68.84060","Snowdepth":"4.094","Units":"in","Rept_Date":"2020-11-27 12"},"coordinates":[9359,9447]},{"type":"Point","properties":{"Station_ID":"WLFM5","Station_Nam":"WOLF RIDGE ENVIRON LEARNING CENTER","Latitude":"47.38240","Longitude":"-91.19730","Snowdepth":"4.000","Units":"in","Rept_Date":"2020-11-27 13"},"coordinates":[1941,4592]},{"type":"Point","properties":{"Station_ID":"TOGM5","Station_Nam":"CELINA 2E","Latitude":"47.86630","Longitude":"-93.02660","Snowdepth":"4.000","Units":"in","Rept_Date":"2020-11-27 14"},"coordinates":[1334,5194]},{"type":"Point","properties":{"Station_ID":"MN-CK-18","Station_Nam":"GRAND MARAIS 4.4 WSW, MN","Latitude":"47.74462","Longitude":"-90.43796","Snowdepth":"4.000","Units":"in","Rept_Date":"2020-11-27 13"},"coordinates":[2193,5042]},{"type":"Point","properties":{"Station_ID":"MMNV1","Station_Nam":"MT. MANSFIELD","Latitude":"44.52480","Longitude":"-72.81540","Snowdepth":"4.000","Units":"in","Rept_Date":"2020-11-27 21"},"coordinates":[8040,1035]},{"type":"Point","properties":{"Station_ID":"LEIM5","Station_Nam":"ORR 3E","Latitude":"48.05810","Longitude":"-92.75220","Snowdepth":"4.000","Units":"in","Rept_Date":"2020-11-27 12"},"coordinates":[1425,5433]},{"type":"Point","properties":{"Station_ID":"INL","Station_Nam":"FALLS INTERNATIONAL ARPT","Latitude":"48.56640","Longitude":"-93.40310","Snowdepth":"4.000","Units":"in","Rept_Date":"2020-11-28 00"},"coordinates":[1209,6065]},{"type":"Point","properties":{"Station_ID":"HERM4","Station_Nam":"HERMAN,MI","Latitude":"46.65000","Longitude":"-88.33330","Snowdepth":"4.000","Units":"in","Rept_Date":"2020-11-27 14"},"coordinates":[2891,3680]},{"type":"Point","properties":{"Station_ID":"DLHM5","Station_Nam":"DULUTH NWS","Latitude":"46.83680","Longitude":"-92.21080","Snowdepth":"4.000","Units":"in","Rept_Date":"2020-11-28 06"},"coordinates":[1605,3913]},{"type":"Point","properties":{"Station_ID":"BNDM5","Station_Nam":"ELY 25E","Latitude":"47.97190","Longitude":"-91.44860","Snowdepth":"4.000","Units":"in","Rept_Date":"2020-11-27 13"},"coordinates":[1858,5325]},{"type":"Point","properties":{"Station_ID":"SVBQ6","Station_Nam":"SAVANT BASE","Latitude":"50.28730","Longitude":"-90.65670","Snowdepth":"3.780","Units":"in","Rept_Date":"2020-11-28 06"},"coordinates":[2120,8207]},{"type":"Point","properties":{"Station_ID":"QFT","Station_Nam":"QFT","Latitude":"50.83280","Longitude":"-74.40390","Snowdepth":"3.661","Units":"in","Rept_Date":"2020-11-27 12"},"coordinates":[7513,8886]},{"type":"Point","properties":{"Station_ID":"CAN-QC-47","Station_Nam":"SAINTE-FOY 1.8 ENE, CAN","Latitude":"46.76934","Longitude":"-71.27124","Snowdepth":"3.500","Units":"in","Rept_Date":"2020-11-27 12"},"coordinates":[8552,3829]},{"type":"Point","properties":{"Station_ID":"CAN-ON-791","Station_Nam":"METCALFE 4.4 NNW, CAN","Latitude":"45.27286","Longitude":"-75.48952","Snowdepth":"3.500","Units":"in","Rept_Date":"2020-11-27 11"},"coordinates":[7153,1966]},{"type":"Point","properties":{"Station_ID":"SOCQ6","Station_Nam":"SOCKET LAKE","Latitude":"50.77870","Longitude":"-91.79300","Snowdepth":"3.310","Units":"in","Rept_Date":"2020-11-28 06"},"coordinates":[1743,8819]},{"type":"Point","properties":{"Station_ID":"CAN-ON-92","Station_Nam":"DUNROBIN 1.9 W - MVCA, CAN","Latitude":"45.42318","Longitude":"-76.04525","Snowdepth":"3.300","Units":"in","Rept_Date":"2020-11-27 12"},"coordinates":[6968,2153]},{"type":"Point","properties":{"Station_ID":"CAN-MB-368","Station_Nam":"WHITESHELL 1.3 NE, CAN","Latitude":"49.74405","Longitude":"-95.19123","Snowdepth":"3.300","Units":"in","Rept_Date":"2020-11-27 14"},"coordinates":[616,7531]},{"type":"Point","properties":{"Station_ID":"CAN-NB-38","Station_Nam":"GRAND FALLS 2.2 NE, CA","Latitude":"47.05701","Longitude":"-67.72630","Snowdepth":"3.200","Units":"in","Rept_Date":"2020-11-27 11"},"coordinates":[9729,4187]},{"type":"Point","properties":{"Station_ID":"VANM1","Station_Nam":"VAN BUREN","Latitude":"47.16600","Longitude":"-67.93900","Snowdepth":"3.000","Units":"in","Rept_Date":"2020-11-27 12"},"coordinates":[9658,4322]},{"type":"Point","properties":{"Station_ID":"MIEM4","Station_Nam":"MICHIGAMME 3WNW","Latitude":"46.54530","Longitude":"-88.18000","Snowdepth":"3.000","Units":"in","Rept_Date":"2020-11-27 13"},"coordinates":[2942,3550]},{"type":"Point","properties":{"Station_ID":"LILM1","Station_Nam":"LILLE","Latitude":"47.27770","Longitude":"-68.10520","Snowdepth":"3.000","Units":"in","Rept_Date":"2020-11-27 12"},"coordinates":[9603,4461]},{"type":"Point","properties":{"Station_ID":"EMBM5","Station_Nam":"EMBARASS,MN","Latitude":"47.65810","Longitude":"-92.19580","Snowdepth":"3.000","Units":"in","Rept_Date":"2020-11-27 11"},"coordinates":[1610,4935]},{"type":"Point","properties":{"Station_ID":"COKM5","Station_Nam":"COOK","Latitude":"47.85060","Longitude":"-92.69250","Snowdepth":"3.000","Units":"in","Rept_Date":"2020-11-27 12"},"coordinates":[1445,5174]},{"type":"Point","properties":{"Station_ID":"CARM1","Station_Nam":"CARIBOU WFO","Latitude":"46.86810","Longitude":"-68.01250","Snowdepth":"3.000","Units":"in","Rept_Date":"2020-11-28 05"},"coordinates":[9634,3952]},{"type":"Point","properties":{"Station_ID":"CAN-MB-32","Station_Nam":"PINAWA 1.0 SW, CA","Latitude":"50.14747","Longitude":"-95.89020","Snowdepth":"3.000","Units":"in","Rept_Date":"2020-11-27 13"},"coordinates":[384,8033]},{"type":"Point","properties":{"Station_ID":"BABM5","Station_Nam":"BABBITT","Latitude":"47.71210","Longitude":"-91.95330","Snowdepth":"3.000","Units":"in","Rept_Date":"2020-11-27 13"},"coordinates":[1690,5002]},{"type":"Point","properties":{"Station_ID":"QMD","Station_Nam":"QMD","Latitude":"49.29060","Longitude":"-75.84500","Snowdepth":"2.913","Units":"in","Rept_Date":"2020-11-27 12"},"coordinates":[7035,6967]},{"type":"Point","properties":{"Station_ID":"QLI","Station_Nam":"QLI","Latitude":"50.27080","Longitude":"-73.92280","Snowdepth":"2.874","Units":"in","Rept_Date":"2020-11-27 12"},"coordinates":[7673,8187]},{"type":"Point","properties":{"Station_ID":"QGA","Station_Nam":"QGA","Latitude":"47.25640","Longitude":"-73.73810","Snowdepth":"2.756","Units":"in","Rept_Date":"2020-11-27 12"},"coordinates":[7734,4435]},{"type":"Point","properties":{"Station_ID":"CAN-ON-771","Station_Nam":"KENORA 8.7 NNE - CANWARN, CAN","Latitude":"49.84171","Longitude":"-94.44386","Snowdepth":"2.700","Units":"in","Rept_Date":"2020-11-27 13"},"coordinates":[864,7653]},{"type":"Point","properties":{"Station_ID":"QCU","Station_Nam":"QCU","Latitude":"47.82750","Longitude":"-76.59830","Snowdepth":"2.559","Units":"in","Rept_Date":"2020-11-27 12"},"coordinates":[6785,5146]},{"type":"Point","properties":{"Station_ID":"WI-BY-29","Station_Nam":"BAYFIELD 5.1 NNW, WI","Latitude":"46.88063","Longitude":"-90.85854","Snowdepth":"2.500","Units":"in","Rept_Date":"2020-11-27 13"},"coordinates":[2053,3967]},{"type":"Point","properties":{"Station_ID":"MN-SL-108","Station_Nam":"IRON JUNCTION 3.4 NNW, MN","Latitude":"47.46150","Longitude":"-92.63130","Snowdepth":"2.500","Units":"in","Rept_Date":"2020-11-27 13"},"coordinates":[1465,4690]},{"type":"Point","properties":{"Station_ID":"MN-CK-6","Station_Nam":"GRAND MARAIS 4.4 W, MN","Latitude":"47.74865","Longitude":"-90.43760","Snowdepth":"2.500","Units":"in","Rept_Date":"2020-11-27 12"},"coordinates":[2193,5047]},{"type":"Point","properties":{"Station_ID":"CAN-ON-42","Station_Nam":"VANKLEEK HILL 3.4 S, CA","Latitude":"45.48987","Longitude":"-74.64570","Snowdepth":"2.500","Units":"in","Rept_Date":"2020-11-27 12"},"coordinates":[7433,2236]},{"type":"Point","properties":{"Station_ID":"CAN-NB-105","Station_Nam":"SISSON BROOK 3.8 E, CAN","Latitude":"46.98305","Longitude":"-67.32532","Snowdepth":"2.400","Units":"in","Rept_Date":"2020-11-27 12"},"coordinates":[9862,4095]},{"type":"Point","properties":{"Station_ID":"WTNM4","Station_Nam":"WATTON 2WSW","Latitude":"46.52660","Longitude":"-88.64240","Snowdepth":"2.000","Units":"in","Rept_Date":"2020-11-27 13"},"coordinates":[2789,3526]},{"type":"Point","properties":{"Station_ID":"WRUM5","Station_Nam":"WARROAD 4W","Latitude":"48.89600","Longitude":"-95.40700","Snowdepth":"2.000","Units":"in","Rept_Date":"2020-11-28 04"},"coordinates":[544,6476]},{"type":"Point","properties":{"Station_ID":"WRSM5","Station_Nam":"WRENSHALL","Latitude":"46.61550","Longitude":"-92.38380","Snowdepth":"2.000","Units":"in","Rept_Date":"2020-11-27 14"},"coordinates":[1547,3637]},{"type":"Point","properties":{"Station_ID":"WI-VL-9","Station_Nam":"LAND O' LAKES 11.7 W, WI","Latitude":"46.19023","Longitude":"-89.45790","Snowdepth":"2.000","Units":"in","Rept_Date":"2020-11-27 13"},"coordinates":[2518,3108]},{"type":"Point","properties":{"Station_ID":"SUAW3","Station_Nam":"SUAMICO","Latitude":"44.60190","Longitude":"-88.09780","Snowdepth":"2.000","Units":"in","Rept_Date":"2020-11-27 12"},"coordinates":[2969,1131]},{"type":"Point","properties":{"Station_ID":"PDLM4","Station_Nam":"PAINESDALE","Latitude":"47.04160","Longitude":"-88.67170","Snowdepth":"2.000","Units":"in","Rept_Date":"2020-11-27 13"},"coordinates":[2779,4167]},{"type":"Point","properties":{"Station_ID":"PDGM4","Station_Nam":"PAULDING","Latitude":"46.39760","Longitude":"-89.17940","Snowdepth":"2.000","Units":"in","Rept_Date":"2020-11-27 14"},"coordinates":[2611,3366]},{"type":"Point","properties":{"Station_ID":"MWN","Station_Nam":"MOUNT WASHINGTON","Latitude":"44.26670","Longitude":"-71.30000","Snowdepth":"2.000","Units":"in","Rept_Date":"2020-11-27 12"},"coordinates":[8543,714]},{"type":"Point","properties":{"Station_ID":"MN-SL-15","Station_Nam":"CHISHOLM 0.4 WSW, MN","Latitude":"47.48557","Longitude":"-92.88690","Snowdepth":"2.000","Units":"in","Rept_Date":"2020-11-27 13"},"coordinates":[1380,4720]},{"type":"Point","properties":{"Station_ID":"MN-CK-3","Station_Nam":"TOFTE 4.9 NE, MN","Latitude":"47.62394","Longitude":"-90.76100","Snowdepth":"2.000","Units":"in","Rept_Date":"2020-11-27 13"},"coordinates":[2086,4892]},{"type":"Point","properties":{"Station_ID":"LNOW3","Station_Nam":"LAND O LAKES","Latitude":"46.19000","Longitude":"-89.45700","Snowdepth":"2.000","Units":"in","Rept_Date":"2020-11-27 13"},"coordinates":[2518,3108]},{"type":"Point","properties":{"Station_ID":"KSGM4","Station_Nam":"KEARSARGE","Latitude":"47.27520","Longitude":"-88.41700","Snowdepth":"2.000","Units":"in","Rept_Date":"2020-11-27 13"},"coordinates":[2864,4458]},{"type":"Point","properties":{"Station_ID":"KMWN","Station_Nam":"MOUNT WASHINGTON","Latitude":"44.26666","Longitude":"-71.30000","Snowdepth":"2.000","Units":"in","Rept_Date":"2020-11-28 06"},"coordinates":[8543,714]},{"type":"Point","properties":{"Station_ID":"IFSM5","Station_Nam":"INTERNATIONAL FALLS SNOW","Latitude":"48.57780","Longitude":"-93.39640","Snowdepth":"2.000","Units":"in","Rept_Date":"2020-11-27 18"},"coordinates":[1211,6079]},{"type":"Point","properties":{"Station_ID":"ELYM5","Station_Nam":"ELY","Latitude":"47.90560","Longitude":"-91.82830","Snowdepth":"2.000","Units":"in","Rept_Date":"2020-11-27 14"},"coordinates":[1732,5243]},{"type":"Point","properties":{"Station_ID":"DLH","Station_Nam":"DULUTH, MN","Latitude":"46.83690","Longitude":"-92.21030","Snowdepth":"2.000","Units":"in","Rept_Date":"2020-11-28 00"},"coordinates":[1605,3913]},{"type":"Point","properties":{"Station_ID":"COTM5","Station_Nam":"COTTON","Latitude":"47.16870","Longitude":"-92.46290","Snowdepth":"2.000","Units":"in","Rept_Date":"2020-11-27 12"},"coordinates":[1521,4326]},{"type":"Point","properties":{"Station_ID":"CLKM4","Station_Nam":"CLARKSBURG","Latitude":"46.49910","Longitude":"-87.84500","Snowdepth":"2.000","Units":"in","Rept_Date":"2020-11-27 12"},"coordinates":[3053,3492]},{"type":"Point","properties":{"Station_ID":"BRAM5","Station_Nam":"BRAINERD","Latitude":"46.34320","Longitude":"-94.20900","Snowdepth":"2.000","Units":"in","Rept_Date":"2020-11-27 13"},"coordinates":[942,3298]},{"type":"Point","properties":{"Station_ID":"QWG","Station_Nam":"QWG","Latitude":"48.48890","Longitude":"-73.45940","Snowdepth":"1.929","Units":"in","Rept_Date":"2020-11-27 12"},"coordinates":[7826,5969]},{"type":"Point","properties":{"Station_ID":"WI-SR-1","Station_Nam":"HAYWARD 9.2 NNE, WI","Latitude":"46.13255","Longitude":"-91.40500","Snowdepth":"1.800","Units":"in","Rept_Date":"2020-11-27 12"},"coordinates":[1872,3036]},{"type":"Point","properties":{"Station_ID":"CAN-ON-220","Station_Nam":"DEEP RIVER 1.5 SE - MNRF, CAN","Latitude":"46.09592","Longitude":"-77.47853","Snowdepth":"1.600","Units":"in","Rept_Date":"2020-11-27 13"},"coordinates":[6493,2990]},{"type":"Point","properties":{"Station_ID":"MN-SL-124","Station_Nam":"BABBITT 4.4 N, MN","Latitude":"47.70744","Longitude":"-91.93062","Snowdepth":"1.500","Units":"in","Rept_Date":"2020-11-27 13"},"coordinates":[1698,4996]},{"type":"Point","properties":{"Station_ID":"CAN-MB-56","Station_Nam":"WINNIPEG 7.6 ENE, CAN","Latitude":"49.93264","Longitude":"-97.04752","Snowdepth":"1.500","Units":"in","Rept_Date":"2020-11-27 14"},"coordinates":[0,7766]},{"type":"Point","properties":{"Station_ID":"MN-SL-171","Station_Nam":"KABETOGAMA 0.7 SSW, MN","Latitude":"48.42954","Longitude":"-93.03482","Snowdepth":"1.300","Units":"in","Rept_Date":"2020-11-27 13"},"coordinates":[1331,5895]},{"type":"Point","properties":{"Station_ID":"WTRM4","Station_Nam":"WATERSMEET 12WSW","Latitude":"46.22310","Longitude":"-89.40850","Snowdepth":"1.000","Units":"in","Rept_Date":"2020-11-27 12"},"coordinates":[2535,3149]},{"type":"Point","properties":{"Station_ID":"WRIM5","Station_Nam":"WRIGHT 3E","Latitude":"46.68040","Longitude":"-92.95420","Snowdepth":"1.000","Units":"in","Rept_Date":"2020-11-27 12"},"coordinates":[1358,3718]},{"type":"Point","properties":{"Station_ID":"WI-WB-2","Station_Nam":"STONE LAKE 2.0 NW, WI","Latitude":"45.85960","Longitude":"-91.57710","Snowdepth":"1.000","Units":"in","Rept_Date":"2020-11-27 12"},"coordinates":[1815,2696]},{"type":"Point","properties":{"Station_ID":"WI-VL-14","Station_Nam":"BOULDER JUNCTION 1.4 NE, WI","Latitude":"46.12840","Longitude":"-89.62470","Snowdepth":"1.000","Units":"in","Rept_Date":"2020-11-27 13"},"coordinates":[2463,3031]},{"type":"Point","properties":{"Station_ID":"WI-TR-8","Station_Nam":"ETTRICK 4.0 WNW, WI","Latitude":"44.19004","Longitude":"-91.34249","Snowdepth":"1.000","Units":"in","Rept_Date":"2020-11-27 13"},"coordinates":[1893,618]},{"type":"Point","properties":{"Station_ID":"WI-MN-9","Station_Nam":"WARRENS 4.7 WSW, WI","Latitude":"44.10386","Longitude":"-90.58884","Snowdepth":"1.000","Units":"in","Rept_Date":"2020-11-27 13"},"coordinates":[2143,511]},{"type":"Point","properties":{"Station_ID":"WI-IR-3","Station_Nam":"PENCE 0.1 E, WI","Latitude":"46.41555","Longitude":"-90.27013","Snowdepth":"1.000","Units":"in","Rept_Date":"2020-11-27 13"},"coordinates":[2249,3388]},{"type":"Point","properties":{"Station_ID":"WI-IR-2","Station_Nam":"MERCER 2.0 SE, WI","Latitude":"46.14749","Longitude":"-90.03097","Snowdepth":"1.000","Units":"in","Rept_Date":"2020-11-27 13"},"coordinates":[2328,3055]},{"type":"Point","properties":{"Station_ID":"WI-BY-2","Station_Nam":"MELLEN 18.6 SW, WI","Latitude":"46.16937","Longitude":"-90.98090","Snowdepth":"1.000","Units":"in","Rept_Date":"2020-11-27 13"},"coordinates":[2013,3082]},{"type":"Point","properties":{"Station_ID":"SPGM5","Station_Nam":"SPRING VALLEY","Latitude":"43.69330","Longitude":"-92.39260","Snowdepth":"1.000","Units":"in","Rept_Date":"2020-11-27 13"},"coordinates":[1544,0]},{"type":"Point","properties":{"Station_ID":"SEBM5","Station_Nam":"SEBEKA","Latitude":"46.62540","Longitude":"-95.09670","Snowdepth":"1.000","Units":"in","Rept_Date":"2020-11-27 13"},"coordinates":[647,3649]},{"type":"Point","properties":{"Station_ID":"MWTM1","Station_Nam":"MILLINOCKET WWTP","Latitude":"45.64030","Longitude":"-68.67480","Snowdepth":"1.000","Units":"in","Rept_Date":"2020-11-27 11"},"coordinates":[9414,2423]},{"type":"Point","properties":{"Station_ID":"MQT","Station_Nam":"MARQUETTE, MI","Latitude":"46.53140","Longitude":"-87.54920","Snowdepth":"1.000","Units":"in","Rept_Date":"2020-11-28 06"},"coordinates":[3151,3532]},{"type":"Point","properties":{"Station_ID":"MN-CW-22","Station_Nam":"FORT RIPLEY 0.8 N, MN","Latitude":"46.18089","Longitude":"-94.36510","Snowdepth":"1.000","Units":"in","Rept_Date":"2020-11-27 13"},"coordinates":[890,3096]},{"type":"Point","properties":{"Station_ID":"MN-BK-16","Station_Nam":"PARK RAPIDS 15.3 NW, MN","Latitude":"47.08653","Longitude":"-95.26951","Snowdepth":"1.000","Units":"in","Rept_Date":"2020-11-27 14"},"coordinates":[590,4223]},{"type":"Point","properties":{"Station_ID":"MI-MQ-19","Station_Nam":"ISHPEMING 7.2 SW, MI","Latitude":"46.40550","Longitude":"-87.75670","Snowdepth":"1.000","Units":"in","Rept_Date":"2020-11-27 11"},"coordinates":[3083,3376]},{"type":"Point","properties":{"Station_ID":"MI-HG-20","Station_Nam":"CALUMET 1.1 SSW, MI","Latitude":"47.23165","Longitude":"-88.45823","Snowdepth":"1.000","Units":"in","Rept_Date":"2020-11-27 11"},"coordinates":[2850,4404]},{"type":"Point","properties":{"Station_ID":"ME-FR-4","Station_Nam":"NEW SHARON 2.0 NW, ME","Latitude":"44.66582","Longitude":"-70.02720","Snowdepth":"1.000","Units":"in","Rept_Date":"2020-11-27 12"},"coordinates":[8965,1210]},{"type":"Point","properties":{"Station_ID":"ME-AR-15","Station_Nam":"PRESQUE ISLE 1.3 WSW, ME","Latitude":"46.67960","Longitude":"-68.01270","Snowdepth":"1.000","Units":"in","Rept_Date":"2020-11-27 12"},"coordinates":[9634,3717]},{"type":"Point","properties":{"Station_ID":"MATW3","Station_Nam":"MATHER 3NW","Latitude":"44.17460","Longitude":"-90.34820","Snowdepth":"1.000","Units":"in","Rept_Date":"2020-11-27 13"},"coordinates":[2223,599]},{"type":"Point","properties":{"Station_ID":"LVDW3","Station_Nam":"LAC VIEUX DESERT","Latitude":"46.12110","Longitude":"-89.07580","Snowdepth":"1.000","Units":"in","Rept_Date":"2020-11-27 14"},"coordinates":[2645,3022]},{"type":"Point","properties":{"Station_ID":"LBRM5","Station_Nam":"LAKE BRONSON DAM","Latitude":"48.72410","Longitude":"-96.62180","Snowdepth":"1.000","Units":"in","Rept_Date":"2020-11-27 14"},"coordinates":[141,6262]},{"type":"Point","properties":{"Station_ID":"KABM5","Station_Nam":"KABETOGAMA LAKE VISITOR CTR","Latitude":"48.40880","Longitude":"-93.04840","Snowdepth":"1.000","Units":"in","Rept_Date":"2020-11-27 13"},"coordinates":[1327,5869]},{"type":"Point","properties":{"Station_ID":"IWOM4","Station_Nam":"IRONWOOD#2","Latitude":"46.46520","Longitude":"-90.13820","Snowdepth":"1.000","Units":"in","Rept_Date":"2020-11-27 13"},"coordinates":[2292,3450]},{"type":"Point","properties":{"Station_ID":"HURW3","Station_Nam":"HURLEY","Latitude":"46.46250","Longitude":"-90.19550","Snowdepth":"1.000","Units":"in","Rept_Date":"2020-11-27 14"},"coordinates":[2273,3447]},{"type":"Point","properties":{"Station_ID":"HUBN3","Station_Nam":"HUBBARD BROOK","Latitude":"43.93330","Longitude":"-71.71670","Snowdepth":"1.000","Units":"in","Rept_Date":"2020-11-28 06"},"coordinates":[8405,299]},{"type":"Point","properties":{"Station_ID":"HMYM1","Station_Nam":"HARMONY","Latitude":"44.94660","Longitude":"-69.54560","Snowdepth":"1.000","Units":"in","Rept_Date":"2020-11-27 12"},"coordinates":[9125,1560]},{"type":"Point","properties":{"Station_ID":"EVRW3","Station_Nam":"EAGLE RIVER-4 E","Latitude":"45.91890","Longitude":"-89.15280","Snowdepth":"1.000","Units":"in","Rept_Date":"2020-11-27 13"},"coordinates":[2619,2770]},{"type":"Point","properties":{"Station_ID":"EGRW3","Station_Nam":"EAGLE RIVER-SOUTH","Latitude":"45.91360","Longitude":"-89.24360","Snowdepth":"1.000","Units":"in","Rept_Date":"2020-11-27 13"},"coordinates":[2589,2763]},{"type":"Point","properties":{"Station_ID":"CMKW3","Station_Nam":"CLAM LAKE 4W","Latitude":"46.16940","Longitude":"-90.98080","Snowdepth":"1.000","Units":"in","Rept_Date":"2020-11-27 13"},"coordinates":[2013,3082]},{"type":"Point","properties":{"Station_ID":"BBEM4","Station_Nam":"BIG BAY 9SW","Latitude":"46.74620","Longitude":"-87.88160","Snowdepth":"1.000","Units":"in","Rept_Date":"2020-11-27 13"},"coordinates":[3041,3800]}]}},"arcs":[],"transform":{"scale":[0.0030139433943394338,0.0008034403440344035],"translate":[-97.04752,43.6933]}}