{"type":"Topology","objects":{"snowdepth_geo":{"type":"GeometryCollection","name":"snowdepth","crs":{"type":"name","properties":{"name":"urn:ogc:def:crs:OGC:1.3:CRS84"}},"geometries":[{"type":"Point","properties":{"Station_ID":"MMSV1","Station_Nam":"MOUNT MANSFIELD","Latitude":"44.53330","Longitude":"-72.83330","Snowdepth":"90.000","Units":"in","Rept_Date":"2019-11-16 05"},"coordinates":[7022,5086]},{"type":"Point","properties":{"Station_ID":"PRKM4","Station_Nam":"MUNISING EAST","Latitude":"46.42580","Longitude":"-86.62000","Snowdepth":"76.500","Units":"in","Rept_Date":"2019-11-16 06"},"coordinates":[2962,6379]},{"type":"Point","properties":{"Station_ID":"OGIQ6","Station_Nam":"OGOKI CAMP","Latitude":"50.76680","Longitude":"-87.85820","Snowdepth":"61.100","Units":"in","Rept_Date":"2019-11-16 06"},"coordinates":[2598,9343]},{"type":"Point","properties":{"Station_ID":"AUDQ6","Station_Nam":"AUDEN","Latitude":"48.52600","Longitude":"-82.57570","Snowdepth":"47.640","Units":"in","Rept_Date":"2019-11-16 06"},"coordinates":[4153,7813]},{"type":"Point","properties":{"Station_ID":"MI-ET-1","Station_Nam":"LANSING 3.8 WNW, MI","Latitude":"42.72243","Longitude":"-84.62690","Snowdepth":"45.000","Units":"in","Rept_Date":"2019-11-15 12"},"coordinates":[3549,3850]},{"type":"Point","properties":{"Station_ID":"DVLQ6","Station_Nam":"DEVIOUS LAKE","Latitude":"49.19890","Longitude":"-87.76440","Snowdepth":"43.460","Units":"in","Rept_Date":"2019-11-16 06"},"coordinates":[2625,8273]},{"type":"Point","properties":{"Station_ID":"PRDM4","Station_Nam":"PARADISE","Latitude":"46.60380","Longitude":"-85.03960","Snowdepth":"18.000","Units":"in","Rept_Date":"2019-11-15 11"},"coordinates":[3427,6500]},{"type":"Point","properties":{"Station_ID":"GMSM4","Station_Nam":"GRAND MARAIS 10S","Latitude":"46.50940","Longitude":"-85.96310","Snowdepth":"18.000","Units":"in","Rept_Date":"2019-11-15 12"},"coordinates":[3156,6436]},{"type":"Point","properties":{"Station_ID":"QGO","Station_Nam":"QGO","Latitude":"48.85500","Longitude":"-74.20640","Snowdepth":"16.850","Units":"in","Rept_Date":"2019-11-15 12"},"coordinates":[6617,8038]},{"type":"Point","properties":{"Station_ID":"QOU","Station_Nam":"QOU","Latitude":"50.79250","Longitude":"-69.67470","Snowdepth":"15.472","Units":"in","Rept_Date":"2019-11-15 12"},"coordinates":[7952,9361]},{"type":"Point","properties":{"Station_ID":"QGD","Station_Nam":"QGD","Latitude":"51.11140","Longitude":"-67.13940","Snowdepth":"14.370","Units":"in","Rept_Date":"2019-11-15 12"},"coordinates":[8698,9579]},{"type":"Point","properties":{"Station_ID":"QMA","Station_Nam":"QMA","Latitude":"50.10330","Longitude":"-70.47190","Snowdepth":"11.968","Units":"in","Rept_Date":"2019-11-15 12"},"coordinates":[7717,8890]},{"type":"Point","properties":{"Station_ID":"MLZ","Station_Nam":"MLZ","Latitude":"50.66170","Longitude":"-68.82360","Snowdepth":"11.102","Units":"in","Rept_Date":"2019-11-15 12"},"coordinates":[8203,9272]},{"type":"Point","properties":{"Station_ID":"MMNV1","Station_Nam":"MT. MANSFIELD","Latitude":"44.52480","Longitude":"-72.81540","Snowdepth":"11.000","Units":"in","Rept_Date":"2019-11-15 21"},"coordinates":[7027,5080]},{"type":"Point","properties":{"Station_ID":"HWLM4","Station_Nam":"HALFWAY LAKE","Latitude":"46.47480","Longitude":"-85.59250","Snowdepth":"11.000","Units":"in","Rept_Date":"2019-11-15 14"},"coordinates":[3265,6412]},{"type":"Point","properties":{"Station_ID":"NWFM4","Station_Nam":"NW MICHIGAN RESEARCH FARM","Latitude":"44.88300","Longitude":"-85.67520","Snowdepth":"10.000","Units":"in","Rept_Date":"2019-11-15 13"},"coordinates":[3240,5325]},{"type":"Point","properties":{"Station_ID":"IWOM4","Station_Nam":"IRONWOOD#2","Latitude":"46.46520","Longitude":"-90.13820","Snowdepth":"10.000","Units":"in","Rept_Date":"2019-11-15 13"},"coordinates":[1926,6406]},{"type":"Point","properties":{"Station_ID":"FISM1","Station_Nam":"FORT KENT COOP","Latitude":"47.23850","Longitude":"-68.61240","Snowdepth":"10.000","Units":"in","Rept_Date":"2019-11-15 12"},"coordinates":[8265,6934]},{"type":"Point","properties":{"Station_ID":"BRKN6","Station_Nam":"BROCKPORT","Latitude":"43.21600","Longitude":"-77.95290","Snowdepth":"10.000","Units":"in","Rept_Date":"2019-11-15 14"},"coordinates":[5514,4187]},{"type":"Point","properties":{"Station_ID":"QLM","Station_Nam":"QLM","Latitude":"48.92030","Longitude":"-70.25280","Snowdepth":"9.882","Units":"in","Rept_Date":"2019-11-15 12"},"coordinates":[7782,8082]},{"type":"Point","properties":{"Station_ID":"QMD","Station_Nam":"QMD","Latitude":"49.29060","Longitude":"-75.84500","Snowdepth":"9.764","Units":"in","Rept_Date":"2019-11-15 12"},"coordinates":[6135,8335]},{"type":"Point","properties":{"Station_ID":"MI-AT-6","Station_Nam":"MANCELONA 0.5 ESE, MI","Latitude":"44.89981","Longitude":"-85.05100","Snowdepth":"9.600","Units":"in","Rept_Date":"2019-11-15 13"},"coordinates":[3424,5337]},{"type":"Point","properties":{"Station_ID":"QLB","Station_Nam":"QLB","Latitude":"50.72360","Longitude":"-75.10000","Snowdepth":"9.055","Units":"in","Rept_Date":"2019-11-15 12"},"coordinates":[6354,9314]},{"type":"Point","properties":{"Station_ID":"PDLM4","Station_Nam":"PAINESDALE","Latitude":"47.04160","Longitude":"-88.67170","Snowdepth":"9.000","Units":"in","Rept_Date":"2019-11-15 13"},"coordinates":[2358,6799]},{"type":"Point","properties":{"Station_ID":"NY-GN-13","Station_Nam":"BATAVIA 3.4 WSW, NY","Latitude":"42.98866","Longitude":"-78.24729","Snowdepth":"9.000","Units":"in","Rept_Date":"2019-11-15 13"},"coordinates":[5428,4031]},{"type":"Point","properties":{"Station_ID":"MNSM4","Station_Nam":"MUNISING","Latitude":"46.41210","Longitude":"-86.66250","Snowdepth":"9.000","Units":"in","Rept_Date":"2019-11-15 11"},"coordinates":[2950,6369]},{"type":"Point","properties":{"Station_ID":"MAPM4","Station_Nam":"MAPLE CITY 1E","Latitude":"44.85500","Longitude":"-85.83520","Snowdepth":"9.000","Units":"in","Rept_Date":"2019-11-15 23"},"coordinates":[3193,5306]},{"type":"Point","properties":{"Station_ID":"LILM1","Station_Nam":"LILLE","Latitude":"47.27770","Longitude":"-68.10520","Snowdepth":"9.000","Units":"in","Rept_Date":"2019-11-15 12"},"coordinates":[8414,6961]},{"type":"Point","properties":{"Station_ID":"KSGM4","Station_Nam":"KEARSARGE","Latitude":"47.27520","Longitude":"-88.41700","Snowdepth":"9.000","Units":"in","Rept_Date":"2019-11-15 13"},"coordinates":[2433,6959]},{"type":"Point","properties":{"Station_ID":"AVLV1","Station_Nam":"AVERILL","Latitude":"45.00570","Longitude":"-71.69030","Snowdepth":"9.000","Units":"in","Rept_Date":"2019-11-15 13"},"coordinates":[7358,5409]},{"type":"Point","properties":{"Station_ID":"QCU","Station_Nam":"QCU","Latitude":"47.82750","Longitude":"-76.59830","Snowdepth":"8.858","Units":"in","Rept_Date":"2019-11-15 12"},"coordinates":[5913,7336]},{"type":"Point","properties":{"Station_ID":"QFT","Station_Nam":"QFT","Latitude":"50.83280","Longitude":"-74.40390","Snowdepth":"8.504","Units":"in","Rept_Date":"2019-11-15 12"},"coordinates":[6559,9388]},{"type":"Point","properties":{"Station_ID":"VT-OL-12","Station_Nam":"GREENSBORO 3.9 NNE, VT","Latitude":"44.63100","Longitude":"-72.28000","Snowdepth":"8.500","Units":"in","Rept_Date":"2019-11-15 11"},"coordinates":[7185,5153]},{"type":"Point","properties":{"Station_ID":"NY-NG-12","Station_Nam":"LOCKPORT 0.8 NE, NY","Latitude":"43.17645","Longitude":"-78.68340","Snowdepth":"8.500","Units":"in","Rept_Date":"2019-11-15 12"},"coordinates":[5299,4160]},{"type":"Point","properties":{"Station_ID":"QWE","Station_Nam":"QWE","Latitude":"47.84610","Longitude":"-73.80670","Snowdepth":"8.386","Units":"in","Rept_Date":"2019-11-15 12"},"coordinates":[6735,7349]},{"type":"Point","properties":{"Station_ID":"QCO","Station_Nam":"QCO","Latitude":"51.45280","Longitude":"-72.20110","Snowdepth":"8.228","Units":"in","Rept_Date":"2019-11-15 12"},"coordinates":[7208,9812]},{"type":"Point","properties":{"Station_ID":"QTM","Station_Nam":"QTM","Latitude":"51.05780","Longitude":"-72.57190","Snowdepth":"8.150","Units":"in","Rept_Date":"2019-11-15 12"},"coordinates":[7099,9542]},{"type":"Point","properties":{"Station_ID":"VT-OL-1","Station_Nam":"WESTFIELD 0.7 WNW, VT","Latitude":"44.89160","Longitude":"-72.44350","Snowdepth":"8.000","Units":"in","Rept_Date":"2019-11-15 12"},"coordinates":[7137,5331]},{"type":"Point","properties":{"Station_ID":"SSMM4","Station_Nam":"SAULT STE MARIE","Latitude":"46.48660","Longitude":"-84.40250","Snowdepth":"8.000","Units":"in","Rept_Date":"2019-11-15 13"},"coordinates":[3615,6420]},{"type":"Point","properties":{"Station_ID":"RICM4","Station_Nam":"RICHMOND 4 NNW","Latitude":"42.87830","Longitude":"-82.79580","Snowdepth":"8.000","Units":"in","Rept_Date":"2019-11-15 13"},"coordinates":[4088,3956]},{"type":"Point","properties":{"Station_ID":"NY-SL-6","Station_Nam":"HANNAWA FALLS 0.1 SW, NY","Latitude":"44.61154","Longitude":"-74.97190","Snowdepth":"8.000","Units":"in","Rept_Date":"2019-11-15 12"},"coordinates":[6392,5140]},{"type":"Point","properties":{"Station_ID":"NY-ER-86","Station_Nam":"TONAWANDA 1.5 NNE, NY","Latitude":"43.00507","Longitude":"-78.86600","Snowdepth":"8.000","Units":"in","Rept_Date":"2019-11-15 14"},"coordinates":[5245,4043]},{"type":"Point","properties":{"Station_ID":"MTQM4","Station_Nam":"MANISTIQUE WWTP","Latitude":"45.95120","Longitude":"-86.25130","Snowdepth":"8.000","Units":"in","Rept_Date":"2019-11-15 12"},"coordinates":[3071,6055]},{"type":"Point","properties":{"Station_ID":"LPEM4","Station_Nam":"LAPEER,MI","Latitude":"43.06280","Longitude":"-83.33330","Snowdepth":"8.000","Units":"in","Rept_Date":"2019-11-15 14"},"coordinates":[3930,4082]},{"type":"Point","properties":{"Station_ID":"JOHV1","Station_Nam":"JOHNSON 2 N","Latitude":"44.65790","Longitude":"-72.67850","Snowdepth":"8.000","Units":"in","Rept_Date":"2019-11-15 12"},"coordinates":[7067,5171]},{"type":"Point","properties":{"Station_ID":"HURW3","Station_Nam":"HURLEY","Latitude":"46.46250","Longitude":"-90.19550","Snowdepth":"8.000","Units":"in","Rept_Date":"2019-11-15 14"},"coordinates":[1909,6404]},{"type":"Point","properties":{"Station_ID":"HTLN3","Station_Nam":"HERMIT LAKE SNOWPLOT","Latitude":"44.26130","Longitude":"-71.28330","Snowdepth":"8.000","Units":"in","Rept_Date":"2019-11-15 11"},"coordinates":[7478,4901]},{"type":"Point","properties":{"Station_ID":"CARM1","Station_Nam":"CARIBOU WFO","Latitude":"46.86810","Longitude":"-68.01250","Snowdepth":"8.000","Units":"in","Rept_Date":"2019-11-16 05"},"coordinates":[8441,6681]},{"type":"Point","properties":{"Station_ID":"ANJ","Station_Nam":"SAULT STE MARIE","Latitude":"46.46670","Longitude":"-84.36670","Snowdepth":"8.000","Units":"in","Rept_Date":"2019-11-15 12"},"coordinates":[3626,6407]},{"type":"Point","properties":{"Station_ID":"QWG","Station_Nam":"QWG","Latitude":"48.48890","Longitude":"-73.45940","Snowdepth":"7.716","Units":"in","Rept_Date":"2019-11-15 12"},"coordinates":[6837,7788]},{"type":"Point","properties":{"Station_ID":"CAN-QC-47","Station_Nam":"SAINTE-FOY 1.8 ENE, CAN","Latitude":"46.76934","Longitude":"-71.27124","Snowdepth":"7.500","Units":"in","Rept_Date":"2019-11-15 12"},"coordinates":[7482,6613]},{"type":"Point","properties":{"Station_ID":"MI-WS-3","Station_Nam":"PLYMOUTH 5.4 W, MI","Latitude":"42.38279","Longitude":"-83.57120","Snowdepth":"7.300","Units":"in","Rept_Date":"2019-11-15 12"},"coordinates":[3860,3618]},{"type":"Point","properties":{"Station_ID":"CAN-ON-491","Station_Nam":"MILVERTON 1.1 ESE- CANWARN, CAN","Latitude":"43.56074","Longitude":"-80.90887","Snowdepth":"7.300","Units":"in","Rept_Date":"2019-11-15 11"},"coordinates":[4644,4422]},{"type":"Point","properties":{"Station_ID":"MI-MB-55","Station_Nam":"FRASER 1.2 N, MI","Latitude":"42.55697","Longitude":"-82.94938","Snowdepth":"7.200","Units":"in","Rept_Date":"2019-11-15 12"},"coordinates":[4043,3737]},{"type":"Point","properties":{"Station_ID":"CAN-ON-109","Station_Nam":"MILDMAY 5.9 SSE, CA","Latitude":"43.98733","Longitude":"-81.10330","Snowdepth":"7.200","Units":"in","Rept_Date":"2019-11-15 13"},"coordinates":[4587,4713]},{"type":"Point","properties":{"Station_ID":"CAN-ON-466","Station_Nam":"PICTON 12.7 NNE, CAN","Latitude":"44.11197","Longitude":"-77.08426","Snowdepth":"7.100","Units":"in","Rept_Date":"2019-11-15 12"},"coordinates":[5770,4799]},{"type":"Point","properties":{"Station_ID":"VT-ES-3","Station_Nam":"LUNENBURG 2.3 NNW, VT","Latitude":"44.49324","Longitude":"-71.70446","Snowdepth":"7.000","Units":"in","Rept_Date":"2019-11-15 12"},"coordinates":[7354,5059]},{"type":"Point","properties":{"Station_ID":"PLBN6","Station_Nam":"PLATTSBURGH COOP","Latitude":"44.69180","Longitude":"-73.45560","Snowdepth":"7.000","Units":"in","Rept_Date":"2019-11-15 12"},"coordinates":[6839,5195]},{"type":"Point","properties":{"Station_ID":"NY-ER-60","Station_Nam":"BLASDELL 1.5 SSW, NY","Latitude":"42.77657","Longitude":"-78.84440","Snowdepth":"7.000","Units":"in","Rept_Date":"2019-11-15 12"},"coordinates":[5252,3887]},{"type":"Point","properties":{"Station_ID":"NY-ER-158","Station_Nam":"EAST AURORA 2.7 SSE, NY","Latitude":"42.72936","Longitude":"-78.60561","Snowdepth":"7.000","Units":"in","Rept_Date":"2019-11-15 12"},"coordinates":[5322,3854]},{"type":"Point","properties":{"Station_ID":"MI-OK-66","Station_Nam":"DAVISBURG 1.3 ESE, MI","Latitude":"42.74434","Longitude":"-83.51740","Snowdepth":"7.000","Units":"in","Rept_Date":"2019-11-15 13"},"coordinates":[3876,3865]},{"type":"Point","properties":{"Station_ID":"LEXM4","Station_Nam":"LEXINGTON WATER PLANT","Latitude":"43.26310","Longitude":"-82.53280","Snowdepth":"7.000","Units":"in","Rept_Date":"2019-11-15 12"},"coordinates":[4166,4219]},{"type":"Point","properties":{"Station_ID":"KLKM4","Station_Nam":"KALKASKA","Latitude":"44.72800","Longitude":"-85.17270","Snowdepth":"7.000","Units":"in","Rept_Date":"2019-11-15 13"},"coordinates":[3388,5219]},{"type":"Point","properties":{"Station_ID":"JEFV1","Station_Nam":"JEFFERSONVILLE","Latitude":"44.58430","Longitude":"-72.78700","Snowdepth":"7.000","Units":"in","Rept_Date":"2019-11-15 12"},"coordinates":[7035,5121]},{"type":"Point","properties":{"Station_ID":"IRMM4","Station_Nam":"WWTP","Latitude":"46.46670","Longitude":"-90.18330","Snowdepth":"7.000","Units":"in","Rept_Date":"2019-11-15 13"},"coordinates":[1913,6407]},{"type":"Point","properties":{"Station_ID":"GNLM4","Station_Nam":"GREENLAND 6N","Latitude":"46.87360","Longitude":"-89.10060","Snowdepth":"7.000","Units":"in","Rept_Date":"2019-11-15 11"},"coordinates":[2232,6685]},{"type":"Point","properties":{"Station_ID":"GHMN3","Station_Nam":"PINKHAM NOTCH","Latitude":"44.25800","Longitude":"-71.25250","Snowdepth":"7.000","Units":"in","Rept_Date":"2019-11-15 10"},"coordinates":[7487,4898]},{"type":"Point","properties":{"Station_ID":"FLAM4","Station_Nam":"FIFE LAKE 2WNW","Latitude":"44.58480","Longitude":"-85.36530","Snowdepth":"7.000","Units":"in","Rept_Date":"2019-11-15 12"},"coordinates":[3332,5121]},{"type":"Point","properties":{"Station_ID":"CHRM4","Station_Nam":"CHARLEVOIX","Latitude":"45.31720","Longitude":"-85.26720","Snowdepth":"7.000","Units":"in","Rept_Date":"2019-11-15 13"},"coordinates":[3360,5622]},{"type":"Point","properties":{"Station_ID":"CAN-NB-13","Station_Nam":"BATHURST 3.8 NW, CAN","Latitude":"47.64212","Longitude":"-65.68756","Snowdepth":"7.000","Units":"in","Rept_Date":"2019-11-15 11"},"coordinates":[9126,7209]},{"type":"Point","properties":{"Station_ID":"BUNM4","Station_Nam":"BURTON 4N","Latitude":"43.06750","Longitude":"-83.59190","Snowdepth":"7.000","Units":"in","Rept_Date":"2019-11-15 12"},"coordinates":[3854,4085]},{"type":"Point","properties":{"Station_ID":"BRAM1","Station_Nam":"BRASSUA DAM","Latitude":"45.66020","Longitude":"-69.81190","Snowdepth":"7.000","Units":"in","Rept_Date":"2019-11-15 12"},"coordinates":[7911,5856]},{"type":"Point","properties":{"Station_ID":"ATMM4","Station_Nam":"ATLANTIC MINE 5NW","Latitude":"47.15440","Longitude":"-88.71670","Snowdepth":"7.000","Units":"in","Rept_Date":"2019-11-15 15"},"coordinates":[2345,6876]},{"type":"Point","properties":{"Station_ID":"ANJM4","Station_Nam":"SNOW PAID OBSERVER FOR KANJ","Latitude":"46.48670","Longitude":"-84.40260","Snowdepth":"7.000","Units":"in","Rept_Date":"2019-11-15 18"},"coordinates":[3615,6420]},{"type":"Point","properties":{"Station_ID":"SVBQ6","Station_Nam":"SAVANT BASE","Latitude":"50.28730","Longitude":"-90.65670","Snowdepth":"6.890","Units":"in","Rept_Date":"2019-11-16 06"},"coordinates":[1773,9016]},{"type":"Point","properties":{"Station_ID":"QYR","Station_Nam":"QYR","Latitude":"48.87220","Longitude":"-75.61470","Snowdepth":"6.850","Units":"in","Rept_Date":"2019-11-15 12"},"coordinates":[6203,8049]},{"type":"Point","properties":{"Station_ID":"MI-AN-20","Station_Nam":"HOLLAND 5.3 WSW, MI","Latitude":"42.74900","Longitude":"-86.20200","Snowdepth":"6.800","Units":"in","Rept_Date":"2019-11-15 13"},"coordinates":[3085,3868]},{"type":"Point","properties":{"Station_ID":"CAN-QC-51","Station_Nam":"BELOEIL 0.7 NW, CAN","Latitude":"45.58049","Longitude":"-73.21218","Snowdepth":"6.700","Units":"in","Rept_Date":"2019-11-15 12"},"coordinates":[6910,5801]},{"type":"Point","properties":{"Station_ID":"CAN-QC-16","Station_Nam":"SAINT-ARMAND 3.6 W, CAN","Latitude":"45.02631","Longitude":"-73.08795","Snowdepth":"6.700","Units":"in","Rept_Date":"2019-11-15 12"},"coordinates":[6947,5423]},{"type":"Point","properties":{"Station_ID":"VT-OL-9","Station_Nam":"GREENSBORO 2.1 NNW, VT","Latitude":"44.60528","Longitude":"-72.30940","Snowdepth":"6.500","Units":"in","Rept_Date":"2019-11-15 12"},"coordinates":[7176,5135]},{"type":"Point","properties":{"Station_ID":"OH-GG-16","Station_Nam":"CHARDON 5.1 SSE, OH","Latitude":"41.50776","Longitude":"-81.18304","Snowdepth":"6.500","Units":"in","Rept_Date":"2019-11-15 11"},"coordinates":[4563,3020]},{"type":"Point","properties":{"Station_ID":"NY-ES-7","Station_Nam":"KEESEVILLE 0.8 SE, NY","Latitude":"44.49504","Longitude":"-73.47109","Snowdepth":"6.500","Units":"in","Rept_Date":"2019-11-15 12"},"coordinates":[6834,5060]},{"type":"Point","properties":{"Station_ID":"NY-ER-65","Station_Nam":"BOSTON 1.5 NE, NY","Latitude":"42.65470","Longitude":"-78.72010","Snowdepth":"6.500","Units":"in","Rept_Date":"2019-11-15 12"},"coordinates":[5288,3803]},{"type":"Point","properties":{"Station_ID":"NY-ER-138","Station_Nam":"EAST AURORA 3.4 NNE, NY","Latitude":"42.81400","Longitude":"-78.59670","Snowdepth":"6.500","Units":"in","Rept_Date":"2019-11-15 12"},"coordinates":[5325,3912]},{"type":"Point","properties":{"Station_ID":"NH-GR-47","Station_Nam":"LITTLETON 7.3 W, NH","Latitude":"44.31847","Longitude":"-71.91086","Snowdepth":"6.500","Units":"in","Rept_Date":"2019-11-15 13"},"coordinates":[7293,4940]},{"type":"Point","properties":{"Station_ID":"MI-OT-17","Station_Nam":"GAYLORD 4.1 S, MI","Latitude":"44.96388","Longitude":"-84.68467","Snowdepth":"6.500","Units":"in","Rept_Date":"2019-11-15 12"},"coordinates":[3532,5380]},{"type":"Point","properties":{"Station_ID":"QGA","Station_Nam":"QGA","Latitude":"47.25640","Longitude":"-73.73810","Snowdepth":"6.457","Units":"in","Rept_Date":"2019-11-15 12"},"coordinates":[6755,6946]},{"type":"Point","properties":{"Station_ID":"NY-FK-9","Station_Nam":"GABRIELS 1.3 SE, NY","Latitude":"44.41934","Longitude":"-74.16194","Snowdepth":"6.300","Units":"in","Rept_Date":"2019-11-15 12"},"coordinates":[6631,5008]},{"type":"Point","properties":{"Station_ID":"CAN-ON-86","Station_Nam":"GUELPH 5.1 S - CANWARN, CAN","Latitude":"43.49691","Longitude":"-80.24385","Snowdepth":"6.300","Units":"in","Rept_Date":"2019-11-15 12"},"coordinates":[4840,4378]},{"type":"Point","properties":{"Station_ID":"SOCQ6","Station_Nam":"SOCKET LAKE","Latitude":"50.77870","Longitude":"-91.79300","Snowdepth":"6.260","Units":"in","Rept_Date":"2019-11-16 06"},"coordinates":[1439,9351]},{"type":"Point","properties":{"Station_ID":"QCX","Station_Nam":"QCX","Latitude":"51.32830","Longitude":"-70.08060","Snowdepth":"6.063","Units":"in","Rept_Date":"2019-11-15 12"},"coordinates":[7832,9727]},{"type":"Point","properties":{"Station_ID":"WLSN6","Station_Nam":"WALES","Latitude":"42.73920","Longitude":"-78.58780","Snowdepth":"6.000","Units":"in","Rept_Date":"2019-11-15 12"},"coordinates":[5327,3861]},{"type":"Point","properties":{"Station_ID":"WI-IR-3","Station_Nam":"PENCE 0.1 E, WI","Latitude":"46.41555","Longitude":"-90.27013","Snowdepth":"6.000","Units":"in","Rept_Date":"2019-11-15 13"},"coordinates":[1887,6372]},{"type":"Point","properties":{"Station_ID":"WHFN6","Station_Nam":"WILMINGTON 2W","Latitude":"44.39310","Longitude":"-73.85890","Snowdepth":"6.000","Units":"in","Rept_Date":"2019-11-15 13"},"coordinates":[6720,4991]},{"type":"Point","properties":{"Station_ID":"VT-WS-7","Station_Nam":"MIDDLESEX 3.1 ENE, VT","Latitude":"44.31799","Longitude":"-72.62650","Snowdepth":"6.000","Units":"in","Rept_Date":"2019-11-15 13"},"coordinates":[7083,4939]},{"type":"Point","properties":{"Station_ID":"VT-WS-30","Station_Nam":"WOODBURY 3.4 NNW, VT","Latitude":"44.48825","Longitude":"-72.43258","Snowdepth":"6.000","Units":"in","Rept_Date":"2019-11-15 12"},"coordinates":[7140,5056]},{"type":"Point","properties":{"Station_ID":"VT-WS-15","Station_Nam":"EAST CALAIS 1.5 SW, VT","Latitude":"44.35523","Longitude":"-72.45540","Snowdepth":"6.000","Units":"in","Rept_Date":"2019-11-15 12"},"coordinates":[7133,4965]},{"type":"Point","properties":{"Station_ID":"VT-OL-2","Station_Nam":"BARTON 3.0 ENE, VT","Latitude":"44.75863","Longitude":"-72.11680","Snowdepth":"6.000","Units":"in","Rept_Date":"2019-11-15 12"},"coordinates":[7233,5240]},{"type":"Point","properties":{"Station_ID":"VT-CH-4","Station_Nam":"UNDERHILL 4.4 NNE, VT","Latitude":"44.58774","Longitude":"-72.92250","Snowdepth":"6.000","Units":"in","Rept_Date":"2019-11-15 12"},"coordinates":[6996,5123]},{"type":"Point","properties":{"Station_ID":"THEN6","Station_Nam":"THERESA 4 NW","Latitude":"44.27540","Longitude":"-75.83690","Snowdepth":"6.000","Units":"in","Rept_Date":"2019-11-15 14"},"coordinates":[6137,4910]},{"type":"Point","properties":{"Station_ID":"TCEM4","Station_Nam":"TRAVERSE CITY 5ESE","Latitude":"44.73370","Longitude":"-85.51180","Snowdepth":"6.000","Units":"in","Rept_Date":"2019-11-15 12"},"coordinates":[3288,5223]},{"type":"Point","properties":{"Station_ID":"SUAW3","Station_Nam":"SUAMICO","Latitude":"44.60190","Longitude":"-88.09780","Snowdepth":"6.000","Units":"in","Rept_Date":"2019-11-15 12"},"coordinates":[2527,5133]},{"type":"Point","properties":{"Station_ID":"RKWM1","Station_Nam":"MOOSEHEAD LAKE","Latitude":"45.58330","Longitude":"-69.71670","Snowdepth":"6.000","Units":"in","Rept_Date":"2019-11-15 12"},"coordinates":[7940,5803]},{"type":"Point","properties":{"Station_ID":"QNCM4","Station_Nam":"QUINCY HILL","Latitude":"47.13640","Longitude":"-88.57950","Snowdepth":"6.000","Units":"in","Rept_Date":"2019-11-15 12"},"coordinates":[2385,6864]},{"type":"Point","properties":{"Station_ID":"PRGN6","Station_Nam":"PERRYSBURG","Latitude":"42.46470","Longitude":"-79.00310","Snowdepth":"6.000","Units":"in","Rept_Date":"2019-11-15 12"},"coordinates":[5205,3674]},{"type":"Point","properties":{"Station_ID":"NY-ER-178","Station_Nam":"WEST SENECA 2.5 SE, NY","Latitude":"42.81374","Longitude":"-78.71399","Snowdepth":"6.000","Units":"in","Rept_Date":"2019-11-15 12"},"coordinates":[5290,3912]},{"type":"Point","properties":{"Station_ID":"NY-ER-102","Station_Nam":"CHEEKTOWAGA 2.7 NE, NY","Latitude":"42.94119","Longitude":"-78.71933","Snowdepth":"6.000","Units":"in","Rept_Date":"2019-11-15 12"},"coordinates":[5289,3999]},{"type":"Point","properties":{"Station_ID":"NPTV1","Station_Nam":"NEWPORT","Latitude":"44.94900","Longitude":"-72.19120","Snowdepth":"6.000","Units":"in","Rept_Date":"2019-11-15 12"},"coordinates":[7211,5370]},{"type":"Point","properties":{"Station_ID":"NH-CS-4","Station_Nam":"PITTSBURG 6.1 NE, NH","Latitude":"45.11060","Longitude":"-71.29760","Snowdepth":"6.000","Units":"in","Rept_Date":"2019-11-15 12"},"coordinates":[7474,5481]},{"type":"Point","properties":{"Station_ID":"NCBN6","Station_Nam":"NEWCOMB","Latitude":"43.97070","Longitude":"-74.22200","Snowdepth":"6.000","Units":"in","Rept_Date":"2019-11-15 13"},"coordinates":[6613,4702]},{"type":"Point","properties":{"Station_ID":"MILM4","Station_Nam":"GM PROVING GD","Latitude":"42.58330","Longitude":"-83.70000","Snowdepth":"6.000","Units":"in","Rept_Date":"2019-11-15 12"},"coordinates":[3822,3755]},{"type":"Point","properties":{"Station_ID":"MI-OC-3","Station_Nam":"HART 3 WSW, MI","Latitude":"43.67470","Longitude":"-86.42250","Snowdepth":"6.000","Units":"in","Rept_Date":"2019-11-15 12"},"coordinates":[3020,4500]},{"type":"Point","properties":{"Station_ID":"MI-GT-25","Station_Nam":"TRAVERSE CITY 4.7 ESE, MI","Latitude":"44.73370","Longitude":"-85.51189","Snowdepth":"6.000","Units":"in","Rept_Date":"2019-11-15 12"},"coordinates":[3288,5223]},{"type":"Point","properties":{"Station_ID":"MI-BN-5","Station_Nam":"BUCHANAN 1.3 WNW, MI","Latitude":"41.83634","Longitude":"-86.38900","Snowdepth":"6.000","Units":"in","Rept_Date":"2019-11-15 13"},"coordinates":[3030,3244]},{"type":"Point","properties":{"Station_ID":"MI-BG-3","Station_Nam":"L'ANSE 17.8 SE, MI","Latitude":"46.55730","Longitude":"-88.20770","Snowdepth":"6.000","Units":"in","Rept_Date":"2019-11-15 13"},"coordinates":[2495,6469]},{"type":"Point","properties":{"Station_ID":"MALN6","Station_Nam":"MALONE","Latitude":"44.84180","Longitude":"-74.30600","Snowdepth":"6.000","Units":"in","Rept_Date":"2019-11-15 12"},"coordinates":[6588,5297]},{"type":"Point","properties":{"Station_ID":"LPLN6","Station_Nam":"LAKE PLACID 2 S","Latitude":"44.30420","Longitude":"-73.98390","Snowdepth":"6.000","Units":"in","Rept_Date":"2019-11-15 12"},"coordinates":[6683,4930]},{"type":"Point","properties":{"Station_ID":"JEFN3","Station_Nam":"JEFFERSON","Latitude":"44.41690","Longitude":"-71.50080","Snowdepth":"6.000","Units":"in","Rept_Date":"2019-11-15 12"},"coordinates":[7414,5007]},{"type":"Point","properties":{"Station_ID":"HRTM4","Station_Nam":"HART,MI","Latitude":"43.70000","Longitude":"-86.36670","Snowdepth":"6.000","Units":"in","Rept_Date":"2019-11-15 12"},"coordinates":[3037,4517]},{"type":"Point","properties":{"Station_ID":"HERM4","Station_Nam":"HERMAN,MI","Latitude":"46.65000","Longitude":"-88.33330","Snowdepth":"6.000","Units":"in","Rept_Date":"2019-11-15 13"},"coordinates":[2458,6532]},{"type":"Point","properties":{"Station_ID":"COLN3","Station_Nam":"COLEBROOK 3SW","Latitude":"44.86100","Longitude":"-71.53920","Snowdepth":"6.000","Units":"in","Rept_Date":"2019-11-15 11"},"coordinates":[7403,5310]},{"type":"Point","properties":{"Station_ID":"CAN-NB-2","Station_Nam":"GRAFTON 2.7 NNE, CA","Latitude":"46.17062","Longitude":"-67.55330","Snowdepth":"6.000","Units":"in","Rept_Date":"2019-11-15 11"},"coordinates":[8577,6204]},{"type":"Point","properties":{"Station_ID":"APXM4","Station_Nam":"GAYLORD 9SSW","Latitude":"44.90720","Longitude":"-84.71880","Snowdepth":"6.000","Units":"in","Rept_Date":"2019-11-16 06"},"coordinates":[3522,5342]},{"type":"Point","properties":{"Station_ID":"ABNN6","Station_Nam":"ALBION","Latitude":"43.26330","Longitude":"-78.21520","Snowdepth":"6.000","Units":"in","Rept_Date":"2019-11-15 23"},"coordinates":[5437,4219]},{"type":"Point","properties":{"Station_ID":"QLP","Station_Nam":"QLP","Latitude":"48.13920","Longitude":"-72.63830","Snowdepth":"5.748","Units":"in","Rept_Date":"2019-11-15 12"},"coordinates":[7079,7549]},{"type":"Point","properties":{"Station_ID":"MI-IH-34","Station_Nam":"MASON 5.8 ENE, MI","Latitude":"42.61430","Longitude":"-84.33813","Snowdepth":"5.700","Units":"in","Rept_Date":"2019-11-15 13"},"coordinates":[3634,3776]},{"type":"Point","properties":{"Station_ID":"QTV","Station_Nam":"QTV","Latitude":"49.66000","Longitude":"-69.35690","Snowdepth":"5.669","Units":"in","Rept_Date":"2019-11-15 12"},"coordinates":[8045,8587]},{"type":"Point","properties":{"Station_ID":"NY-ER-96","Station_Nam":"ELMA 2.7 WSW, NY","Latitude":"42.81004","Longitude":"-78.68130","Snowdepth":"5.600","Units":"in","Rept_Date":"2019-11-15 12"},"coordinates":[5300,3909]},{"type":"Point","properties":{"Station_ID":"VT-OL-5","Station_Nam":"DERBY CENTER 1.8 NW, VT","Latitude":"44.97200","Longitude":"-72.14780","Snowdepth":"5.500","Units":"in","Rept_Date":"2019-11-15 12"},"coordinates":[7224,5386]},{"type":"Point","properties":{"Station_ID":"NY-ES-6","Station_Nam":"OLMSTEDVILLE 4.6 NNE, NY","Latitude":"43.83350","Longitude":"-73.89780","Snowdepth":"5.500","Units":"in","Rept_Date":"2019-11-15 13"},"coordinates":[6708,4608]},{"type":"Point","properties":{"Station_ID":"NY-ER-77","Station_Nam":"COLDEN 2.4 ENE, NY","Latitude":"42.65088","Longitude":"-78.61060","Snowdepth":"5.500","Units":"in","Rept_Date":"2019-11-15 13"},"coordinates":[5321,3801]},{"type":"Point","properties":{"Station_ID":"NY-ER-166","Station_Nam":"BOSTON 2.5 NE, NY","Latitude":"42.65480","Longitude":"-78.70300","Snowdepth":"5.500","Units":"in","Rept_Date":"2019-11-15 12"},"coordinates":[5293,3803]},{"type":"Point","properties":{"Station_ID":"NY-ER-13","Station_Nam":"WEST SENECA 2.3 NW, NY","Latitude":"42.85926","Longitude":"-78.78539","Snowdepth":"5.500","Units":"in","Rept_Date":"2019-11-15 12"},"coordinates":[5269,3943]},{"type":"Point","properties":{"Station_ID":"MI-OW-2","Station_Nam":"HOLLAND 3.9 NNE, MI","Latitude":"42.82296","Longitude":"-86.06780","Snowdepth":"5.500","Units":"in","Rept_Date":"2019-11-15 11"},"coordinates":[3125,3918]},{"type":"Point","properties":{"Station_ID":"MI-OK-13","Station_Nam":"PLEASANT RIDGE 0.5 WNW, MI","Latitude":"42.47247","Longitude":"-83.15360","Snowdepth":"5.500","Units":"in","Rept_Date":"2019-11-15 13"},"coordinates":[3983,3679]},{"type":"Point","properties":{"Station_ID":"MI-HR-10","Station_Nam":"BAY PORT 3.2 SSW, MI","Latitude":"43.80746","Longitude":"-83.40013","Snowdepth":"5.500","Units":"in","Rept_Date":"2019-11-15 13"},"coordinates":[3910,4591]},{"type":"Point","properties":{"Station_ID":"MI-GN-29","Station_Nam":"DAVISON 5.2 N, MI","Latitude":"43.10778","Longitude":"-83.51137","Snowdepth":"5.500","Units":"in","Rept_Date":"2019-11-15 14"},"coordinates":[3878,4113]},{"type":"Point","properties":{"Station_ID":"MI-CT-18","Station_Nam":"LAINGSBURG 2.1 NNW, MI","Latitude":"42.91661","Longitude":"-84.36803","Snowdepth":"5.500","Units":"in","Rept_Date":"2019-11-15 14"},"coordinates":[3625,3982]},{"type":"Point","properties":{"Station_ID":"CAN-NB-18","Station_Nam":"MCLEOD HILL 1.1 ENE, CA","Latitude":"46.02725","Longitude":"-66.67460","Snowdepth":"5.500","Units":"in","Rept_Date":"2019-11-15 12"},"coordinates":[8835,6107]},{"type":"Point","properties":{"Station_ID":"MFU","Station_Nam":"MFU","Latitude":"51.52170","Longitude":"-66.91110","Snowdepth":"5.433","Units":"in","Rept_Date":"2019-11-15 12"},"coordinates":[8766,9859]},{"type":"Point","properties":{"Station_ID":"MI-WS-7","Station_Nam":"ANN ARBOR 3.1 SE, MI","Latitude":"42.23914","Longitude":"-83.69580","Snowdepth":"5.300","Units":"in","Rept_Date":"2019-11-15 12"},"coordinates":[3823,3520]},{"type":"Point","properties":{"Station_ID":"NY-ER-104","Station_Nam":"WILLIAMSVILLE 2.2 NNW, NY","Latitude":"42.99422","Longitude":"-78.75260","Snowdepth":"5.200","Units":"in","Rept_Date":"2019-11-15 14"},"coordinates":[5279,4035]},{"type":"Point","properties":{"Station_ID":"MI-MB-54","Station_Nam":"UTICA 2.9 E, MI","Latitude":"42.63518","Longitude":"-82.96528","Snowdepth":"5.200","Units":"in","Rept_Date":"2019-11-15 12"},"coordinates":[4038,3790]},{"type":"Point","properties":{"Station_ID":"CAN-ON-46","Station_Nam":"WROXETER 0.3 WSW - MVCA, CAN","Latitude":"43.86365","Longitude":"-81.15225","Snowdepth":"5.100","Units":"in","Rept_Date":"2019-11-15 13"},"coordinates":[4572,4629]},{"type":"Point","properties":{"Station_ID":"WYTM4","Station_Nam":"WYANDOTTE","Latitude":"42.20110","Longitude":"-83.16830","Snowdepth":"5.000","Units":"in","Rept_Date":"2019-11-15 13"},"coordinates":[3979,3494]},{"type":"Point","properties":{"Station_ID":"WYON6","Station_Nam":"WYOMING 3W","Latitude":"42.81750","Longitude":"-78.14810","Snowdepth":"5.000","Units":"in","Rept_Date":"2019-11-15 12"},"coordinates":[5457,3914]},{"type":"Point","properties":{"Station_ID":"WLNM4","Station_Nam":"WELLSTON 1N","Latitude":"44.22940","Longitude":"-85.95690","Snowdepth":"5.000","Units":"in","Rept_Date":"2019-11-15 12"},"coordinates":[3157,4879]},{"type":"Point","properties":{"Station_ID":"VT-GI-3","Station_Nam":"ALBURGH 4.6 SSE, VT","Latitude":"44.91280","Longitude":"-73.26890","Snowdepth":"5.000","Units":"in","Rept_Date":"2019-11-15 14"},"coordinates":[6894,5345]},{"type":"Point","properties":{"Station_ID":"VT-ES-1","Station_Nam":"GRANBY 1.4 NW, VT","Latitude":"44.58330","Longitude":"-71.77870","Snowdepth":"5.000","Units":"in","Rept_Date":"2019-11-15 12"},"coordinates":[7332,5120]},{"type":"Point","properties":{"Station_ID":"VT-CL-23","Station_Nam":"RYEGATE 1.5 N, VT","Latitude":"44.23024","Longitude":"-72.10523","Snowdepth":"5.000","Units":"in","Rept_Date":"2019-11-15 12"},"coordinates":[7236,4879]},{"type":"Point","properties":{"Station_ID":"VT-CL-18","Station_Nam":"WHEELOCK 1.6 S, VT","Latitude":"44.56491","Longitude":"-72.08830","Snowdepth":"5.000","Units":"in","Rept_Date":"2019-11-15 12"},"coordinates":[7241,5108]},{"type":"Point","properties":{"Station_ID":"VT-CL-14","Station_Nam":"LYNDONVILLE 1.1 W, VT","Latitude":"44.53582","Longitude":"-72.02867","Snowdepth":"5.000","Units":"in","Rept_Date":"2019-11-15 13"},"coordinates":[7259,5088]},{"type":"Point","properties":{"Station_ID":"VT-CH-11","Station_Nam":"UNDERHILL 5.1 NNE, VT","Latitude":"44.59811","Longitude":"-72.91880","Snowdepth":"5.000","Units":"in","Rept_Date":"2019-11-15 13"},"coordinates":[6997,5131]},{"type":"Point","properties":{"Station_ID":"TOPN6","Station_Nam":"TUPPER LAKE SUNMOUNT","Latitude":"44.23070","Longitude":"-74.43820","Snowdepth":"5.000","Units":"in","Rept_Date":"2019-11-15 12"},"coordinates":[6549,4880]},{"type":"Point","properties":{"Station_ID":"TCMM4","Station_Nam":"TRAVERSE CITY MUNSON","Latitude":"44.76070","Longitude":"-85.64430","Snowdepth":"5.000","Units":"in","Rept_Date":"2019-11-15 11"},"coordinates":[3249,5242]},{"type":"Point","properties":{"Station_ID":"SUTV1","Station_Nam":"SUTTON","Latitude":"44.61220","Longitude":"-72.04810","Snowdepth":"5.000","Units":"in","Rept_Date":"2019-11-15 13"},"coordinates":[7253,5140]},{"type":"Point","properties":{"Station_ID":"SCOM4","Station_Nam":"SCOTTVILLE 2 SE","Latitude":"43.93310","Longitude":"-86.24530","Snowdepth":"5.000","Units":"in","Rept_Date":"2019-11-15 12"},"coordinates":[3072,4676]},{"type":"Point","properties":{"Station_ID":"SBNN6","Station_Nam":"SANBORN","Latitude":"43.17050","Longitude":"-78.81810","Snowdepth":"5.000","Units":"in","Rept_Date":"2019-11-15 12"},"coordinates":[5259,4156]},{"type":"Point","properties":{"Station_ID":"SALM4","Station_Nam":"SALINE,MI","Latitude":"42.16670","Longitude":"-83.78330","Snowdepth":"5.000","Units":"in","Rept_Date":"2019-11-15 13"},"coordinates":[3797,3470]},{"type":"Point","properties":{"Station_ID":"ROC","Station_Nam":"GREATER ROCHESTER INTL","Latitude":"43.11890","Longitude":"-77.67280","Snowdepth":"5.000","Units":"in","Rept_Date":"2019-11-16 06"},"coordinates":[5597,4120]},{"type":"Point","properties":{"Station_ID":"RGNM1","Station_Nam":"RANGELEY 2NW","Latitude":"44.98940","Longitude":"-70.67220","Snowdepth":"5.000","Units":"in","Rept_Date":"2019-11-15 11"},"coordinates":[7658,5398]},{"type":"Point","properties":{"Station_ID":"PRHM4","Station_Nam":"PORT HURON,MI","Latitude":"42.98330","Longitude":"-82.41670","Snowdepth":"5.000","Units":"in","Rept_Date":"2019-11-15 12"},"coordinates":[4200,4028]},{"type":"Point","properties":{"Station_ID":"OH-TR-4","Station_Nam":"NEWTON FALLS 0.6 N, OH","Latitude":"41.19773","Longitude":"-80.97210","Snowdepth":"5.000","Units":"in","Rept_Date":"2019-11-15 12"},"coordinates":[4625,2808]},{"type":"Point","properties":{"Station_ID":"NY-WY-10","Station_Nam":"WYOMING COOP, NY","Latitude":"42.82060","Longitude":"-78.14810","Snowdepth":"5.000","Units":"in","Rept_Date":"2019-11-15 12"},"coordinates":[5457,3917]},{"type":"Point","properties":{"Station_ID":"NY-GN-6","Station_Nam":"STAFFORD 1.8 NE, NY","Latitude":"42.99890","Longitude":"-78.04830","Snowdepth":"5.000","Units":"in","Rept_Date":"2019-11-15 12"},"coordinates":[5486,4038]},{"type":"Point","properties":{"Station_ID":"NY-CQ-22","Station_Nam":"FREDONIA 0.8 WNW, NY","Latitude":"42.44414","Longitude":"-79.34610","Snowdepth":"5.000","Units":"in","Rept_Date":"2019-11-15 10"},"coordinates":[5104,3660]},{"type":"Point","properties":{"Station_ID":"NY-CL-7","Station_Nam":"PERU 4.1 ESE, NY","Latitude":"44.56461","Longitude":"-73.45390","Snowdepth":"5.000","Units":"in","Rept_Date":"2019-11-15 11"},"coordinates":[6839,5108]},{"type":"Point","properties":{"Station_ID":"NVLV1","Station_Nam":"NASHVILLE","Latitude":"44.44970","Longitude":"-72.92640","Snowdepth":"5.000","Units":"in","Rept_Date":"2019-11-15 12"},"coordinates":[6994,5029]},{"type":"Point","properties":{"Station_ID":"NH-CS-10","Station_Nam":"RANDOLPH 1.4 NE, NH","Latitude":"44.38824","Longitude":"-71.26950","Snowdepth":"5.000","Units":"in","Rept_Date":"2019-11-15 12"},"coordinates":[7482,4987]},{"type":"Point","properties":{"Station_ID":"MI-WY-7","Station_Nam":"DEARBORN 3.5 NE, MI","Latitude":"42.35000","Longitude":"-83.17000","Snowdepth":"5.000","Units":"in","Rept_Date":"2019-11-15 12"},"coordinates":[3978,3595]},{"type":"Point","properties":{"Station_ID":"MI-WY-33","Station_Nam":"LIVONIA 2.3 NNW, MI","Latitude":"42.43100","Longitude":"-83.38190","Snowdepth":"5.000","Units":"in","Rept_Date":"2019-11-15 12"},"coordinates":[3916,3651]},{"type":"Point","properties":{"Station_ID":"MI-OT-4","Station_Nam":"GAYLORD 1.7 WNW, MI","Latitude":"45.03280","Longitude":"-84.71090","Snowdepth":"5.000","Units":"in","Rept_Date":"2019-11-15 13"},"coordinates":[3524,5427]},{"type":"Point","properties":{"Station_ID":"MI-OT-16","Station_Nam":"GAYLORD 2.2 SSE, MI","Latitude":"44.99441","Longitude":"-84.65820","Snowdepth":"5.000","Units":"in","Rept_Date":"2019-11-15 14"},"coordinates":[3540,5401]},{"type":"Point","properties":{"Station_ID":"MI-OK-109","Station_Nam":"HIGHLAND 1.3 NE, MI","Latitude":"42.67877","Longitude":"-83.59361","Snowdepth":"5.000","Units":"in","Rept_Date":"2019-11-15 13"},"coordinates":[3853,3820]},{"type":"Point","properties":{"Station_ID":"MI-LV-26","Station_Nam":"FENTON 6.2 WSW, MI","Latitude":"42.76832","Longitude":"-83.82928","Snowdepth":"5.000","Units":"in","Rept_Date":"2019-11-15 13"},"coordinates":[3784,3881]},{"type":"Point","properties":{"Station_ID":"MI-GT-21","Station_Nam":"KINGSLEY 2.7 ENE, MI","Latitude":"44.59871","Longitude":"-85.48426","Snowdepth":"5.000","Units":"in","Rept_Date":"2019-11-15 11"},"coordinates":[3297,5131]},{"type":"Point","properties":{"Station_ID":"MI-CP-14","Station_Nam":"SAULT STE. MARIE 2.2 E, MI","Latitude":"46.48933","Longitude":"-84.31971","Snowdepth":"5.000","Units":"in","Rept_Date":"2019-11-15 13"},"coordinates":[3639,6422]},{"type":"Point","properties":{"Station_ID":"MI-AN-25","Station_Nam":"PLAINWELL 0.5 WSW, MI","Latitude":"42.44318","Longitude":"-85.65374","Snowdepth":"5.000","Units":"in","Rept_Date":"2019-11-15 12"},"coordinates":[3247,3659]},{"type":"Point","properties":{"Station_ID":"MEDN6","Station_Nam":"MEDINA","Latitude":"43.20930","Longitude":"-78.38940","Snowdepth":"5.000","Units":"in","Rept_Date":"2019-11-15 11"},"coordinates":[5386,4182]},{"type":"Point","properties":{"Station_ID":"ME-PN-45","Station_Nam":"MILLINOCKET 2.7 ESE, ME","Latitude":"45.65002","Longitude":"-68.64472","Snowdepth":"5.000","Units":"in","Rept_Date":"2019-11-15 12"},"coordinates":[8255,5849]},{"type":"Point","properties":{"Station_ID":"ME-AR-15","Station_Nam":"PRESQUE ISLE 1.3 WSW, ME","Latitude":"46.67960","Longitude":"-68.01270","Snowdepth":"5.000","Units":"in","Rept_Date":"2019-11-15 12"},"coordinates":[8441,6552]},{"type":"Point","properties":{"Station_ID":"MCHM4","Station_Nam":"MANCHESTER,MI","Latitude":"42.15000","Longitude":"-84.01670","Snowdepth":"5.000","Units":"in","Rept_Date":"2019-11-15 12"},"coordinates":[3729,3459]},{"type":"Point","properties":{"Station_ID":"KROC","Station_Nam":"GREATER ROCHESTER INTERNATIONAL","Latitude":"43.11666","Longitude":"-77.68333","Snowdepth":"5.000","Units":"in","Rept_Date":"2019-11-16 06"},"coordinates":[5594,4119]},{"type":"Point","properties":{"Station_ID":"KBTV","Station_Nam":"BURLINGTON INTERNATIONAL","Latitude":"44.46666","Longitude":"-73.15000","Snowdepth":"5.000","Units":"in","Rept_Date":"2019-11-16 05"},"coordinates":[6929,5041]},{"type":"Point","properties":{"Station_ID":"HGHN6","Station_Nam":"HIGHMARKET","Latitude":"43.57520","Longitude":"-75.52070","Snowdepth":"5.000","Units":"in","Rept_Date":"2019-11-15 11"},"coordinates":[6230,4432]},{"type":"Point","properties":{"Station_ID":"GPFM4","Station_Nam":"GROSSE POINTE FARMS,MI","Latitude":"42.38330","Longitude":"-82.90000","Snowdepth":"5.000","Units":"in","Rept_Date":"2019-11-15 13"},"coordinates":[4058,3618]},{"type":"Point","properties":{"Station_ID":"GODM4","Station_Nam":"GOODRICH","Latitude":"42.91640","Longitude":"-83.50970","Snowdepth":"5.000","Units":"in","Rept_Date":"2019-11-15 12"},"coordinates":[3878,3982]},{"type":"Point","properties":{"Station_ID":"GAYM4","Station_Nam":"GAYLORD","Latitude":"45.03320","Longitude":"-84.71130","Snowdepth":"5.000","Units":"in","Rept_Date":"2019-11-15 13"},"coordinates":[3524,5428]},{"type":"Point","properties":{"Station_ID":"FARM4","Station_Nam":"FARMINGTON,MI","Latitude":"42.46670","Longitude":"-83.36670","Snowdepth":"5.000","Units":"in","Rept_Date":"2019-11-15 12"},"coordinates":[3920,3675]},{"type":"Point","properties":{"Station_ID":"ESGM1","Station_Nam":"EAST SANGERVILLE","Latitude":"45.13690","Longitude":"-69.28060","Snowdepth":"5.000","Units":"in","Rept_Date":"2019-11-15 12"},"coordinates":[8068,5498]},{"type":"Point","properties":{"Station_ID":"EJNM4","Station_Nam":"EAST JORDAN 2NW","Latitude":"45.18630","Longitude":"-85.14770","Snowdepth":"5.000","Units":"in","Rept_Date":"2019-11-15 13"},"coordinates":[3396,5532]},{"type":"Point","properties":{"Station_ID":"DKKN6","Station_Nam":"DUNKIRK 1S","Latitude":"42.47170","Longitude":"-79.33360","Snowdepth":"5.000","Units":"in","Rept_Date":"2019-11-15 12"},"coordinates":[5108,3678]},{"type":"Point","properties":{"Station_ID":"DBNM4","Station_Nam":"DEARBORN NO.2","Latitude":"42.34670","Longitude":"-83.17420","Snowdepth":"5.000","Units":"in","Rept_Date":"2019-11-15 14"},"coordinates":[3977,3593]},{"type":"Point","properties":{"Station_ID":"CHLM4","Station_Nam":"CHELSEA,MI","Latitude":"42.31670","Longitude":"-84.01670","Snowdepth":"5.000","Units":"in","Rept_Date":"2019-11-15 14"},"coordinates":[3729,3572]},{"type":"Point","properties":{"Station_ID":"CEFM4","Station_Nam":"EXPERIMENT FARM #2","Latitude":"46.33330","Longitude":"-86.91670","Snowdepth":"5.000","Units":"in","Rept_Date":"2019-11-15 13"},"coordinates":[2875,6316]},{"type":"Point","properties":{"Station_ID":"CAN-ON-42","Station_Nam":"VANKLEEK HILL 3.4 S, CA","Latitude":"45.48987","Longitude":"-74.64570","Snowdepth":"5.000","Units":"in","Rept_Date":"2019-11-15 12"},"coordinates":[6488,5740]},{"type":"Point","properties":{"Station_ID":"CAN-ON-118","Station_Nam":"DURHAM 1.4 S, CAN","Latitude":"44.16525","Longitude":"-80.82064","Snowdepth":"5.000","Units":"in","Rept_Date":"2019-11-15 12"},"coordinates":[4670,4835]},{"type":"Point","properties":{"Station_ID":"BTV","Station_Nam":"BURLINGTON, VT","Latitude":"44.47140","Longitude":"-73.15330","Snowdepth":"5.000","Units":"in","Rept_Date":"2019-11-16 01"},"coordinates":[6928,5044]},{"type":"Point","properties":{"Station_ID":"BRDM1","Station_Nam":"BRIDGEWATER","Latitude":"46.42870","Longitude":"-67.84370","Snowdepth":"5.000","Units":"in","Rept_Date":"2019-11-15 23"},"coordinates":[8491,6381]},{"type":"Point","properties":{"Station_ID":"BEUM4","Station_Nam":"BEULAH 7SSW","Latitude":"44.53160","Longitude":"-86.13110","Snowdepth":"5.000","Units":"in","Rept_Date":"2019-11-15 13"},"coordinates":[3106,5085]},{"type":"Point","properties":{"Station_ID":"ARBM4","Station_Nam":"UNIV OF MICH","Latitude":"42.30000","Longitude":"-83.71670","Snowdepth":"5.000","Units":"in","Rept_Date":"2019-11-15 23"},"coordinates":[3817,3561]},{"type":"Point","properties":{"Station_ID":"AASM4","Station_Nam":"ANN ARBOR SE","Latitude":"42.24160","Longitude":"-83.69330","Snowdepth":"5.000","Units":"in","Rept_Date":"2019-11-15 12"},"coordinates":[3824,3521]},{"type":"Point","properties":{"Station_ID":"NY-NG-30","Station_Nam":"LOCKPORT 2.5 ESE, NY","Latitude":"43.15207","Longitude":"-78.65338","Snowdepth":"4.800","Units":"in","Rept_Date":"2019-11-15 12"},"coordinates":[5308,4143]},{"type":"Point","properties":{"Station_ID":"CAN-ON-92","Station_Nam":"DUNROBIN 1.9 W - MVCA, CAN","Latitude":"45.42318","Longitude":"-76.04525","Snowdepth":"4.800","Units":"in","Rept_Date":"2019-11-15 12"},"coordinates":[6076,5694]},{"type":"Point","properties":{"Station_ID":"CAN-ON-31","Station_Nam":"KOMOKA 2.8 W, CAN","Latitude":"42.95424","Longitude":"-81.43488","Snowdepth":"4.700","Units":"in","Rept_Date":"2019-11-15 14"},"coordinates":[4489,4008]},{"type":"Point","properties":{"Station_ID":"PTLQ6","Station_Nam":"PORTAGE LAKE","Latitude":"49.06950","Longitude":"-86.65940","Snowdepth":"4.650","Units":"in","Rept_Date":"2019-11-16 06"},"coordinates":[2951,8184]},{"type":"Point","properties":{"Station_ID":"QIQ","Station_Nam":"QIQ","Latitude":"49.82390","Longitude":"-68.54310","Snowdepth":"4.567","Units":"in","Rept_Date":"2019-11-15 12"},"coordinates":[8285,8699]},{"type":"Point","properties":{"Station_ID":"VT-WS-19","Station_Nam":"WATERBURY 3.0 NW, VT","Latitude":"44.36060","Longitude":"-72.80770","Snowdepth":"4.500","Units":"in","Rept_Date":"2019-11-15 11"},"coordinates":[7029,4968]},{"type":"Point","properties":{"Station_ID":"VT-WR-17","Station_Nam":"ROCHESTER 2.3 NE, VT","Latitude":"43.89418","Longitude":"-72.76992","Snowdepth":"4.500","Units":"in","Rept_Date":"2019-11-15 12"},"coordinates":[7040,4650]},{"type":"Point","properties":{"Station_ID":"VT-LM-7","Station_Nam":"HYDE PARK 2.9 NE, VT","Latitude":"44.62080","Longitude":"-72.57250","Snowdepth":"4.500","Units":"in","Rept_Date":"2019-11-15 13"},"coordinates":[7099,5146]},{"type":"Point","properties":{"Station_ID":"OH-GG-11","Station_Nam":"MADISON 4.2 S, OH","Latitude":"41.71238","Longitude":"-81.03871","Snowdepth":"4.500","Units":"in","Rept_Date":"2019-11-15 12"},"coordinates":[4606,3160]},{"type":"Point","properties":{"Station_ID":"NY-WY-11","Station_Nam":"SILVER SPRINGS COOP, NY","Latitude":"42.70580","Longitude":"-78.09370","Snowdepth":"4.500","Units":"in","Rept_Date":"2019-11-15 12"},"coordinates":[5473,3838]},{"type":"Point","properties":{"Station_ID":"NY-ER-75","Station_Nam":"ELMA CENTER 0.7 SE, NY","Latitude":"42.81936","Longitude":"-78.62140","Snowdepth":"4.500","Units":"in","Rept_Date":"2019-11-15 14"},"coordinates":[5317,3916]},{"type":"Point","properties":{"Station_ID":"NY-CQ-39","Station_Nam":"GERRY 0.8 N, NY","Latitude":"42.20500","Longitude":"-79.24700","Snowdepth":"4.500","Units":"in","Rept_Date":"2019-11-15 13"},"coordinates":[5133,3496]},{"type":"Point","properties":{"Station_ID":"MI-WY-125","Station_Nam":"CANTON 2.7 N, MI","Latitude":"42.34732","Longitude":"-83.47286","Snowdepth":"4.500","Units":"in","Rept_Date":"2019-11-15 12"},"coordinates":[3889,3593]},{"type":"Point","properties":{"Station_ID":"MI-WS-41","Station_Nam":"ANN ARBOR 7.1 W, MI","Latitude":"42.26390","Longitude":"-83.86940","Snowdepth":"4.500","Units":"in","Rept_Date":"2019-11-15 11"},"coordinates":[3772,3536]},{"type":"Point","properties":{"Station_ID":"MI-WS-28","Station_Nam":"DEXTER 0.3 ENE, MI","Latitude":"42.33367","Longitude":"-83.87510","Snowdepth":"4.500","Units":"in","Rept_Date":"2019-11-15 12"},"coordinates":[3770,3584]},{"type":"Point","properties":{"Station_ID":"MI-MQ-25","Station_Nam":"ISHPEMING 6.3 NW, MI","Latitude":"46.54140","Longitude":"-87.77153","Snowdepth":"4.500","Units":"in","Rept_Date":"2019-11-15 15"},"coordinates":[2623,6458]},{"type":"Point","properties":{"Station_ID":"MI-CX-7","Station_Nam":"EAST JORDAN 2.1 NNW, MI","Latitude":"45.18639","Longitude":"-85.14750","Snowdepth":"4.500","Units":"in","Rept_Date":"2019-11-15 13"},"coordinates":[3396,5532]},{"type":"Point","properties":{"Station_ID":"IL-MCH-33","Station_Nam":"WOODSTOCK 3.8 SW, IL","Latitude":"42.27554","Longitude":"-88.49500","Snowdepth":"4.500","Units":"in","Rept_Date":"2019-11-15 14"},"coordinates":[2410,3544]},{"type":"Point","properties":{"Station_ID":"CAN-ON-33","Station_Nam":"BURLINGTON 1.7 W, CA","Latitude":"43.37134","Longitude":"-79.83550","Snowdepth":"4.500","Units":"in","Rept_Date":"2019-11-15 12"},"coordinates":[4960,4293]},{"type":"Point","properties":{"Station_ID":"CAN-ON-208","Station_Nam":"PAKENHAM 7.8 NNW, CAN","Latitude":"45.39166","Longitude":"-76.34111","Snowdepth":"4.500","Units":"in","Rept_Date":"2019-11-15 12"},"coordinates":[5989,5672]},{"type":"Point","properties":{"Station_ID":"TRIQ6","Station_Nam":"TRIO LAKE","Latitude":"49.22880","Longitude":"-87.22920","Snowdepth":"4.410","Units":"in","Rept_Date":"2019-11-16 06"},"coordinates":[2783,8293]},{"type":"Point","properties":{"Station_ID":"VT-AD-24","Station_Nam":"MIDDLEBURY 0.3 N, VT","Latitude":"44.01808","Longitude":"-73.16844","Snowdepth":"4.400","Units":"in","Rept_Date":"2019-11-15 11"},"coordinates":[6923,4734]},{"type":"Point","properties":{"Station_ID":"CAN-NB-96","Station_Nam":"SAINT-IGNACE 2.6 NE, CAN","Latitude":"46.71424","Longitude":"-65.05609","Snowdepth":"4.300","Units":"in","Rept_Date":"2019-11-15 11"},"coordinates":[9312,6576]},{"type":"Point","properties":{"Station_ID":"FTHQ6","Station_Nam":"FORT HOPE","Latitude":"51.55820","Longitude":"-87.90510","Snowdepth":"4.090","Units":"in","Rept_Date":"2019-11-16 06"},"coordinates":[2584,9884]},{"type":"Point","properties":{"Station_ID":"MRL","Station_Nam":"MRL","Latitude":"51.28330","Longitude":"-68.84060","Snowdepth":"4.055","Units":"in","Rept_Date":"2019-11-15 12"},"coordinates":[8197,9696]},{"type":"Point","properties":{"Station_ID":"YALM4","Station_Nam":"YALE,MI","Latitude":"43.15000","Longitude":"-82.80000","Snowdepth":"4.000","Units":"in","Rept_Date":"2019-11-15 11"},"coordinates":[4087,4142]},{"type":"Point","properties":{"Station_ID":"WTRM4","Station_Nam":"WATERSMEET 12WSW","Latitude":"46.22310","Longitude":"-89.40850","Snowdepth":"4.000","Units":"in","Rept_Date":"2019-11-15 12"},"coordinates":[2141,6240]},{"type":"Point","properties":{"Station_ID":"WRSN6","Station_Nam":"WARSAW 6SW","Latitude":"42.68550","Longitude":"-78.22020","Snowdepth":"4.000","Units":"in","Rept_Date":"2019-11-15 12"},"coordinates":[5436,3824]},{"type":"Point","properties":{"Station_ID":"WRPW3","Station_Nam":"WATER PURIFICATION PLANT","Latitude":"44.38800","Longitude":"-89.80550","Snowdepth":"4.000","Units":"in","Rept_Date":"2019-11-15 12"},"coordinates":[2024,4987]},{"type":"Point","properties":{"Station_ID":"WORV1","Station_Nam":"WORCESTER 2 W","Latitude":"44.37470","Longitude":"-72.58220","Snowdepth":"4.000","Units":"in","Rept_Date":"2019-11-15 12"},"coordinates":[7096,4978]},{"type":"Point","properties":{"Station_ID":"WBSN6","Station_Nam":"WEBSTER 2 NE","Latitude":"43.24190","Longitude":"-77.38810","Snowdepth":"4.000","Units":"in","Rept_Date":"2019-11-16 01"},"coordinates":[5681,4204]},{"type":"Point","properties":{"Station_ID":"WAIV1","Station_Nam":"WAITSFIELD","Latitude":"44.17560","Longitude":"-72.79610","Snowdepth":"4.000","Units":"in","Rept_Date":"2019-11-15 12"},"coordinates":[7033,4842]},{"type":"Point","properties":{"Station_ID":"VT-WS-11","Station_Nam":"WAITSFIELD 1.8 SE, VT","Latitude":"44.17551","Longitude":"-72.79540","Snowdepth":"4.000","Units":"in","Rept_Date":"2019-11-15 12"},"coordinates":[7033,4842]},{"type":"Point","properties":{"Station_ID":"VT-WS-10","Station_Nam":"NORTHFIELD 1.5 N, VT","Latitude":"44.16986","Longitude":"-72.65200","Snowdepth":"4.000","Units":"in","Rept_Date":"2019-11-15 12"},"coordinates":[7075,4838]},{"type":"Point","properties":{"Station_ID":"VT-CL-27","Station_Nam":"DANVILLE 0.4 N, VT","Latitude":"44.41769","Longitude":"-72.13936","Snowdepth":"4.000","Units":"in","Rept_Date":"2019-11-15 11"},"coordinates":[7226,5007]},{"type":"Point","properties":{"Station_ID":"VSSM4","Station_Nam":"VASSAR,MI","Latitude":"43.36670","Longitude":"-83.58330","Snowdepth":"4.000","Units":"in","Rept_Date":"2019-11-15 12"},"coordinates":[3856,4290]},{"type":"Point","properties":{"Station_ID":"TIPM4","Station_Nam":"TIPTON,MI","Latitude":"42.03330","Longitude":"-84.10000","Snowdepth":"4.000","Units":"in","Rept_Date":"2019-11-15 13"},"coordinates":[3704,3379]},{"type":"Point","properties":{"Station_ID":"TECM4","Station_Nam":"TECUMSEH,MI","Latitude":"42.00000","Longitude":"-83.95000","Snowdepth":"4.000","Units":"in","Rept_Date":"2019-11-15 12"},"coordinates":[3748,3356]},{"type":"Point","properties":{"Station_ID":"SVSN6","Station_Nam":"SILVER SPRINGS 3N","Latitude":"42.70580","Longitude":"-78.09370","Snowdepth":"4.000","Units":"in","Rept_Date":"2019-11-15 12"},"coordinates":[5473,3838]},{"type":"Point","properties":{"Station_ID":"STIM4","Station_Nam":"ST IGNACE","Latitude":"45.86080","Longitude":"-84.71960","Snowdepth":"4.000","Units":"in","Rept_Date":"2019-11-15 12"},"coordinates":[3522,5993]},{"type":"Point","properties":{"Station_ID":"SLNM4","Station_Nam":"SALINE,MI","Latitude":"42.13330","Longitude":"-83.81670","Snowdepth":"4.000","Units":"in","Rept_Date":"2019-11-15 16"},"coordinates":[3788,3447]},{"type":"Point","properties":{"Station_ID":"SJBV1","Station_Nam":"SAINT JOHNSBURY","Latitude":"44.42000","Longitude":"-72.01940","Snowdepth":"4.000","Units":"in","Rept_Date":"2019-11-15 21"},"coordinates":[7261,5009]},{"type":"Point","properties":{"Station_ID":"SILN6","Station_Nam":"SILVER CREEK","Latitude":"42.53800","Longitude":"-79.16990","Snowdepth":"4.000","Units":"in","Rept_Date":"2019-11-15 12"},"coordinates":[5156,3724]},{"type":"Point","properties":{"Station_ID":"SDSN6","Station_Nam":"SODUS","Latitude":"43.23590","Longitude":"-77.08410","Snowdepth":"4.000","Units":"in","Rept_Date":"2019-11-15 12"},"coordinates":[5770,4200]},{"type":"Point","properties":{"Station_ID":"SBOP1","Station_Nam":"SPRINGBORO","Latitude":"41.81660","Longitude":"-80.43330","Snowdepth":"4.000","Units":"in","Rept_Date":"2019-11-15 12"},"coordinates":[4784,3231]},{"type":"Point","properties":{"Station_ID":"RDFN6","Station_Nam":"REDFIELD 8N","Latitude":"43.64130","Longitude":"-75.88400","Snowdepth":"4.000","Units":"in","Rept_Date":"2019-11-15 12"},"coordinates":[6123,4477]},{"type":"Point","properties":{"Station_ID":"PVLN6","Station_Nam":"PAVILION 2","Latitude":"42.87340","Longitude":"-77.99260","Snowdepth":"4.000","Units":"in","Rept_Date":"2019-11-15 12"},"coordinates":[5503,3953]},{"type":"Point","properties":{"Station_ID":"PONM4","Station_Nam":"STATE HOSPITAL","Latitude":"42.65000","Longitude":"-83.30000","Snowdepth":"4.000","Units":"in","Rept_Date":"2019-11-15 12"},"coordinates":[3940,3800]},{"type":"Point","properties":{"Station_ID":"PLFV1","Station_Nam":"PLAINFIELD","Latitude":"44.27610","Longitude":"-72.41500","Snowdepth":"4.000","Units":"in","Rept_Date":"2019-11-15 12"},"coordinates":[7145,4911]},{"type":"Point","properties":{"Station_ID":"PGVN6","Station_Nam":"PORTAGEVILLE","Latitude":"42.57580","Longitude":"-78.06720","Snowdepth":"4.000","Units":"in","Rept_Date":"2019-11-15 12"},"coordinates":[5481,3749]},{"type":"Point","properties":{"Station_ID":"PDGM4","Station_Nam":"PAULDING","Latitude":"46.39760","Longitude":"-89.17940","Snowdepth":"4.000","Units":"in","Rept_Date":"2019-11-15 13"},"coordinates":[2208,6359]},{"type":"Point","properties":{"Station_ID":"PA-CW-8","Station_Nam":"SPRINGBORO 3.0 WNW, PA","Latitude":"41.81654","Longitude":"-80.42540","Snowdepth":"4.000","Units":"in","Rept_Date":"2019-11-15 12"},"coordinates":[4786,3231]},{"type":"Point","properties":{"Station_ID":"OH-PT-9","Station_Nam":"HIRAM 0.4 N, OH","Latitude":"41.31595","Longitude":"-81.14340","Snowdepth":"4.000","Units":"in","Rept_Date":"2019-11-15 13"},"coordinates":[4575,2889]},{"type":"Point","properties":{"Station_ID":"OH-ER-5","Station_Nam":"WAKEMAN 4.6 NNE, OH","Latitude":"41.31902","Longitude":"-82.37730","Snowdepth":"4.000","Units":"in","Rept_Date":"2019-11-15 12"},"coordinates":[4211,2891]},{"type":"Point","properties":{"Station_ID":"NY-NG-22","Station_Nam":"NIAGARA FALLS 5.7 E, NY","Latitude":"43.08297","Longitude":"-78.90460","Snowdepth":"4.000","Units":"in","Rept_Date":"2019-11-15 12"},"coordinates":[5234,4096]},{"type":"Point","properties":{"Station_ID":"NY-ER-7","Station_Nam":"WILLIAMSVILLE 2.7 E, NY","Latitude":"42.96930","Longitude":"-78.68790","Snowdepth":"4.000","Units":"in","Rept_Date":"2019-11-15 12"},"coordinates":[5298,4018]},{"type":"Point","properties":{"Station_ID":"NY-ER-63","Station_Nam":"GLENWOOD 1.5 SE, NY","Latitude":"42.60195","Longitude":"-78.63910","Snowdepth":"4.000","Units":"in","Rept_Date":"2019-11-15 11"},"coordinates":[5312,3767]},{"type":"Point","properties":{"Station_ID":"NY-ER-59","Station_Nam":"KENMORE 0.3 ESE, NY","Latitude":"42.96316","Longitude":"-78.86690","Snowdepth":"4.000","Units":"in","Rept_Date":"2019-11-15 12"},"coordinates":[5245,4014]},{"type":"Point","properties":{"Station_ID":"NY-CQ-27","Station_Nam":"SILVER CREEK 1.0 SSE, NY","Latitude":"42.53088","Longitude":"-79.15986","Snowdepth":"4.000","Units":"in","Rept_Date":"2019-11-15 12"},"coordinates":[5159,3719]},{"type":"Point","properties":{"Station_ID":"NWFN6","Station_Nam":"NEWFANE","Latitude":"43.29010","Longitude":"-78.72280","Snowdepth":"4.000","Units":"in","Rept_Date":"2019-11-15 12"},"coordinates":[5288,4237]},{"type":"Point","properties":{"Station_ID":"NTON6","Station_Nam":"NORTH TONAWANDA","Latitude":"43.05730","Longitude":"-78.86170","Snowdepth":"4.000","Units":"in","Rept_Date":"2019-11-15 12"},"coordinates":[5247,4078]},{"type":"Point","properties":{"Station_ID":"NSFN3","Station_Nam":"NORTH STRATFORD","Latitude":"44.68190","Longitude":"-71.58570","Snowdepth":"4.000","Units":"in","Rept_Date":"2019-11-15 12"},"coordinates":[7389,5188]},{"type":"Point","properties":{"Station_ID":"NH-CR-15","Station_Nam":"JACKSON 3.7 NW, NH","Latitude":"44.19069","Longitude":"-71.22598","Snowdepth":"4.000","Units":"in","Rept_Date":"2019-11-15 12"},"coordinates":[7495,4852]},{"type":"Point","properties":{"Station_ID":"NCKN6","Station_Nam":"NORTH CREEK 5 SE","Latitude":"43.66110","Longitude":"-73.89690","Snowdepth":"4.000","Units":"in","Rept_Date":"2019-11-15 12"},"coordinates":[6709,4491]},{"type":"Point","properties":{"Station_ID":"NALN6","Station_Nam":"CATTARAUGUS","Latitude":"42.32450","Longitude":"-78.86700","Snowdepth":"4.000","Units":"in","Rept_Date":"2019-11-15 13"},"coordinates":[5245,3578]},{"type":"Point","properties":{"Station_ID":"MYOM4","Station_Nam":"MIO WWTP","Latitude":"44.64660","Longitude":"-84.11580","Snowdepth":"4.000","Units":"in","Rept_Date":"2019-11-15 13"},"coordinates":[3700,5164]},{"type":"Point","properties":{"Station_ID":"MWN","Station_Nam":"MOUNT WASHINGTON","Latitude":"44.26670","Longitude":"-71.30000","Snowdepth":"4.000","Units":"in","Rept_Date":"2019-11-16 05"},"coordinates":[7473,4904]},{"type":"Point","properties":{"Station_ID":"MRAM4","Station_Nam":"MORAN","Latitude":"45.99030","Longitude":"-84.83610","Snowdepth":"4.000","Units":"in","Rept_Date":"2019-11-15 13"},"coordinates":[3487,6081]},{"type":"Point","properties":{"Station_ID":"MKG","Station_Nam":"MUSKEGON COUNTY AIRPORT","Latitude":"43.16940","Longitude":"-86.23810","Snowdepth":"4.000","Units":"in","Rept_Date":"2019-11-16 00"},"coordinates":[3075,4155]},{"type":"Point","properties":{"Station_ID":"MIEM4","Station_Nam":"MICHIGAMME 3WNW","Latitude":"46.54530","Longitude":"-88.18000","Snowdepth":"4.000","Units":"in","Rept_Date":"2019-11-15 13"},"coordinates":[2503,6460]},{"type":"Point","properties":{"Station_ID":"MI-WS-25","Station_Nam":"SALINE 3.8 SSW, MI","Latitude":"42.12618","Longitude":"-83.81090","Snowdepth":"4.000","Units":"in","Rept_Date":"2019-11-15 12"},"coordinates":[3789,3442]},{"type":"Point","properties":{"Station_ID":"MI-WS-11","Station_Nam":"ANN ARBOR 2.1 WNW, MI","Latitude":"42.28323","Longitude":"-83.77150","Snowdepth":"4.000","Units":"in","Rept_Date":"2019-11-15 13"},"coordinates":[3801,3550]},{"type":"Point","properties":{"Station_ID":"MI-VB-4","Station_Nam":"PAW PAW 3.6 NNE, MI","Latitude":"42.26582","Longitude":"-85.86190","Snowdepth":"4.000","Units":"in","Rept_Date":"2019-11-15 12"},"coordinates":[3185,3538]},{"type":"Point","properties":{"Station_ID":"MI-VB-13","Station_Nam":"PAW PAW 2.0 NE, MI","Latitude":"42.23743","Longitude":"-85.86171","Snowdepth":"4.000","Units":"in","Rept_Date":"2019-11-15 12"},"coordinates":[3185,3518]},{"type":"Point","properties":{"Station_ID":"MI-SC-3","Station_Nam":"PORT HURON 1.6 W, MI","Latitude":"42.99617","Longitude":"-82.46430","Snowdepth":"4.000","Units":"in","Rept_Date":"2019-11-15 13"},"coordinates":[4186,4037]},{"type":"Point","properties":{"Station_ID":"MI-MQ-2","Station_Nam":"MARQUETTE 6.5 SSE, MI","Latitude":"46.46461","Longitude":"-87.34064","Snowdepth":"4.000","Units":"in","Rept_Date":"2019-11-15 12"},"coordinates":[2750,6405]},{"type":"Point","properties":{"Station_ID":"MI-HL-9","Station_Nam":"MONTGOMERY 1.9 SSE, MI","Latitude":"41.75167","Longitude":"-84.78952","Snowdepth":"4.000","Units":"in","Rept_Date":"2019-11-15 13"},"coordinates":[3501,3187]},{"type":"Point","properties":{"Station_ID":"MI-HG-1","Station_Nam":"HOUGHTON 1.6 ESE, MI","Latitude":"47.10774","Longitude":"-88.52940","Snowdepth":"4.000","Units":"in","Rept_Date":"2019-11-15 13"},"coordinates":[2400,6844]},{"type":"Point","properties":{"Station_ID":"MI-CT-2","Station_Nam":"HASLETT 1.2 N, MI","Latitude":"42.76997","Longitude":"-84.40310","Snowdepth":"4.000","Units":"in","Rept_Date":"2019-11-15 12"},"coordinates":[3615,3882]},{"type":"Point","properties":{"Station_ID":"MI-CF-9","Station_Nam":"GRAYLING 15.8 NE, MI","Latitude":"44.80464","Longitude":"-84.46313","Snowdepth":"4.000","Units":"in","Rept_Date":"2019-11-15 12"},"coordinates":[3597,5272]},{"type":"Point","properties":{"Station_ID":"ME-SM-4","Station_Nam":"SOLON 3.9 ESE, ME","Latitude":"44.94705","Longitude":"-69.77790","Snowdepth":"4.000","Units":"in","Rept_Date":"2019-11-15 12"},"coordinates":[7921,5369]},{"type":"Point","properties":{"Station_ID":"LPTN6","Station_Nam":"LOCKPORT","Latitude":"43.18760","Longitude":"-78.60910","Snowdepth":"4.000","Units":"in","Rept_Date":"2019-11-16 00"},"coordinates":[5321,4167]},{"type":"Point","properties":{"Station_ID":"LPRM4","Station_Nam":"OAKDALE REGIONAL CENTER","Latitude":"43.05000","Longitude":"-83.35000","Snowdepth":"4.000","Units":"in","Rept_Date":"2019-11-15 12"},"coordinates":[3925,4073]},{"type":"Point","properties":{"Station_ID":"LOWN6","Station_Nam":"LOWVILLE","Latitude":"43.79280","Longitude":"-75.48290","Snowdepth":"4.000","Units":"in","Rept_Date":"2019-11-15 12"},"coordinates":[6242,4581]},{"type":"Point","properties":{"Station_ID":"LNCM1","Station_Nam":"LINCOLN WATER DISTRICT","Latitude":"45.32410","Longitude":"-68.58300","Snowdepth":"4.000","Units":"in","Rept_Date":"2019-11-15 13"},"coordinates":[8273,5626]},{"type":"Point","properties":{"Station_ID":"LERN6","Station_Nam":"LE ROY 1E","Latitude":"42.97360","Longitude":"-77.96710","Snowdepth":"4.000","Units":"in","Rept_Date":"2019-11-15 13"},"coordinates":[5510,4021]},{"type":"Point","properties":{"Station_ID":"KTVC","Station_Nam":"CHERRY CAPITAL AIRPORT","Latitude":"44.73333","Longitude":"-85.56666","Snowdepth":"4.000","Units":"in","Rept_Date":"2019-11-16 00"},"coordinates":[3272,5223]},{"type":"Point","properties":{"Station_ID":"KMWN","Station_Nam":"MOUNT WASHINGTON","Latitude":"44.26666","Longitude":"-71.30000","Snowdepth":"4.000","Units":"in","Rept_Date":"2019-11-16 06"},"coordinates":[7473,4904]},{"type":"Point","properties":{"Station_ID":"KGTB","Station_Nam":"FORT DRUM / WHEELER-SACK U. S. ARMY AIRFIELD","Latitude":"44.05000","Longitude":"-75.73333","Snowdepth":"4.000","Units":"in","Rept_Date":"2019-11-16 00"},"coordinates":[6168,4756]},{"type":"Point","properties":{"Station_ID":"KBUF","Station_Nam":"GREATER BUFFALO INTERNATIONAL  AIRPORT","Latitude":"42.93333","Longitude":"-78.73333","Snowdepth":"4.000","Units":"in","Rept_Date":"2019-11-16 06"},"coordinates":[5284,3994]},{"type":"Point","properties":{"Station_ID":"KABM5","Station_Nam":"KABETOGAMA LAKE VISITOR CTR","Latitude":"48.40880","Longitude":"-93.04840","Snowdepth":"4.000","Units":"in","Rept_Date":"2019-11-15 13"},"coordinates":[1069,7733]},{"type":"Point","properties":{"Station_ID":"JKMM1","Station_Nam":"JACKMAN","Latitude":"45.62600","Longitude":"-70.24600","Snowdepth":"4.000","Units":"in","Rept_Date":"2019-11-15 12"},"coordinates":[7784,5833]},{"type":"Point","properties":{"Station_ID":"ISLV1","Station_Nam":"ISLAND POND","Latitude":"44.81280","Longitude":"-71.89020","Snowdepth":"4.000","Units":"in","Rept_Date":"2019-11-15 16"},"coordinates":[7300,5277]},{"type":"Point","properties":{"Station_ID":"INDN6","Station_Nam":"INDIAN LAKE","Latitude":"43.75500","Longitude":"-74.27560","Snowdepth":"4.000","Units":"in","Rept_Date":"2019-11-15 14"},"coordinates":[6597,4555]},{"type":"Point","properties":{"Station_ID":"IN-LP-7","Station_Nam":"LA PORTE 1.6 SW, IN","Latitude":"41.59040","Longitude":"-86.73430","Snowdepth":"4.000","Units":"in","Rept_Date":"2019-11-15 13"},"coordinates":[2928,3076]},{"type":"Point","properties":{"Station_ID":"IN-EL-59","Station_Nam":"GOSHEN 1.2 SW, IN","Latitude":"41.56898","Longitude":"-85.85356","Snowdepth":"4.000","Units":"in","Rept_Date":"2019-11-15 12"},"coordinates":[3188,3062]},{"type":"Point","properties":{"Station_ID":"IL-SP-7","Station_Nam":"DAVIS 0.5 N, IL","Latitude":"42.42919","Longitude":"-89.41730","Snowdepth":"4.000","Units":"in","Rept_Date":"2019-11-15 13"},"coordinates":[2138,3649]},{"type":"Point","properties":{"Station_ID":"IL-LK-81","Station_Nam":"LAKE VILLA 2.3 WSW, IL","Latitude":"42.40532","Longitude":"-88.12380","Snowdepth":"4.000","Units":"in","Rept_Date":"2019-11-15 13"},"coordinates":[2519,3633]},{"type":"Point","properties":{"Station_ID":"IL-KN-118","Station_Nam":"SLEEPY HOLLOW 0.7 W, IL","Latitude":"42.09500","Longitude":"-88.32790","Snowdepth":"4.000","Units":"in","Rept_Date":"2019-11-15 13"},"coordinates":[2459,3421]},{"type":"Point","properties":{"Station_ID":"HTL","Station_Nam":"ROSCOMMON COUNTY AIRPORT","Latitude":"44.35000","Longitude":"-84.66670","Snowdepth":"4.000","Units":"in","Rept_Date":"2019-11-15 12"},"coordinates":[3537,4961]},{"type":"Point","properties":{"Station_ID":"HRVM4","Station_Nam":"HARVEY","Latitude":"46.49080","Longitude":"-87.35470","Snowdepth":"4.000","Units":"in","Rept_Date":"2019-11-15 12"},"coordinates":[2746,6423]},{"type":"Point","properties":{"Station_ID":"HOLM4","Station_Nam":"HOLLAND,MI","Latitude":"42.80000","Longitude":"-86.11670","Snowdepth":"4.000","Units":"in","Rept_Date":"2019-11-15 12"},"coordinates":[3110,3903]},{"type":"Point","properties":{"Station_ID":"GLNM4","Station_Nam":"GLENNIE 2SE","Latitude":"44.53580","Longitude":"-83.70220","Snowdepth":"4.000","Units":"in","Rept_Date":"2019-11-15 12"},"coordinates":[3821,5088]},{"type":"Point","properties":{"Station_ID":"GGRM4","Station_Nam":"GREEN GARDEN NO.2","Latitude":"46.45330","Longitude":"-87.30380","Snowdepth":"4.000","Units":"in","Rept_Date":"2019-11-15 11"},"coordinates":[2761,6397]},{"type":"Point","properties":{"Station_ID":"GFDN6","Station_Nam":"CHASE LAKE","Latitude":"43.75920","Longitude":"-75.29980","Snowdepth":"4.000","Units":"in","Rept_Date":"2019-11-15 11"},"coordinates":[6296,4558]},{"type":"Point","properties":{"Station_ID":"FKMM4","Station_Nam":"FRANKENMUTH 1SE","Latitude":"43.31940","Longitude":"-83.71610","Snowdepth":"4.000","Units":"in","Rept_Date":"2019-11-15 16"},"coordinates":[3817,4257]},{"type":"Point","properties":{"Station_ID":"DFXM1","Station_Nam":"DOVER-FOXCROFT","Latitude":"45.18720","Longitude":"-69.18350","Snowdepth":"4.000","Units":"in","Rept_Date":"2019-11-15 12"},"coordinates":[8097,5533]},{"type":"Point","properties":{"Station_ID":"CSSM4","Station_Nam":"CASS CITY,MI","Latitude":"43.58330","Longitude":"-83.18330","Snowdepth":"4.000","Units":"in","Rept_Date":"2019-11-15 11"},"coordinates":[3974,4437]},{"type":"Point","properties":{"Station_ID":"CORM1","Station_Nam":"CORINNA","Latitude":"44.91980","Longitude":"-69.24180","Snowdepth":"4.000","Units":"in","Rept_Date":"2019-11-15 16"},"coordinates":[8079,5350]},{"type":"Point","properties":{"Station_ID":"CODN6","Station_Nam":"COLDEN 1W","Latitude":"42.64720","Longitude":"-78.71110","Snowdepth":"4.000","Units":"in","Rept_Date":"2019-11-15 12"},"coordinates":[5291,3798]},{"type":"Point","properties":{"Station_ID":"CLKM4","Station_Nam":"CLARKSBURG","Latitude":"46.49910","Longitude":"-87.84500","Snowdepth":"4.000","Units":"in","Rept_Date":"2019-11-15 12"},"coordinates":[2601,6429]},{"type":"Point","properties":{"Station_ID":"CARM4","Station_Nam":"REGIONAL CENTER","Latitude":"43.45000","Longitude":"-83.40000","Snowdepth":"4.000","Units":"in","Rept_Date":"2019-11-15 12"},"coordinates":[3910,4346]},{"type":"Point","properties":{"Station_ID":"CAN-ON-322","Station_Nam":"WINDSOR 4.0 NE, CAN","Latitude":"42.31785","Longitude":"-83.01522","Snowdepth":"4.000","Units":"in","Rept_Date":"2019-11-15 12"},"coordinates":[4024,3573]},{"type":"Point","properties":{"Station_ID":"CAN-ON-245","Station_Nam":"PHELPSTON 3.1 ESE, CAN","Latitude":"44.50564","Longitude":"-79.81035","Snowdepth":"4.000","Units":"in","Rept_Date":"2019-11-15 13"},"coordinates":[4967,5067]},{"type":"Point","properties":{"Station_ID":"BUF","Station_Nam":"BUFFALO, NY","Latitude":"42.94140","Longitude":"-78.71920","Snowdepth":"4.000","Units":"in","Rept_Date":"2019-11-16 06"},"coordinates":[5289,3999]},{"type":"Point","properties":{"Station_ID":"BOON6","Station_Nam":"BOONVILLE 4 SSW","Latitude":"43.43610","Longitude":"-75.36970","Snowdepth":"4.000","Units":"in","Rept_Date":"2019-11-15 12"},"coordinates":[6275,4337]},{"type":"Point","properties":{"Station_ID":"BLTW3","Station_Nam":"BELOIT,WI","Latitude":"42.50000","Longitude":"-89.03330","Snowdepth":"4.000","Units":"in","Rept_Date":"2019-11-15 12"},"coordinates":[2251,3698]},{"type":"Point","properties":{"Station_ID":"BETM1","Station_Nam":"BETHEL 6 SSE","Latitude":"44.32000","Longitude":"-70.75680","Snowdepth":"4.000","Units":"in","Rept_Date":"2019-11-15 12"},"coordinates":[7633,4941]},{"type":"Point","properties":{"Station_ID":"BDAM4","Station_Nam":"BAD AXE,MI","Latitude":"43.81670","Longitude":"-83.00000","Snowdepth":"4.000","Units":"in","Rept_Date":"2019-11-15 12"},"coordinates":[4028,4597]},{"type":"Point","properties":{"Station_ID":"BBEM4","Station_Nam":"BIG BAY 9SW","Latitude":"46.74620","Longitude":"-87.88160","Snowdepth":"4.000","Units":"in","Rept_Date":"2019-11-15 13"},"coordinates":[2591,6598]},{"type":"Point","properties":{"Station_ID":"ANDM1","Station_Nam":"ANDOVER 2","Latitude":"44.65300","Longitude":"-70.79410","Snowdepth":"4.000","Units":"in","Rept_Date":"2019-11-15 12"},"coordinates":[7622,5168]},{"type":"Point","properties":{"Station_ID":"CAN-ON-132","Station_Nam":"ORANGEVILLE 5.1 SSW - CANWARN, CAN","Latitude":"43.87372","Longitude":"-80.13428","Snowdepth":"3.900","Units":"in","Rept_Date":"2019-11-15 11"},"coordinates":[4872,4636]},{"type":"Point","properties":{"Station_ID":"CAN-ON-9","Station_Nam":"WINDSOR 1.7 SE, CAN","Latitude":"42.28448","Longitude":"-83.03456","Snowdepth":"3.700","Units":"in","Rept_Date":"2019-11-15 12"},"coordinates":[4018,3550]},{"type":"Point","properties":{"Station_ID":"WI-RK-12","Station_Nam":"JANESVILLE 3.1 W, WI","Latitude":"42.67576","Longitude":"-89.07614","Snowdepth":"3.500","Units":"in","Rept_Date":"2019-11-15 13"},"coordinates":[2239,3818]},{"type":"Point","properties":{"Station_ID":"VT-WS-33","Station_Nam":"WAITSFIELD 3.5 WNW, VT","Latitude":"44.20052","Longitude":"-72.89421","Snowdepth":"3.500","Units":"in","Rept_Date":"2019-11-15 13"},"coordinates":[7004,4859]},{"type":"Point","properties":{"Station_ID":"VT-WR-18","Station_Nam":"ROCHESTER 2.2 ESE, VT","Latitude":"43.86265","Longitude":"-72.76677","Snowdepth":"3.500","Units":"in","Rept_Date":"2019-11-15 11"},"coordinates":[7041,4628]},{"type":"Point","properties":{"Station_ID":"VT-OG-11","Station_Nam":"VERSHIRE 1.5 ESE, VT","Latitude":"43.96138","Longitude":"-72.29777","Snowdepth":"3.500","Units":"in","Rept_Date":"2019-11-15 13"},"coordinates":[7179,4696]},{"type":"Point","properties":{"Station_ID":"VT-LM-1","Station_Nam":"STOWE 0.2 SW, VT","Latitude":"44.46399","Longitude":"-72.69070","Snowdepth":"3.500","Units":"in","Rept_Date":"2019-11-15 12"},"coordinates":[7064,5039]},{"type":"Point","properties":{"Station_ID":"VT-CH-13","Station_Nam":"RICHMOND 3.4 SSE, VT","Latitude":"44.36084","Longitude":"-72.96400","Snowdepth":"3.500","Units":"in","Rept_Date":"2019-11-15 12"},"coordinates":[6983,4968]},{"type":"Point","properties":{"Station_ID":"NY-OL-5","Station_Nam":"MEDINA 0.4 WNW, NY","Latitude":"43.22300","Longitude":"-78.39539","Snowdepth":"3.500","Units":"in","Rept_Date":"2019-11-15 13"},"coordinates":[5384,4191]},{"type":"Point","properties":{"Station_ID":"NY-NG-2","Station_Nam":"NORTH TONAWANDA 1.0 NNE, NY","Latitude":"43.05725","Longitude":"-78.86170","Snowdepth":"3.500","Units":"in","Rept_Date":"2019-11-15 12"},"coordinates":[5247,4078]},{"type":"Point","properties":{"Station_ID":"NY-CY-27","Station_Nam":"MORAVIA 5.9 ENE, NY","Latitude":"42.73491","Longitude":"-76.31137","Snowdepth":"3.500","Units":"in","Rept_Date":"2019-11-15 11"},"coordinates":[5998,3858]},{"type":"Point","properties":{"Station_ID":"NY-CQ-34","Station_Nam":"KENNEDY 2.6 SE, NY","Latitude":"42.12567","Longitude":"-79.07235","Snowdepth":"3.500","Units":"in","Rept_Date":"2019-11-15 12"},"coordinates":[5185,3442]},{"type":"Point","properties":{"Station_ID":"NH-CR-41","Station_Nam":"ALBANY 2.8 SW, NH","Latitude":"43.92648","Longitude":"-71.21556","Snowdepth":"3.500","Units":"in","Rept_Date":"2019-11-15 13"},"coordinates":[7498,4672]},{"type":"Point","properties":{"Station_ID":"MI-WS-42","Station_Nam":"ANN ARBOR 4.5 W, MI","Latitude":"42.27814","Longitude":"-83.81884","Snowdepth":"3.500","Units":"in","Rept_Date":"2019-11-15 12"},"coordinates":[3787,3546]},{"type":"Point","properties":{"Station_ID":"MI-OK-35","Station_Nam":"WATERFORD 2.1 NW, MI","Latitude":"42.68742","Longitude":"-83.41320","Snowdepth":"3.500","Units":"in","Rept_Date":"2019-11-15 12"},"coordinates":[3906,3826]},{"type":"Point","properties":{"Station_ID":"MI-MC-4","Station_Nam":"ST. IGNACE 0.5SE, MI","Latitude":"45.86057","Longitude":"-84.71980","Snowdepth":"3.500","Units":"in","Rept_Date":"2019-11-15 12"},"coordinates":[3522,5993]},{"type":"Point","properties":{"Station_ID":"MI-HL-1","Station_Nam":"LITCHFIELD 0.3 ENE, MI","Latitude":"42.04528","Longitude":"-84.75310","Snowdepth":"3.500","Units":"in","Rept_Date":"2019-11-15 12"},"coordinates":[3512,3387]},{"type":"Point","properties":{"Station_ID":"ME-SM-3","Station_Nam":"PALMYRA 3.5 NW, ME","Latitude":"44.87180","Longitude":"-69.41952","Snowdepth":"3.500","Units":"in","Rept_Date":"2019-11-15 12"},"coordinates":[8027,5317]},{"type":"Point","properties":{"Station_ID":"IN-SJ-28","Station_Nam":"SOUTH BEND 4.6 SE, IN","Latitude":"41.62090","Longitude":"-86.21520","Snowdepth":"3.500","Units":"in","Rept_Date":"2019-11-15 12"},"coordinates":[3081,3097]},{"type":"Point","properties":{"Station_ID":"IL-WN-26","Station_Nam":"ROCKFORD 1.5 ENE, IL","Latitude":"42.27775","Longitude":"-89.03590","Snowdepth":"3.500","Units":"in","Rept_Date":"2019-11-15 15"},"coordinates":[2251,3546]},{"type":"Point","properties":{"Station_ID":"IL-SP-6","Station_Nam":"FREEPORT 2.0 NW, IL","Latitude":"42.30955","Longitude":"-89.66370","Snowdepth":"3.500","Units":"in","Rept_Date":"2019-11-15 13"},"coordinates":[2066,3568]},{"type":"Point","properties":{"Station_ID":"IL-MCH-83","Station_Nam":"CRYSTAL LAKE 1.0 WSW, IL","Latitude":"42.22882","Longitude":"-88.34964","Snowdepth":"3.500","Units":"in","Rept_Date":"2019-11-15 13"},"coordinates":[2453,3512]},{"type":"Point","properties":{"Station_ID":"IL-MCH-30","Station_Nam":"WONDER LAKE 0.8 WNW, IL","Latitude":"42.38354","Longitude":"-88.37090","Snowdepth":"3.500","Units":"in","Rept_Date":"2019-11-15 13"},"coordinates":[2447,3618]},{"type":"Point","properties":{"Station_ID":"IL-LK-9","Station_Nam":"LAKE VILLA 1.1 SSW, IL","Latitude":"42.40305","Longitude":"-88.09050","Snowdepth":"3.500","Units":"in","Rept_Date":"2019-11-15 12"},"coordinates":[2529,3631]},{"type":"Point","properties":{"Station_ID":"CATQ6","Station_Nam":"CAT LAKE","Latitude":"51.72690","Longitude":"-91.82210","Snowdepth":"3.500","Units":"in","Rept_Date":"2019-11-16 06"},"coordinates":[1430,9999]},{"type":"Point","properties":{"Station_ID":"CAN-NB-11","Station_Nam":"MIRAMICHI 3.3 S, CAN","Latitude":"46.99343","Longitude":"-65.50690","Snowdepth":"3.500","Units":"in","Rept_Date":"2019-11-15 12"},"coordinates":[9179,6766]},{"type":"Point","properties":{"Station_ID":"QLI","Station_Nam":"QLI","Latitude":"50.27080","Longitude":"-73.92280","Snowdepth":"3.386","Units":"in","Rept_Date":"2019-11-15 12"},"coordinates":[6701,9005]},{"type":"Point","properties":{"Station_ID":"CAN-ON-452","Station_Nam":"CHATSWORTH 1.8 ENE - GSCA, CAN","Latitude":"44.46118","Longitude":"-80.87506","Snowdepth":"3.300","Units":"in","Rept_Date":"2019-11-15 12"},"coordinates":[4654,5037]},{"type":"Point","properties":{"Station_ID":"CAN-ON-342","Station_Nam":"LURGAN BEACH 1.4 NNE - LHCC, CAN","Latitude":"44.09777","Longitude":"-81.72765","Snowdepth":"3.300","Units":"in","Rept_Date":"2019-11-15 12"},"coordinates":[4403,4789]},{"type":"Point","properties":{"Station_ID":"CAN-ON-324","Station_Nam":"AMHERSTBURG 4.0 NNE, CAN","Latitude":"42.13151","Longitude":"-83.08810","Snowdepth":"3.300","Units":"in","Rept_Date":"2019-11-15 12"},"coordinates":[4002,3446]},{"type":"Point","properties":{"Station_ID":"WI-WW-12","Station_Nam":"ELKHORN 0.4 ESE, WI","Latitude":"42.66970","Longitude":"-88.53170","Snowdepth":"3.200","Units":"in","Rept_Date":"2019-11-15 11"},"coordinates":[2399,3814]},{"type":"Point","properties":{"Station_ID":"NY-WN-18","Station_Nam":"MACEDON 2.6 ESE, NY","Latitude":"43.05200","Longitude":"-77.25700","Snowdepth":"3.100","Units":"in","Rept_Date":"2019-11-15 11"},"coordinates":[5719,4075]},{"type":"Point","properties":{"Station_ID":"IL-CK-214","Station_Nam":"ROGERS PARK 1.5 SW, IL","Latitude":"41.99567","Longitude":"-87.69180","Snowdepth":"3.100","Units":"in","Rept_Date":"2019-11-15 13"},"coordinates":[2647,3353]},{"type":"Point","properties":{"Station_ID":"CAN-ON-593","Station_Nam":"KITCHENER 4.5 E, CAN","Latitude":"43.45147","Longitude":"-80.43180","Snowdepth":"3.100","Units":"in","Rept_Date":"2019-11-15 11"},"coordinates":[4784,4347]},{"type":"Point","properties":{"Station_ID":"WTNM4","Station_Nam":"WATTON 2WSW","Latitude":"46.52660","Longitude":"-88.64240","Snowdepth":"3.000","Units":"in","Rept_Date":"2019-11-15 13"},"coordinates":[2367,6448]},{"type":"Point","properties":{"Station_ID":"WSFW3","Station_Nam":"TOWN OF WESTFORD","Latitude":"43.47190","Longitude":"-88.88250","Snowdepth":"3.000","Units":"in","Rept_Date":"2019-11-15 13"},"coordinates":[2296,4361]},{"type":"Point","properties":{"Station_ID":"WODI2","Station_Nam":"WOODSTOCK","Latitude":"42.36280","Longitude":"-88.53140","Snowdepth":"3.000","Units":"in","Rept_Date":"2019-11-15 13"},"coordinates":[2399,3604]},{"type":"Point","properties":{"Station_ID":"WI-WW-13","Station_Nam":"MUKWONAGO 3.4 SW, WI","Latitude":"42.83734","Longitude":"-88.38534","Snowdepth":"3.000","Units":"in","Rept_Date":"2019-11-15 12"},"coordinates":[2442,3928]},{"type":"Point","properties":{"Station_ID":"WI-WN-9","Station_Nam":"NEENAH 1.1 ENE, WI","Latitude":"44.17370","Longitude":"-88.45130","Snowdepth":"3.000","Units":"in","Rept_Date":"2019-11-15 13"},"coordinates":[2423,4841]},{"type":"Point","properties":{"Station_ID":"WI-WN-15","Station_Nam":"OSHKOSH 2.0 W, WI","Latitude":"44.01962","Longitude":"-88.59359","Snowdepth":"3.000","Units":"in","Rept_Date":"2019-11-15 13"},"coordinates":[2381,4735]},{"type":"Point","properties":{"Station_ID":"WI-WK-61","Station_Nam":"HARTLAND 5.0 NNE, WI","Latitude":"43.16351","Longitude":"-88.30400","Snowdepth":"3.000","Units":"in","Rept_Date":"2019-11-15 13"},"coordinates":[2466,4151]},{"type":"Point","properties":{"Station_ID":"WI-VL-9","Station_Nam":"LAND O' LAKES 11.7 W, WI","Latitude":"46.19023","Longitude":"-89.45790","Snowdepth":"3.000","Units":"in","Rept_Date":"2019-11-15 13"},"coordinates":[2126,6218]},{"type":"Point","properties":{"Station_ID":"WI-VL-14","Station_Nam":"BOULDER JUNCTION 1.4 NE, WI","Latitude":"46.12840","Longitude":"-89.62470","Snowdepth":"3.000","Units":"in","Rept_Date":"2019-11-15 13"},"coordinates":[2077,6176]},{"type":"Point","properties":{"Station_ID":"WI-RC-3","Station_Nam":"RACINE 2.3 WSW, WI","Latitude":"42.71124","Longitude":"-87.84570","Snowdepth":"3.000","Units":"in","Rept_Date":"2019-11-15 13"},"coordinates":[2601,3842]},{"type":"Point","properties":{"Station_ID":"WHKM4","Station_Nam":"WHITE LAKE,MI","Latitude":"42.69750","Longitude":"-83.47220","Snowdepth":"3.000","Units":"in","Rept_Date":"2019-11-16 06"},"coordinates":[3889,3833]},{"type":"Point","properties":{"Station_ID":"VT-RT-7","Station_Nam":"RUTLAND 1.2 N, VT","Latitude":"43.62533","Longitude":"-72.97790","Snowdepth":"3.000","Units":"in","Rept_Date":"2019-11-15 12"},"coordinates":[6979,4466]},{"type":"Point","properties":{"Station_ID":"VOLI4","Station_Nam":"VOLGA 1NE","Latitude":"42.81150","Longitude":"-91.52300","Snowdepth":"3.000","Units":"in","Rept_Date":"2019-11-15 12"},"coordinates":[1518,3910]},{"type":"Point","properties":{"Station_ID":"UGRW3","Station_Nam":"UNION GROVE,WI","Latitude":"42.70000","Longitude":"-88.03220","Snowdepth":"3.000","Units":"in","Rept_Date":"2019-11-15 13"},"coordinates":[2546,3834]},{"type":"Point","properties":{"Station_ID":"STAM4","Station_Nam":"STANDISH 4NE","Latitude":"44.01260","Longitude":"-83.89770","Snowdepth":"3.000","Units":"in","Rept_Date":"2019-11-15 13"},"coordinates":[3764,4731]},{"type":"Point","properties":{"Station_ID":"SHIW3","Station_Nam":"SHIOCTON","Latitude":"44.43890","Longitude":"-88.58390","Snowdepth":"3.000","Units":"in","Rept_Date":"2019-11-15 14"},"coordinates":[2384,5022]},{"type":"Point","properties":{"Station_ID":"SGVN6","Station_Nam":"SPRINGVILLE","Latitude":"42.54970","Longitude":"-78.57670","Snowdepth":"3.000","Units":"in","Rept_Date":"2019-11-16 01"},"coordinates":[5331,3732]},{"type":"Point","properties":{"Station_ID":"RUTV1","Station_Nam":"RUTLAND","Latitude":"43.62530","Longitude":"-72.97810","Snowdepth":"3.000","Units":"in","Rept_Date":"2019-11-15 12"},"coordinates":[6979,4466]},{"type":"Point","properties":{"Station_ID":"ROCW3","Station_Nam":"ROCHESTER WWTP","Latitude":"42.72690","Longitude":"-88.22580","Snowdepth":"3.000","Units":"in","Rept_Date":"2019-11-15 11"},"coordinates":[2489,3853]},{"type":"Point","properties":{"Station_ID":"RANM1","Station_Nam":"RANGELEY,ME","Latitude":"44.96670","Longitude":"-70.65000","Snowdepth":"3.000","Units":"in","Rept_Date":"2019-11-15 11"},"coordinates":[7665,5382]},{"type":"Point","properties":{"Station_ID":"PYMI3","Station_Nam":"PLYMOUTH","Latitude":"41.33920","Longitude":"-86.33580","Snowdepth":"3.000","Units":"in","Rept_Date":"2019-11-15 10"},"coordinates":[3046,2905]},{"type":"Point","properties":{"Station_ID":"PLLW3","Station_Nam":"PELL LAKE","Latitude":"42.53220","Longitude":"-88.33280","Snowdepth":"3.000","Units":"in","Rept_Date":"2019-11-15 14"},"coordinates":[2458,3720]},{"type":"Point","properties":{"Station_ID":"OOSW3","Station_Nam":"OSHKOSH 6 S","Latitude":"43.93750","Longitude":"-88.54250","Snowdepth":"3.000","Units":"in","Rept_Date":"2019-11-15 13"},"coordinates":[2396,4679]},{"type":"Point","properties":{"Station_ID":"OILM4","Station_Nam":"OIL CITY 3E","Latitude":"43.61140","Longitude":"-84.52810","Snowdepth":"3.000","Units":"in","Rept_Date":"2019-11-15 12"},"coordinates":[3578,4457]},{"type":"Point","properties":{"Station_ID":"OH-GG-7","Station_Nam":"MIDDLEFIELD 0.6 NE, OH","Latitude":"41.46438","Longitude":"-81.06520","Snowdepth":"3.000","Units":"in","Rept_Date":"2019-11-15 13"},"coordinates":[4598,2990]},{"type":"Point","properties":{"Station_ID":"OH-CY-42","Station_Nam":"STRONGSVILLE 1.3 SE, OH","Latitude":"41.29815","Longitude":"-81.81507","Snowdepth":"3.000","Units":"in","Rept_Date":"2019-11-15 13"},"coordinates":[4377,2877]},{"type":"Point","properties":{"Station_ID":"OCON6","Station_Nam":"OSCEOLA","Latitude":"43.49910","Longitude":"-75.71210","Snowdepth":"3.000","Units":"in","Rept_Date":"2019-11-15 12"},"coordinates":[6174,4380]},{"type":"Point","properties":{"Station_ID":"NY-WR-10","Station_Nam":"WARRENSBURG 2.1 WNW, NY","Latitude":"43.51784","Longitude":"-73.81069","Snowdepth":"3.000","Units":"in","Rept_Date":"2019-11-15 13"},"coordinates":[6734,4393]},{"type":"Point","properties":{"Station_ID":"NY-MD-10","Station_Nam":"CAZENOVIA 2.9 SE, NY","Latitude":"42.90003","Longitude":"-75.81140","Snowdepth":"3.000","Units":"in","Rept_Date":"2019-11-15 12"},"coordinates":[6145,3971]},{"type":"Point","properties":{"Station_ID":"NY-ER-72","Station_Nam":"TONAWANDA 3.1 NE, NY","Latitude":"43.01368","Longitude":"-78.82960","Snowdepth":"3.000","Units":"in","Rept_Date":"2019-11-15 12"},"coordinates":[5256,4048]},{"type":"Point","properties":{"Station_ID":"NY-ER-151","Station_Nam":"CLARENCE CENTER 0.2 ESE, NY","Latitude":"43.00742","Longitude":"-78.62917","Snowdepth":"3.000","Units":"in","Rept_Date":"2019-11-15 12"},"coordinates":[5315,4044]},{"type":"Point","properties":{"Station_ID":"NWSM1","Station_Nam":"NEW SHARON","Latitude":"44.63520","Longitude":"-70.00020","Snowdepth":"3.000","Units":"in","Rept_Date":"2019-11-15 12"},"coordinates":[7856,5156]},{"type":"Point","properties":{"Station_ID":"NWPM4","Station_Nam":"NEWPORT 4SSE","Latitude":"41.94970","Longitude":"-83.28000","Snowdepth":"3.000","Units":"in","Rept_Date":"2019-11-15 12"},"coordinates":[3946,3322]},{"type":"Point","properties":{"Station_ID":"NH-GR-49","Station_Nam":"PLYMOUTH 3.7 N, NH","Latitude":"43.79048","Longitude":"-71.68413","Snowdepth":"3.000","Units":"in","Rept_Date":"2019-11-15 12"},"coordinates":[7360,4579]},{"type":"Point","properties":{"Station_ID":"NH-CR-11","Station_Nam":"NORTH CONWAY 1.4 SSW, NH","Latitude":"44.03556","Longitude":"-71.14010","Snowdepth":"3.000","Units":"in","Rept_Date":"2019-11-15 12"},"coordinates":[7520,4746]},{"type":"Point","properties":{"Station_ID":"NGLW3","Station_Nam":"NEW GLARUS","Latitude":"42.83500","Longitude":"-89.62080","Snowdepth":"3.000","Units":"in","Rept_Date":"2019-11-15 13"},"coordinates":[2079,3926]},{"type":"Point","properties":{"Station_ID":"NCON3","Station_Nam":"NORTH CONWAY,NH","Latitude":"44.05000","Longitude":"-71.13330","Snowdepth":"3.000","Units":"in","Rept_Date":"2019-11-15 12"},"coordinates":[7522,4756]},{"type":"Point","properties":{"Station_ID":"MXON6","Station_Nam":"MEXICO","Latitude":"43.43830","Longitude":"-76.26560","Snowdepth":"3.000","Units":"in","Rept_Date":"2019-11-15 12"},"coordinates":[6011,4338]},{"type":"Point","properties":{"Station_ID":"MWTM1","Station_Nam":"MILLINOCKET WWTP","Latitude":"45.64030","Longitude":"-68.67480","Snowdepth":"3.000","Units":"in","Rept_Date":"2019-11-15 11"},"coordinates":[8246,5842]},{"type":"Point","properties":{"Station_ID":"MUNI2","Station_Nam":"MUNDELEIN,IL","Latitude":"42.25530","Longitude":"-88.07690","Snowdepth":"3.000","Units":"in","Rept_Date":"2019-11-15 13"},"coordinates":[2533,3531]},{"type":"Point","properties":{"Station_ID":"MRQM4","Station_Nam":"MARQUETTE WFP","Latitude":"46.54580","Longitude":"-87.37950","Snowdepth":"3.000","Units":"in","Rept_Date":"2019-11-15 13"},"coordinates":[2738,6461]},{"type":"Point","properties":{"Station_ID":"MONW3","Station_Nam":"MONROE,WI","Latitude":"42.60000","Longitude":"-89.66670","Snowdepth":"3.000","Units":"in","Rept_Date":"2019-11-15 13"},"coordinates":[2065,3766]},{"type":"Point","properties":{"Station_ID":"MNPV1","Station_Nam":"MONTPELIER 2","Latitude":"44.25530","Longitude":"-72.60060","Snowdepth":"3.000","Units":"in","Rept_Date":"2019-11-15 12"},"coordinates":[7090,4896]},{"type":"Point","properties":{"Station_ID":"MI-OG-6","Station_Nam":"WEST BRANCH 2.1 SSW, MI","Latitude":"44.24814","Longitude":"-84.25089","Snowdepth":"3.000","Units":"in","Rept_Date":"2019-11-15 12"},"coordinates":[3660,4892]},{"type":"Point","properties":{"Station_ID":"MI-MT-9","Station_Nam":"FENWICK 3.3 E, MI","Latitude":"43.15067","Longitude":"-85.01435","Snowdepth":"3.000","Units":"in","Rept_Date":"2019-11-15 12"},"coordinates":[3435,4142]},{"type":"Point","properties":{"Station_ID":"MI-MR-16","Station_Nam":"OTTAWA LAKE 1.4 SSW, MI","Latitude":"41.78278","Longitude":"-83.73895","Snowdepth":"3.000","Units":"in","Rept_Date":"2019-11-15 12"},"coordinates":[3810,3208]},{"type":"Point","properties":{"Station_ID":"MI-MR-1","Station_Nam":"NEWPORT 3.1 SE, MI","Latitude":"41.94960","Longitude":"-83.28010","Snowdepth":"3.000","Units":"in","Rept_Date":"2019-11-15 12"},"coordinates":[3946,3322]},{"type":"Point","properties":{"Station_ID":"MI-LN-16","Station_Nam":"CLINTON 0.5 NE, MI","Latitude":"42.07710","Longitude":"-83.96530","Snowdepth":"3.000","Units":"in","Rept_Date":"2019-11-15 12"},"coordinates":[3744,3409]},{"type":"Point","properties":{"Station_ID":"MI-IN-1","Station_Nam":"SARANAC 2.6 NE, MI","Latitude":"42.95764","Longitude":"-85.17380","Snowdepth":"3.000","Units":"in","Rept_Date":"2019-11-15 11"},"coordinates":[3388,4010]},{"type":"Point","properties":{"Station_ID":"MI-CP-7","Station_Nam":"DRUMMOND 2.9 NE, MI","Latitude":"46.05329","Longitude":"-83.69060","Snowdepth":"3.000","Units":"in","Rept_Date":"2019-11-15 14"},"coordinates":[3825,6124]},{"type":"Point","properties":{"Station_ID":"MI-BN-4","Station_Nam":"NILES 2.7 W, MI","Latitude":"41.83705","Longitude":"-86.30050","Snowdepth":"3.000","Units":"in","Rept_Date":"2019-11-15 13"},"coordinates":[3056,3245]},{"type":"Point","properties":{"Station_ID":"MI-BN-2","Station_Nam":"STEVENSVILLE 1.7 SSE, MI","Latitude":"41.99114","Longitude":"-86.50860","Snowdepth":"3.000","Units":"in","Rept_Date":"2019-11-15 12"},"coordinates":[2995,3350]},{"type":"Point","properties":{"Station_ID":"MI-AN-11","Station_Nam":"HOPKINS 0.6 NNE, MI","Latitude":"42.63430","Longitude":"-85.76120","Snowdepth":"3.000","Units":"in","Rept_Date":"2019-11-15 12"},"coordinates":[3215,3789]},{"type":"Point","properties":{"Station_ID":"MI-AN-1","Station_Nam":"WAYLAND 2.0 W, MI","Latitude":"42.67323","Longitude":"-85.68010","Snowdepth":"3.000","Units":"in","Rept_Date":"2019-11-15 12"},"coordinates":[3239,3816]},{"type":"Point","properties":{"Station_ID":"ME-FR-4","Station_Nam":"NEW SHARON 2.0 NW, ME","Latitude":"44.66582","Longitude":"-70.02720","Snowdepth":"3.000","Units":"in","Rept_Date":"2019-11-15 12"},"coordinates":[7848,5177]},{"type":"Point","properties":{"Station_ID":"ME-FR-2","Station_Nam":"TEMPLE 1.8 W, ME","Latitude":"44.68329","Longitude":"-70.26420","Snowdepth":"3.000","Units":"in","Rept_Date":"2019-11-15 12"},"coordinates":[7778,5189]},{"type":"Point","properties":{"Station_ID":"ME-AN-32","Station_Nam":"WINTHROP 9.4 W, ME","Latitude":"44.30476","Longitude":"-70.15835","Snowdepth":"3.000","Units":"in","Rept_Date":"2019-11-15 12"},"coordinates":[7809,4930]},{"type":"Point","properties":{"Station_ID":"LVRM1","Station_Nam":"LIVERMORE FALLS 1 E","Latitude":"44.47160","Longitude":"-70.15940","Snowdepth":"3.000","Units":"in","Rept_Date":"2019-11-15 12"},"coordinates":[7809,5044]},{"type":"Point","properties":{"Station_ID":"LVDW3","Station_Nam":"LAC VIEUX DESERT","Latitude":"46.12110","Longitude":"-89.07580","Snowdepth":"3.000","Units":"in","Rept_Date":"2019-11-15 15"},"coordinates":[2239,6171]},{"type":"Point","properties":{"Station_ID":"LTMW3","Station_Nam":"LAKE TOMAHAWK 2 SE","Latitude":"45.80750","Longitude":"-89.55830","Snowdepth":"3.000","Units":"in","Rept_Date":"2019-11-15 12"},"coordinates":[2097,5956]},{"type":"Point","properties":{"Station_ID":"LOOW3","Station_Nam":"WATERLOO","Latitude":"43.18830","Longitude":"-88.98440","Snowdepth":"3.000","Units":"in","Rept_Date":"2019-11-15 14"},"coordinates":[2266,4168]},{"type":"Point","properties":{"Station_ID":"LNVP1","Station_Nam":"PA FISH COMMISSION HATCHERY","Latitude":"41.65000","Longitude":"-80.43330","Snowdepth":"3.000","Units":"in","Rept_Date":"2019-11-15 12"},"coordinates":[4784,3117]},{"type":"Point","properties":{"Station_ID":"LNOW3","Station_Nam":"LAND O LAKES","Latitude":"46.19000","Longitude":"-89.45700","Snowdepth":"3.000","Units":"in","Rept_Date":"2019-11-15 13"},"coordinates":[2127,6218]},{"type":"Point","properties":{"Station_ID":"LKZI2","Station_Nam":"LAKE ZURICH","Latitude":"42.19250","Longitude":"-88.06530","Snowdepth":"3.000","Units":"in","Rept_Date":"2019-11-15 13"},"coordinates":[2537,3488]},{"type":"Point","properties":{"Station_ID":"LKVN6","Station_Nam":"LAKE VIEW","Latitude":"42.73180","Longitude":"-78.92400","Snowdepth":"3.000","Units":"in","Rept_Date":"2019-11-15 13"},"coordinates":[5228,3856]},{"type":"Point","properties":{"Station_ID":"LIDM4","Station_Nam":"LINDEN WWTP","Latitude":"42.81330","Longitude":"-83.80380","Snowdepth":"3.000","Units":"in","Rept_Date":"2019-11-15 13"},"coordinates":[3791,3912]},{"type":"Point","properties":{"Station_ID":"LGEW3","Station_Nam":"LAKE GENEVA, WI","Latitude":"42.60000","Longitude":"-88.43440","Snowdepth":"3.000","Units":"in","Rept_Date":"2019-11-15 13"},"coordinates":[2428,3766]},{"type":"Point","properties":{"Station_ID":"LAN","Station_Nam":"CAPITAL CITY AIRPORT","Latitude":"42.77860","Longitude":"-84.58720","Snowdepth":"3.000","Units":"in","Rept_Date":"2019-11-16 00"},"coordinates":[3561,3888]},{"type":"Point","properties":{"Station_ID":"KUKN6","Station_Nam":"LAKESIDE","Latitude":"43.37140","Longitude":"-78.26630","Snowdepth":"3.000","Units":"in","Rept_Date":"2019-11-15 13"},"coordinates":[5422,4293]},{"type":"Point","properties":{"Station_ID":"KSEM4","Station_Nam":"KALKASKA 11SE","Latitude":"44.58970","Longitude":"-85.04860","Snowdepth":"3.000","Units":"in","Rept_Date":"2019-11-15 13"},"coordinates":[3425,5125]},{"type":"Point","properties":{"Station_ID":"JFNW3","Station_Nam":"JEFFERSON - WWTP","Latitude":"42.99470","Longitude":"-88.80390","Snowdepth":"3.000","Units":"in","Rept_Date":"2019-11-15 13"},"coordinates":[2319,4036]},{"type":"Point","properties":{"Station_ID":"JCBM4","Station_Nam":"JACOBSVILLE","Latitude":"47.00830","Longitude":"-88.43180","Snowdepth":"3.000","Units":"in","Rept_Date":"2019-11-15 12"},"coordinates":[2429,6777]},{"type":"Point","properties":{"Station_ID":"INDM5","Station_Nam":"INDUS,MN","Latitude":"48.61670","Longitude":"-93.90000","Snowdepth":"3.000","Units":"in","Rept_Date":"2019-11-15 14"},"coordinates":[818,7875]},{"type":"Point","properties":{"Station_ID":"IN-NB-11","Station_Nam":"ALBION 3.7 S, IN","Latitude":"41.34161","Longitude":"-85.41560","Snowdepth":"3.000","Units":"in","Rept_Date":"2019-11-15 14"},"coordinates":[3317,2907]},{"type":"Point","properties":{"Station_ID":"IL-SP-26","Station_Nam":"FREEPORT 2.9 WSW, IL","Latitude":"42.26779","Longitude":"-89.68323","Snowdepth":"3.000","Units":"in","Rept_Date":"2019-11-15 13"},"coordinates":[2060,3539]},{"type":"Point","properties":{"Station_ID":"IL-SP-25","Station_Nam":"FREEPORT 1.7 NW, IL","Latitude":"42.30427","Longitude":"-89.66285","Snowdepth":"3.000","Units":"in","Rept_Date":"2019-11-15 13"},"coordinates":[2066,3564]},{"type":"Point","properties":{"Station_ID":"IL-SP-14","Station_Nam":"FREEPORT 1.7 ESE, IL","Latitude":"42.28257","Longitude":"-89.60360","Snowdepth":"3.000","Units":"in","Rept_Date":"2019-11-15 13"},"coordinates":[2084,3549]},{"type":"Point","properties":{"Station_ID":"IL-MCH-80","Station_Nam":"HUNTLEY 0.1 SSE, IL","Latitude":"42.16628","Longitude":"-88.42308","Snowdepth":"3.000","Units":"in","Rept_Date":"2019-11-15 13"},"coordinates":[2431,3470]},{"type":"Point","properties":{"Station_ID":"IL-MCH-13","Station_Nam":"BULL VALLEY 2.5 WNW, IL","Latitude":"42.32455","Longitude":"-88.39460","Snowdepth":"3.000","Units":"in","Rept_Date":"2019-11-15 14"},"coordinates":[2440,3578]},{"type":"Point","properties":{"Station_ID":"IL-JD-8","Station_Nam":"STOCKTON 3.4 NNE, IL","Latitude":"42.39960","Longitude":"-89.99020","Snowdepth":"3.000","Units":"in","Rept_Date":"2019-11-15 13"},"coordinates":[1970,3629]},{"type":"Point","properties":{"Station_ID":"IL-DK-6","Station_Nam":"DE KALB 0.3 ENE, IL","Latitude":"41.93238","Longitude":"-88.74700","Snowdepth":"3.000","Units":"in","Rept_Date":"2019-11-15 13"},"coordinates":[2336,3310]},{"type":"Point","properties":{"Station_ID":"IL-CK-180","Station_Nam":"PARK RIDGE 0.5 SSW, IL","Latitude":"42.00443","Longitude":"-87.84600","Snowdepth":"3.000","Units":"in","Rept_Date":"2019-11-15 13"},"coordinates":[2601,3359]},{"type":"Point","properties":{"Station_ID":"IA-LN-39","Station_Nam":"CEDAR RAPIDS 2.5 WSW, IA","Latitude":"41.95474","Longitude":"-91.71049","Snowdepth":"3.000","Units":"in","Rept_Date":"2019-11-15 12"},"coordinates":[1463,3325]},{"type":"Point","properties":{"Station_ID":"HTLM4","Station_Nam":"SNOW PAID OBSERVER FOR KHTL","Latitude":"44.34470","Longitude":"-84.67730","Snowdepth":"3.000","Units":"in","Rept_Date":"2019-11-15 18"},"coordinates":[3534,4957]},{"type":"Point","properties":{"Station_ID":"HRTM1","Station_Nam":"HARTFORD","Latitude":"44.37440","Longitude":"-70.31620","Snowdepth":"3.000","Units":"in","Rept_Date":"2019-11-15 12"},"coordinates":[7763,4978]},{"type":"Point","properties":{"Station_ID":"HRLN6","Station_Nam":"HORNELL ALMOND DAM","Latitude":"42.34880","Longitude":"-77.70440","Snowdepth":"3.000","Units":"in","Rept_Date":"2019-11-15 11"},"coordinates":[5587,3594]},{"type":"Point","properties":{"Station_ID":"HPKM4","Station_Nam":"HOPKINS 1 N","Latitude":"42.63520","Longitude":"-85.76100","Snowdepth":"3.000","Units":"in","Rept_Date":"2019-11-15 12"},"coordinates":[3215,3790]},{"type":"Point","properties":{"Station_ID":"HBHM4","Station_Nam":"HARBOR BEACH,MI","Latitude":"43.83330","Longitude":"-82.63330","Snowdepth":"3.000","Units":"in","Rept_Date":"2019-11-15 13"},"coordinates":[4136,4608]},{"type":"Point","properties":{"Station_ID":"GTTI4","Station_Nam":"LOCK & DAM 10","Latitude":"42.78580","Longitude":"-91.09970","Snowdepth":"3.000","Units":"in","Rept_Date":"2019-11-15 12"},"coordinates":[1643,3893]},{"type":"Point","properties":{"Station_ID":"GLAM4","Station_Nam":"GLADWIN","Latitude":"43.97580","Longitude":"-84.49080","Snowdepth":"3.000","Units":"in","Rept_Date":"2019-11-15 12"},"coordinates":[3589,4706]},{"type":"Point","properties":{"Station_ID":"GDLM4","Station_Nam":"GRAND LEDGE,MI","Latitude":"42.76670","Longitude":"-84.76670","Snowdepth":"3.000","Units":"in","Rept_Date":"2019-11-15 12"},"coordinates":[3508,3880]},{"type":"Point","properties":{"Station_ID":"FRKN6","Station_Nam":"FRANKLINVILLE","Latitude":"42.32960","Longitude":"-78.46330","Snowdepth":"3.000","Units":"in","Rept_Date":"2019-11-15 12"},"coordinates":[5364,3581]},{"type":"Point","properties":{"Station_ID":"FORW3","Station_Nam":"FORESTVILLE-4E","Latitude":"44.69780","Longitude":"-87.39690","Snowdepth":"3.000","Units":"in","Rept_Date":"2019-11-15 13"},"coordinates":[2733,5199]},{"type":"Point","properties":{"Station_ID":"FATW3","Station_Nam":"FORT ATKINSON,WI","Latitude":"42.88330","Longitude":"-88.83330","Snowdepth":"3.000","Units":"in","Rept_Date":"2019-11-15 14"},"coordinates":[2310,3959]},{"type":"Point","properties":{"Station_ID":"FARM1","Station_Nam":"FARMINGTON","Latitude":"44.68930","Longitude":"-70.15640","Snowdepth":"3.000","Units":"in","Rept_Date":"2019-11-15 12"},"coordinates":[7810,5193]},{"type":"Point","properties":{"Station_ID":"ETWM4","Station_Nam":"EAST TAWAS","Latitude":"44.28380","Longitude":"-83.50360","Snowdepth":"3.000","Units":"in","Rept_Date":"2019-11-15 13"},"coordinates":[3880,4916]},{"type":"Point","properties":{"Station_ID":"EKRI4","Station_Nam":"ELKADER 6SSW","Latitude":"42.77540","Longitude":"-91.45370","Snowdepth":"3.000","Units":"in","Rept_Date":"2019-11-15 13"},