{"type":"Topology","objects":{"snowdepth_geo":{"type":"GeometryCollection","name":"snowdepth","crs":{"type":"name","properties":{"name":"urn:ogc:def:crs:OGC:1.3:CRS84"}},"geometries":[{"type":"Point","properties":{"Station_ID":"PRKM4","Station_Nam":"MUNISING EAST","Latitude":"46.42580","Longitude":"-86.62000","Snowdepth":"76.500","Units":"in","Rept_Date":"2020-11-27 06"},"coordinates":[3157,5957]},{"type":"Point","properties":{"Station_ID":"QOU","Station_Nam":"QOU","Latitude":"50.79250","Longitude":"-69.67470","Snowdepth":"12.795","Units":"in","Rept_Date":"2020-11-26 12"},"coordinates":[8287,9287]},{"type":"Point","properties":{"Station_ID":"MLZ","Station_Nam":"MLZ","Latitude":"50.66170","Longitude":"-68.82360","Snowdepth":"11.378","Units":"in","Rept_Date":"2020-11-26 12"},"coordinates":[8544,9187]},{"type":"Point","properties":{"Station_ID":"QTV","Station_Nam":"QTV","Latitude":"49.66000","Longitude":"-69.35690","Snowdepth":"10.984","Units":"in","Rept_Date":"2020-11-26 12"},"coordinates":[8383,8423]},{"type":"Point","properties":{"Station_ID":"TRIQ6","Station_Nam":"TRIO LAKE","Latitude":"49.22880","Longitude":"-87.22920","Snowdepth":"9.530","Units":"in","Rept_Date":"2020-11-27 06"},"coordinates":[2972,8094]},{"type":"Point","properties":{"Station_ID":"CAN-ON-208","Station_Nam":"PAKENHAM 7.8 NNW, CAN","Latitude":"45.39166","Longitude":"-76.34111","Snowdepth":"9.500","Units":"in","Rept_Date":"2020-11-26 12"},"coordinates":[6269,5169]},{"type":"Point","properties":{"Station_ID":"QGD","Station_Nam":"QGD","Latitude":"51.11140","Longitude":"-67.13940","Snowdepth":"9.488","Units":"in","Rept_Date":"2020-11-26 12"},"coordinates":[9054,9530]},{"type":"Point","properties":{"Station_ID":"NY-AB-23","Station_Nam":"ALBANY 0.7 SW, NY","Latitude":"42.66019","Longitude":"-73.81030","Snowdepth":"9.000","Units":"in","Rept_Date":"2020-11-26 12"},"coordinates":[7035,3086]},{"type":"Point","properties":{"Station_ID":"QLM","Station_Nam":"QLM","Latitude":"48.92030","Longitude":"-70.25280","Snowdepth":"8.858","Units":"in","Rept_Date":"2020-11-26 12"},"coordinates":[8112,7859]},{"type":"Point","properties":{"Station_ID":"MMNV1","Station_Nam":"MT. MANSFIELD","Latitude":"44.52480","Longitude":"-72.81540","Snowdepth":"8.000","Units":"in","Rept_Date":"2020-11-26 21"},"coordinates":[7336,4508]},{"type":"Point","properties":{"Station_ID":"AUDQ6","Station_Nam":"AUDEN","Latitude":"48.52600","Longitude":"-82.57570","Snowdepth":"7.910","Units":"in","Rept_Date":"2020-11-27 06"},"coordinates":[4381,7558]},{"type":"Point","properties":{"Station_ID":"DVLQ6","Station_Nam":"DEVIOUS LAKE","Latitude":"49.19890","Longitude":"-87.76440","Snowdepth":"7.170","Units":"in","Rept_Date":"2020-11-27 06"},"coordinates":[2810,8072]},{"type":"Point","properties":{"Station_ID":"PTLQ6","Station_Nam":"PORTAGE LAKE","Latitude":"49.06950","Longitude":"-86.65940","Snowdepth":"6.810","Units":"in","Rept_Date":"2020-11-27 06"},"coordinates":[3145,7973]},{"type":"Point","properties":{"Station_ID":"QLP","Station_Nam":"QLP","Latitude":"48.13920","Longitude":"-72.63830","Snowdepth":"6.535","Units":"in","Rept_Date":"2020-11-26 12"},"coordinates":[7390,7264]},{"type":"Point","properties":{"Station_ID":"MFU","Station_Nam":"MFU","Latitude":"51.52170","Longitude":"-66.91110","Snowdepth":"6.457","Units":"in","Rept_Date":"2020-11-26 12"},"coordinates":[9123,9843]},{"type":"Point","properties":{"Station_ID":"QLB","Station_Nam":"QLB","Latitude":"50.72360","Longitude":"-75.10000","Snowdepth":"6.417","Units":"in","Rept_Date":"2020-11-26 12"},"coordinates":[6644,9234]},{"type":"Point","properties":{"Station_ID":"ME-AR-18","Station_Nam":"NEW SWEDEN 4.9 NNW, ME","Latitude":"47.01080","Longitude":"-68.14390","Snowdepth":"6.000","Units":"in","Rept_Date":"2020-11-26 12"},"coordinates":[8750,6403]},{"type":"Point","properties":{"Station_ID":"QCX","Station_Nam":"QCX","Latitude":"51.32830","Longitude":"-70.08060","Snowdepth":"5.945","Units":"in","Rept_Date":"2020-11-26 12"},"coordinates":[8164,9695]},{"type":"Point","properties":{"Station_ID":"CAN-ON-620","Station_Nam":"GOODERHAM 3.4 SSW, CAN","Latitude":"44.87690","Longitude":"-78.39265","Snowdepth":"5.700","Units":"in","Rept_Date":"2020-11-26 12"},"coordinates":[5648,4776]},{"type":"Point","properties":{"Station_ID":"QGO","Station_Nam":"QGO","Latitude":"48.85500","Longitude":"-74.20640","Snowdepth":"5.276","Units":"in","Rept_Date":"2020-11-26 12"},"coordinates":[6915,7809]},{"type":"Point","properties":{"Station_ID":"QCO","Station_Nam":"QCO","Latitude":"51.45280","Longitude":"-72.20110","Snowdepth":"5.276","Units":"in","Rept_Date":"2020-11-26 12"},"coordinates":[7522,9790]},{"type":"Point","properties":{"Station_ID":"CAN-ON-92","Station_Nam":"DUNROBIN 1.9 W - MVCA, CAN","Latitude":"45.42318","Longitude":"-76.04525","Snowdepth":"5.200","Units":"in","Rept_Date":"2020-11-26 12"},"coordinates":[6358,5193]},{"type":"Point","properties":{"Station_ID":"QWE","Station_Nam":"QWE","Latitude":"47.84610","Longitude":"-73.80670","Snowdepth":"5.157","Units":"in","Rept_Date":"2020-11-26 12"},"coordinates":[7036,7040]},{"type":"Point","properties":{"Station_ID":"QIQ","Station_Nam":"QIQ","Latitude":"49.82390","Longitude":"-68.54310","Snowdepth":"5.079","Units":"in","Rept_Date":"2020-11-26 12"},"coordinates":[8629,8548]},{"type":"Point","properties":{"Station_ID":"QGT","Station_Nam":"QGT","Latitude":"49.64720","Longitude":"-67.62640","Snowdepth":"5.079","Units":"in","Rept_Date":"2020-11-26 12"},"coordinates":[8907,8413]},{"type":"Point","properties":{"Station_ID":"MRL","Station_Nam":"MRL","Latitude":"51.28330","Longitude":"-68.84060","Snowdepth":"5.079","Units":"in","Rept_Date":"2020-11-26 12"},"coordinates":[8539,9661]},{"type":"Point","properties":{"Station_ID":"MWN","Station_Nam":"MOUNT WASHINGTON","Latitude":"44.26670","Longitude":"-71.30000","Snowdepth":"5.000","Units":"in","Rept_Date":"2020-11-26 12"},"coordinates":[7795,4311]},{"type":"Point","properties":{"Station_ID":"LILM1","Station_Nam":"LILLE","Latitude":"47.27770","Longitude":"-68.10520","Snowdepth":"5.000","Units":"in","Rept_Date":"2020-11-26 12"},"coordinates":[8762,6607]},{"type":"Point","properties":{"Station_ID":"HERM4","Station_Nam":"HERMAN,MI","Latitude":"46.65000","Longitude":"-88.33330","Snowdepth":"5.000","Units":"in","Rept_Date":"2020-11-26 13"},"coordinates":[2638,6128]},{"type":"Point","properties":{"Station_ID":"FISM1","Station_Nam":"FORT KENT COOP","Latitude":"47.23850","Longitude":"-68.61240","Snowdepth":"5.000","Units":"in","Rept_Date":"2020-11-26 12"},"coordinates":[8608,6577]},{"type":"Point","properties":{"Station_ID":"QMA","Station_Nam":"QMA","Latitude":"50.10330","Longitude":"-70.47190","Snowdepth":"4.921","Units":"in","Rept_Date":"2020-11-26 12"},"coordinates":[8045,8761]},{"type":"Point","properties":{"Station_ID":"QGA","Station_Nam":"QGA","Latitude":"47.25640","Longitude":"-73.73810","Snowdepth":"4.921","Units":"in","Rept_Date":"2020-11-26 12"},"coordinates":[7057,6590]},{"type":"Point","properties":{"Station_ID":"CAN-QC-47","Station_Nam":"SAINTE-FOY 1.8 ENE, CAN","Latitude":"46.76934","Longitude":"-71.27124","Snowdepth":"4.700","Units":"in","Rept_Date":"2020-11-26 12"},"coordinates":[7803,6219]},{"type":"Point","properties":{"Station_ID":"MI-BG-3","Station_Nam":"THREE LAKES, MI","Latitude":"46.55730","Longitude":"-88.20770","Snowdepth":"4.500","Units":"in","Rept_Date":"2020-11-26 13"},"coordinates":[2676,6057]},{"type":"Point","properties":{"Station_ID":"KABQ6","Station_Nam":"CAB LAKE","Latitude":"49.59950","Longitude":"-89.17990","Snowdepth":"4.410","Units":"in","Rept_Date":"2020-11-27 06"},"coordinates":[2382,8377]},{"type":"Point","properties":{"Station_ID":"CAN-NB-38","Station_Nam":"GRAND FALLS 2.2 NE, CA","Latitude":"47.05701","Longitude":"-67.72630","Snowdepth":"4.400","Units":"in","Rept_Date":"2020-11-26 11"},"coordinates":[8877,6438]},{"type":"Point","properties":{"Station_ID":"QTM","Station_Nam":"QTM","Latitude":"51.05780","Longitude":"-72.57190","Snowdepth":"4.370","Units":"in","Rept_Date":"2020-11-26 12"},"coordinates":[7410,9489]},{"type":"Point","properties":{"Station_ID":"OGIQ6","Station_Nam":"OGOKI CAMP","Latitude":"50.76680","Longitude":"-87.85820","Snowdepth":"4.370","Units":"in","Rept_Date":"2020-11-27 06"},"coordinates":[2782,9267]},{"type":"Point","properties":{"Station_ID":"SOCQ6","Station_Nam":"SOCKET LAKE","Latitude":"50.77870","Longitude":"-91.79300","Snowdepth":"4.330","Units":"in","Rept_Date":"2020-11-27 06"},"coordinates":[1591,9276]},{"type":"Point","properties":{"Station_ID":"FTHQ6","Station_Nam":"FORT HOPE","Latitude":"51.55820","Longitude":"-87.90510","Snowdepth":"4.250","Units":"in","Rept_Date":"2020-11-27 06"},"coordinates":[2768,9870]},{"type":"Point","properties":{"Station_ID":"CATQ6","Station_Nam":"CAT LAKE","Latitude":"51.72690","Longitude":"-91.82210","Snowdepth":"4.210","Units":"in","Rept_Date":"2020-11-27 06"},"coordinates":[1582,9999]},{"type":"Point","properties":{"Station_ID":"VANM1","Station_Nam":"VAN BUREN","Latitude":"47.16600","Longitude":"-67.93900","Snowdepth":"4.000","Units":"in","Rept_Date":"2020-11-26 12"},"coordinates":[8812,6521]},{"type":"Point","properties":{"Station_ID":"MN-SL-160","Station_Nam":"BRIMSON 2.0 S, MN","Latitude":"47.24692","Longitude":"-91.86218","Snowdepth":"4.000","Units":"in","Rept_Date":"2020-11-27 01"},"coordinates":[1570,6583]},{"type":"Point","properties":{"Station_ID":"FLDM5","Station_Nam":"FLOODWOOD,MN","Latitude":"47.00000","Longitude":"-92.91670","Snowdepth":"4.000","Units":"in","Rept_Date":"2020-11-26 14"},"coordinates":[1251,6395]},{"type":"Point","properties":{"Station_ID":"DLHM5","Station_Nam":"DULUTH NWS","Latitude":"46.83680","Longitude":"-92.21080","Snowdepth":"4.000","Units":"in","Rept_Date":"2020-11-27 06"},"coordinates":[1464,6270]},{"type":"Point","properties":{"Station_ID":"DLH","Station_Nam":"DULUTH, MN","Latitude":"46.83690","Longitude":"-92.21030","Snowdepth":"4.000","Units":"in","Rept_Date":"2020-11-27 00"},"coordinates":[1464,6271]},{"type":"Point","properties":{"Station_ID":"CARM1","Station_Nam":"CARIBOU WFO","Latitude":"46.86810","Longitude":"-68.01250","Snowdepth":"4.000","Units":"in","Rept_Date":"2020-11-27 05"},"coordinates":[8790,6294]},{"type":"Point","properties":{"Station_ID":"CAN-ON-42","Station_Nam":"VANKLEEK HILL 3.4 S, CA","Latitude":"45.48987","Longitude":"-74.64570","Snowdepth":"4.000","Units":"in","Rept_Date":"2020-11-26 12"},"coordinates":[6782,5244]},{"type":"Point","properties":{"Station_ID":"BRMM5","Station_Nam":"BRIMSON 2S","Latitude":"47.24720","Longitude":"-91.86240","Snowdepth":"4.000","Units":"in","Rept_Date":"2020-11-27 01"},"coordinates":[1570,6583]},{"type":"Point","properties":{"Station_ID":"QMD","Station_Nam":"QMD","Latitude":"49.29060","Longitude":"-75.84500","Snowdepth":"3.898","Units":"in","Rept_Date":"2020-11-26 12"},"coordinates":[6419,8141]},{"type":"Point","properties":{"Station_ID":"MN-SL-18","Station_Nam":"DULUTH 1.4 NNW, MN","Latitude":"46.80321","Longitude":"-92.11240","Snowdepth":"3.800","Units":"in","Rept_Date":"2020-11-26 14"},"coordinates":[1494,6245]},{"type":"Point","properties":{"Station_ID":"SVBQ6","Station_Nam":"SAVANT BASE","Latitude":"50.28730","Longitude":"-90.65670","Snowdepth":"3.780","Units":"in","Rept_Date":"2020-11-27 06"},"coordinates":[1935,8901]},{"type":"Point","properties":{"Station_ID":"QCU","Station_Nam":"QCU","Latitude":"47.82750","Longitude":"-76.59830","Snowdepth":"3.504","Units":"in","Rept_Date":"2020-11-26 12"},"coordinates":[6191,7026]},{"type":"Point","properties":{"Station_ID":"CAN-NB-105","Station_Nam":"SISSON BROOK 3.8 E, CAN","Latitude":"46.98305","Longitude":"-67.32532","Snowdepth":"3.500","Units":"in","Rept_Date":"2020-11-26 12"},"coordinates":[8998,6382]},{"type":"Point","properties":{"Station_ID":"CAN-MB-32","Station_Nam":"PINAWA 1.0 SW, CA","Latitude":"50.14747","Longitude":"-95.89020","Snowdepth":"3.500","Units":"in","Rept_Date":"2020-11-26 13"},"coordinates":[350,8795]},{"type":"Point","properties":{"Station_ID":"QLI","Station_Nam":"QLI","Latitude":"50.27080","Longitude":"-73.92280","Snowdepth":"3.150","Units":"in","Rept_Date":"2020-11-26 12"},"coordinates":[7001,8889]},{"type":"Point","properties":{"Station_ID":"CAN-MB-368","Station_Nam":"WHITESHELL 1.3 NE, CAN","Latitude":"49.74405","Longitude":"-95.19123","Snowdepth":"3.100","Units":"in","Rept_Date":"2020-11-26 14"},"coordinates":[562,8487]},{"type":"Point","properties":{"Station_ID":"VT-OL-12","Station_Nam":"GREENSBORO 3.9 NNE, VT","Latitude":"44.63100","Longitude":"-72.28000","Snowdepth":"3.000","Units":"in","Rept_Date":"2020-11-26 10"},"coordinates":[7498,4589]},{"type":"Point","properties":{"Station_ID":"MN-CK-18","Station_Nam":"GRAND MARAIS 4.4 WSW, MN","Latitude":"47.74462","Longitude":"-90.43796","Snowdepth":"3.000","Units":"in","Rept_Date":"2020-11-26 13"},"coordinates":[2001,6963]},{"type":"Point","properties":{"Station_ID":"MIEM4","Station_Nam":"MICHIGAMME 3WNW","Latitude":"46.54530","Longitude":"-88.18000","Snowdepth":"3.000","Units":"in","Rept_Date":"2020-11-26 13"},"coordinates":[2685,6048]},{"type":"Point","properties":{"Station_ID":"ME-AR-15","Station_Nam":"PRESQUE ISLE 1.3 WSW, ME","Latitude":"46.67960","Longitude":"-68.01270","Snowdepth":"3.000","Units":"in","Rept_Date":"2020-11-26 12"},"coordinates":[8790,6151]},{"type":"Point","properties":{"Station_ID":"LNOW3","Station_Nam":"LAND O LAKES","Latitude":"46.19000","Longitude":"-89.45700","Snowdepth":"3.000","Units":"in","Rept_Date":"2020-11-26 13"},"coordinates":[2298,5777]},{"type":"Point","properties":{"Station_ID":"LEIM5","Station_Nam":"ORR 3E","Latitude":"48.05810","Longitude":"-92.75220","Snowdepth":"3.000","Units":"in","Rept_Date":"2020-11-26 12"},"coordinates":[1300,7202]},{"type":"Point","properties":{"Station_ID":"HMYM1","Station_Nam":"HARMONY","Latitude":"44.94660","Longitude":"-69.54560","Snowdepth":"3.000","Units":"in","Rept_Date":"2020-11-26 12"},"coordinates":[8326,4829]},{"type":"Point","properties":{"Station_ID":"CNRM1","Station_Nam":"CONNOR TWP","Latitude":"46.95830","Longitude":"-68.03330","Snowdepth":"3.000","Units":"in","Rept_Date":"2020-11-26 12"},"coordinates":[8784,6363]},{"type":"Point","properties":{"Station_ID":"CLKM4","Station_Nam":"CLARKSBURG","Latitude":"46.49910","Longitude":"-87.84500","Snowdepth":"3.000","Units":"in","Rept_Date":"2020-11-26 12"},"coordinates":[2786,6013]},{"type":"Point","properties":{"Station_ID":"CAN-ON-771","Station_Nam":"KENORA 8.7 NNE - CANWARN, CAN","Latitude":"49.84171","Longitude":"-94.44386","Snowdepth":"2.800","Units":"in","Rept_Date":"2020-11-26 13"},"coordinates":[788,8562]},{"type":"Point","properties":{"Station_ID":"CAN-ON-220","Station_Nam":"DEEP RIVER 1.5 SE - MNRF, CAN","Latitude":"46.09592","Longitude":"-77.47853","Snowdepth":"2.800","Units":"in","Rept_Date":"2020-11-26 14"},"coordinates":[5924,5706]},{"type":"Point","properties":{"Station_ID":"WI-VL-9","Station_Nam":"LAND O' LAKES 11.7 W, WI","Latitude":"46.19023","Longitude":"-89.45790","Snowdepth":"2.500","Units":"in","Rept_Date":"2020-11-26 13"},"coordinates":[2298,5778]},{"type":"Point","properties":{"Station_ID":"ME-SM-4","Station_Nam":"SOLON 3.9 ESE, ME","Latitude":"44.94705","Longitude":"-69.77790","Snowdepth":"2.500","Units":"in","Rept_Date":"2020-11-26 12"},"coordinates":[8256,4830]},{"type":"Point","properties":{"Station_ID":"CAN-QC-57","Station_Nam":"ACTON VALE 1.3 N, CAN","Latitude":"45.65868","Longitude":"-72.56645","Snowdepth":"2.400","Units":"in","Rept_Date":"2020-11-26 13"},"coordinates":[7411,5372]},{"type":"Point","properties":{"Station_ID":"ME-AR-30","Station_Nam":"HOULTON 0.7 N, ME","Latitude":"46.12775","Longitude":"-67.83418","Snowdepth":"2.300","Units":"in","Rept_Date":"2020-11-26 12"},"coordinates":[8844,5730]},{"type":"Point","properties":{"Station_ID":"WTRM4","Station_Nam":"WATERSMEET 12WSW","Latitude":"46.22310","Longitude":"-89.40850","Snowdepth":"2.000","Units":"in","Rept_Date":"2020-11-26 12"},"coordinates":[2313,5803]},{"type":"Point","properties":{"Station_ID":"WTNM4","Station_Nam":"WATTON 2WSW","Latitude":"46.52660","Longitude":"-88.64240","Snowdepth":"2.000","Units":"in","Rept_Date":"2020-11-26 13"},"coordinates":[2545,6034]},{"type":"Point","properties":{"Station_ID":"WRUM5","Station_Nam":"WARROAD 4W","Latitude":"48.89600","Longitude":"-95.40700","Snowdepth":"2.000","Units":"in","Rept_Date":"2020-11-27 04"},"coordinates":[497,7841]},{"type":"Point","properties":{"Station_ID":"WRSM5","Station_Nam":"WRENSHALL","Latitude":"46.61550","Longitude":"-92.38380","Snowdepth":"2.000","Units":"in","Rept_Date":"2020-11-26 14"},"coordinates":[1412,6102]},{"type":"Point","properties":{"Station_ID":"WLNM4","Station_Nam":"WELLSTON 1N","Latitude":"44.22940","Longitude":"-85.95690","Snowdepth":"2.000","Units":"in","Rept_Date":"2020-11-26 12"},"coordinates":[3358,4282]},{"type":"Point","properties":{"Station_ID":"WI-BY-29","Station_Nam":"BAYFIELD 5.1 NNW, WI","Latitude":"46.88063","Longitude":"-90.85854","Snowdepth":"2.000","Units":"in","Rept_Date":"2020-11-26 13"},"coordinates":[1874,6304]},{"type":"Point","properties":{"Station_ID":"VT-WS-30","Station_Nam":"WOODBURY 3.4 NNW, VT","Latitude":"44.48825","Longitude":"-72.43258","Snowdepth":"2.000","Units":"in","Rept_Date":"2020-11-26 12"},"coordinates":[7452,4480]},{"type":"Point","properties":{"Station_ID":"TOGM5","Station_Nam":"CELINA 2E","Latitude":"47.86630","Longitude":"-93.02660","Snowdepth":"2.000","Units":"in","Rept_Date":"2020-11-26 14"},"coordinates":[1217,7055]},{"type":"Point","properties":{"Station_ID":"SUTV1","Station_Nam":"SUTTON","Latitude":"44.61220","Longitude":"-72.04810","Snowdepth":"2.000","Units":"in","Rept_Date":"2020-11-26 13"},"coordinates":[7568,4574]},{"type":"Point","properties":{"Station_ID":"SUAW3","Station_Nam":"SUAMICO","Latitude":"44.60190","Longitude":"-88.09780","Snowdepth":"2.000","Units":"in","Rept_Date":"2020-11-26 12"},"coordinates":[2709,4566]},{"type":"Point","properties":{"Station_ID":"RKWM1","Station_Nam":"MOOSEHEAD LAKE","Latitude":"45.58330","Longitude":"-69.71670","Snowdepth":"2.000","Units":"in","Rept_Date":"2020-11-26 12"},"coordinates":[8274,5315]},{"type":"Point","properties":{"Station_ID":"PDLM4","Station_Nam":"PAINESDALE","Latitude":"47.04160","Longitude":"-88.67170","Snowdepth":"2.000","Units":"in","Rept_Date":"2020-11-26 13"},"coordinates":[2536,6427]},{"type":"Point","properties":{"Station_ID":"PDGM4","Station_Nam":"PAULDING","Latitude":"46.39760","Longitude":"-89.17940","Snowdepth":"2.000","Units":"in","Rept_Date":"2020-11-26 14"},"coordinates":[2382,5936]},{"type":"Point","properties":{"Station_ID":"MWTM1","Station_Nam":"MILLINOCKET WWTP","Latitude":"45.64030","Longitude":"-68.67480","Snowdepth":"2.000","Units":"in","Rept_Date":"2020-11-26 10"},"coordinates":[8589,5358]},{"type":"Point","properties":{"Station_ID":"MN-SL-15","Station_Nam":"CHISHOLM 0.4 WSW, MN","Latitude":"47.48557","Longitude":"-92.88690","Snowdepth":"2.000","Units":"in","Rept_Date":"2020-11-26 13"},"coordinates":[1260,6765]},{"type":"Point","properties":{"Station_ID":"MI-MQ-19","Station_Nam":"ISHPEMING 7.2 SW, MI","Latitude":"46.40550","Longitude":"-87.75670","Snowdepth":"2.000","Units":"in","Rept_Date":"2020-11-26 11"},"coordinates":[2813,5942]},{"type":"Point","properties":{"Station_ID":"MATW3","Station_Nam":"MATHER 3NW","Latitude":"44.17460","Longitude":"-90.34820","Snowdepth":"2.000","Units":"in","Rept_Date":"2020-11-26 13"},"coordinates":[2028,4241]},{"type":"Point","properties":{"Station_ID":"KMWN","Station_Nam":"MOUNT WASHINGTON","Latitude":"44.26666","Longitude":"-71.30000","Snowdepth":"2.000","Units":"in","Rept_Date":"2020-11-27 06"},"coordinates":[7795,4311]},{"type":"Point","properties":{"Station_ID":"INL","Station_Nam":"FALLS INTERNATIONAL ARPT","Latitude":"48.56640","Longitude":"-93.40310","Snowdepth":"2.000","Units":"in","Rept_Date":"2020-11-27 00"},"coordinates":[1103,7589]},{"type":"Point","properties":{"Station_ID":"IFSM5","Station_Nam":"INTERNATIONAL FALLS SNOW","Latitude":"48.57780","Longitude":"-93.39640","Snowdepth":"2.000","Units":"in","Rept_Date":"2020-11-27 06"},"coordinates":[1105,7598]},{"type":"Point","properties":{"Station_ID":"GNFM5","Station_Nam":"GUNFLINT LAKE","Latitude":"48.16670","Longitude":"-90.88750","Snowdepth":"2.000","Units":"in","Rept_Date":"2020-11-26 13"},"coordinates":[1865,7284]},{"type":"Point","properties":{"Station_ID":"COTM5","Station_Nam":"COTTON","Latitude":"47.16870","Longitude":"-92.46290","Snowdepth":"2.000","Units":"in","Rept_Date":"2020-11-26 14"},"coordinates":[1388,6524]},{"type":"Point","properties":{"Station_ID":"COKM5","Station_Nam":"COOK","Latitude":"47.85060","Longitude":"-92.69250","Snowdepth":"2.000","Units":"in","Rept_Date":"2020-11-26 12"},"coordinates":[1318,7043]},{"type":"Point","properties":{"Station_ID":"BRAM5","Station_Nam":"BRAINERD","Latitude":"46.34320","Longitude":"-94.20900","Snowdepth":"2.000","Units":"in","Rept_Date":"2020-11-26 13"},"coordinates":[859,5894]},{"type":"Point","properties":{"Station_ID":"BNDM5","Station_Nam":"ELY 25E","Latitude":"47.97190","Longitude":"-91.44860","Snowdepth":"2.000","Units":"in","Rept_Date":"2020-11-26 13"},"coordinates":[1695,7136]},{"type":"Point","properties":{"Station_ID":"BERM4","Station_Nam":"BERGLAND DAM","Latitude":"46.58690","Longitude":"-89.54750","Snowdepth":"2.000","Units":"in","Rept_Date":"2020-11-26 13"},"coordinates":[2271,6080]},{"type":"Point","properties":{"Station_ID":"BBEM4","Station_Nam":"BIG BAY 9SW","Latitude":"46.74620","Longitude":"-87.88160","Snowdepth":"2.000","Units":"in","Rept_Date":"2020-11-26 13"},"coordinates":[2775,6201]},{"type":"Point","properties":{"Station_ID":"AVLV1","Station_Nam":"AVERILL","Latitude":"45.00570","Longitude":"-71.69030","Snowdepth":"2.000","Units":"in","Rept_Date":"2020-11-26 13"},"coordinates":[7677,4874]},{"type":"Point","properties":{"Station_ID":"MN-SL-108","Station_Nam":"IRON JUNCTION 3.4 NNW, MN","Latitude":"47.46150","Longitude":"-92.63130","Snowdepth":"1.800","Units":"in","Rept_Date":"2020-11-26 13"},"coordinates":[1337,6747]},{"type":"Point","properties":{"Station_ID":"CAN-QC-51","Station_Nam":"BELOEIL 0.7 NW, CAN","Latitude":"45.58049","Longitude":"-73.21218","Snowdepth":"1.800","Units":"in","Rept_Date":"2020-11-26 12"},"coordinates":[7216,5313]},{"type":"Point","properties":{"Station_ID":"ME-SM-3","Station_Nam":"PALMYRA 3.5 NW, ME","Latitude":"44.87180","Longitude":"-69.41952","Snowdepth":"1.700","Units":"in","Rept_Date":"2020-11-26 12"},"coordinates":[8364,4772]},{"type":"Point","properties":{"Station_ID":"WI-TR-8","Station_Nam":"ETTRICK 4.0 WNW, WI","Latitude":"44.19004","Longitude":"-91.34249","Snowdepth":"1.500","Units":"in","Rept_Date":"2020-11-26 14"},"coordinates":[1727,4252]},{"type":"Point","properties":{"Station_ID":"VT-WS-19","Station_Nam":"WATERBURY 3.0 NW, VT","Latitude":"44.36060","Longitude":"-72.80770","Snowdepth":"1.500","Units":"in","Rept_Date":"2020-11-26 11"},"coordinates":[7338,4382]},{"type":"Point","properties":{"Station_ID":"VT-OL-9","Station_Nam":"GREENSBORO 2.1 NNW, VT","Latitude":"44.60528","Longitude":"-72.30940","Snowdepth":"1.500","Units":"in","Rept_Date":"2020-11-26 12"},"coordinates":[7489,4569]},{"type":"Point","properties":{"Station_ID":"NY-FK-9","Station_Nam":"GABRIELS 1.3 SE, NY","Latitude":"44.41934","Longitude":"-74.16194","Snowdepth":"1.500","Units":"in","Rept_Date":"2020-11-26 12"},"coordinates":[6928,4427]},{"type":"Point","properties":{"Station_ID":"MN-CK-6","Station_Nam":"GRAND MARAIS 4.4 W, MN","Latitude":"47.74865","Longitude":"-90.43760","Snowdepth":"1.500","Units":"in","Rept_Date":"2020-11-26 12"},"coordinates":[2001,6966]},{"type":"Point","properties":{"Station_ID":"ME-SM-45","Station_Nam":"BRIGHTON PLANTATION 2.1 N, ME","Latitude":"45.07098","Longitude":"-69.69860","Snowdepth":"1.500","Units":"in","Rept_Date":"2020-11-26 12"},"coordinates":[8280,4924]},{"type":"Point","properties":{"Station_ID":"CAN-NB-13","Station_Nam":"BATHURST 3.8 NW, CAN","Latitude":"47.64212","Longitude":"-65.68756","Snowdepth":"1.500","Units":"in","Rept_Date":"2020-11-26 11"},"coordinates":[9494,6885]},{"type":"Point","properties":{"Station_ID":"CAN-NB-11","Station_Nam":"MIRAMICHI 3.3 S, CAN","Latitude":"46.99343","Longitude":"-65.50690","Snowdepth":"1.500","Units":"in","Rept_Date":"2020-11-26 10"},"coordinates":[9549,6390]},{"type":"Point","properties":{"Station_ID":"CAN-MB-56","Station_Nam":"WINNIPEG 7.6 ENE, CAN","Latitude":"49.93264","Longitude":"-97.04752","Snowdepth":"1.500","Units":"in","Rept_Date":"2020-11-26 14"},"coordinates":[0,8631]},{"type":"Point","properties":{"Station_ID":"QWG","Station_Nam":"QWG","Latitude":"48.48890","Longitude":"-73.45940","Snowdepth":"1.496","Units":"in","Rept_Date":"2020-11-26 12"},"coordinates":[7141,7530]},{"type":"Point","properties":{"Station_ID":"CAN-QC-16","Station_Nam":"SAINT-ARMAND 3.6 W, CAN","Latitude":"45.02631","Longitude":"-73.08795","Snowdepth":"1.400","Units":"in","Rept_Date":"2020-11-26 12"},"coordinates":[7253,4890]},{"type":"Point","properties":{"Station_ID":"CAN-PE-54","Station_Nam":"FOXLEY RIVER 0.6 W - MCPEI, CAN","Latitude":"46.69300","Longitude":"-64.01880","Snowdepth":"1.400","Units":"in","Rept_Date":"2020-11-26 12"},"coordinates":[9999,6161]},{"type":"Point","properties":{"Station_ID":"CAN-NB-50","Station_Nam":"DOYLEVILLE 2.4 WNW, CAN","Latitude":"47.90803","Longitude":"-66.13279","Snowdepth":"1.300","Units":"in","Rept_Date":"2020-11-26 13"},"coordinates":[9359,7087]},{"type":"Point","properties":{"Station_ID":"WRIM5","Station_Nam":"WRIGHT 3E","Latitude":"46.68040","Longitude":"-92.95420","Snowdepth":"1.000","Units":"in","Rept_Date":"2020-11-26 12"},"coordinates":[1239,6151]},{"type":"Point","properties":{"Station_ID":"WORV1","Station_Nam":"WORCESTER 2 W","Latitude":"44.37470","Longitude":"-72.58220","Snowdepth":"1.000","Units":"in","Rept_Date":"2020-11-26 12"},"coordinates":[7407,4393]},{"type":"Point","properties":{"Station_ID":"WIPW3","Station_Nam":"WISCONSIN RAPIDS-SOUTHEAST","Latitude":"44.38190","Longitude":"-89.80470","Snowdepth":"1.000","Units":"in","Rept_Date":"2020-11-26 13"},"coordinates":[2193,4399]},{"type":"Point","properties":{"Station_ID":"WI-WH-7","Station_Nam":"WILD ROSE 0.5 E, WI","Latitude":"44.17764","Longitude":"-89.23812","Snowdepth":"1.000","Units":"in","Rept_Date":"2020-11-26 13"},"coordinates":[2364,4243]},{"type":"Point","properties":{"Station_ID":"WI-WB-2","Station_Nam":"STONE LAKE 2.0 NW, WI","Latitude":"45.85960","Longitude":"-91.57710","Snowdepth":"1.000","Units":"in","Rept_Date":"2020-11-26 12"},"coordinates":[1656,5525]},{"type":"Point","properties":{"Station_ID":"WI-VL-14","Station_Nam":"BOULDER JUNCTION 1.4 NE, WI","Latitude":"46.12840","Longitude":"-89.62470","Snowdepth":"1.000","Units":"in","Rept_Date":"2020-11-26 13"},"coordinates":[2247,5730]},{"type":"Point","properties":{"Station_ID":"WI-SR-1","Station_Nam":"HAYWARD 9.2 NNE, WI","Latitude":"46.13255","Longitude":"-91.40500","Snowdepth":"1.000","Units":"in","Rept_Date":"2020-11-26 12"},"coordinates":[1708,5734]},{"type":"Point","properties":{"Station_ID":"WI-PT-8","Station_Nam":"RUDOLPH 2.1 NNE, WI","Latitude":"44.52553","Longitude":"-89.78677","Snowdepth":"1.000","Units":"in","Rept_Date":"2020-11-26 11"},"coordinates":[2198,4508]},{"type":"Point","properties":{"Station_ID":"WI-IR-3","Station_Nam":"PENCE 0.1 E, WI","Latitude":"46.41555","Longitude":"-90.27013","Snowdepth":"1.000","Units":"in","Rept_Date":"2020-11-26 13"},"coordinates":[2052,5949]},{"type":"Point","properties":{"Station_ID":"WI-IR-2","Station_Nam":"MERCER 2.0 SE, WI","Latitude":"46.14749","Longitude":"-90.03097","Snowdepth":"1.000","Units":"in","Rept_Date":"2020-11-26 13"},"coordinates":[2124,5745]},{"type":"Point","properties":{"Station_ID":"WI-DG-20","Station_Nam":"SOLON SPRINGS 1.2 W, WI","Latitude":"46.35217","Longitude":"-91.84405","Snowdepth":"1.000","Units":"in","Rept_Date":"2020-11-26 13"},"coordinates":[1575,5901]},{"type":"Point","properties":{"Station_ID":"WI-BY-2","Station_Nam":"MELLEN 18.6 SW, WI","Latitude":"46.16937","Longitude":"-90.98090","Snowdepth":"1.000","Units":"in","Rept_Date":"2020-11-26 13"},"coordinates":[1837,5762]},{"type":"Point","properties":{"Station_ID":"VT-OL-25","Station_Nam":"NEWPORT 1.5 WSW, VT","Latitude":"44.93059","Longitude":"-72.23731","Snowdepth":"1.000","Units":"in","Rept_Date":"2020-11-26 12"},"coordinates":[7511,4817]},{"type":"Point","properties":{"Station_ID":"VT-OL-2","Station_Nam":"BARTON 3.0 ENE, VT","Latitude":"44.75863","Longitude":"-72.11680","Snowdepth":"1.000","Units":"in","Rept_Date":"2020-11-26 12"},"coordinates":[7547,4686]},{"type":"Point","properties":{"Station_ID":"VT-OL-1","Station_Nam":"WESTFIELD 0.7 WNW, VT","Latitude":"44.89160","Longitude":"-72.44350","Snowdepth":"1.000","Units":"in","Rept_Date":"2020-11-26 12"},"coordinates":[7449,4787]},{"type":"Point","properties":{"Station_ID":"VT-CL-18","Station_Nam":"WHEELOCK 1.6 S, VT","Latitude":"44.56491","Longitude":"-72.08830","Snowdepth":"1.000","Units":"in","Rept_Date":"2020-11-26 12"},"coordinates":[7556,4538]},{"type":"Point","properties":{"Station_ID":"TREW3","Station_Nam":"DAM 6","Latitude":"43.99970","Longitude":"-91.43580","Snowdepth":"1.000","Units":"in","Rept_Date":"2020-11-26 14"},"coordinates":[1699,4107]},{"type":"Point","properties":{"Station_ID":"TOPM1","Station_Nam":"TOPSFIELD","Latitude":"45.43470","Longitude":"-67.72020","Snowdepth":"1.000","Units":"in","Rept_Date":"2020-11-26 10"},"coordinates":[8878,5201]},{"type":"Point","properties":{"Station_ID":"SRAW3","Station_Nam":"SARONA","Latitude":"45.80250","Longitude":"-91.86700","Snowdepth":"1.000","Units":"in","Rept_Date":"2020-11-26 14"},"coordinates":[1568,5482]},{"type":"Point","properties":{"Station_ID":"SPGM5","Station_Nam":"SPRING VALLEY","Latitude":"43.69330","Longitude":"-92.39260","Snowdepth":"1.000","Units":"in","Rept_Date":"2020-11-26 13"},"coordinates":[1409,3874]},{"type":"Point","properties":{"Station_ID":"SEBM5","Station_Nam":"SEBEKA","Latitude":"46.62540","Longitude":"-95.09670","Snowdepth":"1.000","Units":"in","Rept_Date":"2020-11-26 13"},"coordinates":[591,6109]},{"type":"Point","properties":{"Station_ID":"PLOW3","Station_Nam":"PLOVER","Latitude":"44.44280","Longitude":"-89.54530","Snowdepth":"1.000","Units":"in","Rept_Date":"2020-11-26 13"},"coordinates":[2271,4445]},{"type":"Point","properties":{"Station_ID":"NY-FK-7","Station_Nam":"SARANAC LAKE 6.2 N, NY","Latitude":"44.41359","Longitude":"-74.15211","Snowdepth":"1.000","Units":"in","Rept_Date":"2020-11-26 12"},"coordinates":[6931,4423]},{"type":"Point","properties":{"Station_ID":"NY-CL-12","Station_Nam":"SARANAC 0.8 SSE, NY","Latitude":"44.63980","Longitude":"-73.73848","Snowdepth":"1.000","Units":"in","Rept_Date":"2020-11-26 12"},"coordinates":[7057,4595]},{"type":"Point","properties":{"Station_ID":"NWSM1","Station_Nam":"NEW SHARON","Latitude":"44.63520","Longitude":"-70.00020","Snowdepth":"1.000","Units":"in","Rept_Date":"2020-11-26 12"},"coordinates":[8188,4592]},{"type":"Point","properties":{"Station_ID":"NUMN3","Station_Nam":"NORTHUMBERLAND","Latitude":"44.52830","Longitude":"-71.50440","Snowdepth":"1.000","Units":"in","Rept_Date":"2020-11-26 12"},"coordinates":[7733,4510]},{"type":"Point","properties":{"Station_ID":"MQT","Station_Nam":"MARQUETTE, MI","Latitude":"46.53140","Longitude":"-87.54920","Snowdepth":"1.000","Units":"in","Rept_Date":"2020-11-27 06"},"coordinates":[2875,6038]},{"type":"Point","properties":{"Station_ID":"MN-SL-20","Station_Nam":"DULUTH 3.2 NE, MN","Latitude":"46.81313","Longitude":"-92.05560","Snowdepth":"1.000","Units":"in","Rept_Date":"2020-11-26 13"},"coordinates":[1511,6252]},{"type":"Point","properties":{"Station_ID":"MN-SL-115","Station_Nam":"COTTON 5.7 ESE, MN","Latitude":"47.15142","Longitude":"-92.35772","Snowdepth":"1.000","Units":"in","Rept_Date":"2020-11-26 14"},"coordinates":[1420,6510]},{"type":"Point","properties":{"Station_ID":"MN-FM-10","Station_Nam":"WYKOFF 3.1 NW, MN","Latitude":"43.74340","Longitude":"-92.30650","Snowdepth":"1.000","Units":"in","Rept_Date":"2020-11-26 13"},"coordinates":[1435,3912]},{"type":"Point","properties":{"Station_ID":"MN-CW-22","Station_Nam":"FORT RIPLEY 0.8 N, MN","Latitude":"46.18089","Longitude":"-94.36510","Snowdepth":"1.000","Units":"in","Rept_Date":"2020-11-26 13"},"coordinates":[812,5770]},{"type":"Point","properties":{"Station_ID":"MI-OT-17","Station_Nam":"GAYLORD 4.1 S, MI","Latitude":"44.96388","Longitude":"-84.68467","Snowdepth":"1.000","Units":"in","Rept_Date":"2020-11-26 12"},"coordinates":[3743,4842]},{"type":"Point","properties":{"Station_ID":"MI-OG-6","Station_Nam":"WEST BRANCH 2.1 SSW, MI","Latitude":"44.24814","Longitude":"-84.25089","Snowdepth":"1.000","Units":"in","Rept_Date":"2020-11-26 13"},"coordinates":[3874,4297]},{"type":"Point","properties":{"Station_ID":"MI-MQ-28","Station_Nam":"CARLSHEND, MI","Latitude":"46.31638","Longitude":"-87.19944","Snowdepth":"1.000","Units":"in","Rept_Date":"2020-11-26 13"},"coordinates":[2981,5874]},{"type":"Point","properties":{"Station_ID":"MI-HG-20","Station_Nam":"CALUMET 1.1 SSW, MI","Latitude":"47.23165","Longitude":"-88.45823","Snowdepth":"1.000","Units":"in","Rept_Date":"2020-11-26 11"},"coordinates":[2600,6572]},{"type":"Point","properties":{"Station_ID":"MI-GT-21","Station_Nam":"KINGSLEY 2.7 ENE, MI","Latitude":"44.59871","Longitude":"-85.48426","Snowdepth":"1.000","Units":"in","Rept_Date":"2020-11-26 11"},"coordinates":[3501,4564]},{"type":"Point","properties":{"Station_ID":"MI-CF-9","Station_Nam":"GRAYLING 15.8 NE, MI","Latitude":"44.80464","Longitude":"-84.46313","Snowdepth":"1.000","Units":"in","Rept_Date":"2020-11-26 14"},"coordinates":[3810,4721]},{"type":"Point","properties":{"Station_ID":"MI-AG-6","Station_Nam":"MUNISING 11.1 SSW, MI","Latitude":"46.27805","Longitude":"-86.75747","Snowdepth":"1.000","Units":"in","Rept_Date":"2020-11-26 12"},"coordinates":[3115,5844]},{"type":"Point","properties":{"Station_ID":"MHCP1","Station_Nam":"MAHANTANGO CK","Latitude":"40.66670","Longitude":"-76.66670","Snowdepth":"1.000","Units":"in","Rept_Date":"2020-11-27 02"},"coordinates":[6170,1566]},{"type":"Point","properties":{"Station_ID":"ME-SM-10","Station_Nam":"NORTH NEW PORTLAND 0.3 WSW, ME","Latitude":"44.92353","Longitude":"-70.02788","Snowdepth":"1.000","Units":"in","Rept_Date":"2020-11-26 12"},"coordinates":[8180,4812]},{"type":"Point","properties":{"Station_ID":"ME-PN-47","Station_Nam":"MILFORD 0.8 SSW, ME","Latitude":"44.94108","Longitude":"-68.64154","Snowdepth":"1.000","Units":"in","Rept_Date":"2020-11-26 12"},"coordinates":[8600,4825]},{"type":"Point","properties":{"Station_ID":"ME-OX-29","Station_Nam":"SUMNER 1.1 N, ME","Latitude":"44.40840","Longitude":"-70.44010","Snowdepth":"1.000","Units":"in","Rept_Date":"2020-11-26 12"},"coordinates":[8055,4419]},{"type":"Point","properties":{"Station_ID":"ME-FR-4","Station_Nam":"NEW SHARON 2.0 NW, ME","Latitude":"44.66582","Longitude":"-70.02720","Snowdepth":"1.000","Units":"in","Rept_Date":"2020-11-26 12"},"coordinates":[8180,4615]},{"type":"Point","properties":{"Station_ID":"ME-FR-22","Station_Nam":"FARMINGTON 4.8 NNW, ME","Latitude":"44.73396","Longitude":"-70.18007","Snowdepth":"1.000","Units":"in","Rept_Date":"2020-11-26 14"},"coordinates":[8134,4667]},{"type":"Point","properties":{"Station_ID":"ME-FR-2","Station_Nam":"TEMPLE 1.8 W, ME","Latitude":"44.68329","Longitude":"-70.26420","Snowdepth":"1.000","Units":"in","Rept_Date":"2020-11-26 12"},"coordinates":[8108,4629]},{"type":"Point","properties":{"Station_ID":"MBGM7","Station_Nam":"MISSOURI BOTANICAL GARDENS","Latitude":"38.61280","Longitude":"-90.26080","Snowdepth":"1.000","Units":"in","Rept_Date":"2020-11-27 06"},"coordinates":[2055,0]},{"type":"Point","properties":{"Station_ID":"LVRM1","Station_Nam":"LIVERMORE FALLS 1 E","Latitude":"44.47160","Longitude":"-70.15940","Snowdepth":"1.000","Units":"in","Rept_Date":"2020-11-26 12"},"coordinates":[8140,4467]},{"type":"Point","properties":{"Station_ID":"LVDW3","Station_Nam":"LAC VIEUX DESERT","Latitude":"46.12110","Longitude":"-89.07580","Snowdepth":"1.000","Units":"in","Rept_Date":"2020-11-26 14"},"coordinates":[2413,5725]},{"type":"Point","properties":{"Station_ID":"LNCM1","Station_Nam":"LINCOLN WATER DISTRICT","Latitude":"45.32410","Longitude":"-68.58300","Snowdepth":"1.000","Units":"in","Rept_Date":"2020-11-26 14"},"coordinates":[8617,5117]},{"type":"Point","properties":{"Station_ID":"KSEM4","Station_Nam":"KALKASKA 11SE","Latitude":"44.58970","Longitude":"-85.04860","Snowdepth":"1.000","Units":"in","Rept_Date":"2020-11-26 13"},"coordinates":[3633,4557]},{"type":"Point","properties":{"Station_ID":"KINM1","Station_Nam":"KINGFIELD","Latitude":"44.95950","Longitude":"-70.17530","Snowdepth":"1.000","Units":"in","Rept_Date":"2020-11-26 12"},"coordinates":[8135,4839]},{"type":"Point","properties":{"Station_ID":"JOHV1","Station_Nam":"JOHNSON 2 N","Latitude":"44.65790","Longitude":"-72.67850","Snowdepth":"1.000","Units":"in","Rept_Date":"2020-11-26 12"},"coordinates":[7377,4609]},{"type":"Point","properties":{"Station_ID":"JKMM1","Station_Nam":"JACKMAN","Latitude":"45.62600","Longitude":"-70.24600","Snowdepth":"1.000","Units":"in","Rept_Date":"2020-11-26 12"},"coordinates":[8114,5347]},{"type":"Point","properties":{"Station_ID":"IWOM4","Station_Nam":"IRONWOOD#2","Latitude":"46.46520","Longitude":"-90.13820","Snowdepth":"1.000","Units":"in","Rept_Date":"2020-11-26 13"},"coordinates":[2092,5987]},{"type":"Point","properties":{"Station_ID":"ISLV1","Station_Nam":"ISLAND POND","Latitude":"44.81280","Longitude":"-71.89020","Snowdepth":"1.000","Units":"in","Rept_Date":"2020-11-26 12"},"coordinates":[7616,4727]},{"type":"Point","properties":{"Station_ID":"HURW3","Station_Nam":"HURLEY","Latitude":"46.46250","Longitude":"-90.19550","Snowdepth":"1.000","Units":"in","Rept_Date":"2020-11-26 14"},"coordinates":[2074,5985]},{"type":"Point","properties":{"Station_ID":"HUBN3","Station_Nam":"HUBBARD BROOK","Latitude":"43.93330","Longitude":"-71.71670","Snowdepth":"1.000","Units":"in","Rept_Date":"2020-11-27 06"},"coordinates":[7669,4057]},{"type":"Point","properties":{"Station_ID":"HRTM1","Station_Nam":"HARTFORD","Latitude":"44.37440","Longitude":"-70.31620","Snowdepth":"1.000","Units":"in","Rept_Date":"2020-11-26 12"},"coordinates":[8093,4393]},{"type":"Point","properties":{"Station_ID":"FARM1","Station_Nam":"FARMINGTON","Latitude":"44.68930","Longitude":"-70.15640","Snowdepth":"1.000","Units":"in","Rept_Date":"2020-11-26 12"},"coordinates":[8141,4633]},{"type":"Point","properties":{"Station_ID":"EVRW3","Station_Nam":"EAGLE RIVER-4 E","Latitude":"45.91890","Longitude":"-89.15280","Snowdepth":"1.000","Units":"in","Rept_Date":"2020-11-26 13"},"coordinates":[2390,5571]},{"type":"Point","properties":{"Station_ID":"ESGM1","Station_Nam":"EAST SANGERVILLE","Latitude":"45.13690","Longitude":"-69.28060","Snowdepth":"1.000","Units":"in","Rept_Date":"2020-11-26 12"},"coordinates":[8406,4974]},{"type":"Point","properties":{"Station_ID":"ELYM5","Station_Nam":"ELY","Latitude":"47.90560","Longitude":"-91.82830","Snowdepth":"1.000","Units":"in","Rept_Date":"2020-11-26 14"},"coordinates":[1580,7085]},{"type":"Point","properties":{"Station_ID":"EGRW3","Station_Nam":"EAGLE RIVER-SOUTH","Latitude":"45.91360","Longitude":"-89.24360","Snowdepth":"1.000","Units":"in","Rept_Date":"2020-11-26 13"},"coordinates":[2363,5567]},{"type":"Point","properties":{"Station_ID":"CORM1","Station_Nam":"CORINNA","Latitude":"44.91980","Longitude":"-69.24180","Snowdepth":"1.000","Units":"in","Rept_Date":"2020-11-26 17"},"coordinates":[8418,4809]},{"type":"Point","properties":{"Station_ID":"CMKW3","Station_Nam":"CLAM LAKE 4W","Latitude":"46.16940","Longitude":"-90.98080","Snowdepth":"1.000","Units":"in","Rept_Date":"2020-11-26 13"},"coordinates":[1837,5762]},{"type":"Point","properties":{"Station_ID":"CAN-NB-96","Station_Nam":"SAINT-IGNACE 2.6 NE, CAN","Latitude":"46.71424","Longitude":"-65.05609","Snowdepth":"1.000","Units":"in","Rept_Date":"2020-11-26 11"},"coordinates":[9685,6177]},{"type":"Point","properties":{"Station_ID":"CAN-NB-64","Station_Nam":"KESWICK RIDGE 4.0 SE, CAN","Latitude":"45.97014","Longitude":"-66.85538","Snowdepth":"1.000","Units":"in","Rept_Date":"2020-11-26 12"},"coordinates":[9140,5610]},{"type":"Point","properties":{"Station_ID":"BRAM1","Station_Nam":"BRASSUA DAM","Latitude":"45.66020","Longitude":"-69.81190","Snowdepth":"1.000","Units":"in","Rept_Date":"2020-11-26 12"},"coordinates":[8245,5373]},{"type":"Point","properties":{"Station_ID":"BETM1","Station_Nam":"BETHEL 6 SSE","Latitude":"44.32000","Longitude":"-70.75680","Snowdepth":"1.000","Units":"in","Rept_Date":"2020-11-26 12"},"coordinates":[7959,4352]}]}},"arcs":[],"transform":{"scale":[0.0033032023202320235,0.0013115411541154117],"translate":[-97.04752,38.6128]}}