{"type":"Topology","objects":{"snowdepth_geo":{"type":"GeometryCollection","name":"snowdepth","crs":{"type":"name","properties":{"name":"urn:ogc:def:crs:OGC:1.3:CRS84"}},"geometries":[{"type":"Point","properties":{"Station_ID":"PRKM4","Station_Nam":"MUNISING EAST","Latitude":"46.42580","Longitude":"-86.62000","Snowdepth":"76.500","Units":"in","Rept_Date":"2021-02-25 06"},"coordinates":[2492,6701]},{"type":"Point","properties":{"Station_ID":"MMNV1","Station_Nam":"MT. MANSFIELD","Latitude":"44.52480","Longitude":"-72.81540","Snowdepth":"50.000","Units":"in","Rept_Date":"2021-02-24 21"},"coordinates":[5732,5518]},{"type":"Point","properties":{"Station_ID":"HTLN3","Station_Nam":"HERMIT LAKE SNOWPLOT","Latitude":"44.26130","Longitude":"-71.28330","Snowdepth":"45.000","Units":"in","Rept_Date":"2021-02-24 10"},"coordinates":[6092,5354]},{"type":"Point","properties":{"Station_ID":"HLSN3","Station_Nam":"HERMIT LAKE SNOTEL","Latitude":"44.26130","Longitude":"-71.28320","Snowdepth":"42.360","Units":"in","Rept_Date":"2021-02-25 06"},"coordinates":[6092,5354]},{"type":"Point","properties":{"Station_ID":"HGHN6","Station_Nam":"HIGHMARKET","Latitude":"43.60510","Longitude":"-75.55430","Snowdepth":"41.000","Units":"in","Rept_Date":"2021-02-24 11"},"coordinates":[5089,4946]},{"type":"Point","properties":{"Station_ID":"PDLM4","Station_Nam":"PAINESDALE","Latitude":"47.04160","Longitude":"-88.67170","Snowdepth":"39.000","Units":"in","Rept_Date":"2021-02-24 13"},"coordinates":[2011,7084]},{"type":"Point","properties":{"Station_ID":"RDFN6","Station_Nam":"REDFIELD 8N","Latitude":"43.64130","Longitude":"-75.88400","Snowdepth":"38.000","Units":"in","Rept_Date":"2021-02-24 12"},"coordinates":[5012,4969]},{"type":"Point","properties":{"Station_ID":"WPDN6","Station_Nam":"CINCINNATUS 2NW SNOW","Latitude":"42.55000","Longitude":"-75.93330","Snowdepth":"37.000","Units":"in","Rept_Date":"2021-02-24 13"},"coordinates":[5000,4290]},{"type":"Point","properties":{"Station_ID":"PERV1","Station_Nam":"PERU","Latitude":"43.26670","Longitude":"-72.90000","Snowdepth":"34.000","Units":"in","Rept_Date":"2021-02-24 12"},"coordinates":[5712,4736]},{"type":"Point","properties":{"Station_ID":"NY-ER-65","Station_Nam":"BOSTON 1.5 NE, NY","Latitude":"42.65470","Longitude":"-78.72010","Snowdepth":"34.000","Units":"in","Rept_Date":"2021-02-24 12"},"coordinates":[4346,4355]},{"type":"Point","properties":{"Station_ID":"BOON6","Station_Nam":"BOONVILLE 4 SSW","Latitude":"43.43610","Longitude":"-75.36970","Snowdepth":"34.000","Units":"in","Rept_Date":"2021-02-24 12"},"coordinates":[5132,4841]},{"type":"Point","properties":{"Station_ID":"WPGN6","Station_Nam":"GEORGETOWN 2SE SNOW","Latitude":"42.75000","Longitude":"-75.70000","Snowdepth":"33.000","Units":"in","Rept_Date":"2021-02-24 13"},"coordinates":[5055,4414]},{"type":"Point","properties":{"Station_ID":"STRN6","Station_Nam":"STILLWATER RESERVOIR","Latitude":"43.89140","Longitude":"-75.03610","Snowdepth":"33.000","Units":"in","Rept_Date":"2021-02-24 13"},"coordinates":[5211,5124]},{"type":"Point","properties":{"Station_ID":"CAN-NB-11","Station_Nam":"MIRAMICHI 3.3 S, CAN","Latitude":"46.99343","Longitude":"-65.50690","Snowdepth":"33.000","Units":"in","Rept_Date":"2021-02-24 11"},"coordinates":[7447,7054]},{"type":"Point","properties":{"Station_ID":"VT-BN-12","Station_Nam":"STAMFORD 5.0 NNE, VT","Latitude":"42.82000","Longitude":"-73.02000","Snowdepth":"32.000","Units":"in","Rept_Date":"2021-02-24 21"},"coordinates":[5684,4458]},{"type":"Point","properties":{"Station_ID":"NY-HR-18","Station_Nam":"SALISBURY CENTER 1.8 NW, NY","Latitude":"43.16260","Longitude":"-74.80880","Snowdepth":"32.000","Units":"in","Rept_Date":"2021-02-24 11"},"coordinates":[5264,4671]},{"type":"Point","properties":{"Station_ID":"LBKV1","Station_Nam":"LYE BROOK","Latitude":"43.05000","Longitude":"-73.03330","Snowdepth":"32.000","Units":"in","Rept_Date":"2021-02-25 06"},"coordinates":[5681,4601]},{"type":"Point","properties":{"Station_ID":"KSGM4","Station_Nam":"KEARSARGE","Latitude":"47.27520","Longitude":"-88.41700","Snowdepth":"32.000","Units":"in","Rept_Date":"2021-02-24 13"},"coordinates":[2070,7229]},{"type":"Point","properties":{"Station_ID":"PTLQ6","Station_Nam":"PORTAGE LAKE","Latitude":"49.06950","Longitude":"-86.65940","Snowdepth":"31.730","Units":"in","Rept_Date":"2021-02-25 06"},"coordinates":[2483,8346]},{"type":"Point","properties":{"Station_ID":"VT-BN-3","Station_Nam":"LANDGROVE 1.1 NNE, VT","Latitude":"43.29092","Longitude":"-72.83260","Snowdepth":"31.000","Units":"in","Rept_Date":"2021-02-24 12"},"coordinates":[5728,4751]},{"type":"Point","properties":{"Station_ID":"NY-ER-166","Station_Nam":"BOSTON 2.5 NE, NY","Latitude":"42.65480","Longitude":"-78.70300","Snowdepth":"30.500","Units":"in","Rept_Date":"2021-02-24 12"},"coordinates":[4350,4355]},{"type":"Point","properties":{"Station_ID":"WPFN6","Station_Nam":"MARIPOSA 1NNW SNOW","Latitude":"42.73330","Longitude":"-75.81670","Snowdepth":"30.000","Units":"in","Rept_Date":"2021-02-24 13"},"coordinates":[5028,4404]},{"type":"Point","properties":{"Station_ID":"TRIQ6","Station_Nam":"TRIO LAKE","Latitude":"49.22880","Longitude":"-87.22920","Snowdepth":"29.210","Units":"in","Rept_Date":"2021-02-25 06"},"coordinates":[2349,8445]},{"type":"Point","properties":{"Station_ID":"WNDP1","Station_Nam":"WINDBER COUNTY CLUB","Latitude":"40.28780","Longitude":"-78.77530","Snowdepth":"29.000","Units":"in","Rept_Date":"2021-02-24 12"},"coordinates":[4333,2882]},{"type":"Point","properties":{"Station_ID":"QNCM4","Station_Nam":"QUINCY HILL","Latitude":"47.13640","Longitude":"-88.57950","Snowdepth":"29.000","Units":"in","Rept_Date":"2021-02-24 12"},"coordinates":[2032,7143]},{"type":"Point","properties":{"Station_ID":"OCON6","Station_Nam":"OSCEOLA","Latitude":"43.50370","Longitude":"-75.72170","Snowdepth":"29.000","Units":"in","Rept_Date":"2021-02-24 13"},"coordinates":[5050,4883]},{"type":"Point","properties":{"Station_ID":"NH-CS-10","Station_Nam":"RANDOLPH 1.4 NE, NH","Latitude":"44.38824","Longitude":"-71.26950","Snowdepth":"29.000","Units":"in","Rept_Date":"2021-02-24 12"},"coordinates":[6095,5433]},{"type":"Point","properties":{"Station_ID":"LVDW3","Station_Nam":"LAC VIEUX DESERT","Latitude":"46.12110","Longitude":"-89.07580","Snowdepth":"29.000","Units":"in","Rept_Date":"2021-02-24 13"},"coordinates":[1916,6511]},{"type":"Point","properties":{"Station_ID":"BRAM1","Station_Nam":"BRASSUA DAM","Latitude":"45.66020","Longitude":"-69.81190","Snowdepth":"29.000","Units":"in","Rept_Date":"2021-02-24 12"},"coordinates":[6437,6225]},{"type":"Point","properties":{"Station_ID":"DVLQ6","Station_Nam":"DEVIOUS LAKE","Latitude":"49.19890","Longitude":"-87.76440","Snowdepth":"28.940","Units":"in","Rept_Date":"2021-02-25 06"},"coordinates":[2224,8426]},{"type":"Point","properties":{"Station_ID":"NY-OD-2","Station_Nam":"POINT ROCK 0.6 SE, NY","Latitude":"43.37335","Longitude":"-75.53840","Snowdepth":"28.500","Units":"in","Rept_Date":"2021-02-24 12"},"coordinates":[5093,4802]},{"type":"Point","properties":{"Station_ID":"WPEN6","Station_Nam":"SOUTH OTSELIC 2NNW SNOW","Latitude":"42.66670","Longitude":"-75.80000","Snowdepth":"28.000","Units":"in","Rept_Date":"2021-02-24 13"},"coordinates":[5031,4362]},{"type":"Point","properties":{"Station_ID":"VT-OL-12","Station_Nam":"GREENSBORO 3.9 NNE, VT","Latitude":"44.63100","Longitude":"-72.28000","Snowdepth":"28.000","Units":"in","Rept_Date":"2021-02-24 14"},"coordinates":[5858,5584]},{"type":"Point","properties":{"Station_ID":"NY-ER-56","Station_Nam":"COLDEN 1.4 NNW, NY","Latitude":"42.64740","Longitude":"-78.71120","Snowdepth":"28.000","Units":"in","Rept_Date":"2021-02-24 12"},"coordinates":[4348,4350]},{"type":"Point","properties":{"Station_ID":"MI-HG-20","Station_Nam":"CALUMET 1.1 SSW, MI","Latitude":"47.23165","Longitude":"-88.45823","Snowdepth":"28.000","Units":"in","Rept_Date":"2021-02-24 11"},"coordinates":[2061,7202]},{"type":"Point","properties":{"Station_ID":"GMSM4","Station_Nam":"GRAND MARAIS 10S","Latitude":"46.50940","Longitude":"-85.96310","Snowdepth":"28.000","Units":"in","Rept_Date":"2021-02-24 12"},"coordinates":[2646,6753]},{"type":"Point","properties":{"Station_ID":"EHYM3","Station_Nam":"EAST HAWLEY","Latitude":"42.57410","Longitude":"-72.86790","Snowdepth":"28.000","Units":"in","Rept_Date":"2021-02-24 13"},"coordinates":[5720,4305]},{"type":"Point","properties":{"Station_ID":"CODN6","Station_Nam":"COLDEN","Latitude":"42.64720","Longitude":"-78.71110","Snowdepth":"28.000","Units":"in","Rept_Date":"2021-02-24 12"},"coordinates":[4348,4350]},{"type":"Point","properties":{"Station_ID":"AUDQ6","Station_Nam":"AUDEN","Latitude":"48.52600","Longitude":"-82.57570","Snowdepth":"27.680","Units":"in","Rept_Date":"2021-02-25 06"},"coordinates":[3441,8008]},{"type":"Point","properties":{"Station_ID":"QGO","Station_Nam":"QGO","Latitude":"48.85500","Longitude":"-74.20640","Snowdepth":"27.402","Units":"in","Rept_Date":"2021-02-24 12"},"coordinates":[5405,8212]},{"type":"Point","properties":{"Station_ID":"QLB","Station_Nam":"QLB","Latitude":"50.72360","Longitude":"-75.10000","Snowdepth":"27.126","Units":"in","Rept_Date":"2021-02-24 12"},"coordinates":[5196,9375]},{"type":"Point","properties":{"Station_ID":"NY-HM-10","Station_Nam":"LAKE PLEASANT 2.3 WSW, NY","Latitude":"43.45490","Longitude":"-74.45287","Snowdepth":"27.000","Units":"in","Rept_Date":"2021-02-24 12"},"coordinates":[5348,4853]},{"type":"Point","properties":{"Station_ID":"NY-LW-12","Station_Nam":"CHASES LAKE COOP, NY","Latitude":"43.75924","Longitude":"-75.29982","Snowdepth":"26.500","Units":"in","Rept_Date":"2021-02-24 11"},"coordinates":[5149,5042]},{"type":"Point","properties":{"Station_ID":"ME-FR-2","Station_Nam":"TEMPLE 1.8 W, ME","Latitude":"44.68329","Longitude":"-70.26420","Snowdepth":"26.500","Units":"in","Rept_Date":"2021-02-24 11"},"coordinates":[6331,5617]},{"type":"Point","properties":{"Station_ID":"WELM4","Station_Nam":"WELLSTON TIPPY DAM","Latitude":"44.25860","Longitude":"-85.93940","Snowdepth":"26.000","Units":"in","Rept_Date":"2021-02-24 13"},"coordinates":[2652,5353]},{"type":"Point","properties":{"Station_ID":"VT-BN-7","Station_Nam":"MANCHESTER 2.8 ENE, VT","Latitude":"43.17274","Longitude":"-73.01811","Snowdepth":"26.000","Units":"in","Rept_Date":"2021-02-24 12"},"coordinates":[5684,4677]},{"type":"Point","properties":{"Station_ID":"ROWM3","Station_Nam":"ROWE 3NE","Latitude":"42.73500","Longitude":"-72.86920","Snowdepth":"26.000","Units":"in","Rept_Date":"2021-02-24 12"},"coordinates":[5719,4405]},{"type":"Point","properties":{"Station_ID":"RKWM1","Station_Nam":"MOOSEHEAD LAKE","Latitude":"45.58330","Longitude":"-69.71670","Snowdepth":"26.000","Units":"in","Rept_Date":"2021-02-24 12"},"coordinates":[6459,6177]},{"type":"Point","properties":{"Station_ID":"PEKN6","Station_Nam":"PECK LAKE","Latitude":"43.11500","Longitude":"-74.42360","Snowdepth":"26.000","Units":"in","Rept_Date":"2021-02-24 12"},"coordinates":[5355,4641]},{"type":"Point","properties":{"Station_ID":"NY-BM-21","Station_Nam":"WINDSOR 8.0 SE, NY","Latitude":"42.00992","Longitude":"-75.51420","Snowdepth":"26.000","Units":"in","Rept_Date":"2021-02-24 12"},"coordinates":[5099,3954]},{"type":"Point","properties":{"Station_ID":"MNSM4","Station_Nam":"MUNISING","Latitude":"46.41210","Longitude":"-86.66250","Snowdepth":"26.000","Units":"in","Rept_Date":"2021-02-24 11"},"coordinates":[2482,6692]},{"type":"Point","properties":{"Station_ID":"ME-SM-45","Station_Nam":"BRIGHTON PLANTATION 2.1 N, ME","Latitude":"45.07098","Longitude":"-69.69860","Snowdepth":"26.000","Units":"in","Rept_Date":"2021-02-24 12"},"coordinates":[6463,5858]},{"type":"Point","properties":{"Station_ID":"GFDN6","Station_Nam":"CHASES LAKE","Latitude":"43.75920","Longitude":"-75.29980","Snowdepth":"26.000","Units":"in","Rept_Date":"2021-02-24 11"},"coordinates":[5149,5042]},{"type":"Point","properties":{"Station_ID":"BRVN6","Station_Nam":"TRENTON FALLS","Latitude":"43.27610","Longitude":"-75.15660","Snowdepth":"26.000","Units":"in","Rept_Date":"2021-02-24 13"},"coordinates":[5182,4741]},{"type":"Point","properties":{"Station_ID":"WSWN6","Station_Nam":"WARSAW","Latitude":"42.74220","Longitude":"-78.20850","Snowdepth":"25.000","Units":"in","Rept_Date":"2021-02-24 12"},"coordinates":[4466,4409]},{"type":"Point","properties":{"Station_ID":"WPHN6","Station_Nam":"GEORGETOWN SNOW","Latitude":"42.76670","Longitude":"-75.70000","Snowdepth":"25.000","Units":"in","Rept_Date":"2021-02-24 13"},"coordinates":[5055,4424]},{"type":"Point","properties":{"Station_ID":"WPCN6","Station_Nam":"WILLET 2WNW SNOW","Latitude":"42.48330","Longitude":"-75.93330","Snowdepth":"25.000","Units":"in","Rept_Date":"2021-02-24 13"},"coordinates":[5000,4248]},{"type":"Point","properties":{"Station_ID":"VT-WR-17","Station_Nam":"ROCHESTER 2.3 NE, VT","Latitude":"43.89418","Longitude":"-72.76992","Snowdepth":"25.000","Units":"in","Rept_Date":"2021-02-24 12"},"coordinates":[5743,5126]},{"type":"Point","properties":{"Station_ID":"MI-EM-8","Station_Nam":"PETOSKEY 1.7 SSW, MI","Latitude":"45.34209","Longitude":"-84.96530","Snowdepth":"25.000","Units":"in","Rept_Date":"2021-02-24 14"},"coordinates":[2880,6027]},{"type":"Point","properties":{"Station_ID":"LPLN6","Station_Nam":"LAKE PLACID 2 S","Latitude":"44.30420","Longitude":"-73.98390","Snowdepth":"25.000","Units":"in","Rept_Date":"2021-02-24 13"},"coordinates":[5458,5381]},{"type":"Point","properties":{"Station_ID":"LBTN6","Station_Nam":"LIBERTY 1 NE","Latitude":"41.80170","Longitude":"-74.74000","Snowdepth":"25.000","Units":"in","Rept_Date":"2021-02-24 12"},"coordinates":[5280,3824]},{"type":"Point","properties":{"Station_ID":"GNLM4","Station_Nam":"GREENLAND 6N","Latitude":"46.87360","Longitude":"-89.10060","Snowdepth":"25.000","Units":"in","Rept_Date":"2021-02-24 13"},"coordinates":[1910,6980]},{"type":"Point","properties":{"Station_ID":"GHMN3","Station_Nam":"PINKHAM NOTCH","Latitude":"44.25800","Longitude":"-71.25250","Snowdepth":"25.000","Units":"in","Rept_Date":"2021-02-24 11"},"coordinates":[6099,5352]},{"type":"Point","properties":{"Station_ID":"CHRM4","Station_Nam":"CHARLEVOIX","Latitude":"45.31720","Longitude":"-85.26720","Snowdepth":"25.000","Units":"in","Rept_Date":"2021-02-24 13"},"coordinates":[2810,6011]},{"type":"Point","properties":{"Station_ID":"NY-ES-11","Station_Nam":"VERMONTVILLE 2.8 S, NY","Latitude":"44.41205","Longitude":"-74.06760","Snowdepth":"24.500","Units":"in","Rept_Date":"2021-02-24 12"},"coordinates":[5438,5448]},{"type":"Point","properties":{"Station_ID":"WHFN6","Station_Nam":"WILMINGTON 2W","Latitude":"44.39310","Longitude":"-73.85890","Snowdepth":"24.000","Units":"in","Rept_Date":"2021-02-24 13"},"coordinates":[5487,5436]},{"type":"Point","properties":{"Station_ID":"VT-WH-30","Station_Nam":"MARLBORO 2.0 NNE, VT","Latitude":"42.88484","Longitude":"-72.70935","Snowdepth":"24.000","Units":"in","Rept_Date":"2021-02-24 13"},"coordinates":[5757,4498]},{"type":"Point","properties":{"Station_ID":"RFDM1","Station_Nam":"RUMFORD 7SW","Latitude":"44.49470","Longitude":"-70.65640","Snowdepth":"24.000","Units":"in","Rept_Date":"2021-02-24 13"},"coordinates":[6239,5500]},{"type":"Point","properties":{"Station_ID":"NY-TG-15","Station_Nam":"BERKSHIRE 1.9 ENE, NY","Latitude":"42.31910","Longitude":"-76.21940","Snowdepth":"24.000","Units":"in","Rept_Date":"2021-02-24 13"},"coordinates":[4933,4146]},{"type":"Point","properties":{"Station_ID":"NY-JF-30","Station_Nam":"WEST CARTHAGE 0.3 ENE, NY","Latitude":"43.97493","Longitude":"-75.61640","Snowdepth":"24.000","Units":"in","Rept_Date":"2021-02-24 12"},"coordinates":[5075,5176]},{"type":"Point","properties":{"Station_ID":"NY-FK-9","Station_Nam":"GABRIELS 1.3 SE, NY","Latitude":"44.41934","Longitude":"-74.16194","Snowdepth":"24.000","Units":"in","Rept_Date":"2021-02-24 12"},"coordinates":[5416,5453]},{"type":"Point","properties":{"Station_ID":"NCBN6","Station_Nam":"NEWCOMB","Latitude":"43.97070","Longitude":"-74.22200","Snowdepth":"24.000","Units":"in","Rept_Date":"2021-02-24 12"},"coordinates":[5402,5174]},{"type":"Point","properties":{"Station_ID":"MRLV1","Station_Nam":"MARLBORO","Latitude":"42.86000","Longitude":"-72.72000","Snowdepth":"24.000","Units":"in","Rept_Date":"2021-02-24 13"},"coordinates":[5754,4483]},{"type":"Point","properties":{"Station_ID":"JEFV1","Station_Nam":"JEFFERSONVILLE","Latitude":"44.58430","Longitude":"-72.78700","Snowdepth":"24.000","Units":"in","Rept_Date":"2021-02-24 12"},"coordinates":[5739,5555]},{"type":"Point","properties":{"Station_ID":"ISLV1","Station_Nam":"ISLAND POND","Latitude":"44.81280","Longitude":"-71.89020","Snowdepth":"24.000","Units":"in","Rept_Date":"2021-02-24 14"},"coordinates":[5949,5697]},{"type":"Point","properties":{"Station_ID":"HERM4","Station_Nam":"HERMAN,MI","Latitude":"46.65000","Longitude":"-88.33330","Snowdepth":"24.000","Units":"in","Rept_Date":"2021-02-24 13"},"coordinates":[2090,6840]},{"type":"Point","properties":{"Station_ID":"CAN-NB-13","Station_Nam":"BATHURST 3.8 NW, CAN","Latitude":"47.64212","Longitude":"-65.68756","Snowdepth":"24.000","Units":"in","Rept_Date":"2021-02-24 11"},"coordinates":[7405,7458]},{"type":"Point","properties":{"Station_ID":"BKBW2","Station_Nam":"DAVIS.","Latitude":"39.09830","Longitude":"-79.43190","Snowdepth":"24.000","Units":"in","Rept_Date":"2021-02-24 12"},"coordinates":[4179,2142]},{"type":"Point","properties":{"Station_ID":"AVLV1","Station_Nam":"AVERILL","Latitude":"45.00570","Longitude":"-71.69030","Snowdepth":"24.000","Units":"in","Rept_Date":"2021-02-24 13"},"coordinates":[5996,5817]},{"type":"Point","properties":{"Station_ID":"CAN-ON-491","Station_Nam":"MILVERTON 1.1 ESE- CANWARN, CAN","Latitude":"43.56074","Longitude":"-80.90887","Snowdepth":"23.700","Units":"in","Rept_Date":"2021-02-24 11"},"coordinates":[3832,4918]},{"type":"Point","properties":{"Station_ID":"QTM","Station_Nam":"QTM","Latitude":"51.05780","Longitude":"-72.57190","Snowdepth":"23.071","Units":"in","Rept_Date":"2021-02-24 12"},"coordinates":[5789,9583]},{"type":"Point","properties":{"Station_ID":"VT-OL-1","Station_Nam":"WESTFIELD 0.7 WNW, VT","Latitude":"44.89160","Longitude":"-72.44350","Snowdepth":"23.000","Units":"in","Rept_Date":"2021-02-24 12"},"coordinates":[5819,5746]},{"type":"Point","properties":{"Station_ID":"PTBN3","Station_Nam":"PITTSBURG RESERVOIR","Latitude":"45.04690","Longitude":"-71.38300","Snowdepth":"23.000","Units":"in","Rept_Date":"2021-02-24 12"},"coordinates":[6068,5843]},{"type":"Point","properties":{"Station_ID":"NY-ER-63","Station_Nam":"GLENWOOD 1.5 SE, NY","Latitude":"42.60195","Longitude":"-78.63910","Snowdepth":"23.000","Units":"in","Rept_Date":"2021-02-24 13"},"coordinates":[4365,4322]},{"type":"Point","properties":{"Station_ID":"NH-CR-26","Station_Nam":"CENTER SANDWICH 4.9 E, NH","Latitude":"43.80976","Longitude":"-71.34150","Snowdepth":"23.000","Units":"in","Rept_Date":"2021-02-24 11"},"coordinates":[6078,5073]},{"type":"Point","properties":{"Station_ID":"FISM1","Station_Nam":"FORT KENT COOP","Latitude":"47.23850","Longitude":"-68.61240","Snowdepth":"23.000","Units":"in","Rept_Date":"2021-02-24 12"},"coordinates":[6718,7207]},{"type":"Point","properties":{"Station_ID":"ESDN3","Station_Nam":"EAST SANDWICH","Latitude":"43.80990","Longitude":"-71.34250","Snowdepth":"23.000","Units":"in","Rept_Date":"2021-02-24 11"},"coordinates":[6078,5074]},{"type":"Point","properties":{"Station_ID":"CAN-QC-56","Station_Nam":"SUTTON 2.6 N, CAN","Latitude":"45.13119","Longitude":"-72.61218","Snowdepth":"23.000","Units":"in","Rept_Date":"2021-02-24 12"},"coordinates":[5780,5896]},{"type":"Point","properties":{"Station_ID":"CAN-ON-245","Station_Nam":"PHELPSTON 3.1 ESE, CAN","Latitude":"44.50564","Longitude":"-79.81035","Snowdepth":"23.000","Units":"in","Rept_Date":"2021-02-24 12"},"coordinates":[4090,5506]},{"type":"Point","properties":{"Station_ID":"CAN-NS-39","Station_Nam":"ST. ANNS 2.8 NW, CA","Latitude":"46.25082","Longitude":"-60.64340","Snowdepth":"23.000","Units":"in","Rept_Date":"2021-02-24 12"},"coordinates":[8589,6592]},{"type":"Point","properties":{"Station_ID":"QFT","Station_Nam":"QFT","Latitude":"50.83280","Longitude":"-74.40390","Snowdepth":"22.913","Units":"in","Rept_Date":"2021-02-24 12"},"coordinates":[5359,9443]},{"type":"Point","properties":{"Station_ID":"MI-BG-3","Station_Nam":"THREE LAKES, MI","Latitude":"46.55730","Longitude":"-88.20770","Snowdepth":"22.800","Units":"in","Rept_Date":"2021-02-24 13"},"coordinates":[2119,6783]},{"type":"Point","properties":{"Station_ID":"CAN-NB-98","Station_Nam":"HOYT 4.2 S, CAN","Latitude":"45.54763","Longitude":"-66.55440","Snowdepth":"22.600","Units":"in","Rept_Date":"2021-02-24 11"},"coordinates":[7201,6155]},{"type":"Point","properties":{"Station_ID":"VT-WR-2","Station_Nam":"POMFRET 2.6 N, VT","Latitude":"43.74230","Longitude":"-72.52550","Snowdepth":"22.500","Units":"in","Rept_Date":"2021-02-24 12"},"coordinates":[5800,5031]},{"type":"Point","properties":{"Station_ID":"ME-AR-18","Station_Nam":"NEW SWEDEN 4.9 NNW, ME","Latitude":"47.01080","Longitude":"-68.14390","Snowdepth":"22.500","Units":"in","Rept_Date":"2021-02-24 12"},"coordinates":[6828,7065]},{"type":"Point","properties":{"Station_ID":"CAN-QC-51","Station_Nam":"BELOEIL 0.7 NW, CAN","Latitude":"45.58049","Longitude":"-73.21218","Snowdepth":"22.500","Units":"in","Rept_Date":"2021-02-24 12"},"coordinates":[5639,6175]},{"type":"Point","properties":{"Station_ID":"CAN-NB-97","Station_Nam":"NEW MARYLAND 0.6 NW, CAN","Latitude":"45.90112","Longitude":"-66.68739","Snowdepth":"22.400","Units":"in","Rept_Date":"2021-02-24 12"},"coordinates":[7170,6375]},{"type":"Point","properties":{"Station_ID":"WRSN6","Station_Nam":"WARSAW 6SW","Latitude":"42.68550","Longitude":"-78.22020","Snowdepth":"22.000","Units":"in","Rept_Date":"2021-02-24 12"},"coordinates":[4463,4374]},{"type":"Point","properties":{"Station_ID":"WAIV1","Station_Nam":"WAITSFIELD","Latitude":"44.17560","Longitude":"-72.79610","Snowdepth":"22.000","Units":"in","Rept_Date":"2021-02-24 12"},"coordinates":[5736,5301]},{"type":"Point","properties":{"Station_ID":"VT-WS-30","Station_Nam":"WOODBURY 3.4 NNW, VT","Latitude":"44.48825","Longitude":"-72.43258","Snowdepth":"22.000","Units":"in","Rept_Date":"2021-02-24 12"},"coordinates":[5822,5496]},{"type":"Point","properties":{"Station_ID":"VT-WS-11","Station_Nam":"WAITSFIELD 1.8 SE, VT","Latitude":"44.17551","Longitude":"-72.79540","Snowdepth":"22.000","Units":"in","Rept_Date":"2021-02-24 12"},"coordinates":[5737,5301]},{"type":"Point","properties":{"Station_ID":"VT-WR-10","Station_Nam":"WEST WINDSOR 1.7 S, VT","Latitude":"43.46164","Longitude":"-72.49197","Snowdepth":"22.000","Units":"in","Rept_Date":"2021-02-24 12"},"coordinates":[5808,4857]},{"type":"Point","properties":{"Station_ID":"NY-SR-22","Station_Nam":"GREENFIELD CENTER 1.6 W, NY","Latitude":"43.12684","Longitude":"-73.87860","Snowdepth":"22.000","Units":"in","Rept_Date":"2021-02-24 14"},"coordinates":[5482,4649]},{"type":"Point","properties":{"Station_ID":"NY-MD-10","Station_Nam":"CAZENOVIA 2.9 SE, NY","Latitude":"42.90003","Longitude":"-75.81140","Snowdepth":"22.000","Units":"in","Rept_Date":"2021-02-24 12"},"coordinates":[5029,4507]},{"type":"Point","properties":{"Station_ID":"NY-FK-7","Station_Nam":"SARANAC LAKE 6.2 N, NY","Latitude":"44.41359","Longitude":"-74.15211","Snowdepth":"22.000","Units":"in","Rept_Date":"2021-02-24 12"},"coordinates":[5418,5449]},{"type":"Point","properties":{"Station_ID":"NY-ES-6","Station_Nam":"OLMSTEDVILLE 4.6 NNE, NY","Latitude":"43.83350","Longitude":"-73.89780","Snowdepth":"22.000","Units":"in","Rept_Date":"2021-02-24 13"},"coordinates":[5478,5088]},{"type":"Point","properties":{"Station_ID":"NY-DL-23","Station_Nam":"LONG EDDY 6.5 NNE, NY","Latitude":"41.93510","Longitude":"-75.07840","Snowdepth":"22.000","Units":"in","Rept_Date":"2021-02-24 13"},"coordinates":[5201,3907]},{"type":"Point","properties":{"Station_ID":"NY-CR-1","Station_Nam":"FREETOWN 1.0 NE, NY","Latitude":"42.53299","Longitude":"-76.02111","Snowdepth":"22.000","Units":"in","Rept_Date":"2021-02-24 12"},"coordinates":[4980,4279]},{"type":"Point","properties":{"Station_ID":"IL-CK-211","Station_Nam":"OAK LAWN 1.6 WNW, IL","Latitude":"41.72686","Longitude":"-87.77770","Snowdepth":"22.000","Units":"in","Rept_Date":"2021-02-24 14"},"coordinates":[2220,3778]},{"type":"Point","properties":{"Station_ID":"HURW3","Station_Nam":"HURLEY","Latitude":"46.46250","Longitude":"-90.19550","Snowdepth":"22.000","Units":"in","Rept_Date":"2021-02-24 14"},"coordinates":[1653,6724]},{"type":"Point","properties":{"Station_ID":"CAN-NB-18","Station_Nam":"MCLEOD HILL 1.1 ENE, CA","Latitude":"46.02725","Longitude":"-66.67460","Snowdepth":"22.000","Units":"in","Rept_Date":"2021-02-24 12"},"coordinates":[7173,6453]},{"type":"Point","properties":{"Station_ID":"ANJM4","Station_Nam":"SNOW PAID OBSERVER FOR KANJ","Latitude":"46.48670","Longitude":"-84.40260","Snowdepth":"22.000","Units":"in","Rept_Date":"2021-02-25 06"},"coordinates":[3013,6739]},{"type":"Point","properties":{"Station_ID":"ANJ","Station_Nam":"SAULT STE MARIE","Latitude":"46.46670","Longitude":"-84.36670","Snowdepth":"22.000","Units":"in","Rept_Date":"2021-02-25 00"},"coordinates":[3021,6726]},{"type":"Point","properties":{"Station_ID":"VT-WS-33","Station_Nam":"WAITSFIELD 3.5 WNW, VT","Latitude":"44.20052","Longitude":"-72.89421","Snowdepth":"21.500","Units":"in","Rept_Date":"2021-02-24 13"},"coordinates":[5713,5317]},{"type":"Point","properties":{"Station_ID":"PA-MN-16","Station_Nam":"MOUNT POCONO 0.7 N, PA","Latitude":"41.13190","Longitude":"-75.35804","Snowdepth":"21.500","Units":"in","Rept_Date":"2021-02-24 12"},"coordinates":[5135,3407]},{"type":"Point","properties":{"Station_ID":"NY-OT-31","Station_Nam":"MARYLAND 1.8 W, NY","Latitude":"42.53310","Longitude":"-74.92090","Snowdepth":"21.500","Units":"in","Rept_Date":"2021-02-24 13"},"coordinates":[5238,4279]},{"type":"Point","properties":{"Station_ID":"NJ-SS-54","Station_Nam":"SPARTA TWP 3.6 SSW, NJ","Latitude":"41.00503","Longitude":"-74.66358","Snowdepth":"21.500","Units":"in","Rept_Date":"2021-02-24 12"},"coordinates":[5298,3328]},{"type":"Point","properties":{"Station_ID":"NH-MR-41","Station_Nam":"NEWBURY 1.6 NW, NH","Latitude":"43.33667","Longitude":"-72.06060","Snowdepth":"21.500","Units":"in","Rept_Date":"2021-02-24 12"},"coordinates":[5909,4779]},{"type":"Point","properties":{"Station_ID":"MI-SH-1","Station_Nam":"MANISTIQUE 2.7 NW, MI","Latitude":"45.99042","Longitude":"-86.28266","Snowdepth":"21.500","Units":"in","Rept_Date":"2021-02-24 11"},"coordinates":[2571,6430]},{"type":"Point","properties":{"Station_ID":"MA-HS-7","Station_Nam":"PLAINFIELD 2.2 SW, MA","Latitude":"42.49272","Longitude":"-72.94540","Snowdepth":"21.500","Units":"in","Rept_Date":"2021-02-24 13"},"coordinates":[5701,4254]},{"type":"Point","properties":{"Station_ID":"CAN-QC-47","Station_Nam":"SAINTE-FOY 1.8 ENE, CAN","Latitude":"46.76934","Longitude":"-71.27124","Snowdepth":"21.500","Units":"in","Rept_Date":"2021-02-24 12"},"coordinates":[6094,6915]},{"type":"Point","properties":{"Station_ID":"QWE","Station_Nam":"QWE","Latitude":"47.84610","Longitude":"-73.80670","Snowdepth":"21.024","Units":"in","Rept_Date":"2021-02-24 12"},"coordinates":[5499,7585]},{"type":"Point","properties":{"Station_ID":"VT-AD-20","Station_Nam":"HANCOCK 0.3 S, VT","Latitude":"43.92166","Longitude":"-72.84042","Snowdepth":"21.000","Units":"in","Rept_Date":"2021-02-24 12"},"coordinates":[5726,5143]},{"type":"Point","properties":{"Station_ID":"NH-CS-4","Station_Nam":"PITTSBURG 6.1 NE, NH","Latitude":"45.11060","Longitude":"-71.29760","Snowdepth":"21.000","Units":"in","Rept_Date":"2021-02-24 12"},"coordinates":[6088,5883]},{"type":"Point","properties":{"Station_ID":"MQT","Station_Nam":"MARQUETTE, MI","Latitude":"46.53140","Longitude":"-87.54920","Snowdepth":"21.000","Units":"in","Rept_Date":"2021-02-25 06"},"coordinates":[2274,6767]},{"type":"Point","properties":{"Station_ID":"ME-FR-22","Station_Nam":"FARMINGTON 4.8 NNW, ME","Latitude":"44.73396","Longitude":"-70.18007","Snowdepth":"21.000","Units":"in","Rept_Date":"2021-02-24 14"},"coordinates":[6350,5648]},{"type":"Point","properties":{"Station_ID":"MALN6","Station_Nam":"MALONE","Latitude":"44.84180","Longitude":"-74.30600","Snowdepth":"21.000","Units":"in","Rept_Date":"2021-02-24 12"},"coordinates":[5382,5715]},{"type":"Point","properties":{"Station_ID":"LVRM1","Station_Nam":"LIVERMORE FALLS 1 E","Latitude":"44.47160","Longitude":"-70.15940","Snowdepth":"21.000","Units":"in","Rept_Date":"2021-02-24 12"},"coordinates":[6355,5485]},{"type":"Point","properties":{"Station_ID":"LAUP1","Station_Nam":"1.5MI S OF RT 30 ON SMIT (LAUREL RIDGE)","Latitude":"40.05000","Longitude":"-79.22060","Snowdepth":"21.000","Units":"in","Rept_Date":"2021-02-24 12"},"coordinates":[4229,2734]},{"type":"Point","properties":{"Station_ID":"CAN-NB-64","Station_Nam":"KESWICK RIDGE 4.0 SE, CAN","Latitude":"45.97014","Longitude":"-66.85538","Snowdepth":"21.000","Units":"in","Rept_Date":"2021-02-24 13"},"coordinates":[7131,6417]},{"type":"Point","properties":{"Station_ID":"CAN-NB-105","Station_Nam":"SISSON BROOK 3.8 E, CAN","Latitude":"46.98305","Longitude":"-67.32532","Snowdepth":"20.900","Units":"in","Rept_Date":"2021-02-24 12"},"coordinates":[7020,7048]},{"type":"Point","properties":{"Station_ID":"QOU","Station_Nam":"QOU","Latitude":"50.79250","Longitude":"-69.67470","Snowdepth":"20.827","Units":"in","Rept_Date":"2021-02-24 12"},"coordinates":[6469,9418]},{"type":"Point","properties":{"Station_ID":"MLZ","Station_Nam":"MLZ","Latitude":"50.66170","Longitude":"-68.82360","Snowdepth":"20.630","Units":"in","Rept_Date":"2021-02-24 12"},"coordinates":[6669,9336]},{"type":"Point","properties":{"Station_ID":"VT-WS-7","Station_Nam":"MIDDLESEX 3.1 ENE, VT","Latitude":"44.31799","Longitude":"-72.62650","Snowdepth":"20.500","Units":"in","Rept_Date":"2021-02-24 13"},"coordinates":[5776,5390]},{"type":"Point","properties":{"Station_ID":"VT-WS-19","Station_Nam":"WATERBURY 3.0 NW, VT","Latitude":"44.36060","Longitude":"-72.80770","Snowdepth":"20.500","Units":"in","Rept_Date":"2021-02-24 11"},"coordinates":[5734,5416]},{"type":"Point","properties":{"Station_ID":"CAN-NL-82","Station_Nam":"GANDER 2.7 NW, CAN","Latitude":"48.97737","Longitude":"-54.63396","Snowdepth":"20.500","Units":"in","Rept_Date":"2021-02-24 10"},"coordinates":[9999,8288]},{"type":"Point","properties":{"Station_ID":"CAN-ON-791","Station_Nam":"METCALFE 4.4 NNW, CAN","Latitude":"45.27286","Longitude":"-75.48952","Snowdepth":"20.300","Units":"in","Rept_Date":"2021-02-24 11"},"coordinates":[5104,5984]},{"type":"Point","properties":{"Station_ID":"QCO","Station_Nam":"QCO","Latitude":"51.45280","Longitude":"-72.20110","Snowdepth":"20.157","Units":"in","Rept_Date":"2021-02-24 12"},"coordinates":[5876,9828]},{"type":"Point","properties":{"Station_ID":"WORV1","Station_Nam":"WORCESTER 2 W","Latitude":"44.37470","Longitude":"-72.58220","Snowdepth":"20.000","Units":"in","Rept_Date":"2021-02-24 12"},"coordinates":[5787,5425]},{"type":"Point","properties":{"Station_ID":"WI-MW-14","Station_Nam":"MILWAUKEE 3.6 NNW, WI","Latitude":"43.11300","Longitude":"-87.98730","Snowdepth":"20.000","Units":"in","Rept_Date":"2021-02-24 11"},"coordinates":[2171,4640]},{"type":"Point","properties":{"Station_ID":"VT-WS-23","Station_Nam":"CABOT 2.3 E, VT","Latitude":"44.39807","Longitude":"-72.26570","Snowdepth":"20.000","Units":"in","Rept_Date":"2021-02-24 12"},"coordinates":[5861,5439]},{"type":"Point","properties":{"Station_ID":"VT-WH-19","Station_Nam":"EAST DOVER 1.8 N, VT","Latitude":"42.97658","Longitude":"-72.77637","Snowdepth":"20.000","Units":"in","Rept_Date":"2021-02-24 12"},"coordinates":[5741,4555]},{"type":"Point","properties":{"Station_ID":"VT-OL-9","Station_Nam":"GREENSBORO 2.1 NNW, VT","Latitude":"44.60528","Longitude":"-72.30940","Snowdepth":"20.000","Units":"in","Rept_Date":"2021-02-24 12"},"coordinates":[5851,5568]},{"type":"Point","properties":{"Station_ID":"VT-CH-4","Station_Nam":"UNDERHILL 4.4 NNE, VT","Latitude":"44.58774","Longitude":"-72.92250","Snowdepth":"20.000","Units":"in","Rept_Date":"2021-02-24 12"},"coordinates":[5707,5557]},{"type":"Point","properties":{"Station_ID":"SUTV1","Station_Nam":"SUTTON","Latitude":"44.61220","Longitude":"-72.04810","Snowdepth":"20.000","Units":"in","Rept_Date":"2021-02-24 13"},"coordinates":[5912,5573]},{"type":"Point","properties":{"Station_ID":"SSMM4","Station_Nam":"SAULT STE MARIE","Latitude":"46.48660","Longitude":"-84.40250","Snowdepth":"20.000","Units":"in","Rept_Date":"2021-02-24 13"},"coordinates":[3013,6739]},{"type":"Point","properties":{"Station_ID":"SPRP1","Station_Nam":"SPRINGTOWN 1 NNE","Latitude":"40.57110","Longitude":"-75.27810","Snowdepth":"20.000","Units":"in","Rept_Date":"2021-02-24 12"},"coordinates":[5154,3059]},{"type":"Point","properties":{"Station_ID":"SNOW2","Station_Nam":"SNOWSHOE","Latitude":"38.39900","Longitude":"-79.99490","Snowdepth":"20.000","Units":"in","Rept_Date":"2021-02-24 11"},"coordinates":[4047,1707]},{"type":"Point","properties":{"Station_ID":"RKHN6","Station_Nam":"ROCK HILL 3 SW","Latitude":"41.59170","Longitude":"-74.61410","Snowdepth":"20.000","Units":"in","Rept_Date":"2021-02-24 12"},"coordinates":[5310,3693]},{"type":"Point","properties":{"Station_ID":"PLEP1","Station_Nam":"PLEASANT MOUNT 1 W","Latitude":"41.73940","Longitude":"-75.44650","Snowdepth":"20.000","Units":"in","Rept_Date":"2021-02-24 14"},"coordinates":[5114,3785]},{"type":"Point","properties":{"Station_ID":"NUNV1","Station_Nam":"NORTH UNDERHILL","Latitude":"44.58760","Longitude":"-72.92150","Snowdepth":"20.000","Units":"in","Rept_Date":"2021-02-24 12"},"coordinates":[5707,5557]},{"type":"Point","properties":{"Station_ID":"NFKC3","Station_Nam":"NORFOLK","Latitude":"41.97250","Longitude":"-73.22080","Snowdepth":"20.000","Units":"in","Rept_Date":"2021-02-24 13"},"coordinates":[5637,3930]},{"type":"Point","properties":{"Station_ID":"LNOW3","Station_Nam":"LAND O LAKES","Latitude":"46.19000","Longitude":"-89.45700","Snowdepth":"20.000","Units":"in","Rept_Date":"2021-02-24 13"},"coordinates":[1826,6554]},{"type":"Point","properties":{"Station_ID":"LNCM1","Station_Nam":"LINCOLN WATER DISTRICT","Latitude":"45.32410","Longitude":"-68.58300","Snowdepth":"20.000","Units":"in","Rept_Date":"2021-02-24 12"},"coordinates":[6725,6016]},{"type":"Point","properties":{"Station_ID":"KINM1","Station_Nam":"KINGFIELD","Latitude":"44.95950","Longitude":"-70.17530","Snowdepth":"20.000","Units":"in","Rept_Date":"2021-02-24 13"},"coordinates":[6352,5789]},{"type":"Point","properties":{"Station_ID":"IWOM4","Station_Nam":"IRONWOOD#2","Latitude":"46.46520","Longitude":"-90.13820","Snowdepth":"20.000","Units":"in","Rept_Date":"2021-02-24 13"},"coordinates":[1666,6725]},{"type":"Point","properties":{"Station_ID":"INDN6","Station_Nam":"INDIAN LAKE","Latitude":"43.75500","Longitude":"-74.27560","Snowdepth":"20.000","Units":"in","Rept_Date":"2021-02-24 12"},"coordinates":[5389,5039]},{"type":"Point","properties":{"Station_ID":"IL-CK-12","Station_Nam":"BRIDGEVIEW 1.3 NNW, IL","Latitude":"41.75502","Longitude":"-87.81730","Snowdepth":"20.000","Units":"in","Rept_Date":"2021-02-24 13"},"coordinates":[2211,3795]},{"type":"Point","properties":{"Station_ID":"HVJP1","Station_Nam":"HIDDEN VALLEY COOP","Latitude":"40.04200","Longitude":"-79.25660","Snowdepth":"20.000","Units":"in","Rept_Date":"2021-02-24 13"},"coordinates":[4220,2729]},{"type":"Point","properties":{"Station_ID":"HRTM1","Station_Nam":"HARTFORD","Latitude":"44.37440","Longitude":"-70.31620","Snowdepth":"20.000","Units":"in","Rept_Date":"2021-02-24 12"},"coordinates":[6318,5425]},{"type":"Point","properties":{"Station_ID":"COVP1","Station_Nam":"COVINGTON 2WSW","Latitude":"41.73330","Longitude":"-77.11670","Snowdepth":"20.000","Units":"in","Rept_Date":"2021-02-24 11"},"coordinates":[4722,3782]},{"type":"Point","properties":{"Station_ID":"CLKM4","Station_Nam":"CLARKSBURG","Latitude":"46.49910","Longitude":"-87.84500","Snowdepth":"20.000","Units":"in","Rept_Date":"2021-02-24 12"},"coordinates":[2205,6747]},{"type":"Point","properties":{"Station_ID":"CCON6","Station_Nam":"CALLICOON CENTER","Latitude":"41.82750","Longitude":"-74.95060","Snowdepth":"20.000","Units":"in","Rept_Date":"2021-02-24 13"},"coordinates":[5231,3840]},{"type":"Point","properties":{"Station_ID":"BDIP1","Station_Nam":"GERMANIA 1 SNOW","Latitude":"41.65000","Longitude":"-77.66670","Snowdepth":"20.000","Units":"in","Rept_Date":"2021-02-24 18"},"coordinates":[4593,3730]},{"type":"Point","properties":{"Station_ID":"38.3990_079.9949","Station_Nam":"SNOWSHOE  CO-OP OBSERVER (X3840800)","Latitude":"38.39900","Longitude":"-79.99490","Snowdepth":"20.000","Units":"in","Rept_Date":"2021-02-24 11"},"coordinates":[4047,1707]},{"type":"Point","properties":{"Station_ID":"WI-LN-7","Station_Nam":"TOMAHAWK 1.2 SSW, WI","Latitude":"45.45760","Longitude":"-89.73248","Snowdepth":"19.800","Units":"in","Rept_Date":"2021-02-24 13"},"coordinates":[1762,6099]},{"type":"Point","properties":{"Station_ID":"CAN-NB-96","Station_Nam":"SAINT-IGNACE 2.6 NE, CAN","Latitude":"46.71424","Longitude":"-65.05609","Snowdepth":"19.700","Units":"in","Rept_Date":"2021-02-24 11"},"coordinates":[7553,6880]},{"type":"Point","properties":{"Station_ID":"WI-VL-9","Station_Nam":"LAND O' LAKES 11.7 W, WI","Latitude":"46.19023","Longitude":"-89.45790","Snowdepth":"19.500","Units":"in","Rept_Date":"2021-02-24 13"},"coordinates":[1826,6554]},{"type":"Point","properties":{"Station_ID":"WI-PR-6","Station_Nam":"PHILLIPS 1.3 S, WI","Latitude":"45.67677","Longitude":"-90.39543","Snowdepth":"19.500","Units":"in","Rept_Date":"2021-02-24 12"},"coordinates":[1606,6235]},{"type":"Point","properties":{"Station_ID":"NY-CR-5","Station_Nam":"MARATHON 1.0 NW, NY","Latitude":"42.45161","Longitude":"-76.04370","Snowdepth":"19.500","Units":"in","Rept_Date":"2021-02-24 12"},"coordinates":[4974,4228]},{"type":"Point","properties":{"Station_ID":"NH-CS-19","Station_Nam":"CARROLL 4.6 NE, NH","Latitude":"44.33765","Longitude":"-71.46461","Snowdepth":"19.500","Units":"in","Rept_Date":"2021-02-24 12"},"coordinates":[6049,5402]},{"type":"Point","properties":{"Station_ID":"NH-CR-41","Station_Nam":"ALBANY 2.8 SW, NH","Latitude":"43.92648","Longitude":"-71.21556","Snowdepth":"19.500","Units":"in","Rept_Date":"2021-02-24 13"},"coordinates":[6107,5146]},{"type":"Point","properties":{"Station_ID":"MI-MQ-28","Station_Nam":"CARLSHEND, MI","Latitude":"46.31638","Longitude":"-87.19944","Snowdepth":"19.500","Units":"in","Rept_Date":"2021-02-24 13"},"coordinates":[2356,6633]},{"type":"Point","properties":{"Station_ID":"CAN-ON-42","Station_Nam":"VANKLEEK HILL 3.4 S, CA","Latitude":"45.48987","Longitude":"-74.64570","Snowdepth":"19.500","Units":"in","Rept_Date":"2021-02-24 12"},"coordinates":[5302,6119]},{"type":"Point","properties":{"Station_ID":"OGIQ6","Station_Nam":"OGOKI CAMP","Latitude":"50.76680","Longitude":"-87.85820","Snowdepth":"19.250","Units":"in","Rept_Date":"2021-02-25 06"},"coordinates":[2202,9402]},{"type":"Point","properties":{"Station_ID":"WTNM4","Station_Nam":"WATTON 2WSW","Latitude":"46.52660","Longitude":"-88.64240","Snowdepth":"19.000","Units":"in","Rept_Date":"2021-02-24 13"},"coordinates":[2017,6764]},{"type":"Point","properties":{"Station_ID":"VT-WS-10","Station_Nam":"NORTHFIELD 1.5 N, VT","Latitude":"44.16986","Longitude":"-72.65200","Snowdepth":"19.000","Units":"in","Rept_Date":"2021-02-24 12"},"coordinates":[5770,5297]},{"type":"Point","properties":{"Station_ID":"VT-OL-25","Station_Nam":"NEWPORT 1.5 WSW, VT","Latitude":"44.93059","Longitude":"-72.23731","Snowdepth":"19.000","Units":"in","Rept_Date":"2021-02-24 12"},"coordinates":[5868,5771]},{"type":"Point","properties":{"Station_ID":"VT-ES-3","Station_Nam":"LUNENBURG 2.3 NNW, VT","Latitude":"44.49324","Longitude":"-71.70446","Snowdepth":"19.000","Units":"in","Rept_Date":"2021-02-24 11"},"coordinates":[5993,5499]},{"type":"Point","properties":{"Station_ID":"TOPN6","Station_Nam":"TUPPER LAKE SUNMOUNT","Latitude":"44.23070","Longitude":"-74.43820","Snowdepth":"19.000","Units":"in","Rept_Date":"2021-02-24 12"},"coordinates":[5351,5335]},{"type":"Point","properties":{"Station_ID":"TOPM1","Station_Nam":"TOPSFIELD","Latitude":"45.43470","Longitude":"-67.72020","Snowdepth":"19.000","Units":"in","Rept_Date":"2021-02-24 12"},"coordinates":[6928,6084]},{"type":"Point","properties":{"Station_ID":"STEM4","Station_Nam":"STEUBEN","Latitude":"46.18530","Longitude":"-86.46410","Snowdepth":"19.000","Units":"in","Rept_Date":"2021-02-24 14"},"coordinates":[2529,6551]},{"type":"Point","properties":{"Station_ID":"SLNV1","Station_Nam":"SOUTH LINCOLN","Latitude":"44.07460","Longitude":"-72.97180","Snowdepth":"19.000","Units":"in","Rept_Date":"2021-02-24 12"},"coordinates":[5695,5238]},{"type":"Point","properties":{"Station_ID":"RANM1","Station_Nam":"RANGELEY","Latitude":"44.98910","Longitude":"-70.67190","Snowdepth":"19.000","Units":"in","Rept_Date":"2021-02-24 11"},"coordinates":[6235,5807]},{"type":"Point","properties":{"Station_ID":"PRDM4","Station_Nam":"PARADISE","Latitude":"46.60380","Longitude":"-85.03960","Snowdepth":"19.000","Units":"in","Rept_Date":"2021-02-24 11"},"coordinates":[2863,6812]},{"type":"Point","properties":{"Station_ID":"PA-PK-22","Station_Nam":"MILFORD 8.7 NW, PA","Latitude":"41.42018","Longitude":"-74.90953","Snowdepth":"19.000","Units":"in","Rept_Date":"2021-02-24 12"},"coordinates":[5240,3587]},{"type":"Point","properties":{"Station_ID":"NWSM1","Station_Nam":"NEW SHARON","Latitude":"44.63520","Longitude":"-70.00020","Snowdepth":"19.000","Units":"in","Rept_Date":"2021-02-24 12"},"coordinates":[6393,5587]},{"type":"Point","properties":{"Station_ID":"NJ-SS-60","Station_Nam":"VERNON TWP 2.7 SSE, NJ","Latitude":"41.16332","Longitude":"-74.45938","Snowdepth":"19.000","Units":"in","Rept_Date":"2021-02-24 11"},"coordinates":[5346,3427]},{"type":"Point","properties":{"Station_ID":"NJ-MS-4","Station_Nam":"ROCKAWAY TWP 0.7 NE, NJ","Latitude":"40.96583","Longitude":"-74.48780","Snowdepth":"19.000","Units":"in","Rept_Date":"2021-02-24 13"},"coordinates":[5339,3304]},{"type":"Point","properties":{"Station_ID":"NH-CR-11","Station_Nam":"NORTH CONWAY 1.4 SSW, NH","Latitude":"44.03556","Longitude":"-71.14010","Snowdepth":"19.000","Units":"in","Rept_Date":"2021-02-24 12"},"coordinates":[6125,5214]},{"type":"Point","properties":{"Station_ID":"MONW3","Station_Nam":"MONROE,WI","Latitude":"42.60000","Longitude":"-89.66670","Snowdepth":"19.000","Units":"in","Rept_Date":"2021-02-24 13"},"coordinates":[1777,4321]},{"type":"Point","properties":{"Station_ID":"MOLW3","Station_Nam":"MOLE LAKE","Latitude":"45.48470","Longitude":"-88.96500","Snowdepth":"19.000","Units":"in","Rept_Date":"2021-02-24 14"},"coordinates":[1942,6115]},{"type":"Point","properties":{"Station_ID":"MIEM4","Station_Nam":"MICHIGAMME 3WNW","Latitude":"46.54530","Longitude":"-88.18000","Snowdepth":"19.000","Units":"in","Rept_Date":"2021-02-24 13"},"coordinates":[2126,6775]},{"type":"Point","properties":{"Station_ID":"MI-CP-14","Station_Nam":"SAULT STE. MARIE 2.2 E, MI","Latitude":"46.48933","Longitude":"-84.31971","Snowdepth":"19.000","Units":"in","Rept_Date":"2021-02-24 13"},"coordinates":[3032,6740]},{"type":"Point","properties":{"Station_ID":"MI-AG-6","Station_Nam":"MUNISING 11.1 SSW, MI","Latitude":"46.27805","Longitude":"-86.75747","Snowdepth":"19.000","Units":"in","Rept_Date":"2021-02-24 12"},"coordinates":[2460,6609]},{"type":"Point","properties":{"Station_ID":"MECN6","Station_Nam":"MECKLENBURG 4 SW","Latitude":"42.44220","Longitude":"-76.75740","Snowdepth":"19.000","Units":"in","Rept_Date":"2021-02-24 12"},"coordinates":[4807,4223]},{"type":"Point","properties":{"Station_ID":"ME-FR-4","Station_Nam":"NEW SHARON 2.0 NW, ME","Latitude":"44.66582","Longitude":"-70.02720","Snowdepth":"19.000","Units":"in","Rept_Date":"2021-02-24 12"},"coordinates":[6386,5606]},{"type":"Point","properties":{"Station_ID":"LOWN6","Station_Nam":"LOWVILLE","Latitude":"43.79280","Longitude":"-75.48290","Snowdepth":"19.000","Units":"in","Rept_Date":"2021-02-24 12"},"coordinates":[5106,5063]},{"type":"Point","properties":{"Station_ID":"HUBN3","Station_Nam":"HUBBARD BROOK","Latitude":"43.93330","Longitude":"-71.71670","Snowdepth":"19.000","Units":"in","Rept_Date":"2021-02-25 06"},"coordinates":[5990,5150]},{"type":"Point","properties":{"Station_ID":"HGHN4","Station_Nam":"HIGHLAND LAKES 1SW","Latitude":"41.16330","Longitude":"-74.45930","Snowdepth":"19.000","Units":"in","Rept_Date":"2021-02-24 11"},"coordinates":[5346,3427]},{"type":"Point","properties":{"Station_ID":"FARM1","Station_Nam":"FARMINGTON","Latitude":"44.68930","Longitude":"-70.15640","Snowdepth":"19.000","Units":"in","Rept_Date":"2021-02-24 12"},"coordinates":[6356,5621]},{"type":"Point","properties":{"Station_ID":"ESGM1","Station_Nam":"EAST SANGERVILLE","Latitude":"45.13690","Longitude":"-69.28060","Snowdepth":"19.000","Units":"in","Rept_Date":"2021-02-24 12"},"coordinates":[6562,5899]},{"type":"Point","properties":{"Station_ID":"CLQM5","Station_Nam":"CLOQUET","Latitude":"46.70470","Longitude":"-92.52530","Snowdepth":"19.000","Units":"in","Rept_Date":"2021-02-24 14"},"coordinates":[1106,6874]},{"type":"Point","properties":{"Station_ID":"CARM1","Station_Nam":"CARIBOU WFO","Latitude":"46.86810","Longitude":"-68.01250","Snowdepth":"19.000","Units":"in","Rept_Date":"2021-02-25 05"},"coordinates":[6859,6976]},{"type":"Point","properties":{"Station_ID":"CAR","Station_Nam":"CARIBOU, ME","Latitude":"46.86830","Longitude":"-68.01360","Snowdepth":"19.000","Units":"in","Rept_Date":"2021-02-24 12"},"coordinates":[6859,6976]},{"type":"Point","properties":{"Station_ID":"CAN-ON-208","Station_Nam":"PAKENHAM 7.8 NNW, CAN","Latitude":"45.39166","Longitude":"-76.34111","Snowdepth":"19.000","Units":"in","Rept_Date":"2021-02-24 12"},"coordinates":[4904,6058]},{"type":"Point","properties":{"Station_ID":"CAN-ON-757","Station_Nam":"SAULT STE. MARIE 2.8 ESE - GLFC, CAN","Latitude":"46.50300","Longitude":"-84.30300","Snowdepth":"18.700","Units":"in","Rept_Date":"2021-02-24 13"},"coordinates":[3036,6749]},{"type":"Point","properties":{"Station_ID":"WI-RC-3","Station_Nam":"RACINE 2.3 WSW, WI","Latitude":"42.71124","Longitude":"-87.84570","Snowdepth":"18.500","Units":"in","Rept_Date":"2021-02-24 13"},"coordinates":[2204,4390]},{"type":"Point","properties":{"Station_ID":"VT-CL-18","Station_Nam":"WHEELOCK 1.6 S, VT","Latitude":"44.56491","Longitude":"-72.08830","Snowdepth":"18.500","Units":"in","Rept_Date":"2021-02-24 12"},"coordinates":[5903,5543]},{"type":"Point","properties":{"Station_ID":"WYON6","Station_Nam":"WYOMING 3W","Latitude":"42.82020","Longitude":"-78.14780","Snowdepth":"18.000","Units":"in","Rept_Date":"2021-02-24 12"},"coordinates":[4480,4458]},{"type":"Point","properties":{"Station_ID":"WLFM5","Station_Nam":"WOLF RIDGE ENVIRON LEARNING CENTER","Latitude":"47.38240","Longitude":"-91.19730","Snowdepth":"18.000","Units":"in","Rept_Date":"2021-02-24 13"},"coordinates":[1418,7296]},{"type":"Point","properties":{"Station_ID":"WI-WB-2","Station_Nam":"STONE LAKE 2.0 NW, WI","Latitude":"45.85960","Longitude":"-91.57710","Snowdepth":"18.000","Units":"in","Rept_Date":"2021-02-24 13"},"coordinates":[1329,6349]},{"type":"Point","properties":{"Station_ID":"WI-PR-2","Station_Nam":"BUTTERNUT 5.9 SW, WI","Latitude":"45.96501","Longitude":"-90.59750","Snowdepth":"18.000","Units":"in","Rept_Date":"2021-02-24 12"},"coordinates":[1559,6414]},{"type":"Point","properties":{"Station_ID":"VT-OL-2","Station_Nam":"BARTON 3.0 ENE, VT","Latitude":"44.75863","Longitude":"-72.11680","Snowdepth":"18.000","Units":"in","Rept_Date":"2021-02-24 12"},"coordinates":[5896,5664]},{"type":"Point","properties":{"Station_ID":"TMWN3","Station_Nam":"TAMWORTH 4","Latitude":"43.86390","Longitude":"-71.26610","Snowdepth":"18.000","Units":"in","Rept_Date":"2021-02-24 12"},"coordinates":[6096,5107]},{"type":"Point","properties":{"Station_ID":"SUAW3","Station_Nam":"SUAMICO","Latitude":"44.60190","Longitude":"-88.09780","Snowdepth":"18.000","Units":"in","Rept_Date":"2021-02-24 12"},"coordinates":[2145,5566]},{"type":"Point","properties":{"Station_ID":"SRAW3","Station_Nam":"SARONA","Latitude":"45.80250","Longitude":"-91.86700","Snowdepth":"18.000","Units":"in","Rept_Date":"2021-02-24 14"},"coordinates":[1261,6313]},{"type":"Point","properties":{"Station_ID":"PRNW3","Station_Nam":"PRENTICE,WI","Latitude":"45.54780","Longitude":"-90.30000","Snowdepth":"18.000","Units":"in","Rept_Date":"2021-02-24 14"},"coordinates":[1628,6155]},{"type":"Point","properties":{"Station_ID":"PJRN6","Station_Nam":"PORT JERVIS","Latitude":"41.38910","Longitude":"-74.69050","Snowdepth":"18.000","Units":"in","Rept_Date":"2021-02-24 12"},"coordinates":[5292,3567]},{"type":"Point","properties":{"Station_ID":"PA-BR-7","Station_Nam":"FLEETWOOD 2.0 ESE, PA","Latitude":"40.44292","Longitude":"-75.78720","Snowdepth":"18.000","Units":"in","Rept_Date":"2021-02-24 12"},"coordinates":[5034,2979]},{"type":"Point","properties":{"Station_ID":"NY-TM-45","Station_Nam":"NEWFIELD HAMLET 4.3 S, NY","Latitude":"42.29650","Longitude":"-76.60676","Snowdepth":"18.000","Units":"in","Rept_Date":"2021-02-24 14"},"coordinates":[4842,4132]},{"type":"Point","properties":{"Station_ID":"NVLN6","Station_Nam":"NORTHVILLE","Latitude":"43.23330","Longitude":"-74.16670","Snowdepth":"18.000","Units":"in","Rept_Date":"2021-02-24 13"},"coordinates":[5415,4715]},{"type":"Point","properties":{"Station_ID":"NJ-SS-7","Station_Nam":"HARDYSTON TWP 3.2 SE, NJ","Latitude":"41.08903","Longitude":"-74.53990","Snowdepth":"18.000","Units":"in","Rept_Date":"2021-02-24 12"},"coordinates":[5327,3381]},{"type":"Point","properties":{"Station_ID":"NJ-MS-94","Station_Nam":"JEFFERSON TWP 4.4 SW, NJ","Latitude":"40.96404","Longitude":"-74.62162","Snowdepth":"18.000","Units":"in","Rept_Date":"2021-02-24 12"},"coordinates":[5308,3303]},{"type":"Point","properties":{"Station_ID":"NH-CR-27","Station_Nam":"TAMWORTH 0.4 NNW, NH","Latitude":"43.86449","Longitude":"-71.26610","Snowdepth":"18.000","Units":"in","Rept_Date":"2021-02-24 12"},"coordinates":[6096,5107]},{"type":"Point","properties":{"Station_ID":"MWTM1","Station_Nam":"MILLINOCKET WWTP","Latitude":"45.64030","Longitude":"-68.67480","Snowdepth":"18.000","Units":"in","Rept_Date":"2021-02-24 11"},"coordinates":[6704,6212]},{"type":"Point","properties":{"Station_ID":"MN-IS-18","Station_Nam":"BRAHAM 0.7 SW, MN","Latitude":"45.71379","Longitude":"-93.18095","Snowdepth":"18.000","Units":"in","Rept_Date":"2021-02-24 14"},"coordinates":[952,6258]},{"type":"Point","properties":{"Station_ID":"MI-OG-6","Station_Nam":"WEST BRANCH 2.1 SSW, MI","Latitude":"44.24814","Longitude":"-84.25089","Snowdepth":"18.000","Units":"in","Rept_Date":"2021-02-24 12"},"coordinates":[3048,5346]},{"type":"Point","properties":{"Station_ID":"MHRI4","Station_Nam":"MANCHESTER #2","Latitude":"42.47320","Longitude":"-91.45160","Snowdepth":"18.000","Units":"in","Rept_Date":"2021-02-24 13"},"coordinates":[1358,4242]},{"type":"Point","properties":{"Station_ID":"ME-OX-26","Station_Nam":"OXFORD 5.3 SW, ME","Latitude":"44.09787","Longitude":"-70.59612","Snowdepth":"18.000","Units":"in","Rept_Date":"2021-02-24 12"},"coordinates":[6253,5253]},{"type":"Point","properties":{"Station_ID":"ME-AR-15","Station_Nam":"PRESQUE ISLE 1.3 WSW, ME","Latitude":"46.67960","Longitude":"-68.01270","Snowdepth":"18.000","Units":"in","Rept_Date":"2021-02-24 12"},"coordinates":[6859,6859]},{"type":"Point","properties":{"Station_ID":"KISM4","Station_Nam":"K.I. SAWYER WWTP","Latitude":"46.33410","Longitude":"-87.37790","Snowdepth":"18.000","Units":"in","Rept_Date":"2021-02-24 13"},"coordinates":[2314,6644]},{"type":"Point","properties":{"Station_ID":"JOHV1","Station_Nam":"JOHNSON 2 N","Latitude":"44.65790","Longitude":"-72.67850","Snowdepth":"18.000","Units":"in","Rept_Date":"2021-02-24 12"},"coordinates":[5764,5601]},{"type":"Point","properties":{"Station_ID":"FVLN6","Station_Nam":"FREEVILLE,NY","Latitude":"42.51670","Longitude":"-76.33330","Snowdepth":"18.000","Units":"in","Rept_Date":"2021-02-24 13"},"coordinates":[4906,4269]},{"type":"Point","properties":{"Station_ID":"EGRW3","Station_Nam":"EAGLE RIVER-SOUTH","Latitude":"45.91360","Longitude":"-89.24360","Snowdepth":"18.000","Units":"in","Rept_Date":"2021-02-24 13"},"coordinates":[1876,6382]},{"type":"Point","properties":{"Station_ID":"CNNW3","Station_Nam":"CRANDON","Latitude":"45.55110","Longitude":"-88.89830","Snowdepth":"18.000","Units":"in","Rept_Date":"2021-02-24 12"},"coordinates":[1957,6157]},{"type":"Point","properties":{"Station_ID":"CNKN6","Station_Nam":"CONKLINGVILLE DAM","Latitude":"43.32030","Longitude":"-73.92560","Snowdepth":"18.000","Units":"in","Rept_Date":"2021-02-24 13"},"coordinates":[5471,4769]},{"type":"Point","properties":{"Station_ID":"BGMN6","Station_Nam":"BINGHAMTON WFO","Latitude":"42.21160","Longitude":"-75.98580","Snowdepth":"18.000","Units":"in","Rept_Date":"2021-02-25 05"},"coordinates":[4988,4079]},{"type":"Point","properties":{"Station_ID":"BDJP1","Station_Nam":"GERMANIA 2 SNOW","Latitude":"41.65000","Longitude":"-77.66940","Snowdepth":"18.000","Units":"in","Rept_Date":"2021-02-24 18"},"coordinates":[4593,3730]},{"type":"Point","properties":{"Station_ID":"BBEM4","Station_Nam":"BIG BAY 9SW","Latitude":"46.74620","Longitude":"-87.88160","Snowdepth":"18.000","Units":"in","Rept_Date":"2021-02-24 13"},"coordinates":[2196,6900]},{"type":"Point","properties":{"Station_ID":"ATAN6","Station_Nam":"ATTICA 7 SW","Latitude":"42.81070","Longitude":"-78.39790","Snowdepth":"18.000","Units":"in","Rept_Date":"2021-02-24 11"},"coordinates":[4422,4452]},{"type":"Point","properties":{"Station_ID":"AMAM4","Station_Nam":"AMASA 1W","Latitude":"46.23470","Longitude":"-88.45440","Snowdepth":"18.000","Units":"in","Rept_Date":"2021-02-24 14"},"coordinates":[2062,6582]},{"type":"Point","properties":{"Station_ID":"QMD","Station_Nam":"QMD","Latitude":"49.29060","Longitude":"-75.84500","Snowdepth":"17.835","Units":"in","Rept_Date":"2021-02-24 12"},"coordinates":[5021,8483]},{"type":"Point","properties":{"Station_ID":"NY-WY-10","Station_Nam":"WYOMING COOP, NY","Latitude":"42.82060","Longitude":"-78.14810","Snowdepth":"17.800","Units":"in","Rept_Date":"2021-02-24 12"},"coordinates":[4480,4458]},{"type":"Point","properties":{"Station_ID":"QLI","Station_Nam":"QLI","Latitude":"50.27080","Longitude":"-73.92280","Snowdepth":"17.756","Units":"in","Rept_Date":"2021-02-24 12"},"coordinates":[5472,9093]},{"type":"Point","properties":{"Station_ID":"SOCQ6","Station_Nam":"SOCKET LAKE","Latitude":"50.77870","Longitude":"-91.79300","Snowdepth":"17.720","Units":"in","Rept_Date":"2021-02-25 06"},"coordinates":[1278,9409]},{"type":"Point","properties":{"Station_ID":"QTV","Station_Nam":"QTV","Latitude":"49.66000","Longitude":"-69.35690","Snowdepth":"17.559","Units":"in","Rept_Date":"2021-02-24 12"},"coordinates":[6544,8713]},{"type":"Point","properties":{"Station_ID":"WI-IR-2","Station_Nam":"MERCER 2.0 SE, WI","Latitude":"46.14749","Longitude":"-90.03097","Snowdepth":"17.500","Units":"in","Rept_Date":"2021-02-24 13"},"coordinates":[1692,6528]},{"type":"Point","properties":{"Station_ID":"VT-OL-24","Station_Nam":"DERBY LINE 1.9 W, VT","Latitude":"45.00454","Longitude":"-72.14170","Snowdepth":"17.500","Units":"in","Rept_Date":"2021-02-24 12"},"coordinates":[5890,5817]},{"type":"Point","properties":{"Station_ID":"NY-ES-7","Station_Nam":"KEESEVILLE 0.8 SE, NY","Latitude":"44.49504","Longitude":"-73.47109","Snowdepth":"17.500","Units":"in","Rept_Date":"2021-02-24 12"},"coordinates":[5578,5500]},{"type":"Point","properties":{"Station_ID":"NY-CN-9","Station_Nam":"NORWICH 5.4 W, NY","Latitude":"42.53356","Longitude":"-75.63060","Snowdepth":"17.500","Units":"in","Rept_Date":"2021-02-24 12"},"coordinates":[5071,4279]},{"type":"Point","properties":{"Station_ID":"CAN-NL-65","Station_Nam":"KIPPENS 0.7 NE, CA","Latitude":"48.55436","Longitude":"-58.61850","Snowdepth":"17.500","Units":"in","Rept_Date":"2021-02-24 12"},"coordinates":[9064,8025]},{"type":"Point","properties":{"Station_ID":"CAN-PE-20","Station_Nam":"BONSHAW 6.6 NNE, CAN","Latitude":"46.25082","Longitude":"-63.33409","Snowdepth":"17.300","Units":"in","Rept_Date":"2021-02-24 12"},"coordinates":[7957,6592]},{"type":"Point","properties":{"Station_ID":"WPBN6","Station_Nam":"UPPER LISLE SNOW","Latitude":"42.40000","Longitude":"-75.96670","Snowdepth":"17.000","Units":"in","Rept_Date":"2021-02-24 13"},"coordinates":[4992,4196]},{"type":"Point","properties":{"Station_ID":"UPSW3","Station_Nam":"UPSON,WI","Latitude":"46.36780","Longitude":"-90.41220","Snowdepth":"17.000","Units":"in","Rept_Date":"2021-02-25 00"},"coordinates":[1602,6665]},{"type":"Point","properties":{"Station_ID":"STOW3","Station_Nam":"STOUGHTON,WI","Latitude":"42.91670","Longitude":"-89.21670","Snowdepth":"17.000","Units":"in","Rept_Date":"2021-02-24 13"},"coordinates":[1883,4518]},{"type":"Point","properties":{"Station_ID":"STMM4","Station_Nam":"STAMBAUGH 2SSE","Latitude":"46.05550","Longitude":"-88.62780","Snowdepth":"17.000","Units":"in","Rept_Date":"2021-02-24 13"},"coordinates":[2021,6471]},{"type":"Point","properties":{"Station_ID":"SGVN6","Station_Nam":"SPRINGVILLE","Latitude":"42.54970","Longitude":"-78.57670","Snowdepth":"17.000","Units":"in","Rept_Date":"2021-02-24 23"},"coordinates":[4380,4289]},{"type":"Point","properties":{"Station_ID":"RHIW3","Station_Nam":"RHINELANDER","Latitude":"45.59860","Longitude":"-89.45080","Snowdepth":"17.000","Units":"in","Rept_Date":"2021-02-24 13"},"coordinates":[1828,6186]},{"type":"Point","properties":{"Station_ID":"RGNM1","Station_Nam":"RANGELEY 2NW","Latitude":"44.98940","Longitude":"-70.67220","Snowdepth":"17.000","Units":"in","Rept_Date":"2021-02-24 11"},"coordinates":[6235,5807]},{"type":"Point","properties":{"Station_ID":"PHON6","Station_Nam":"PHOENICIA 2SW","Latitude":"42.06420","Longitude":"-74.34080","Snowdepth":"17.000","Units":"in","Rept_Date":"2021-02-24 13"},"coordinates":[5374,3987]},{"type":"Point","properties":{"Station_ID":"PA-CB-33","Station_Nam":"LAKE HARMONY 2.4 WNW, PA","Latitude":"41.07333","Longitude":"-75.63317","Snowdepth":"17.000","Units":"in","Rept_Date":"2021-02-24 12"},"coordinates":[5071,3371]},{"type":"Point","properties":{"Station_ID":"PA-BR-21","Station_Nam":"ALBURTIS 4.7 SW, PA","Latitude":"40.46515","Longitude":"-75.66820","Snowdepth":"17.000","Units":"in","Rept_Date":"2021-02-24 12"},"coordinates":[5062,2993]},{"type":"Point","properties":{"Station_ID":"NY-TM-42","Station_Nam":"ITHACA 6.4 E, NY","Latitude":"42.43350","Longitude":"-76.37860","Snowdepth":"17.000","Units":"in","Rept_Date":"2021-02-24 12"},"coordinates":[4896,4217]},{"type":"Point","properties":{"Station_ID":"NY-TM-4","Station_Nam":"GROTON 0.5 NW, NY","Latitude":"42.59127","Longitude":"-76.37200","Snowdepth":"17.000","Units":"in","Rept_Date":"2021-02-24 12"},"coordinates":[4897,4315]},{"type":"Point","properties":{"Station_ID":"NY-SL-6","Station_Nam":"HANNAWA FALLS 0.1 SW, NY","Latitude":"44.61154","Longitude":"-74.97190","Snowdepth":"17.000","Units":"in","Rept_Date":"2021-02-24 12"},"coordinates":[5226,5572]},{"type":"Point","properties":{"Station_ID":"NY-OS-15","Station_Nam":"MINETTO 0.1 SE, NY","Latitude":"43.39771","Longitude":"-76.47960","Snowdepth":"17.000","Units":"in","Rept_Date":"2021-02-24 13"},"coordinates":[4872,4817]},{"type":"Point","properties":{"Station_ID":"NY-ER-75","Station_Nam":"ELMA CENTER 0.7 SE, NY","Latitude":"42.81936","Longitude":"-78.62140","Snowdepth":"17.000","Units":"in","Rept_Date":"2021-02-24 14"},"coordinates":[4369,4457]},{"type":"Point","properties":{"Station_ID":"NY-ER-39","Station_Nam":"HAMBURG 0.4 WSW, NY","Latitude":"42.72253","Longitude":"-78.84330","Snowdepth":"17.000","Units":"in","Rept_Date":"2021-02-24 12"},"coordinates":[4317,4397]},{"type":"Point","properties":{"Station_ID":"NY-DL-24","Station_Nam":"WALTON 6.5 W, NY","Latitude":"42.16534","Longitude":"-75.25850","Snowdepth":"17.000","Units":"in","Rept_Date":"2021-02-24 12"},"coordinates":[5159,4050]},{"type":"Point","properties":{"Station_ID":"NVLV1","Station_Nam":"NASHVILLE","Latitude":"44.44970","Longitude":"-72.92640","Snowdepth":"17.000","Units":"in","Rept_Date":"2021-02-24 12"},"coordinates":[5706,5472]},{"type":"Point","properties":{"Station_ID":"NPTV1","Station_Nam":"NEWPORT","Latitude":"44.94900","Longitude":"-72.19120","Snowdepth":"17.000","Units":"in","Rept_Date":"2021-02-24 12"},"coordinates":[5878,5782]},{"type":"Point","properties":{"Station_ID":"NJ-SS-1","Station_Nam":"ANDOVER TWP 1.7 W, NJ","Latitude":"41.01974","Longitude":"-74.76110","Snowdepth":"17.000","Units":"in","Rept_Date":"2021-02-24 12"},"coordinates":[5275,3338]},{"type":"Point","properties":{"Station_ID":"NJ-MS-106","Station_Nam":"PEQUANNOCK TWP 1.7 NW, NJ","Latitude":"40.98333","Longitude":"-74.32305","Snowdepth":"17.000","Units":"in","Rept_Date":"2021-02-24 13"},"coordinates":[5378,3315]},{"type":"Point","properties":{"Station_ID":"NH-GR-55","Station_Nam":"BRISTOL 3.7 E, NH","Latitude":"43.60517","Longitude":"-71.67158","Snowdepth":"17.000","Units":"in","Rept_Date":"2021-02-24 11"},"coordinates":[6000,4946]},{"type":"Point","properties":{"Station_ID":"NGLW3","Station_Nam":"NEW GLARUS","Latitude":"42.83500","Longitude":"-89.62080","Snowdepth":"17.000","Units":"in","Rept_Date":"2021-02-24 13"},"coordinates":[1788,4467]},{"type":"Point","properties":{"Station_ID":"NCON3","Station_Nam":"NORTH CONWAY","Latitude":"44.05620","Longitude":"-71.12970","Snowdepth":"17.000","Units":"in","Rept_Date":"2021-02-24 13"},"coordinates":[6128,5227]},{"type":"Point","properties":{"Station_ID":"NCKN6","Station_Nam":"NORTH CREEK 5 SE","Latitude":"43.66110","Longitude":"-73.89690","Snowdepth":"17.000","Units":"in","Rept_Date":"2021-02-24 12"},"coordinates":[5478,4981]},{"type":"Point","properties":{"Station_ID":"MTQM4","Station_Nam":"MANISTIQUE WWTP","Latitude":"45.95120","Longitude":"-86.25130","Snowdepth":"17.000","Units":"in","Rept_Date":"2021-02-24 12"},"coordinates":[2579,6406]},{"type":"Point","properties":{"Station_ID":"MSRN3","Station_Nam":"MASCOMA RIVER","Latitude":"43.78330","Longitude":"-72.03330","Snowdepth":"17.000","Units":"in","Rept_Date":"2021-02-25 05"},"coordinates":[5916,5057]},{"type":"Point","properties":{"Station_ID":"MI-DL-1","Station_Nam":"GARDEN CORNERS 0.8 NW, MI","Latitude":"45.89815","Longitude":"-86.54850","Snowdepth":"17.000","Units":"in","Rept_Date":"2021-02-24 13"},"coordinates":[2509,6373]},{"type":"Point","properties":{"Station_ID":"MD-GR-9","Station_Nam":"MOUNTAIN LAKE PARK 0.4 E, MD","Latitude":"39.40407","Longitude":"-79.37220","Snowdepth":"17.000","Units":"in","Rept_Date":"2021-02-24 11"},"coordinates":[4193,2332]},{"type":"Point","properties":{"Station_ID":"MD-GR-4","Station_Nam":"MC HENRY 4.8 SSE, MD","Latitude":"39.48539","Longitude":"-79.31830","Snowdepth":"17.000","Units":"in","Rept_Date":"2021-02-24 13"},"coordinates":[4206,2383]},{"type":"Point","properties":{"Station_ID":"MA-BE-24","Station_Nam":"HANCOCK 3.6 NNE, MA","Latitude":"42.59130","Longitude":"-73.29530","Snowdepth":"17.000","Units":"in","Rept_Date":"2021-02-24 17"},"coordinates":[5619,4315]},{"type":"Point","properties":{"Station_ID":"IRMM4","Station_Nam":"WWTP","Latitude":"46.46670","Longitude":"-90.18330","Snowdepth":"17.000","Units":"in","Rept_Date":"2021-02-24 13"},"coordinates":[1656,6726]},{"type":"Point","properties":{"Station_ID":"IL-JD-8","Station_Nam":"STOCKTON 3.4 NNE, IL","Latitude":"42.39960","Longitude":"-89.99020","Snowdepth":"17.000","Units":"in","Rept_Date":"2021-02-24 13"},"coordinates":[1701,4196]},{"type":"Point","properties":{"Station_ID":"GOVN6","Station_Nam":"GOUVERNEUR 3 NW","Latitude":"44.35400","Longitude":"-75.51230","Snowdepth":"17.000","Units":"in","Rept_Date":"2021-02-24 12"},"coordinates":[5099,5412]},{"type":"Point","properties":{"Station_ID":"GDCM4","Station_Nam":"GARDEN CORNERS","Latitude":"45.89830","Longitude":"-86.54850","Snowdepth":"17.000","Units":"in","Rept_Date":"2021-02-24 13"},"coordinates":[2509,6373]},{"type":"Point","properties":{"Station_ID":"FLNW3","Station_Nam":"FLORENCE","Latitude":"45.93360","Longitude":"-88.25830","Snowdepth":"17.000","Units":"in","Rept_Date":"2021-02-24 13"},"coordinates":[2108,6395]},{"type":"Point","properties":{"Station_ID":"EVRW3","Station_Nam":"EAGLE RIVER-4 E","Latitude":"45.91890","Longitude":"-89.15280","Snowdepth":"17.000","Units":"in","Rept_Date":"2021-02-24 13"},"coordinates":[1898,6386]},{"type":"Point","properties":{"Station_ID":"ENFV1","Station_Nam":"ENOSBURG FALLS 2","Latitude":"44.90960","Longitude":"-72.81370","Snowdepth":"17.000","Units":"in","Rept_Date":"2021-02-24 10"},"coordinates":[5732,5758]},{"type":"Point","properties":{"Station_ID":"CORV1","Station_Nam":"CORINTH","Latitude":"44.00690","Longitude":"-72.31940","Snowdepth":"17.000","Units":"in","Rept_Date":"2021-02-24 12"},"coordinates":[5848,5196]},{"type":"Point","properties":{"Station_ID":"CLYN6","Station_Nam":"CLYDE LOCK 26","Latitude":"43.05900","Longitude":"-76.83840","Snowdepth":"17.000","Units":"in","Rept_Date":"2021-02-24 12"},"coordinates":[4788,4606]},{"type":"Point","properties":{"Station_ID":"CAN-ON-5","Station_Nam":"OWEN SOUND 1.5 NW - GSCA, CAN","Latitude":"44.57837","Longitude":"-80.95461","Snowdepth":"17.000","Units":"in","Rept_Date":"2021-02-24 13"},"coordinates":[3822,5552]},{"type":"Point","properties":{"Station_ID":"BETM1","Station_Nam":"BETHEL 6 SSE","Latitude":"44.32000","Longitude":"-70.75680","Snowdepth":"17.000","Units":"in","Rept_Date":"2021-02-24 12"},"coordinates":[6215,5391]},{"type":"Point","properties":{"Station_ID":"AGNW3","Station_Nam":"ARGONNE-1.5 NW","Latitude":"45.67360","Longitude":"-88.90380","Snowdepth":"17.000","Units":"in","Rept_Date":"2021-02-24 13"},"coordinates":[1956,6233]},{"type":"Point","properties":{"Station_ID":"KABQ6","Station_Nam":"CAB LAKE","Latitude":"49.59950","Longitude":"-89.17990","Snowdepth":"16.970","Units":"in","Rept_Date":"2021-02-25 06"},"coordinates":[1891,8675]},{"type":"Point","properties":{"Station_ID":"WI-SR-1","Station_Nam":"HAYWARD 9.2 NNE, WI","Latitude":"46.13255","Longitude":"-91.40500","Snowdepth":"16.800","Units":"in","Rept_Date":"2021-02-24 12"},"coordinates":[1369,6519]},{"type":"Point","properties":{"Station_ID":"QLP","Station_Nam":"QLP","Latitude":"48.13920","Longitude":"-72.63830","Snowdepth":"16.693","Units":"in","Rept_Date":"2021-02-24 12"},"coordinates":[5774,7767]},{"type":"Point","properties":{"Station_ID":"QGA","Station_Nam":"QGA","Latitude":"47.25640","Longitude":"-73.73810","Snowdepth":"16.575","Units":"in","Rept_Date":"2021-02-24 12"},"coordinates":[5515,7218]},{"type":"Point","properties":{"Station_ID":"SVBQ6","Station_Nam":"SAVANT BASE","Latitude":"50.28730","Longitude":"-90.65670","Snowdepth":"16.570","Units":"in","Rept_Date":"2021-02-25 06"},"coordinates":[1545,9103]},{"type":"Point","properties":{"Station_ID":"WI-TY-3","Station_Nam":"MEDFORD 0.8 ENE, WI","Latitude":"45.14421","Longitude":"-90.33349","Snowdepth":"16.500","Units":"in","Rept_Date":"2021-02-24 14"},"coordinates":[1621,5904]},{"type":"Point","properties":{"Station_ID":"WI-PR-8","Station_Nam":"PHILLIPS 0.4 SSW, WI","Latitude":"45.69086","Longitude":"-90.40200","Snowdepth":"16.500","Units":"in","Rept_Date":"2021-02-24 13"},"coordinates":[1605,6244]},{"type":"Point","properties":{"Station_ID":"VT-RT-24","Station_Nam":"MIDDLETOWN SPRINGS 0.9 WNW, VT","Latitude":"43.49194","Longitude":"-73.13350","Snowdepth":"16.500","Units":"in","Rept_Date":"2021-02-24 12"},"coordinates":[5657,4876]},{"type":"Point","properties":{"Station_ID":"VT-CL-14","Station_Nam":"LYNDONVILLE 1.1 W, VT","Latitude":"44.53582","Longitude":"-72.02867","Snowdepth":"16.500","Units":"in","Rept_Date":"2021-02-24 12"},"coordinates":[5917,5525]},{"type":"Point","properties":{"Station_ID":"VT-CH-11","Station_Nam":"UNDERHILL 5.1 NNE, VT","Latitude":"44.59811","Longitude":"-72.91880","Snowdepth":"16.500","Units":"in","Rept_Date":"2021-02-24 13"},"coordinates":[5708,5564]},{"type":"Point","properties":{"Station_ID":"NJ-MS-87","Station_Nam":"MOUNT ARLINGTON 0.8 S, NJ","Latitude":"40.90789","Longitude":"-74.64077","Snowdepth":"16.500","Units":"in","Rept_Date":"2021-02-24 13"},"coordinates":[5304,3268]},{"type":"Point","properties":{"Station_ID":"NJ-MS-42","Station_Nam":"RANDOLPH TWP 2.0 E, NJ","Latitude":"40.83980","Longitude":"-74.54320","Snowdepth":"16.500","Units":"in","Rept_Date":"2021-02-24 13"},"coordinates":[5326,3226]},{"type":"Point","properties":{"Station_ID":"NH-GR-49","Station_Nam":"PLYMOUTH 3.7 N, NH","Latitude":"43.79048","Longitude":"-71.68413","Snowdepth":"16.500","Units":"in","Rept_Date":"2021-02-24 12"},"coordinates":[5997,5061]},{"type":"Point","properties":{"Station_ID":"NH-GR-47","Station_Nam":"LITTLETON 7.3 W, NH","Latitude":"44.31847","Longitude":"-71.91086","Snowdepth":"16.500","Units":"in","Rept_Date":"2021-02-24 13"},"coordinates":[5944,5390]},{"type":"Point","properties":{"Station_ID":"CAN-NB-84","Station_Nam":"NORTON 7.1 WNW - KWRC, CAN","Latitude":"45.66195","Longitude":"-65.78279","Snowdepth":"16.500","Units":"in","Rept_Date":"2021-02-24 12"},"coordinates":[7382,6226]},{"type":"Point","properties":{"Station_ID":"NY-ER-96","Station_Nam":"ELMA 2.7 WSW, NY","Latitude":"42.81004","Longitude":"-78.68130","Snowdepth":"16.200","Units":"in","Rept_Date":"2021-02-24 12"},"coordinates":[4355,4451]},{"type":"Point","properties":{"Station_ID":"CAN-PE-47","Station_Nam":"LONG CREEK 0.3 NNW, CAN","Latitude":"46.17420","Longitude":"-63.27320","Snowdepth":"16.100","Units":"in","Rept_Date":"2021-02-24 12"},"coordinates":[7971,6544]},{"type":"Point","properties":{"Station_ID":"WSFW3","Station_Nam":"TOWN OF WESTFORD","Latitude":"43.47190","Longitude":"-88.88250","Snowdepth":"16.000","Units":"in","Rept_Date":"2021-02-24 13"},"coordinates":[1961,4863]},{"type":"Point","properties":{"Station_ID":"WPAN6","Station_Nam":"WHITNEY POINT DAM SNOW","Latitude":"42.35000","Longitude":"-75.96670","Snowdepth":"16.000","Units":"in","Rept_Date":"2021-02-24 13"},"coordinates":[4992,4165]},{"type":"Point","properties":{"Station_ID":"WMTI4","Station_Nam":"FORT DODGE,IA","Latitude":"42.50610","Longitude":"-94.20110","Snowdepth":"16.000","Units":"in","Rept_Date":"2021-02-24 13"},"coordinates":[713,4262]},{"type":"Point","properties":{"Station_ID":"WLSN6","Station_Nam":"WALES","Latitude":"42.73920","Longitude":"-78.58780","Snowdepth":"16.000","Units":"in","Rept_Date":"2021-02-24 12"},"coordinates":[4377,4407]},{"type":"Point","properties":{"Station_ID":"WI-DD-16","Station_Nam":"BEAVER DAM 2.4 WNW, WI","Latitude":"43.47210","Longitude":"-88.88280","Snowdepth":"16.000","Units":"in","Rept_Date":"2021-02-24 13"},"coordinates":[1961,4863]},{"type":"Point","properties":{"Station_ID":"WI-DA-35","Station_Nam":"MADISON 5.5 N, WI","Latitude":"43.15858","Longitude":"-89.37280","Snowdepth":"16.000","Units":"in","Rept_Date":"2021-02-24 14"},"coordinates":[1846,4668]},{"type":"Point","properties":{"Station_ID":"WDSV1","Station_Nam":"WOODSTOCK","Latitude":"43.63030","Longitude":"-72.50720","Snowdepth":"16.000","Units":"in","Rept_Date":"2021-02-24 13"},"coordinates":[5804,4962]},{"type":"Point","properties":{"Station_ID":"TURM1","Station_Nam":"TURNER","Latitude":"44.28220","Longitude":"-70.25610","Snowdepth":"16.000","Units":"in","Rept_Date":"2021-02-24 12"},"coordinates":[6333,5367]},{"type":"Point","properties":{"Station_ID":"STIM4","Station_Nam":"ST IGNACE","Latitude":"45.86080","Longitude":"-84.71960","Snowdepth":"16.000","Units":"in","Rept_Date":"2021-02-24 12"},"coordinates":[2938,6349]},{"type":"Point","properties":{"Station_ID":"SNYI4","Station_Nam":"STANLEY","Latitude":"42.63330","Longitude":"-91.86320","Snowdepth":"16.000","Units":"in","Rept_Date":"2021-02-24 13"},"coordinates":[1262,4341]},{"type":"Point","properties":{"Station_ID":"RLKW3","Station_Nam":"REST LAKE","Latitude":"46.12220","Longitude":"-89.87720","Snowdepth":"16.000","Units":"in","Rept_Date":"2021-02-24 14"},"coordinates":[1728,6512]},{"type":"Point","properties":{"Station_ID":"RHLW3","Station_Nam":"RHINELANDER 4NE","Latitude":"45.65270","Longitude":"-89.30740","Snowdepth":"16.000","Units":"in","Rept_Date":"2021-02-24 12"},"coordinates":[1861,6220]},{"type":"Point","properties":{"Station_ID":"PDGM4","Station_Nam":"PAULDING","Latitude":"46.39760","Longitude":"-89.17940","Snowdepth":"16.000","Units":"in","Rept_Date":"2021-02-24 12"},"coordinates":[1891,6683]},{"type":"Point","properties":{"Station_ID":"PA-MN-7","Station_Nam":"STROUDSBURG 5.1 W, PA","Latitude":"40.98869","Longitude":"-75.29590","Snowdepth":"16.000","Units":"in","Rept_Date":"2021-02-24 13"},"coordinates":[5150,3318]},{"type":"Point","properties":{"Station_ID":"NY-TG-5","Station_Nam":"BERKSHIRE 2.0 N, NY","Latitude":"42.33463","Longitude":"-76.18990","Snowdepth":"16.000","Units":"in","Rept_Date":"2021-02-24 12"},"coordinates":[4940,4156]},{"type":"Point","properties":{"Station_ID":"NY-OS-38","Station_Nam":"MEXICO COOP, NY","Latitude":"43.43830","Longitude":"-76.26570","Snowdepth":"16.000","Units":"in","Rept_Date":"2021-02-24 12"},"coordinates":[4922,4842]},{"type":"Point","properties":{"Station_ID":"NY-OS-20","Station_Nam":"FULTON 0.2 W, NY","Latitude":"43.31650","Longitude":"-76.41850","Snowdepth":"16.000","Units":"in","Rept_Date":"2021-02-24 13"},"coordinates":[4886,4767]},{"type":"Point","properties":{"Station_ID":"NY-OG-61","Station_Nam":"SKANEATELES 0.8 NNW, NY","Latitude":"42.95538","Longitude":"-76.43362","Snowdepth":"16.000","Units":"in","Rept_Date":"2021-02-24 13"},"coordinates":[4883,4542]},{"type":"Point","properties":{"Station_ID":"NY-ER-158","Station_Nam":"EAST AURORA 2.7 SSE, NY","Latitude":"42.72936","Longitude":"-78.60561","Snowdepth":"16.000","Units":"in","Rept_Date":"2021-02-24 12"},"coordinates":[4373,4401]},{"type":"Point","properties":{"Station_ID":"NY-DL-32","Station_Nam":"DELHI 6.6 WNW, NY","Latitude":"42.32118","Longitude":"-75.02991","Snowdepth":"16.000","Units":"in","Rept_Date":"2021-02-24 12"},"coordinates":[5212,4147]},{"type":"Point","properties":{"Station_ID":"NUMN3","Station_Nam":"NORTHUMBERLAND","Latitude":"44.52830","Longitude":"-71.50440","Snowdepth":"16.000","Units":"in","Rept_Date":"2021-02-24 13"},"coordinates":[6040,5520]},{"type":"Point","properties":{"Station_ID":"NOHV1","Station_Nam":"NORTH HARTLAND LAKE","Latitude":"43.60270","Longitude":"-72.36210","Snowdepth":"16.000","Units":"in","Rept_Date":"2021-02-24 12"},"coordinates":[5838,4945]},{"type":"Point","properties":{"Station_ID":"NJ-MS-105","Station_Nam":"MORRISTOWN 0.7 WNW, NJ","Latitude":"40.80150","Longitude":"-74.48795","Snowdepth":"16.000","Units":"in","Rept_Date":"2021-02-24 12"},"coordinates":[5339,3202]},{"type":"Point","properties":{"Station_ID":"NJ-BG-23","Station_Nam":"OAKLAND 0.9 SSE, NJ","Latitude":"41.01905","Longitude":"-74.23340","Snowdepth":"16.000","Units":"in","Rept_Date":"2021-02-24 13"},"coordinates":[5399,3337]},{"type":"Point","properties":{"Station_ID":"NHPI4","Station_Nam":"NEW HAMPTON","Latitude":"43.05750","Longitude":"-92.31220","Snowdepth":"16.000","Units":"in","Rept_Date":"2021-02-24 13"},"coordinates":[1156,4605]},{"type":"Point","properties":{"Station_ID":"MXON6","Station_Nam":"MEXICO","Latitude":"43.43830","Longitude":"-76.26560","Snowdepth":"16.000","Units":"in","Rept_Date":"2021-02-24 12"},"coordinates":[4922,4842]},{"type":"Point","properties":{"Station_ID":"LGEW3","Station_Nam":"LAKE GENEVA, WI","Latitude":"42.60000","Longitude":"-88.43440","Snowdepth":"16.000","Units":"in","Rept_Date":"2021-02-24 13"},"coordinates":[2066,4321]},{"type":"Point","properties":{"Station_ID":"KGTB","Station_Nam":"FORT DRUM / WHEELER-SACK U. S. ARMY AIRFIELD","Latitude":"44.05000","Longitude":"-75.73333","Snowdepth":"16.000","Units":"in","Rept_Date":"2021-02-25 06"},"coordinates":[5047,5223]},{"type":"Point","properties":{"Station_ID":"IL-LK-9","Station_Nam":"LAKE VILLA 1.1 SSW, IL","Latitude":"42.40305","Longitude":"-88.09050","Snowdepth":"16.000","Units":"in","Rept_Date":"2021-02-24 12"},"coordinates":[2147,4198]},{"type":"Point","properties":{"Station_ID":"DFXM1","Station_Nam":"DOVER-FOXCROFT","Latitude":"45.18720","Longitude":"-69.18350","Snowdepth":"16.000","Units":"in","Rept_Date":"2021-02-24 12"},"coordinates":[6584,5930]},{"type":"Point","properties":{"Station_ID":"CORM1","Station_Nam":"CORINNA","Latitude":"44.91980","Longitude":"-69.24180","Snowdepth":"16.000","Units":"in","Rept_Date":"2021-02-24 15"},"coordinates":[6571,5764]},{"type":"Point","properties":{"Station_ID":"CNDP1","Station_Nam":"CANADENSIS","Latitude":"41.18980","Longitude":"-75.23830","Snowdepth":"16.000","Units":"in","Rept_Date":"2021-02-24 12"},"coordinates":[5163,3443]},{"type":"Point","properties":{"Station_ID":"CMKW3","Station_Nam":"CLAM LAKE 4W","Latitude":"46.16940","Longitude":"-90.98080","Snowdepth":"16.000","Units":"in","Rept_Date":"2021-02-24 13"},"coordinates":[1469,6541]},{"type":"Point","properties":{"Station_ID":"CAAW2","Station_Nam":"CANAAN VALLEY","Latitude":"39.05890","Longitude":"-79.44030","Snowdepth":"16.000","Units":"in","Rept_Date":"2021-02-24 14"},"coordinates":[4177,2118]},{"type":"Point","properties":{"Station_ID":"BRLN3","Station_Nam":"BERLIN","Latitude":"44.45350","Longitude":"-71.18540","Snowdepth":"16.000","Units":"in","Rept_Date":"2021-02-24 12"},"coordinates":[6115,5474]},{"type":"Point","properties":{"Station_ID":"BEAW3","Station_Nam":"BEAVER DAM,WI","Latitude":"43.45000","Longitude":"-88.85000","Snowdepth":"16.000","Units":"in","Rept_Date":"2021-02-24 15"},"coordinates":[1969,4850]},{"type":"Point","properties":{"Station_ID":"BAYW2","Station_Nam":"BAYARD COOP","Latitude":"39.27280","Longitude":"-79.36830","Snowdepth":"16.000","Units":"in","Rept_Date":"2021-02-24 12"},"coordinates":[4194,2251]},{"type":"Point","properties":{"Station_ID":"PA-CR-1","Station_Nam":"EMPORIUM 2.6 S, PA","Latitude":"41.47342","Longitude":"-78.24330","Snowdepth":"15.900","Units":"in","Rept_Date":"2021-02-24 13"},"coordinates":[4458,3620]},{"type":"Point","properties":{"Station_ID":"NJ-WR-42","Station_Nam":"KNOWLTON TWP 1.7 S, NJ","Latitude":"40.90560","Longitude":"-75.05880","Snowdepth":"15.700","Units":"in","Rept_Date":"2021-02-24 13"},"coordinates":[5205,3267]},{"type":"Point","properties":{"Station_ID":"CAN-ON-526","Station_Nam":"HILTON BEACH 0.7 SW - MNRF, CAN","Latitude":"46.25357","Longitude":"-83.90014","Snowdepth":"15.700","Units":"in","Rept_Date":"2021-02-24 12"},"coordinates":[3130,6594]},{"type":"Point","properties":{"Station_ID":"QMA","Station_Nam":"QMA","Latitude":"50.10330","Longitude":"-70.47190","Snowdepth":"15.512","Units":"in","Rept_Date":"2021-02-24 12"},"coordinates":[6282,8989]},{"type":"Point","properties":{"Station_ID":"WI-RK-12","Station_Nam":"JANESVILLE 3.1 W, WI","Latitude":"42.67576","Longitude":"-89.07614","Snowdepth":"15.500","Units":"in","Rept_Date":"2021-02-24 13"},"coordinates":[1916,4368]},{"type":"Point","properties":{"Station_ID":"WI-BY-29","Station_Nam":"BAYFIELD 5.1 NNW, WI","Latitude":"46.88063","Longitude":"-90.85854","Snowdepth":"15.500","Units":"in","Rept_Date":"2021-02-24 13"},"coordinates":[1497,6984]},{"type":"Point","properties":{"Station_ID":"WI-BY-2","Station_Nam":"MELLEN 18.6 SW, WI","Latitude":"46.16937","Longitude":"-90.98090","Snowdepth":"15.500","Units":"in","Rept_Date":"2021-02-24 13"},"coordinates":[1469,6541]},{"type":"Point","properties":{"Station_ID":"WI-BY-14","Station_Nam":"ASHLAND 9.8 W, WI","Latitude":"46.59742","Longitude":"-91.07856","Snowdepth":"15.500","Units":"in","Rept_Date":"2021-02-24 12"},"coordinates":[1446,6808]},{"type":"Point","properties":{"Station_ID":"VT-LM-1","Station_Nam":"STOWE 0.2 SW, VT","Latitude":"44.46399","Longitude":"-72.69070","Snowdepth":"15.500","Units":"in","Rept_Date":"2021-02-24 12"},"coordinates":[5761,5480]},{"type":"Point","properties":{"Station_ID":"VT-FR-19","Station_Nam":"SWANTON 0.5 NNE, VT","Latitude":"44.92590","Longitude":"-73.12145","Snowdepth":"15.500","Units":"in","Rept_Date":"2021-02-24 12"},"coordinates":[5660,5768]},{"type":"Point","properties":{"Station_ID":"PA-PT-2","Station_Nam":"ROULETTE 1.8 NNE, PA","Latitude":"41.80759","Longitude":"-78.14140","Snowdepth":"15.500","Units":"in","Rept_Date":"2021-02-24 12"},"coordinates":[4482,3828]},{"type":"Point","properties":{"Station_ID":"NY-CT-22","Station_Nam":"FRANKLINVILLE 0.5 NNE, NY","Latitude":"42.34166","Longitude":"-78.45280","Snowdepth":"15.500","Units":"in","Rept_Date":"2021-02-24 12"},"coordinates":[4409,4160]},{"type":"Point","properties":{"Station_ID":"MI-MC-4","Station_Nam":"ST. IGNACE 0.5SE, MI","Latitude":"45.86057","Longitude":"-84.71980","Snowdepth":"15.500","Units":"in","Rept_Date":"2021-02-24 12"},"coordinates":[2938,6349]},{"type":"Point","properties":{"Station_ID":"MI-BZ-1","Station_Nam":"BENZONIA 5.3 S, MI","Latitude":"44.53976","Longitude":"-86.10650","Snowdepth":"15.500","Units":"in","Rept_Date":"2021-02-24 14"},"coordinates":[2613,5528]},{"type":"Point","properties":{"Station_ID":"IL-MCH-13","Station_Nam":"BULL VALLEY 2.5 WNW, IL","Latitude":"42.32455","Longitude":"-88.39460","Snowdepth":"15.500","Units":"in","Rept_Date":"2021-02-24 14"},"coordinates":[2076,4149]},{"type":"Point","properties":{"Station_ID":"IL-LK-15","Station_Nam":"BANNOCKBURN 0.5 ESE, IL","Latitude":"42.18963","Longitude":"-87.86000","Snowdepth":"15.500","Units":"in","Rept_Date":"2021-02-24 13"},"coordinates":[2201,4065]},{"type":"Point","properties":{"Station_ID":"IL-CK-149","Station_Nam":"OAK LAWN 0.5 SSW, IL","Latitude":"41.70845","Longitude":"-87.75390","Snowdepth":"15.500","Units":"in","Rept_Date":"2021-02-24 14"},"coordinates":[2226,3766]},{"type":"Point","properties":{"Station_ID":"CAN-ON-92","Station_Nam":"DUNROBIN 1.9 W - MVCA, CAN","Latitude":"45.42318","Longitude":"-76.04525","Snowdepth":"15.300","Units":"in","Rept_Date":"2021-02-24 12"},"coordinates":[4974,6077]},{"type":"Point","properties":{"Station_ID":"CAN-NB-29","Station_Nam":"SUSSEX 1.0 WNW - KWRC, CAN","Latitude":"45.72670","Longitude":"-65.52858","Snowdepth":"15.300","Units":"in","Rept_Date":"2021-02-24 12"},"coordinates":[7442,6266]},{"type":"Point","properties":{"Station_ID":"QGD","Station_Nam":"QGD","Latitude":"51.11140","Longitude":"-67.13940","Snowdepth":"15.276","Units":"in","Rept_Date":"2021-02-24 12"},"coordinates":[7064,9616]},{"type":"Point","properties":{"Station_ID":"WTRM4","Station_Nam":"WATERSMEET 12WSW","Latitude":"46.22310","Longitude":"-89.40850","Snowdepth":"15.000","Units":"in","Rept_Date":"2021-02-24 12"},"coordinates":[1838,6575]},{"type":"Point","properties":{"Station_ID":"WLLP1","Station_Nam":"WELLSBORO 4 SW","Latitude":"41.70030","Longitude":"-77.38940","Snowdepth":"15.000","Units":"in","Rept_Date":"2021-02-24 12"},"coordinates":[4658,3761]},{"type":"Point","properties":{"Station_ID":"WALN6","Station_Nam":"WALTON 2","Latitude":"42.18470","Longitude":"-75.14550","Snowdepth":"15.000","Units":"in","Rept_Date":"2021-02-24 10"},"coordinates":[5185,4062]},{"type":"Point","properties":{"Station_ID":"VNTI4","Station_Nam":"VINTON","Latitude":"42.17020","Longitude":"-92.00770","Snowdepth":"15.000","Units":"in","Rept_Date":"2021-02-24 13"},"coordinates":[1228,4053]},{"type":"Point","properties":{"Station_ID":"TAKW3","Station_Nam":"RICE RESERVOIR NO. 2","Latitude":"45.53770","Longitude":"-89.73220","Snowdepth":"15.000","Units":"in","Rept_Date":"2021-02-24 13"},"coordinates":[1762,6148]},{"type":"Point","properties":{"Station_ID":"STOI2","Station_Nam":"STOCKTON 3 NNE","Latitude":"42.40050","Longitude":"-89.99580","Snowdepth":"15.000","Units":"in","Rept_Date":"2021-02-25 03"},"coordinates":[1700,4197]},{"type":"Point","properties":{"Station_ID":"SPTI4","Station_Nam":"STRAWBERRY POINT","Latitude":"42.68530","Longitude":"-91.53300","Snowdepth":"15.000","Units":"in","Rept_Date":"2021-02-24 13"},"coordinates":[1339,4374]},{"type":"Point","properties":{"Station_ID":"SILN6","Station_Nam":"SILVER CREEK","Latitude":"42.53800","Longitude":"-79.16990","Snowdepth":"15.000","Units":"in","Rept_Date":"2021-02-24 12"},"coordinates":[4241,4282]},{"type":"Point","properties":{"Station_ID":"SDSN6","Station_Nam":"SODUS","Latitude":"43.23590","Longitude":"-77.08410","Snowdepth":"15.000","Units":"in","Rept_Date":"2021-02-24 12"},"coordinates":[4730,4716]},{"type":"Point","properties":{"Station_ID":"ROCW3","Station_Nam":"ROCHESTER WWTP","Latitude":"42.72690","Longitude":"-88.22580","Snowdepth":"15.000","Units":"in","Rept_Date":"2021-02-24 10"},"coordinates":[2115,4400]},{"type":"Point","properties":{"Station_ID":"RICM4","Station_Nam":"RICHMOND 4 NNW","Latitude":"42.87830","Longitude":"-82.79580","Snowdepth":"15.000","Units":"in","Rept_Date":"2021-02-24 13"},"coordinates":[3390,4494]},{"type":"Point","properties":{"Station_ID":"PROP1","Station_Nam":"PROMPTON DAM","Latitude":"41.58900","Longitude":"-75.33030","Snowdepth":"15.000","Units":"in","Rept_Date":"2021-02-24 12"},"coordinates":[5142,3692]},{"type":"Point","properties":{"Station_ID":"PLFV1","Station_Nam":"PLAINFIELD","Latitude":"44.27610","Longitude":"-72.41500","Snowdepth":"15.000","Units":"in","Rept_Date":"2021-02-24 12"},"coordinates":[5826,5364]},{"type":"Point","properties":{"Station_ID":"PA-LH-5","Station_Nam":"SCHNECKSVILLE 2.7 SW, PA","Latitude":"40.64739","Longitude":"-75.65050","Snowdepth":"15.000","Units":"in","Rept_Date":"2021-02-24 12"},"coordinates":[5067,3106]},{"type":"Point","properties":{"Station_ID":"OKLM2","Station_Nam":"SINES DEEP CREEK LAKE","Latitude":"39.52270","Longitude":"-79.41310","Snowdepth":"15.000","Units":"in","Rept_Date":"2021-02-24 12"},"coordinates":[4184,2406]},{"type":"Point","properties":{"Station_ID":"NY-TM-5","Station_Nam":"FREEVILLE 1.5 NE, NY","Latitude":"42.52530","Longitude":"-76.32180","Snowdepth":"15.000","Units":"in","Rept_Date":"2021-02-24 12"},"coordinates":[4909,4274]},{"type":"Point","properties":{"Station_ID":"NY-PT-2","Station_Nam":"BEACON 4.2 ESE, NY","Latitude":"41.48070","Longitude":"-73.89110","Snowdepth":"15.000","Units":"in","Rept_Date":"2021-02-24 12"},"coordinates":[5479,3624]},{"type":"Point","properties":{"Station_ID":"NY-DL-28","Station_Nam":"FLEISCHMANNS 5.7 N, NY","Latitude":"42.23779","Longitude":"-74.52335","Snowdepth":"15.000","Units":"in","Rept_Date":"2021-02-24 12"},"coordinates":[5331,4095]},{"type":"Point","properties":{"Station_ID":"NJ-SS-39","Station_Nam":"WANTAGE TWP 1.6 SE, NJ","Latitude":"41.22830","Longitude":"-74.60330","Snowdepth":"15.000","Units":"in","Rept_Date":"2021-02-24 12"},"coordinates":[5312,3467]},{"type":"Point","properties":{"Station_ID":"NJ-MS-98","Station_Nam":"HARDING TWP 2.4 W, NJ","Latitude":"40.74165","Longitude":"-74.54592","Snowdepth":"15.000","Units":"in","Rept_Date":"2021-02-24 12"},"coordinates":[5326,3165]},{"type":"Point","properties":{"Station_ID":"NH-MR-4","Station_Nam":"BOW 1.6 NW, NH","Latitude":"43.14994","Longitude":"-71.55650","Snowdepth":"15.000","Units":"in","Rept_Date":"2021-02-24 12"},"coordinates":[6027,4663]},{"type":"Point","properties":{"Station_ID":"MI-OT-17","Station_Nam":"GAYLORD 4.1 S, MI","Latitude":"44.96388","Longitude":"-84.68467","Snowdepth":"15.000","Units":"in","Rept_Date":"2021-02-24 12"},"coordinates":[2946,5791]},{"type":"Point","properties":{"Station_ID":"MI-MQ-19","Station_Nam":"ISHPEMING 7.2 SW, MI","Latitude":"46.40550","Longitude":"-87.75670","Snowdepth":"15.000","Units":"in","Rept_Date":"2021-02-24 11"},"coordinates":[2225,6688]},{"type":"Point","properties":{"Station_ID":"LYNW3","Station_Nam":"LYNXVILLE DAM 9","Latitude":"43.21180","Longitude":"-91.09850","Snowdepth":"15.000","Units":"in","Rept_Date":"2021-02-24 14"},"coordinates":[1441,4701]},{"type":"Point","properties":{"Station_ID":"LTMW3","Station_Nam":"LAKE TOMAHAWK 2 SE","Latitude":"45.80750","Longitude":"-89.55830","Snowdepth":"15.000","Units":"in","Rept_Date":"2021-02-24 13"},"coordinates":[1803,6316]},{"type":"Point","properties":{"Station_ID":"LSXI4","Station_Nam":"LITTLE SIOUX,IA","Latitude":"41.81670","Longitude":"-96.01670","Snowdepth":"15.000","Units":"in","Rept_Date":"2021-02-24 13"},"coordinates":[287,3833]},{"type":"Point","properties":{"Station_ID":"LODW3","Station_Nam":"LODI","Latitude":"43.32170","Longitude":"-89.53110","Snowdepth":"15.000","Units":"in","Rept_Date":"2021-02-24 13"},"coordinates":[1809,4770]},{"type":"Point","properties":{"Station_ID":"LNKM1","Station_Nam":"LINCOLN SANITARY DISTRICT/WTP","Latitude":"45.37520","Longitude":"-68.50820","Snowdepth":"15.000","Units":"in","Rept_Date":"2021-02-24 12"},"coordinates":[6743,6047]},{"type":"Point","properties":{"Station_ID":"IMNM4","Station_Nam":"IRON MOUTAIN 5N","Latitude":"45.87580","Longitude":"-88.04030","Snowdepth":"15.000","Units":"in","Rept_Date":"2021-02-24 13"},"coordinates":[2159,6359]},{"type":"Point","properties":{"Station_ID":"IL-CR-12","Station_Nam":"MOUNT CARROLL 6.8 NNW, IL","Latitude":"42.18735","Longitude":"-90.02185","Snowdepth":"15.000","Units":"in","Rept_Date":"2021-02-24 13"},"coordinates":[1694,4064]},{"type":"Point","properties":{"Station_ID":"GLDM4","Station_Nam":"GLADSTONE NO. 2","Latitude":"45.84330","Longitude":"-87.03910","Snowdepth":"15.000","Units":"in","Rept_Date":"2021-02-24 12"},"coordinates":[2394,6339]},{"type":"Point","properties":{"Station_ID":"GERW3","Station_Nam":"GERMANTOWN,WI","Latitude":"43.21670","Longitude":"-88.11670","Snowdepth":"15.000","Units":"in","Rept_Date":"2021-02-24 13"},"coordinates":[2141,4704]},{"type":"Point","properties":{"Station_ID":"FUTN6","Station_Nam":"FULTON","Latitude":"43.30500","Longitude":"-76.39380","Snowdepth":"15.000","Units":"in","Rept_Date":"2021-02-24 12"},"coordinates":[4892,4759]},{"type":"Point","properties":{"Station_ID":"EJNM4","Station_Nam":"EAST JORDAN 2NW","Latitude":"45.18630","Longitude":"-85.14770","Snowdepth":"15.000","Units":"in","Rept_Date":"2021-02-24 13"},"coordinates":[2838,5930]},{"type":"Point","properties":{"Station_ID":"CSPP1","Station_Nam":"COUDERSPORT 1 SW","Latitude":"41.77500","Longitude":"-78.04170","Snowdepth":"15.000","Units":"in","Rept_Date":"2021-02-24 12"},"coordinates":[4505,3808]},{"type":"Point","properties":{"Station_ID":"CRVW3","Station_Nam":"CRIVITZ HIGH FALLS","Latitude":"45.35750","Longitude":"-88.19190","Snowdepth":"15.000","Units":"in","Rept_Date":"2021-02-24 13"},"coordinates":[2123,6036]},{"type":"Point","properties":{"Station_ID":"CAN-QC-57","Station_Nam":"ACTON VALE 1.3 N, CAN","Latitude":"45.65868","Longitude":"-72.56645","Snowdepth":"15.000","Units":"in","Rept_Date":"2021-02-24 13"},"coordinates":[5790,6224]},{"type":"Point","properties":{"Station_ID":"BWTN6","Station_Nam":"BREWERTON LOCK 23","Latitude":"43.23860","Longitude":"-76.19640","Snowdepth":"15.000","Units":"in","Rept_Date":"2021-02-24 12"},"coordinates":[4938,4718]},{"type":"Point","properties":{"Station_ID":"BROW3","Station_Nam":"BRODHEAD,WI","Latitude":"42.61720","Longitude":"-89.38970","Snowdepth":"15.000","Units":"in","Rept_Date":"2021-02-24 13"},"coordinates":[1842,4331]},{"type":"Point","properties":{"Station_ID":"BDFP1","Station_Nam":"BRADFORD,PA","Latitude":"41.95000","Longitude":"-78.73330","Snowdepth":"15.000","Units":"in","Rept_Date":"2021-02-24 13"},"coordinates":[4343,3916]},{"type":"Point","properties":{"Station_ID":"AVTW3","Station_Nam":"ARBOR VITAE-JOHNSON LAKE","Latitude":"45.89940","Longitude":"-89.72670","Snowdepth":"15.000","Units":"in","Rept_Date":"2021-02-24 12"},"coordinates":[1763,6373]},{"type":"Point","properties":{"Station_ID":"IL-CK-347","Station_Nam":"STREAMWOOD 1.1 WSW, IL","Latitude":"42.01288","Longitude":"-88.19227","Snowdepth":"14.800","Units":"in","Rept_Date":"2021-02-24 13"},"coordinates":[2123,3956]},{"type":"Point","properties":{"Station_ID":"VT-CL-23","Station_Nam":"RYEGATE 1.5 N, VT","Latitude":"44.23024","Longitude":"-72.10523","Snowdepth":"14.600","Units":"in","Rept_Date":"2021-02-24 12"},"coordinates":[5899,5335]},{"type":"Point","properties":{"Station_ID":"CATQ6","Station_Nam":"CAT LAKE","Latitude":"51.72690","Longitude":"-91.82210","Snowdepth":"14.530","Units":"in","Rept_Date":"2021-02-25 06"},"coordinates":[1271,9999]},{"type":"Point","properties":{"Station_ID":"WI-DG-20","Station_Nam":"SOLON SPRINGS 1.2 W, WI","Latitude":"46.35217","Longitude":"-91.84405","Snowdepth":"14.500","Units":"in","Rept_Date":"2021-02-24 13"},"coordinates":[1266,6655]},{"type":"Point","properties":{"Station_ID":"WI-DA-99","Station_Nam":"FITCHBURG 1.1 NW, WI","Latitude":"42.99740","Longitude":"-89.44046","Snowdepth":"14.500","Units":"in","Rept_Date":"2021-02-24 13"},"coordinates":[1830,4568]},{"type":"Point","properties":{"Station_ID":"WI-DA-45","Station_Nam":"MADISON 6.1 W, WI","Latitude":"43.06948","Longitude":"-89.50788","Snowdepth":"14.500","Units":"in","Rept_Date":"2021-02-24 13"},"coordinates":[1814,4613]},{"type":"Point","properties":{"Station_ID":"WI-CB-5","Station_Nam":"PORTAGE 7.2 SW, WI","Latitude":"43.47933","Longitude":"-89.57370","Snowdepth":"14.500","Units":"in","Rept_Date":"2021-02-24 13"},"coordinates":[1799,4868]},{"type":"Point","properties":{"Station_ID":"PA-EL-1","Station_Nam":"ST. MARYS 1.7 SE, PA","Latitude":"41.41069","Longitude":"-78.53480","Snowdepth":"14.500","Units":"in","Rept_Date":"2021-02-24 11"},"coordinates":[4390,3581]},{"type":"Point","properties":{"Station_ID":"NY-ER-50","Station_Nam":"EAST AURORA 0.1 ENE, NY","Latitude":"42.76750","Longitude":"-78.61580","Snowdepth":"14.500","Units":"in","Rept_Date":"2021-02-24 12"},"coordinates":[4371,4425]},{"type":"Point","properties":{"Station_ID":"NY-ER-138","Station_Nam":"EAST AURORA 3.4 NNE, NY","Latitude":"42.81400","Longitude":"-78.59670","Snowdepth":"14.500","Units":"in","Rept_Date":"2021-02-24 12"},"coordinates":[4375,4454]},{"type":"Point","properties":{"Station_ID":"NJ-UN-10","Station_Nam":"NEW PROVIDENCE 0.8 ESE, NJ","Latitude":"40.69450","Longitude":"-74.38980","Snowdepth":"14.500","Units":"in","Rept_Date":"2021-02-24 12"},"coordinates":[5362,3135]},{"type":"Point","properties":{"Station_ID":"NJ-MS-71","Station_Nam":"DENVILLE TWP 1.5 ESE, NJ","Latitude":"40.88053","Longitude":"-74.46310","Snowdepth":"14.500","Units":"in","Rept_Date":"2021-02-24 12"},"coordinates":[5345,3251]},{"type":"Point","properties":{"Station_ID":"NH-MR-45","Station_Nam":"NORTHFIELD 2.8 E, NH","Latitude":"43.43945","Longitude":"-71.53730","Snowdepth":"14.500","Units":"in","Rept_Date":"2021-02-24 10"},"coordinates":[6032,4843]},{"type":"Point","properties":{"Station_ID":"NH-CS-7","Station_Nam":"LANCASTER 0.5 N, NH","Latitude":"44.49611","Longitude":"-71.57640","Snowdepth":"14.500","Units":"in","Rept_Date":"2021-02-24 11"},"coordinates":[6023,5500]},{"type":"Point","properties":{"Station_ID":"MN-SL-105","Station_Nam":"DULUTH 11.8 NNE, MN","Latitude":"46.94680","Longitude":"-92.03925","Snowdepth":"14.500","Units":"in","Rept_Date":"2021-02-24 14"},"coordinates":[1220,7025]},{"type":"Point","properties":{"Station_ID":"MI-CX-7","Station_Nam":"EAST JORDAN 2.1 NNW, MI","Latitude":"45.18639","Longitude":"-85.14750","Snowdepth":"14.500","Units":"in","Rept_Date":"2021-02-24 13"},"coordinates":[2838,5930]},{"type":"Point","properties":{"Station_ID":"MI-AT-6","Station_Nam":"MANCELONA 0.5 ESE, MI","Latitude":"44.89981","Longitude":"-85.05100","Snowdepth":"14.500","Units":"in","Rept_Date":"2021-02-24 13"},"coordinates":[2860,5752]},{"type":"Point","properties":{"Station_ID":"MA-HS-2","Station_Nam":"WESTHAMPTON 1.8 SW, MA","Latitude":"42.27943","Longitude":"-72.78700","Snowdepth":"14.500","Units":"in","Rept_Date":"2021-02-24 12"},"coordinates":[5739,4121]},{"type":"Point","properties":{"Station_ID":"MA-FR-17","Station_Nam":"BUCKLAND 1.8 ESE, MA","Latitude":"42.58900","Longitude":"-72.75110","Snowdepth":"14.500","Units":"in","Rept_Date":"2021-02-24 13"},"coordinates":[5747,4314]},{"type":"Point","properties":{"Station_ID":"IL-DP-157","Station_Nam":"WEST CHICAGO 3.5 NNE, IL","Latitude":"41.93718","Longitude":"-88.19884","Snowdepth":"14.500","Units":"in","Rept_Date":"2021-02-24 13"},"coordinates":[2122,3908]},{"type":"Point","properties":{"Station_ID":"IA-SH-6","Station_Nam":"KIRKMAN 1.0 SE, IA","Latitude":"41.71810","Longitude":"-95.25310","Snowdepth":"14.500","Units":"in","Rept_Date":"2021-02-24 13"},"coordinates":[466,3772]},{"type":"Point","properties":{"Station_ID":"CAN-ON-451","Station_Nam":"OWEN SOUND 1.2 N - GSCA, CAN","Latitude":"44.58092","Longitude":"-80.93025","Snowdepth":"14.500","Units":"in","Rept_Date":"2021-02-24 13"},"coordinates":[3827,5553]},{"type":"Point","properties":{"Station_ID":"BDKP1","Station_Nam":"SHORT RUN SNOW","Latitude":"41.60000","Longitude":"-77.78330","Snowdepth":"14.500","Units":"in","Rept_Date":"2021-02-24 18"},"coordinates":[4566,3699]},{"type":"Point","properties":{"Station_ID":"QLM","Station_Nam":"QLM","Latitude":"48.92030","Longitude":"-70.25280","Snowdepth":"14.409","Units":"in","Rept_Date":"2021-02-24 12"},"coordinates":[6333,8253]},{"type":"Point","properties":{"Station_ID":"NY-CY-31","Station_Nam":"SCIPIO CENTER 3.0 S, NY","Latitude":"42.74002","Longitude":"-76.55682","Snowdepth":"14.200","Units":"in","Rept_Date":"2021-02-24 12"},"coordinates":[4854,4408]},{"type":"Point","properties":{"Station_ID":"WODI2","Station_Nam":"WOODSTOCK","Latitude":"42.36280","Longitude":"-88.53140","Snowdepth":"14.000","Units":"in","Rept_Date":"2021-02-24 13"},"coordinates":[2044,4173]},{"type":"Point","properties":{"Station_ID":"WLXP1","Station_Nam":"GLEN HAZEL,PA","Latitude":"41.56670","Longitude":"-78.60000","Snowdepth":"14.000","Units":"in","Rept_Date":"2021-02-24 12"},"coordinates":[4374,3678]},{"type":"Point","properties":{"Station_ID":"WI-WK-34","Station_Nam":"MUKWONAGO 5.3 W, WI","Latitude":"42.85380","Longitude":"-88.43550","Snowdepth":"14.000","Units":"in","Rept_Date":"2021-02-24 13"},"coordinates":[2066,4479]},{"type":"Point","properties":{"Station_ID":"WI-VL-14","Station_Nam":"BOULDER JUNCTION 1.4 NE, WI","Latitude":"46.12840","Longitude":"-89.62470","Snowdepth":"14.000","Units":"in","Rept_Date":"2021-02-24 13"},"coordinates":[1787,6516]},{"type":"Point","properties":{"Station_ID":"WI-SC-21","Station_Nam":"CLEAR LAKE 4.0 S, WI","Latitude":"45.19250","Longitude":"-92.27860","Snowdepth":"14.000","Units":"in","Rept_Date":"2021-02-24 14"},"coordinates":[1164,5934]},{"type":"Point","properties":{"Station_ID":"WI-ON-8","Station_Nam":"HAZELHURST 2.1 SSE, WI","Latitude":"45.78186","Longitude":"-89.70330","Snowdepth":"14.000","Units":"in","Rept_Date":"2021-02-24 13"},"coordinates":[1768,6300]},{"type":"Point","properties":{"Station_ID":"WI-IW-3","Station_Nam":"MINERAL POINT 7.3 ENE, WI","Latitude":"42.91400","Longitude":"-90.05700","Snowdepth":"14.000","Units":"in","Rept_Date":"2021-02-24 13"},"coordinates":[1685,4516]},{"type":"Point","properties":{"Station_ID":"WI-DA-87","Station_Nam":"DUNKIRK 0.1 NW, WI","Latitude":"42.88356","Longitude":"-89.21056","Snowdepth":"14.000","Units":"in","Rept_Date":"2021-02-24 12"},"coordinates":[1884,4497]},{"type":"Point","properties":{"Station_ID":"WI-BY-6","Station_Nam":"BARNES 2.2 S, WI","Latitude":"46.30264","Longitude":"-91.50320","Snowdepth":"14.000","Units":"in","Rept_Date":"2021-02-24 13"},"coordinates":[1346,6624]},{"type":"Point","properties":{"Station_ID":"VT-OG-14","Station_Nam":"BRADFORD 2.2 NNW, VT","Latitude":"44.02268","Longitude":"-72.14756","Snowdepth":"14.000","Units":"in","Rept_Date":"2021-02-24 13"},"coordinates":[5889,5206]},{"type":"Point","properties":{"Station_ID":"VANM1","Station_Nam":"VAN BUREN","Latitude":"47.16600","Longitude":"-67.93900","Snowdepth":"14.000","Units":"in","Rept_Date":"2021-02-24 12"},"coordinates":[6876,7161]},{"type":"Point","properties":{"Station_ID":"UVDV1","Station_Nam":"NERON SITE AT UNION VILLAGE DAM","Latitude":"43.79140","Longitude":"-72.25720","Snowdepth":"14.000","Units":"in","Rept_Date":"2021-02-24 12"},"coordinates":[5863,5062]},{"type":"Point","properties":{"Station_ID":"STGW3","Station_Nam":"ST GERMAIN","Latitude":"45.91550","Longitude":"-89.48940","Snowdepth":"14.000","Units":"in","Rept_Date":"2021-02-24 12"},"coordinates":[1819,6383]},{"type":"Point","properties":{"Station_ID":"SPGM5","Station_Nam":"SPRING VALLEY","Latitude":"43.69330","Longitude":"-92.39260","Snowdepth":"14.000","Units":"in","Rept_Date":"2021-02-24 13"},"coordinates":[1137,5001]},