{"type":"Topology","objects":{"snowdepth_geo":{"type":"GeometryCollection","name":"snowdepth","crs":{"type":"name","properties":{"name":"urn:ogc:def:crs:OGC:1.3:CRS84"}},"geometries":[{"type":"Point","properties":{"Station_ID":"PRKM4","Station_Nam":"MUNISING EAST","Latitude":"46.42580","Longitude":"-86.62000","Snowdepth":"76.500","Units":"in","Rept_Date":"2021-02-15 06"},"coordinates":[2493,7249]},{"type":"Point","properties":{"Station_ID":"NFGT1","Station_Nam":"NEW FOUND GAP","Latitude":"35.61080","Longitude":"-83.42890","Snowdepth":"70.770","Units":"in","Rept_Date":"2021-02-15 06"},"coordinates":[3242,1640]},{"type":"Point","properties":{"Station_ID":"PDLM4","Station_Nam":"PAINESDALE","Latitude":"47.04160","Longitude":"-88.67170","Snowdepth":"49.000","Units":"in","Rept_Date":"2021-02-14 13"},"coordinates":[2012,7569]},{"type":"Point","properties":{"Station_ID":"MI-SH-1","Station_Nam":"MANISTIQUE 2.7 NW, MI","Latitude":"45.99042","Longitude":"-86.28266","Snowdepth":"47.000","Units":"in","Rept_Date":"2021-02-14 11"},"coordinates":[2572,7023]},{"type":"Point","properties":{"Station_ID":"MMNV1","Station_Nam":"MT. MANSFIELD","Latitude":"44.52480","Longitude":"-72.81540","Snowdepth":"45.000","Units":"in","Rept_Date":"2021-02-14 21"},"coordinates":[5733,6263]},{"type":"Point","properties":{"Station_ID":"CLUM4","Station_Nam":"CALUMET-TAMARACK","Latitude":"47.24550","Longitude":"-88.46790","Snowdepth":"45.000","Units":"in","Rept_Date":"2021-02-14 14"},"coordinates":[2060,7674]},{"type":"Point","properties":{"Station_ID":"KSGM4","Station_Nam":"KEARSARGE","Latitude":"47.27520","Longitude":"-88.41700","Snowdepth":"44.000","Units":"in","Rept_Date":"2021-02-14 13"},"coordinates":[2072,7690]},{"type":"Point","properties":{"Station_ID":"HTLN3","Station_Nam":"HERMIT LAKE SNOWPLOT","Latitude":"44.26130","Longitude":"-71.28330","Snowdepth":"43.000","Units":"in","Rept_Date":"2021-02-14 10"},"coordinates":[6092,6127]},{"type":"Point","properties":{"Station_ID":"HLSN3","Station_Nam":"HERMIT LAKE SNOTEL","Latitude":"44.26130","Longitude":"-71.28320","Snowdepth":"38.580","Units":"in","Rept_Date":"2021-02-15 06"},"coordinates":[6092,6127]},{"type":"Point","properties":{"Station_ID":"QNCM4","Station_Nam":"QUINCY HILL","Latitude":"47.13640","Longitude":"-88.57950","Snowdepth":"37.000","Units":"in","Rept_Date":"2021-02-14 13"},"coordinates":[2033,7618]},{"type":"Point","properties":{"Station_ID":"MI-HG-20","Station_Nam":"CALUMET 1.1 SSW, MI","Latitude":"47.23165","Longitude":"-88.45823","Snowdepth":"36.000","Units":"in","Rept_Date":"2021-02-14 13"},"coordinates":[2062,7667]},{"type":"Point","properties":{"Station_ID":"RDFN6","Station_Nam":"REDFIELD 8N","Latitude":"43.64130","Longitude":"-75.88400","Snowdepth":"35.000","Units":"in","Rept_Date":"2021-02-14 12"},"coordinates":[5013,5805]},{"type":"Point","properties":{"Station_ID":"GNLM4","Station_Nam":"GREENLAND 6N","Latitude":"46.87360","Longitude":"-89.10060","Snowdepth":"35.000","Units":"in","Rept_Date":"2021-02-14 13"},"coordinates":[1911,7482]},{"type":"Point","properties":{"Station_ID":"PTLQ6","Station_Nam":"PORTAGE LAKE","Latitude":"49.06950","Longitude":"-86.65940","Snowdepth":"33.310","Units":"in","Rept_Date":"2021-02-15 06"},"coordinates":[2484,8621]},{"type":"Point","properties":{"Station_ID":"HGHN6","Station_Nam":"HIGHMARKET","Latitude":"43.60510","Longitude":"-75.55430","Snowdepth":"32.000","Units":"in","Rept_Date":"2021-02-14 11"},"coordinates":[5090,5786]},{"type":"Point","properties":{"Station_ID":"GMSM4","Station_Nam":"GRAND MARAIS 10S","Latitude":"46.50940","Longitude":"-85.96310","Snowdepth":"31.000","Units":"in","Rept_Date":"2021-02-14 12"},"coordinates":[2647,7293]},{"type":"Point","properties":{"Station_ID":"MI-KW-2","Station_Nam":"DELAWARE 5.2 SW, MI","Latitude":"47.36928","Longitude":"-88.17919","Snowdepth":"30.000","Units":"in","Rept_Date":"2021-02-14 09"},"coordinates":[2127,7739]},{"type":"Point","properties":{"Station_ID":"TRIQ6","Station_Nam":"TRIO LAKE","Latitude":"49.22880","Longitude":"-87.22920","Snowdepth":"29.610","Units":"in","Rept_Date":"2021-02-15 06"},"coordinates":[2350,8703]},{"type":"Point","properties":{"Station_ID":"NH-CS-10","Station_Nam":"RANDOLPH 1.4 NE, NH","Latitude":"44.38824","Longitude":"-71.26950","Snowdepth":"29.000","Units":"in","Rept_Date":"2021-02-14 12"},"coordinates":[6095,6192]},{"type":"Point","properties":{"Station_ID":"VT-BN-12","Station_Nam":"STAMFORD 5.0 NNE, VT","Latitude":"42.82000","Longitude":"-73.02000","Snowdepth":"28.000","Units":"in","Rept_Date":"2021-02-14 21"},"coordinates":[5685,5379]},{"type":"Point","properties":{"Station_ID":"PERV1","Station_Nam":"PERU","Latitude":"43.26670","Longitude":"-72.90000","Snowdepth":"28.000","Units":"in","Rept_Date":"2021-02-14 12"},"coordinates":[5713,5611]},{"type":"Point","properties":{"Station_ID":"MTQM4","Station_Nam":"MANISTIQUE WWTP","Latitude":"45.95120","Longitude":"-86.25130","Snowdepth":"28.000","Units":"in","Rept_Date":"2021-02-14 12"},"coordinates":[2580,7003]},{"type":"Point","properties":{"Station_ID":"MNSM4","Station_Nam":"MUNISING","Latitude":"46.41210","Longitude":"-86.66250","Snowdepth":"28.000","Units":"in","Rept_Date":"2021-02-14 11"},"coordinates":[2483,7242]},{"type":"Point","properties":{"Station_ID":"DVLQ6","Station_Nam":"DEVIOUS LAKE","Latitude":"49.19890","Longitude":"-87.76440","Snowdepth":"27.800","Units":"in","Rept_Date":"2021-02-15 06"},"coordinates":[2225,8688]},{"type":"Point","properties":{"Station_ID":"MI-EM-8","Station_Nam":"PETOSKEY 1.7 SSW, MI","Latitude":"45.34209","Longitude":"-84.96530","Snowdepth":"27.000","Units":"in","Rept_Date":"2021-02-14 17"},"coordinates":[2882,6687]},{"type":"Point","properties":{"Station_ID":"EHYM3","Station_Nam":"EAST HAWLEY","Latitude":"42.57410","Longitude":"-72.86790","Snowdepth":"27.000","Units":"in","Rept_Date":"2021-02-14 13"},"coordinates":[5720,5251]},{"type":"Point","properties":{"Station_ID":"BOON6","Station_Nam":"BOONVILLE 4 SSW","Latitude":"43.43610","Longitude":"-75.36970","Snowdepth":"27.000","Units":"in","Rept_Date":"2021-02-14 12"},"coordinates":[5133,5699]},{"type":"Point","properties":{"Station_ID":"WNDP1","Station_Nam":"WINDBER COUNTY CLUB","Latitude":"40.28780","Longitude":"-78.77530","Snowdepth":"26.000","Units":"in","Rept_Date":"2021-02-14 12"},"coordinates":[4334,4066]},{"type":"Point","properties":{"Station_ID":"PARM4","Station_Nam":"PARENT BAY","Latitude":"45.79610","Longitude":"-86.40110","Snowdepth":"26.000","Units":"in","Rept_Date":"2021-02-14 14"},"coordinates":[2545,6923]},{"type":"Point","properties":{"Station_ID":"LBKV1","Station_Nam":"LYE BROOK","Latitude":"43.05000","Longitude":"-73.03330","Snowdepth":"26.000","Units":"in","Rept_Date":"2021-02-15 06"},"coordinates":[5681,5498]},{"type":"Point","properties":{"Station_ID":"AUDQ6","Station_Nam":"AUDEN","Latitude":"48.52600","Longitude":"-82.57570","Snowdepth":"25.390","Units":"in","Rept_Date":"2021-02-15 06"},"coordinates":[3442,8339]},{"type":"Point","properties":{"Station_ID":"QGO","Station_Nam":"QGO","Latitude":"48.85500","Longitude":"-74.20640","Snowdepth":"25.197","Units":"in","Rept_Date":"2021-02-14 12"},"coordinates":[5406,8509]},{"type":"Point","properties":{"Station_ID":"VT-BN-3","Station_Nam":"LANDGROVE 1.1 NNE, VT","Latitude":"43.29092","Longitude":"-72.83260","Snowdepth":"25.000","Units":"in","Rept_Date":"2021-02-14 12"},"coordinates":[5729,5623]},{"type":"Point","properties":{"Station_ID":"NY-HR-18","Station_Nam":"SALISBURY CENTER 1.8 NW, NY","Latitude":"43.16260","Longitude":"-74.80880","Snowdepth":"25.000","Units":"in","Rept_Date":"2021-02-14 11"},"coordinates":[5265,5557]},{"type":"Point","properties":{"Station_ID":"BRAM1","Station_Nam":"BRASSUA DAM","Latitude":"45.66020","Longitude":"-69.81190","Snowdepth":"25.000","Units":"in","Rept_Date":"2021-02-14 12"},"coordinates":[6437,6852]},{"type":"Point","properties":{"Station_ID":"QLB","Station_Nam":"QLB","Latitude":"50.72360","Longitude":"-75.10000","Snowdepth":"24.764","Units":"in","Rept_Date":"2021-02-14 12"},"coordinates":[5197,9479]},{"type":"Point","properties":{"Station_ID":"ROWM3","Station_Nam":"ROWE 3NE","Latitude":"42.73500","Longitude":"-72.86920","Snowdepth":"24.000","Units":"in","Rept_Date":"2021-02-14 12"},"coordinates":[5720,5335]},{"type":"Point","properties":{"Station_ID":"ME-FR-2","Station_Nam":"TEMPLE 1.8 W, ME","Latitude":"44.68329","Longitude":"-70.26420","Snowdepth":"24.000","Units":"in","Rept_Date":"2021-02-14 11"},"coordinates":[6331,6345]},{"type":"Point","properties":{"Station_ID":"LVDW3","Station_Nam":"LAC VIEUX DESERT","Latitude":"46.12110","Longitude":"-89.07580","Snowdepth":"24.000","Units":"in","Rept_Date":"2021-02-14 15"},"coordinates":[1917,7091]},{"type":"Point","properties":{"Station_ID":"JEFV1","Station_Nam":"JEFFERSONVILLE","Latitude":"44.58430","Longitude":"-72.78700","Snowdepth":"24.000","Units":"in","Rept_Date":"2021-02-14 12"},"coordinates":[5739,6294]},{"type":"Point","properties":{"Station_ID":"HERM4","Station_Nam":"HERMAN,MI","Latitude":"46.65000","Longitude":"-88.33330","Snowdepth":"24.000","Units":"in","Rept_Date":"2021-02-14 13"},"coordinates":[2091,7366]},{"type":"Point","properties":{"Station_ID":"GHMN3","Station_Nam":"PINKHAM NOTCH","Latitude":"44.25800","Longitude":"-71.25250","Snowdepth":"24.000","Units":"in","Rept_Date":"2021-02-14 11"},"coordinates":[6099,6125]},{"type":"Point","properties":{"Station_ID":"CHRM4","Station_Nam":"CHARLEVOIX","Latitude":"45.31720","Longitude":"-85.26720","Snowdepth":"24.000","Units":"in","Rept_Date":"2021-02-14 13"},"coordinates":[2811,6674]},{"type":"Point","properties":{"Station_ID":"BERM4","Station_Nam":"BERGLAND DAM","Latitude":"46.58690","Longitude":"-89.54750","Snowdepth":"24.000","Units":"in","Rept_Date":"2021-02-14 13"},"coordinates":[1806,7333]},{"type":"Point","properties":{"Station_ID":"VT-WR-17","Station_Nam":"ROCHESTER 2.3 NE, VT","Latitude":"43.89418","Longitude":"-72.76992","Snowdepth":"23.000","Units":"in","Rept_Date":"2021-02-14 12"},"coordinates":[5743,5936]},{"type":"Point","properties":{"Station_ID":"VT-WH-19","Station_Nam":"EAST DOVER 1.8 N, VT","Latitude":"42.97658","Longitude":"-72.77637","Snowdepth":"23.000","Units":"in","Rept_Date":"2021-02-14 13"},"coordinates":[5742,5460]},{"type":"Point","properties":{"Station_ID":"PHEW3","Station_Nam":"PHELPS","Latitude":"46.06630","Longitude":"-89.07520","Snowdepth":"23.000","Units":"in","Rept_Date":"2021-02-14 13"},"coordinates":[1917,7063]},{"type":"Point","properties":{"Station_ID":"NY-LW-12","Station_Nam":"CHASES LAKE COOP, NY","Latitude":"43.75924","Longitude":"-75.29982","Snowdepth":"23.000","Units":"in","Rept_Date":"2021-02-14 12"},"coordinates":[5150,5866]},{"type":"Point","properties":{"Station_ID":"GFDN6","Station_Nam":"CHASES LAKE","Latitude":"43.75920","Longitude":"-75.29980","Snowdepth":"23.000","Units":"in","Rept_Date":"2021-02-14 11"},"coordinates":[5150,5866]},{"type":"Point","properties":{"Station_ID":"CAN-ON-245","Station_Nam":"PHELPSTON 3.1 ESE, CAN","Latitude":"44.50564","Longitude":"-79.81035","Snowdepth":"23.000","Units":"in","Rept_Date":"2021-02-14 11"},"coordinates":[4091,6253]},{"type":"Point","properties":{"Station_ID":"NY-HM-1","Station_Nam":"SPECULATOR 10.0 SSW, NY","Latitude":"43.45133","Longitude":"-74.47120","Snowdepth":"22.500","Units":"in","Rept_Date":"2021-02-14 12"},"coordinates":[5344,5706]},{"type":"Point","properties":{"Station_ID":"PTBN3","Station_Nam":"PITTSBURG RESERVOIR","Latitude":"45.04690","Longitude":"-71.38300","Snowdepth":"22.000","Units":"in","Rept_Date":"2021-02-14 12"},"coordinates":[6069,6534]},{"type":"Point","properties":{"Station_ID":"OCON6","Station_Nam":"OSCEOLA","Latitude":"43.50370","Longitude":"-75.72170","Snowdepth":"22.000","Units":"in","Rept_Date":"2021-02-14 13"},"coordinates":[5051,5734]},{"type":"Point","properties":{"Station_ID":"NY-HM-10","Station_Nam":"LAKE PLEASANT 2.3 WSW, NY","Latitude":"43.45490","Longitude":"-74.45287","Snowdepth":"22.000","Units":"in","Rept_Date":"2021-02-14 12"},"coordinates":[5348,5708]},{"type":"Point","properties":{"Station_ID":"MONW3","Station_Nam":"MONROE,WI","Latitude":"42.60000","Longitude":"-89.66670","Snowdepth":"22.000","Units":"in","Rept_Date":"2021-02-14 13"},"coordinates":[1778,5265]},{"type":"Point","properties":{"Station_ID":"LPLN6","Station_Nam":"LAKE PLACID 2 S","Latitude":"44.30420","Longitude":"-73.98390","Snowdepth":"22.000","Units":"in","Rept_Date":"2021-02-14 13"},"coordinates":[5458,6149]},{"type":"Point","properties":{"Station_ID":"IL-SP-27","Station_Nam":"DAVIS 2.7 N, IL","Latitude":"42.46110","Longitude":"-89.40890","Snowdepth":"22.000","Units":"in","Rept_Date":"2021-02-14 13"},"coordinates":[1839,5193]},{"type":"Point","properties":{"Station_ID":"FISM1","Station_Nam":"FORT KENT COOP","Latitude":"47.23850","Longitude":"-68.61240","Snowdepth":"22.000","Units":"in","Rept_Date":"2021-02-14 12"},"coordinates":[6719,7671]},{"type":"Point","properties":{"Station_ID":"NY-ES-11","Station_Nam":"VERMONTVILLE 2.8 S, NY","Latitude":"44.41205","Longitude":"-74.06760","Snowdepth":"21.500","Units":"in","Rept_Date":"2021-02-14 12"},"coordinates":[5439,6205]},{"type":"Point","properties":{"Station_ID":"ME-SM-45","Station_Nam":"BRIGHTON PLANTATION 2.1 N, ME","Latitude":"45.07098","Longitude":"-69.69860","Snowdepth":"21.500","Units":"in","Rept_Date":"2021-02-14 12"},"coordinates":[6464,6547]},{"type":"Point","properties":{"Station_ID":"MA-WR-56","Station_Nam":"STERLING 4.3 NW, MA","Latitude":"42.47540","Longitude":"-71.81140","Snowdepth":"21.500","Units":"in","Rept_Date":"2021-02-14 12"},"coordinates":[5968,5200]},{"type":"Point","properties":{"Station_ID":"IA-BC-9","Station_Nam":"WINTHROP 5.6 NNE, IA","Latitude":"42.55206","Longitude":"-91.70663","Snowdepth":"21.300","Units":"in","Rept_Date":"2021-02-14 15"},"coordinates":[1300,5240]},{"type":"Point","properties":{"Station_ID":"WLFM5","Station_Nam":"WOLF RIDGE ENVIRON LEARNING CENTER","Latitude":"47.38240","Longitude":"-91.19730","Snowdepth":"21.000","Units":"in","Rept_Date":"2021-02-14 13"},"coordinates":[1419,7745]},{"type":"Point","properties":{"Station_ID":"VT-WR-2","Station_Nam":"POMFRET 2.6 N, VT","Latitude":"43.74230","Longitude":"-72.52550","Snowdepth":"21.000","Units":"in","Rept_Date":"2021-02-14 12"},"coordinates":[5801,5857]},{"type":"Point","properties":{"Station_ID":"RKWM1","Station_Nam":"MOOSEHEAD LAKE","Latitude":"45.58330","Longitude":"-69.71670","Snowdepth":"21.000","Units":"in","Rept_Date":"2021-02-14 12"},"coordinates":[6460,6812]},{"type":"Point","properties":{"Station_ID":"NY-FK-9","Station_Nam":"GABRIELS 1.3 SE, NY","Latitude":"44.41934","Longitude":"-74.16194","Snowdepth":"21.000","Units":"in","Rept_Date":"2021-02-14 12"},"coordinates":[5417,6209]},{"type":"Point","properties":{"Station_ID":"NY-FK-7","Station_Nam":"SARANAC LAKE 6.2 N, NY","Latitude":"44.41359","Longitude":"-74.15211","Snowdepth":"21.000","Units":"in","Rept_Date":"2021-02-14 12"},"coordinates":[5419,6206]},{"type":"Point","properties":{"Station_ID":"NY-CL-12","Station_Nam":"SARANAC 0.8 SSE, NY","Latitude":"44.63980","Longitude":"-73.73848","Snowdepth":"21.000","Units":"in","Rept_Date":"2021-02-14 12"},"coordinates":[5516,6323]},{"type":"Point","properties":{"Station_ID":"NJ-SS-54","Station_Nam":"SPARTA TWP 3.6 SSW, NJ","Latitude":"41.00503","Longitude":"-74.66358","Snowdepth":"21.000","Units":"in","Rept_Date":"2021-02-14 12"},"coordinates":[5299,4438]},{"type":"Point","properties":{"Station_ID":"MI-OW-2","Station_Nam":"HOLLAND 3.9 NNE, MI","Latitude":"42.82296","Longitude":"-86.06780","Snowdepth":"21.000","Units":"in","Rept_Date":"2021-02-14 11"},"coordinates":[2623,5380]},{"type":"Point","properties":{"Station_ID":"MALN6","Station_Nam":"MALONE","Latitude":"44.84180","Longitude":"-74.30600","Snowdepth":"21.000","Units":"in","Rept_Date":"2021-02-14 12"},"coordinates":[5383,6428]},{"type":"Point","properties":{"Station_ID":"MA-HS-7","Station_Nam":"PLAINFIELD 2.2 SW, MA","Latitude":"42.49272","Longitude":"-72.94540","Snowdepth":"21.000","Units":"in","Rept_Date":"2021-02-14 14"},"coordinates":[5702,5209]},{"type":"Point","properties":{"Station_ID":"IL-DP-155","Station_Nam":"MEDINAH 1.0 SSW, IL","Latitude":"41.96360","Longitude":"-88.06590","Snowdepth":"21.000","Units":"in","Rept_Date":"2021-02-14 14"},"coordinates":[2154,4935]},{"type":"Point","properties":{"Station_ID":"HRTM1","Station_Nam":"HARTFORD","Latitude":"44.37440","Longitude":"-70.31620","Snowdepth":"21.000","Units":"in","Rept_Date":"2021-02-14 12"},"coordinates":[6319,6185]},{"type":"Point","properties":{"Station_ID":"CAN-QC-56","Station_Nam":"SUTTON 2.6 N, CAN","Latitude":"45.13119","Longitude":"-72.61218","Snowdepth":"21.000","Units":"in","Rept_Date":"2021-02-14 12"},"coordinates":[5780,6578]},{"type":"Point","properties":{"Station_ID":"BLTW3","Station_Nam":"BELOIT,WI","Latitude":"42.50000","Longitude":"-89.03330","Snowdepth":"21.000","Units":"in","Rept_Date":"2021-02-14 12"},"coordinates":[1927,5213]},{"type":"Point","properties":{"Station_ID":"MI-BG-3","Station_Nam":"THREE LAKES, MI","Latitude":"46.55730","Longitude":"-88.20770","Snowdepth":"20.700","Units":"in","Rept_Date":"2021-02-14 13"},"coordinates":[2121,7318]},{"type":"Point","properties":{"Station_ID":"QTM","Station_Nam":"QTM","Latitude":"51.05780","Longitude":"-72.57190","Snowdepth":"20.669","Units":"in","Rept_Date":"2021-02-14 12"},"coordinates":[5790,9652]},{"type":"Point","properties":{"Station_ID":"VT-WS-33","Station_Nam":"WAITSFIELD 3.5 WNW, VT","Latitude":"44.20052","Longitude":"-72.89421","Snowdepth":"20.500","Units":"in","Rept_Date":"2021-02-14 13"},"coordinates":[5714,6095]},{"type":"Point","properties":{"Station_ID":"IL-LK-69","Station_Nam":"HIGHWOOD 0.9 S, IL","Latitude":"42.19841","Longitude":"-87.81400","Snowdepth":"20.500","Units":"in","Rept_Date":"2021-02-14 13"},"coordinates":[2213,5057]},{"type":"Point","properties":{"Station_ID":"IL-CK-288","Station_Nam":"ROSELLE 0.8 N, IL","Latitude":"41.99255","Longitude":"-88.08422","Snowdepth":"20.500","Units":"in","Rept_Date":"2021-02-14 13"},"coordinates":[2150,4950]},{"type":"Point","properties":{"Station_ID":"WI-RC-3","Station_Nam":"RACINE 2.3 WSW, WI","Latitude":"42.71124","Longitude":"-87.84570","Snowdepth":"20.000","Units":"in","Rept_Date":"2021-02-14 13"},"coordinates":[2206,5323]},{"type":"Point","properties":{"Station_ID":"WI-MW-46","Station_Nam":"WAUWATOSA 1.9 E, WI","Latitude":"43.05863","Longitude":"-87.99600","Snowdepth":"20.000","Units":"in","Rept_Date":"2021-02-14 13"},"coordinates":[2170,5503]},{"type":"Point","properties":{"Station_ID":"WAIV1","Station_Nam":"WAITSFIELD","Latitude":"44.17560","Longitude":"-72.79610","Snowdepth":"20.000","Units":"in","Rept_Date":"2021-02-14 12"},"coordinates":[5737,6082]},{"type":"Point","properties":{"Station_ID":"VT-WS-11","Station_Nam":"WAITSFIELD 1.8 SE, VT","Latitude":"44.17551","Longitude":"-72.79540","Snowdepth":"20.000","Units":"in","Rept_Date":"2021-02-14 12"},"coordinates":[5737,6082]},{"type":"Point","properties":{"Station_ID":"VT-WH-30","Station_Nam":"MARLBORO 2.0 NNE, VT","Latitude":"42.88484","Longitude":"-72.70935","Snowdepth":"20.000","Units":"in","Rept_Date":"2021-02-14 13"},"coordinates":[5757,5413]},{"type":"Point","properties":{"Station_ID":"VT-OL-1","Station_Nam":"WESTFIELD 0.7 WNW, VT","Latitude":"44.89160","Longitude":"-72.44350","Snowdepth":"20.000","Units":"in","Rept_Date":"2021-02-14 12"},"coordinates":[5820,6454]},{"type":"Point","properties":{"Station_ID":"TOPN6","Station_Nam":"TUPPER LAKE SUNMOUNT","Latitude":"44.23070","Longitude":"-74.43820","Snowdepth":"20.000","Units":"in","Rept_Date":"2021-02-14 12"},"coordinates":[5352,6111]},{"type":"Point","properties":{"Station_ID":"SNYI4","Station_Nam":"STANLEY","Latitude":"42.63330","Longitude":"-91.86320","Snowdepth":"20.000","Units":"in","Rept_Date":"2021-02-14 13"},"coordinates":[1263,5282]},{"type":"Point","properties":{"Station_ID":"RKHN6","Station_Nam":"ROCK HILL 3 SW","Latitude":"41.59170","Longitude":"-74.61410","Snowdepth":"20.000","Units":"in","Rept_Date":"2021-02-14 12"},"coordinates":[5311,4742]},{"type":"Point","properties":{"Station_ID":"PRDM4","Station_Nam":"PARADISE","Latitude":"46.60380","Longitude":"-85.03960","Snowdepth":"20.000","Units":"in","Rept_Date":"2021-02-14 11"},"coordinates":[2864,7342]},{"type":"Point","properties":{"Station_ID":"NH-MR-41","Station_Nam":"NEWBURY 1.6 NW, NH","Latitude":"43.33667","Longitude":"-72.06060","Snowdepth":"20.000","Units":"in","Rept_Date":"2021-02-14 12"},"coordinates":[5910,5647]},{"type":"Point","properties":{"Station_ID":"NH-CR-26","Station_Nam":"CENTER SANDWICH 4.9 E, NH","Latitude":"43.80976","Longitude":"-71.34150","Snowdepth":"20.000","Units":"in","Rept_Date":"2021-02-14 12"},"coordinates":[6078,5892]},{"type":"Point","properties":{"Station_ID":"MRLV1","Station_Nam":"MARLBORO","Latitude":"42.86000","Longitude":"-72.72000","Snowdepth":"20.000","Units":"in","Rept_Date":"2021-02-14 13"},"coordinates":[5755,5400]},{"type":"Point","properties":{"Station_ID":"MHRI4","Station_Nam":"MANCHESTER #2","Latitude":"42.47320","Longitude":"-91.45160","Snowdepth":"20.000","Units":"in","Rept_Date":"2021-02-14 13"},"coordinates":[1360,5199]},{"type":"Point","properties":{"Station_ID":"LOWN6","Station_Nam":"LOWVILLE","Latitude":"43.79280","Longitude":"-75.48290","Snowdepth":"20.000","Units":"in","Rept_Date":"2021-02-14 12"},"coordinates":[5107,5884]},{"type":"Point","properties":{"Station_ID":"LAUP1","Station_Nam":"1.5MI S OF RT 30 ON SMIT (LAUREL RIDGE)","Latitude":"40.05000","Longitude":"-79.22060","Snowdepth":"20.000","Units":"in","Rept_Date":"2021-02-14 12"},"coordinates":[4230,3942]},{"type":"Point","properties":{"Station_ID":"IWOM4","Station_Nam":"IRONWOOD#2","Latitude":"46.46520","Longitude":"-90.13820","Snowdepth":"20.000","Units":"in","Rept_Date":"2021-02-14 13"},"coordinates":[1668,7270]},{"type":"Point","properties":{"Station_ID":"HURW3","Station_Nam":"HURLEY","Latitude":"46.46250","Longitude":"-90.19550","Snowdepth":"20.000","Units":"in","Rept_Date":"2021-02-14 14"},"coordinates":[1654,7268]},{"type":"Point","properties":{"Station_ID":"ESDN3","Station_Nam":"EAST SANDWICH","Latitude":"43.80990","Longitude":"-71.34250","Snowdepth":"20.000","Units":"in","Rept_Date":"2021-02-14 11"},"coordinates":[6078,5892]},{"type":"Point","properties":{"Station_ID":"WI-RK-12","Station_Nam":"JANESVILLE 3.1 W, WI","Latitude":"42.67576","Longitude":"-89.07614","Snowdepth":"19.500","Units":"in","Rept_Date":"2021-02-14 13"},"coordinates":[1917,5304]},{"type":"Point","properties":{"Station_ID":"OGIQ6","Station_Nam":"OGOKI CAMP","Latitude":"50.76680","Longitude":"-87.85820","Snowdepth":"19.410","Units":"in","Rept_Date":"2021-02-15 06"},"coordinates":[2203,9501]},{"type":"Point","properties":{"Station_ID":"WI-WW-12","Station_Nam":"ELKHORN 0.4 ESE, WI","Latitude":"42.66970","Longitude":"-88.53170","Snowdepth":"19.400","Units":"in","Rept_Date":"2021-02-14 11"},"coordinates":[2045,5301]},{"type":"Point","properties":{"Station_ID":"CAN-ON-757","Station_Nam":"SAULT STE. MARIE 2.8 ESE - GLFC, CAN","Latitude":"46.50300","Longitude":"-84.30300","Snowdepth":"19.300","Units":"in","Rept_Date":"2021-02-14 13"},"coordinates":[3037,7289]},{"type":"Point","properties":{"Station_ID":"QOU","Station_Nam":"QOU","Latitude":"50.79250","Longitude":"-69.67470","Snowdepth":"19.291","Units":"in","Rept_Date":"2021-02-14 12"},"coordinates":[6470,9514]},{"type":"Point","properties":{"Station_ID":"QCO","Station_Nam":"QCO","Latitude":"51.45280","Longitude":"-72.20110","Snowdepth":"19.134","Units":"in","Rept_Date":"2021-02-14 12"},"coordinates":[5877,9857]},{"type":"Point","properties":{"Station_ID":"MLZ","Station_Nam":"MLZ","Latitude":"50.66170","Longitude":"-68.82360","Snowdepth":"19.016","Units":"in","Rept_Date":"2021-02-14 12"},"coordinates":[6669,9446]},{"type":"Point","properties":{"Station_ID":"WI-VL-9","Station_Nam":"LAND O' LAKES 11.7 W, WI","Latitude":"46.19023","Longitude":"-89.45790","Snowdepth":"19.000","Units":"in","Rept_Date":"2021-02-14 13"},"coordinates":[1827,7127]},{"type":"Point","properties":{"Station_ID":"WI-BY-29","Station_Nam":"BAYFIELD 5.1 NNW, WI","Latitude":"46.88063","Longitude":"-90.85854","Snowdepth":"19.000","Units":"in","Rept_Date":"2021-02-14 15"},"coordinates":[1499,7485]},{"type":"Point","properties":{"Station_ID":"VT-WS-19","Station_Nam":"WATERBURY 3.0 NW, VT","Latitude":"44.36060","Longitude":"-72.80770","Snowdepth":"19.000","Units":"in","Rept_Date":"2021-02-14 11"},"coordinates":[5734,6178]},{"type":"Point","properties":{"Station_ID":"SSMM4","Station_Nam":"SAULT STE MARIE","Latitude":"46.48660","Longitude":"-84.40250","Snowdepth":"19.000","Units":"in","Rept_Date":"2021-02-14 13"},"coordinates":[3014,7281]},{"type":"Point","properties":{"Station_ID":"SPRP1","Station_Nam":"SPRINGTOWN 1 NNE","Latitude":"40.57110","Longitude":"-75.27810","Snowdepth":"19.000","Units":"in","Rept_Date":"2021-02-14 12"},"coordinates":[5155,4212]},{"type":"Point","properties":{"Station_ID":"PHON6","Station_Nam":"PHOENICIA 2SW","Latitude":"42.06420","Longitude":"-74.34080","Snowdepth":"19.000","Units":"in","Rept_Date":"2021-02-14 12"},"coordinates":[5375,4987]},{"type":"Point","properties":{"Station_ID":"PEKN6","Station_Nam":"PECK LAKE","Latitude":"43.11500","Longitude":"-74.42360","Snowdepth":"19.000","Units":"in","Rept_Date":"2021-02-14 12"},"coordinates":[5355,5532]},{"type":"Point","properties":{"Station_ID":"PA-MN-16","Station_Nam":"MOUNT POCONO 0.7 N, PA","Latitude":"41.13190","Longitude":"-75.35804","Snowdepth":"19.000","Units":"in","Rept_Date":"2021-02-14 12"},"coordinates":[5136,4503]},{"type":"Point","properties":{"Station_ID":"NY-OD-2","Station_Nam":"POINT ROCK 0.6 SE, NY","Latitude":"43.37335","Longitude":"-75.53840","Snowdepth":"19.000","Units":"in","Rept_Date":"2021-02-14 13"},"coordinates":[5094,5666]},{"type":"Point","properties":{"Station_ID":"NY-ES-6","Station_Nam":"OLMSTEDVILLE 4.6 NNE, NY","Latitude":"43.83350","Longitude":"-73.89780","Snowdepth":"19.000","Units":"in","Rept_Date":"2021-02-14 13"},"coordinates":[5479,5905]},{"type":"Point","properties":{"Station_ID":"NUNV1","Station_Nam":"NORTH UNDERHILL","Latitude":"44.58760","Longitude":"-72.92150","Snowdepth":"19.000","Units":"in","Rept_Date":"2021-02-14 12"},"coordinates":[5708,6296]},{"type":"Point","properties":{"Station_ID":"MI-OC-3","Station_Nam":"HART 3 WSW, MI","Latitude":"43.67470","Longitude":"-86.42250","Snowdepth":"19.000","Units":"in","Rept_Date":"2021-02-14 12"},"coordinates":[2540,5822]},{"type":"Point","properties":{"Station_ID":"MI-CX-7","Station_Nam":"EAST JORDAN 2.1 NNW, MI","Latitude":"45.18639","Longitude":"-85.14750","Snowdepth":"19.000","Units":"in","Rept_Date":"2021-02-14 13"},"coordinates":[2839,6606]},{"type":"Point","properties":{"Station_ID":"ME-FR-22","Station_Nam":"FARMINGTON 4.8 NNW, ME","Latitude":"44.73396","Longitude":"-70.18007","Snowdepth":"19.000","Units":"in","Rept_Date":"2021-02-14 14"},"coordinates":[6351,6372]},{"type":"Point","properties":{"Station_ID":"MAPM4","Station_Nam":"MAPLE CITY 1E","Latitude":"44.85500","Longitude":"-85.83520","Snowdepth":"19.000","Units":"in","Rept_Date":"2021-02-15 03"},"coordinates":[2677,6435]},{"type":"Point","properties":{"Station_ID":"LNOW3","Station_Nam":"LAND O LAKES","Latitude":"46.19000","Longitude":"-89.45700","Snowdepth":"19.000","Units":"in","Rept_Date":"2021-02-14 13"},"coordinates":[1828,7127]},{"type":"Point","properties":{"Station_ID":"IL-JD-8","Station_Nam":"STOCKTON 3.4 NNE, IL","Latitude":"42.39960","Longitude":"-89.99020","Snowdepth":"19.000","Units":"in","Rept_Date":"2021-02-14 13"},"coordinates":[1702,5161]},{"type":"Point","properties":{"Station_ID":"HRTM4","Station_Nam":"HART,MI","Latitude":"43.70000","Longitude":"-86.36670","Snowdepth":"19.000","Units":"in","Rept_Date":"2021-02-14 12"},"coordinates":[2553,5835]},{"type":"Point","properties":{"Station_ID":"GTTI4","Station_Nam":"LOCK & DAM 10","Latitude":"42.78580","Longitude":"-91.09970","Snowdepth":"19.000","Units":"in","Rept_Date":"2021-02-14 14"},"coordinates":[1442,5361]},{"type":"Point","properties":{"Station_ID":"FARM1","Station_Nam":"FARMINGTON","Latitude":"44.68930","Longitude":"-70.15640","Snowdepth":"19.000","Units":"in","Rept_Date":"2021-02-14 12"},"coordinates":[6357,6349]},{"type":"Point","properties":{"Station_ID":"EJNM4","Station_Nam":"EAST JORDAN 2NW","Latitude":"45.18630","Longitude":"-85.14770","Snowdepth":"19.000","Units":"in","Rept_Date":"2021-02-14 13"},"coordinates":[2839,6606]},{"type":"Point","properties":{"Station_ID":"DUBI4","Station_Nam":"DUBUQUE #3","Latitude":"42.40870","Longitude":"-90.73250","Snowdepth":"19.000","Units":"in","Rept_Date":"2021-02-14 18"},"coordinates":[1528,5166]},{"type":"Point","properties":{"Station_ID":"DEKI2","Station_Nam":"SOUTH BRANCH KISHWAUKEE RIVER AT DEKALB","Latitude":"41.93110","Longitude":"-88.75970","Snowdepth":"19.000","Units":"in","Rept_Date":"2021-02-14 13"},"coordinates":[1991,4918]},{"type":"Point","properties":{"Station_ID":"DBQ","Station_Nam":"DUBUQUE REGIONAL AIRPORT","Latitude":"42.40310","Longitude":"-90.70920","Snowdepth":"19.000","Units":"in","Rept_Date":"2021-02-15 00"},"coordinates":[1534,5163]},{"type":"Point","properties":{"Station_ID":"CLUI4","Station_Nam":"CLUTIER,IA","Latitude":"42.08330","Longitude":"-92.40000","Snowdepth":"19.000","Units":"in","Rept_Date":"2021-02-14 13"},"coordinates":[1137,4997]},{"type":"Point","properties":{"Station_ID":"CAN-NB-11","Station_Nam":"MIRAMICHI 3.3 S, CAN","Latitude":"46.99343","Longitude":"-65.50690","Snowdepth":"19.000","Units":"in","Rept_Date":"2021-02-14 12"},"coordinates":[7448,7544]},{"type":"Point","properties":{"Station_ID":"BKBW2","Station_Nam":"DAVIS.","Latitude":"39.09830","Longitude":"-79.43190","Snowdepth":"19.000","Units":"in","Rept_Date":"2021-02-14 12"},"coordinates":[4180,3449]},{"type":"Point","properties":{"Station_ID":"ANJM4","Station_Nam":"SNOW PAID OBSERVER FOR KANJ","Latitude":"46.48670","Longitude":"-84.40260","Snowdepth":"19.000","Units":"in","Rept_Date":"2021-02-15 06"},"coordinates":[3014,7281]},{"type":"Point","properties":{"Station_ID":"ANJ","Station_Nam":"SAULT STE MARIE","Latitude":"46.46670","Longitude":"-84.36670","Snowdepth":"19.000","Units":"in","Rept_Date":"2021-02-15 00"},"coordinates":[3022,7271]},{"type":"Point","properties":{"Station_ID":"MI-AN-20","Station_Nam":"HOLLAND 5.3 WSW, MI","Latitude":"42.74900","Longitude":"-86.20200","Snowdepth":"18.700","Units":"in","Rept_Date":"2021-02-14 13"},"coordinates":[2591,5342]},{"type":"Point","properties":{"Station_ID":"CAN-QC-62","Station_Nam":"SAINT-LUC-DE-BELLECHASSE 2.2 SE, CAN","Latitude":"46.49532","Longitude":"-70.46313","Snowdepth":"18.700","Units":"in","Rept_Date":"2021-02-14 12"},"coordinates":[6285,7285]},{"type":"Point","properties":{"Station_ID":"VT-WS-30","Station_Nam":"WOODBURY 3.4 NNW, VT","Latitude":"44.48825","Longitude":"-72.43258","Snowdepth":"18.500","Units":"in","Rept_Date":"2021-02-14 12"},"coordinates":[5822,6244]},{"type":"Point","properties":{"Station_ID":"VT-CH-4","Station_Nam":"UNDERHILL 4.4 NNE, VT","Latitude":"44.58774","Longitude":"-72.92250","Snowdepth":"18.500","Units":"in","Rept_Date":"2021-02-14 12"},"coordinates":[5707,6296]},{"type":"Point","properties":{"Station_ID":"VT-BN-7","Station_Nam":"MANCHESTER 2.8 ENE, VT","Latitude":"43.17274","Longitude":"-73.01811","Snowdepth":"18.500","Units":"in","Rept_Date":"2021-02-14 12"},"coordinates":[5685,5562]},{"type":"Point","properties":{"Station_ID":"WI-RK-6","Station_Nam":"EVANSVILLE 0.4 E, WI","Latitude":"42.77913","Longitude":"-89.29020","Snowdepth":"18.400","Units":"in","Rept_Date":"2021-02-14 12"},"coordinates":[1867,5358]},{"type":"Point","properties":{"Station_ID":"SOCQ6","Station_Nam":"SOCKET LAKE","Latitude":"50.77870","Longitude":"-91.79300","Snowdepth":"18.350","Units":"in","Rept_Date":"2021-02-15 06"},"coordinates":[1279,9507]},{"type":"Point","properties":{"Station_ID":"KABQ6","Station_Nam":"CAB LAKE","Latitude":"49.59950","Longitude":"-89.17990","Snowdepth":"18.070","Units":"in","Rept_Date":"2021-02-15 06"},"coordinates":[1893,8896]},{"type":"Point","properties":{"Station_ID":"WTNM4","Station_Nam":"WATTON 2WSW","Latitude":"46.52660","Longitude":"-88.64240","Snowdepth":"18.000","Units":"in","Rept_Date":"2021-02-14 13"},"coordinates":[2019,7302]},{"type":"Point","properties":{"Station_ID":"WSFW3","Station_Nam":"TOWN OF WESTFORD","Latitude":"43.47190","Longitude":"-88.88250","Snowdepth":"18.000","Units":"in","Rept_Date":"2021-02-14 13"},"coordinates":[1962,5717]},{"type":"Point","properties":{"Station_ID":"WI-WK-74","Station_Nam":"BROOKFIELD 2.8 SSW, WI","Latitude":"43.02390","Longitude":"-88.13760","Snowdepth":"18.000","Units":"in","Rept_Date":"2021-02-14 13"},"coordinates":[2137,5485]},{"type":"Point","properties":{"Station_ID":"WI-DD-16","Station_Nam":"BEAVER DAM 2.4 WNW, WI","Latitude":"43.47210","Longitude":"-88.88280","Snowdepth":"18.000","Units":"in","Rept_Date":"2021-02-14 13"},"coordinates":[1962,5717]},{"type":"Point","properties":{"Station_ID":"VT-WR-10","Station_Nam":"WEST WINDSOR 1.7 S, VT","Latitude":"43.46164","Longitude":"-72.49197","Snowdepth":"18.000","Units":"in","Rept_Date":"2021-02-14 12"},"coordinates":[5809,5712]},{"type":"Point","properties":{"Station_ID":"SNOW2","Station_Nam":"SNOWSHOE","Latitude":"38.39900","Longitude":"-79.99490","Snowdepth":"18.000","Units":"in","Rept_Date":"2021-02-14 11"},"coordinates":[4048,3086]},{"type":"Point","properties":{"Station_ID":"RANM1","Station_Nam":"RANGELEY","Latitude":"44.98910","Longitude":"-70.67190","Snowdepth":"18.000","Units":"in","Rept_Date":"2021-02-14 13"},"coordinates":[6236,6504]},{"type":"Point","properties":{"Station_ID":"PLEP1","Station_Nam":"PLEASANT MOUNT 1 W","Latitude":"41.73940","Longitude":"-75.44650","Snowdepth":"18.000","Units":"in","Rept_Date":"2021-02-14 12"},"coordinates":[5115,4818]},{"type":"Point","properties":{"Station_ID":"PDGM4","Station_Nam":"PAULDING","Latitude":"46.39760","Longitude":"-89.17940","Snowdepth":"18.000","Units":"in","Rept_Date":"2021-02-14 13"},"coordinates":[1893,7235]},{"type":"Point","properties":{"Station_ID":"NJ-WR-1","Station_Nam":"GREENWICH TWP 1.6 S, NJ","Latitude":"40.65545","Longitude":"-75.11670","Snowdepth":"18.000","Units":"in","Rept_Date":"2021-02-14 12"},"coordinates":[5193,4256]},{"type":"Point","properties":{"Station_ID":"NJ-SS-1","Station_Nam":"ANDOVER TWP 1.7 W, NJ","Latitude":"41.01974","Longitude":"-74.76110","Snowdepth":"18.000","Units":"in","Rept_Date":"2021-02-14 12"},"coordinates":[5276,4445]},{"type":"Point","properties":{"Station_ID":"NH-CS-19","Station_Nam":"CARROLL 4.6 NE, NH","Latitude":"44.33765","Longitude":"-71.46461","Snowdepth":"18.000","Units":"in","Rept_Date":"2021-02-14 12"},"coordinates":[6050,6166]},{"type":"Point","properties":{"Station_ID":"MQT","Station_Nam":"MARQUETTE, MI","Latitude":"46.53140","Longitude":"-87.54920","Snowdepth":"18.000","Units":"in","Rept_Date":"2021-02-15 06"},"coordinates":[2275,7304]},{"type":"Point","properties":{"Station_ID":"MIEM4","Station_Nam":"MICHIGAMME 3WNW","Latitude":"46.54530","Longitude":"-88.18000","Snowdepth":"18.000","Units":"in","Rept_Date":"2021-02-14 13"},"coordinates":[2127,7311]},{"type":"Point","properties":{"Station_ID":"ME-AR-18","Station_Nam":"NEW SWEDEN 4.9 NNW, ME","Latitude":"47.01080","Longitude":"-68.14390","Snowdepth":"18.000","Units":"in","Rept_Date":"2021-02-14 12"},"coordinates":[6829,7553]},{"type":"Point","properties":{"Station_ID":"LODW3","Station_Nam":"LODI","Latitude":"43.32170","Longitude":"-89.53110","Snowdepth":"18.000","Units":"in","Rept_Date":"2021-02-14 13"},"coordinates":[1810,5639]},{"type":"Point","properties":{"Station_ID":"LGEW3","Station_Nam":"LAKE GENEVA, WI","Latitude":"42.60000","Longitude":"-88.43440","Snowdepth":"18.000","Units":"in","Rept_Date":"2021-02-14 13"},"coordinates":[2068,5265]},{"type":"Point","properties":{"Station_ID":"JCBM4","Station_Nam":"JACOBSVILLE","Latitude":"47.00830","Longitude":"-88.43180","Snowdepth":"18.000","Units":"in","Rept_Date":"2021-02-14 12"},"coordinates":[2068,7551]},{"type":"Point","properties":{"Station_ID":"IL-CK-180","Station_Nam":"PARK RIDGE 0.5 SSW, IL","Latitude":"42.00443","Longitude":"-87.84600","Snowdepth":"18.000","Units":"in","Rept_Date":"2021-02-14 13"},"coordinates":[2206,4956]},{"type":"Point","properties":{"Station_ID":"IL-BN-19","Station_Nam":"BELVIDERE 5.0 NNW, IL","Latitude":"42.32071","Longitude":"-88.88282","Snowdepth":"18.000","Units":"in","Rept_Date":"2021-02-14 13"},"coordinates":[1962,5120]},{"type":"Point","properties":{"Station_ID":"DLNW3","Station_Nam":"WALWORTH COUNTYMETROPOLITAN SEWERAGE DISTRICT (DELEVAN)","Latitude":"42.63440","Longitude":"-88.66280","Snowdepth":"18.000","Units":"in","Rept_Date":"2021-02-14 14"},"coordinates":[2014,5283]},{"type":"Point","properties":{"Station_ID":"CLKM4","Station_Nam":"CLARKSBURG","Latitude":"46.49910","Longitude":"-87.84500","Snowdepth":"18.000","Units":"in","Rept_Date":"2021-02-14 12"},"coordinates":[2206,7287]},{"type":"Point","properties":{"Station_ID":"CAN-ON-5","Station_Nam":"OWEN SOUND 1.5 NW - GSCA, CAN","Latitude":"44.57837","Longitude":"-80.95461","Snowdepth":"18.000","Units":"in","Rept_Date":"2021-02-14 13"},"coordinates":[3823,6291]},{"type":"Point","properties":{"Station_ID":"AVLV1","Station_Nam":"AVERILL","Latitude":"45.00570","Longitude":"-71.69030","Snowdepth":"18.000","Units":"in","Rept_Date":"2021-02-14 13"},"coordinates":[5997,6513]},{"type":"Point","properties":{"Station_ID":"CAN-NL-82","Station_Nam":"GANDER 2.7 NW, CAN","Latitude":"48.97737","Longitude":"-54.63396","Snowdepth":"17.700","Units":"in","Rept_Date":"2021-02-14 10"},"coordinates":[9999,8573]},{"type":"Point","properties":{"Station_ID":"QWE","Station_Nam":"QWE","Latitude":"47.84610","Longitude":"-73.80670","Snowdepth":"17.520","Units":"in","Rept_Date":"2021-02-14 12"},"coordinates":[5500,7986]},{"type":"Point","properties":{"Station_ID":"WI-IW-3","Station_Nam":"MINERAL POINT 7.3 ENE, WI","Latitude":"42.91400","Longitude":"-90.05700","Snowdepth":"17.500","Units":"in","Rept_Date":"2021-02-14 13"},"coordinates":[1687,5428]},{"type":"Point","properties":{"Station_ID":"WI-DA-99","Station_Nam":"FITCHBURG 1.1 NW, WI","Latitude":"42.99740","Longitude":"-89.44046","Snowdepth":"17.500","Units":"in","Rept_Date":"2021-02-14 13"},"coordinates":[1831,5471]},{"type":"Point","properties":{"Station_ID":"NY-TM-45","Station_Nam":"NEWFIELD HAMLET 4.3 S, NY","Latitude":"42.29650","Longitude":"-76.60676","Snowdepth":"17.500","Units":"in","Rept_Date":"2021-02-14 14"},"coordinates":[4843,5107]},{"type":"Point","properties":{"Station_ID":"NY-OT-29","Station_Nam":"NEW BERLIN 1.5 NE, NY","Latitude":"42.63689","Longitude":"-75.31090","Snowdepth":"17.500","Units":"in","Rept_Date":"2021-02-14 13"},"coordinates":[5147,5284]},{"type":"Point","properties":{"Station_ID":"MN-IS-18","Station_Nam":"BRAHAM 0.7 SW, MN","Latitude":"45.71379","Longitude":"-93.18095","Snowdepth":"17.500","Units":"in","Rept_Date":"2021-02-14 14"},"coordinates":[954,6880]},{"type":"Point","properties":{"Station_ID":"MI-MQ-28","Station_Nam":"CARLSHEND, MI","Latitude":"46.31638","Longitude":"-87.19944","Snowdepth":"17.500","Units":"in","Rept_Date":"2021-02-14 13"},"coordinates":[2357,7193]},{"type":"Point","properties":{"Station_ID":"QMD","Station_Nam":"QMD","Latitude":"49.29060","Longitude":"-75.84500","Snowdepth":"17.441","Units":"in","Rept_Date":"2021-02-14 12"},"coordinates":[5022,8735]},{"type":"Point","properties":{"Station_ID":"IL-CK-211","Station_Nam":"OAK LAWN 1.6 WNW, IL","Latitude":"41.72686","Longitude":"-87.77770","Snowdepth":"17.400","Units":"in","Rept_Date":"2021-02-14 14"},"coordinates":[2222,4812]},{"type":"Point","properties":{"Station_ID":"SVBQ6","Station_Nam":"SAVANT BASE","Latitude":"50.28730","Longitude":"-90.65670","Snowdepth":"17.170","Units":"in","Rept_Date":"2021-02-15 06"},"coordinates":[1546,9252]},{"type":"Point","properties":{"Station_ID":"WTRM4","Station_Nam":"WATERSMEET 12WSW","Latitude":"46.22310","Longitude":"-89.40850","Snowdepth":"17.000","Units":"in","Rept_Date":"2021-02-14 13"},"coordinates":[1839,7144]},{"type":"Point","properties":{"Station_ID":"WI-WW-2","Station_Nam":"LAKE GENEVA 0.6 ENE, WI","Latitude":"42.59169","Longitude":"-88.41770","Snowdepth":"17.000","Units":"in","Rept_Date":"2021-02-14 13"},"coordinates":[2071,5261]},{"type":"Point","properties":{"Station_ID":"WI-CB-5","Station_Nam":"PORTAGE 7.2 SW, WI","Latitude":"43.47933","Longitude":"-89.57370","Snowdepth":"17.000","Units":"in","Rept_Date":"2021-02-14 13"},"coordinates":[1800,5721]},{"type":"Point","properties":{"Station_ID":"VT-WS-10","Station_Nam":"NORTHFIELD 1.5 N, VT","Latitude":"44.16986","Longitude":"-72.65200","Snowdepth":"17.000","Units":"in","Rept_Date":"2021-02-14 12"},"coordinates":[5771,6079]},{"type":"Point","properties":{"Station_ID":"VNTI4","Station_Nam":"VINTON","Latitude":"42.17020","Longitude":"-92.00770","Snowdepth":"17.000","Units":"in","Rept_Date":"2021-02-14 13"},"coordinates":[1229,5042]},{"type":"Point","properties":{"Station_ID":"SUAW3","Station_Nam":"SUAMICO","Latitude":"44.60190","Longitude":"-88.09780","Snowdepth":"17.000","Units":"in","Rept_Date":"2021-02-14 12"},"coordinates":[2147,6303]},{"type":"Point","properties":{"Station_ID":"SPTI4","Station_Nam":"STRAWBERRY POINT","Latitude":"42.68530","Longitude":"-91.53300","Snowdepth":"17.000","Units":"in","Rept_Date":"2021-02-14 13"},"coordinates":[1340,5309]},{"type":"Point","properties":{"Station_ID":"RCHW3","Station_Nam":"RICHRIELD,WI","Latitude":"43.21080","Longitude":"-88.20940","Snowdepth":"17.000","Units":"in","Rept_Date":"2021-02-14 12"},"coordinates":[2120,5582]},{"type":"Point","properties":{"Station_ID":"PA-PK-22","Station_Nam":"MILFORD 8.7 NW, PA","Latitude":"41.42018","Longitude":"-74.90953","Snowdepth":"17.000","Units":"in","Rept_Date":"2021-02-14 12"},"coordinates":[5241,4653]},{"type":"Point","properties":{"Station_ID":"PA-BR-7","Station_Nam":"FLEETWOOD 2.0 ESE, PA","Latitude":"40.44292","Longitude":"-75.78720","Snowdepth":"17.000","Units":"in","Rept_Date":"2021-02-14 13"},"coordinates":[5035,4146]},{"type":"Point","properties":{"Station_ID":"NVLV1","Station_Nam":"NASHVILLE","Latitude":"44.44970","Longitude":"-72.92640","Snowdepth":"17.000","Units":"in","Rept_Date":"2021-02-14 12"},"coordinates":[5707,6224]},{"type":"Point","properties":{"Station_ID":"NJ-SS-7","Station_Nam":"HARDYSTON TWP 3.2 SE, NJ","Latitude":"41.08903","Longitude":"-74.53990","Snowdepth":"17.000","Units":"in","Rept_Date":"2021-02-14 13"},"coordinates":[5328,4481]},{"type":"Point","properties":{"Station_ID":"NJ-SS-60","Station_Nam":"VERNON TWP 2.7 SSE, NJ","Latitude":"41.16332","Longitude":"-74.45938","Snowdepth":"17.000","Units":"in","Rept_Date":"2021-02-14 11"},"coordinates":[5347,4520]},{"type":"Point","properties":{"Station_ID":"NJ-MS-94","Station_Nam":"JEFFERSON TWP 4.4 SW, NJ","Latitude":"40.96404","Longitude":"-74.62162","Snowdepth":"17.000","Units":"in","Rept_Date":"2021-02-14 13"},"coordinates":[5309,4416]},{"type":"Point","properties":{"Station_ID":"NH-CR-41","Station_Nam":"ALBANY 2.8 SW, NH","Latitude":"43.92648","Longitude":"-71.21556","Snowdepth":"17.000","Units":"in","Rept_Date":"2021-02-14 13"},"coordinates":[6108,5953]},{"type":"Point","properties":{"Station_ID":"NFKC3","Station_Nam":"NORFOLK","Latitude":"41.97250","Longitude":"-73.22080","Snowdepth":"17.000","Units":"in","Rept_Date":"2021-02-14 13"},"coordinates":[5637,4939]},{"type":"Point","properties":{"Station_ID":"MTCI2","Station_Nam":"MOUNT CARROLL","Latitude":"42.09800","Longitude":"-89.98410","Snowdepth":"17.000","Units":"in","Rept_Date":"2021-02-14 14"},"coordinates":[1704,5004]},{"type":"Point","properties":{"Station_ID":"MI-DL-1","Station_Nam":"GARDEN CORNERS 0.8 NW, MI","Latitude":"45.89815","Longitude":"-86.54850","Snowdepth":"17.000","Units":"in","Rept_Date":"2021-02-14 13"},"coordinates":[2510,6976]},{"type":"Point","properties":{"Station_ID":"MI-CP-14","Station_Nam":"SAULT STE. MARIE 2.2 E, MI","Latitude":"46.48933","Longitude":"-84.31971","Snowdepth":"17.000","Units":"in","Rept_Date":"2021-02-14 13"},"coordinates":[3033,7282]},{"type":"Point","properties":{"Station_ID":"LSXI4","Station_Nam":"LITTLE SIOUX,IA","Latitude":"41.81670","Longitude":"-96.01670","Snowdepth":"17.000","Units":"in","Rept_Date":"2021-02-14 13"},"coordinates":[288,4859]},{"type":"Point","properties":{"Station_ID":"KGTB","Station_Nam":"FORT DRUM / WHEELER-SACK U. S. ARMY AIRFIELD","Latitude":"44.05000","Longitude":"-75.73333","Snowdepth":"17.000","Units":"in","Rept_Date":"2021-02-15 06"},"coordinates":[5048,6017]},{"type":"Point","properties":{"Station_ID":"IL-SP-6","Station_Nam":"FREEPORT 2.0 NW, IL","Latitude":"42.30955","Longitude":"-89.66370","Snowdepth":"17.000","Units":"in","Rept_Date":"2021-02-14 13"},"coordinates":[1779,5114]},{"type":"Point","properties":{"Station_ID":"IL-MCH-43","Station_Nam":"ALGONQUIN 0.7 N, IL","Latitude":"42.17392","Longitude":"-88.29930","Snowdepth":"17.000","Units":"in","Rept_Date":"2021-02-14 11"},"coordinates":[2099,5044]},{"type":"Point","properties":{"Station_ID":"IL-CR-12","Station_Nam":"MOUNT CARROLL 6.8 NNW, IL","Latitude":"42.18735","Longitude":"-90.02185","Snowdepth":"17.000","Units":"in","Rept_Date":"2021-02-14 13"},"coordinates":[1695,5051]},{"type":"Point","properties":{"Station_ID":"IL-CK-149","Station_Nam":"OAK LAWN 0.5 SSW, IL","Latitude":"41.70845","Longitude":"-87.75390","Snowdepth":"17.000","Units":"in","Rept_Date":"2021-02-14 14"},"coordinates":[2227,4802]},{"type":"Point","properties":{"Station_ID":"IA-SH-6","Station_Nam":"KIRKMAN 1.0 SE, IA","Latitude":"41.71810","Longitude":"-95.25310","Snowdepth":"17.000","Units":"in","Rept_Date":"2021-02-14 13"},"coordinates":[467,4807]},{"type":"Point","properties":{"Station_ID":"HVJP1","Station_Nam":"HIDDEN VALLEY COOP","Latitude":"40.04200","Longitude":"-79.25660","Snowdepth":"17.000","Units":"in","Rept_Date":"2021-02-14 13"},"coordinates":[4221,3938]},{"type":"Point","properties":{"Station_ID":"HGHN4","Station_Nam":"HIGHLAND LAKES 1SW","Latitude":"41.16330","Longitude":"-74.45930","Snowdepth":"17.000","Units":"in","Rept_Date":"2021-02-14 11"},"coordinates":[5347,4520]},{"type":"Point","properties":{"Station_ID":"GDCM4","Station_Nam":"GARDEN CORNERS","Latitude":"45.89830","Longitude":"-86.54850","Snowdepth":"17.000","Units":"in","Rept_Date":"2021-02-14 13"},"coordinates":[2510,6976]},{"type":"Point","properties":{"Station_ID":"EVRW3","Station_Nam":"EAGLE RIVER-4 E","Latitude":"45.91890","Longitude":"-89.15280","Snowdepth":"17.000","Units":"in","Rept_Date":"2021-02-14 13"},"coordinates":[1899,6986]},{"type":"Point","properties":{"Station_ID":"EGRW3","Station_Nam":"EAGLE RIVER-SOUTH","Latitude":"45.91360","Longitude":"-89.24360","Snowdepth":"17.000","Units":"in","Rept_Date":"2021-02-14 13"},"coordinates":[1878,6984]},{"type":"Point","properties":{"Station_ID":"CAN-ON-118","Station_Nam":"DURHAM 1.4 S, CAN","Latitude":"44.16525","Longitude":"-80.82064","Snowdepth":"17.000","Units":"in","Rept_Date":"2021-02-14 12"},"coordinates":[3854,6077]},{"type":"Point","properties":{"Station_ID":"CAN-NB-13","Station_Nam":"BATHURST 3.8 NW, CAN","Latitude":"47.64212","Longitude":"-65.68756","Snowdepth":"17.000","Units":"in","Rept_Date":"2021-02-14 11"},"coordinates":[7405,7880]},{"type":"Point","properties":{"Station_ID":"BDMW3","Station_Nam":"BEAVER DAM 1 N","Latitude":"43.46860","Longitude":"-88.83970","Snowdepth":"17.000","Units":"in","Rept_Date":"2021-02-14 13"},"coordinates":[1972,5715]},{"type":"Point","properties":{"Station_ID":"BBEM4","Station_Nam":"BIG BAY 9SW","Latitude":"46.74620","Longitude":"-87.88160","Snowdepth":"17.000","Units":"in","Rept_Date":"2021-02-14 13"},"coordinates":[2197,7415]},{"type":"Point","properties":{"Station_ID":"BAYW2","Station_Nam":"BAYARD COOP","Latitude":"39.27280","Longitude":"-79.36830","Snowdepth":"17.000","Units":"in","Rept_Date":"2021-02-14 12"},"coordinates":[4195,3539]},{"type":"Point","properties":{"Station_ID":"CAN-QC-51","Station_Nam":"BELOEIL 0.7 NW, CAN","Latitude":"45.58049","Longitude":"-73.21218","Snowdepth":"16.700","Units":"in","Rept_Date":"2021-02-14 12"},"coordinates":[5640,6811]},{"type":"Point","properties":{"Station_ID":"WI-OZ-12","Station_Nam":"PORT WASHINGTON 0.5 S, WI","Latitude":"43.38610","Longitude":"-87.87900","Snowdepth":"16.500","Units":"in","Rept_Date":"2021-02-14 13"},"coordinates":[2198,5673]},{"type":"Point","properties":{"Station_ID":"WI-IR-2","Station_Nam":"MERCER 2.0 SE, WI","Latitude":"46.14749","Longitude":"-90.03097","Snowdepth":"16.500","Units":"in","Rept_Date":"2021-02-14 13"},"coordinates":[1693,7105]},{"type":"Point","properties":{"Station_ID":"WI-DA-87","Station_Nam":"DUNKIRK 0.1 NW, WI","Latitude":"42.88356","Longitude":"-89.21056","Snowdepth":"16.500","Units":"in","Rept_Date":"2021-02-14 12"},"coordinates":[1885,5412]},{"type":"Point","properties":{"Station_ID":"WI-CB-4","Station_Nam":"PORTAGE 5.7 WSW, WI","Latitude":"43.51411","Longitude":"-89.56910","Snowdepth":"16.500","Units":"in","Rept_Date":"2021-02-14 12"},"coordinates":[1801,5739]},{"type":"Point","properties":{"Station_ID":"VT-ES-3","Station_Nam":"LUNENBURG 2.3 NNW, VT","Latitude":"44.49324","Longitude":"-71.70446","Snowdepth":"16.500","Units":"in","Rept_Date":"2021-02-14 12"},"coordinates":[5993,6247]},{"type":"Point","properties":{"Station_ID":"PA-BR-21","Station_Nam":"ALBURTIS 4.7 SW, PA","Latitude":"40.46515","Longitude":"-75.66820","Snowdepth":"16.500","Units":"in","Rept_Date":"2021-02-14 12"},"coordinates":[5063,4157]},{"type":"Point","properties":{"Station_ID":"NY-ES-7","Station_Nam":"KEESEVILLE 0.8 SE, NY","Latitude":"44.49504","Longitude":"-73.47109","Snowdepth":"16.500","Units":"in","Rept_Date":"2021-02-14 12"},"coordinates":[5579,6248]},{"type":"Point","properties":{"Station_ID":"NJ-MS-4","Station_Nam":"ROCKAWAY TWP 0.7 NE, NJ","Latitude":"40.96583","Longitude":"-74.48780","Snowdepth":"16.500","Units":"in","Rept_Date":"2021-02-14 13"},"coordinates":[5340,4417]},{"type":"Point","properties":{"Station_ID":"MI-BZ-1","Station_Nam":"BENZONIA 5.3 S, MI","Latitude":"44.53976","Longitude":"-86.10650","Snowdepth":"16.500","Units":"in","Rept_Date":"2021-02-14 14"},"coordinates":[2614,6271]},{"type":"Point","properties":{"Station_ID":"IL-SP-25","Station_Nam":"FREEPORT 1.7 NW, IL","Latitude":"42.30427","Longitude":"-89.66285","Snowdepth":"16.500","Units":"in","Rept_Date":"2021-02-14 13"},"coordinates":[1779,5111]},{"type":"Point","properties":{"Station_ID":"IL-LK-42","Station_Nam":"GURNEE 1.6 W, IL","Latitude":"42.37776","Longitude":"-87.96740","Snowdepth":"16.500","Units":"in","Rept_Date":"2021-02-14 13"},"coordinates":[2177,5150]},{"type":"Point","properties":{"Station_ID":"IL-DP-87","Station_Nam":"ROSELLE 1.2 ESE, IL","Latitude":"41.97664","Longitude":"-88.05980","Snowdepth":"16.500","Units":"in","Rept_Date":"2021-02-14 17"},"coordinates":[2155,4942]},{"type":"Point","properties":{"Station_ID":"IL-DP-157","Station_Nam":"WEST CHICAGO 3.5 NNE, IL","Latitude":"41.93718","Longitude":"-88.19884","Snowdepth":"16.500","Units":"in","Rept_Date":"2021-02-14 13"},"coordinates":[2123,4921]},{"type":"Point","properties":{"Station_ID":"IL-CK-152","Station_Nam":"CHICAGO RIDGE 0.2 WSW, IL","Latitude":"41.70177","Longitude":"-87.78200","Snowdepth":"16.500","Units":"in","Rept_Date":"2021-02-14 13"},"coordinates":[2221,4799]},{"type":"Point","properties":{"Station_ID":"IA-ST-1","Station_Nam":"LE CLAIRE 1.8 NNE, IA","Latitude":"41.62355","Longitude":"-90.35140","Snowdepth":"16.500","Units":"in","Rept_Date":"2021-02-14 14"},"coordinates":[1618,4758]},{"type":"Point","properties":{"Station_ID":"CT-NH-72","Station_Nam":"NORTHFORD 0.8 SW, CT","Latitude":"41.38554","Longitude":"-72.80240","Snowdepth":"16.500","Units":"in","Rept_Date":"2021-02-14 12"},"coordinates":[5736,4635]},{"type":"Point","properties":{"Station_ID":"CAN-NL-65","Station_Nam":"KIPPENS 0.7 NE, CA","Latitude":"48.55436","Longitude":"-58.61850","Snowdepth":"16.500","Units":"in","Rept_Date":"2021-02-14 12"},"coordinates":[9064,8353]},{"type":"Point","properties":{"Station_ID":"WI-GT-9","Station_Nam":"CASSVILLE 7.8 ENE, WI","Latitude":"42.74949","Longitude":"-90.84390","Snowdepth":"16.400","Units":"in","Rept_Date":"2021-02-14 13"},"coordinates":[1502,5342]},{"type":"Point","properties":{"Station_ID":"IA-BH-6","Station_Nam":"WATERLOO 1.9 SSE, IA","Latitude":"42.46500","Longitude":"-92.34100","Snowdepth":"16.400","Units":"in","Rept_Date":"2021-02-14 14"},"coordinates":[1151,5195]},{"type":"Point","properties":{"Station_ID":"CAN-ON-342","Station_Nam":"LURGAN BEACH 1.4 NNE - LHCC, CAN","Latitude":"44.09777","Longitude":"-81.72765","Snowdepth":"16.100","Units":"in","Rept_Date":"2021-02-14 12"},"coordinates":[3641,6042]},{"type":"Point","properties":{"Station_ID":"WTBW3","Station_Nam":"WEST BEND PUBLIC WORKS","Latitude":"43.41110","Longitude":"-88.19380","Snowdepth":"16.000","Units":"in","Rept_Date":"2021-02-14 14"},"coordinates":[2124,5686]},{"type":"Point","properties":{"Station_ID":"WORV1","Station_Nam":"WORCESTER 2 W","Latitude":"44.37470","Longitude":"-72.58220","Snowdepth":"16.000","Units":"in","Rept_Date":"2021-02-14 12"},"coordinates":[5787,6185]},{"type":"Point","properties":{"Station_ID":"WODI2","Station_Nam":"WOODSTOCK","Latitude":"42.36280","Longitude":"-88.53140","Snowdepth":"16.000","Units":"in","Rept_Date":"2021-02-14 13"},"coordinates":[2045,5142]},{"type":"Point","properties":{"Station_ID":"WLLI2","Station_Nam":"WILLOW SPRINGS","Latitude":"41.70910","Longitude":"-87.95940","Snowdepth":"16.000","Units":"in","Rept_Date":"2021-02-14 14"},"coordinates":[2179,4803]},{"type":"Point","properties":{"Station_ID":"WI-WK-34","Station_Nam":"MUKWONAGO 5.3 W, WI","Latitude":"42.85380","Longitude":"-88.43550","Snowdepth":"16.000","Units":"in","Rept_Date":"2021-02-14 13"},"coordinates":[2067,5396]},{"type":"Point","properties":{"Station_ID":"WI-WB-2","Station_Nam":"STONE LAKE 2.0 NW, WI","Latitude":"45.85960","Longitude":"-91.57710","Snowdepth":"16.000","Units":"in","Rept_Date":"2021-02-14 13"},"coordinates":[1330,6956]},{"type":"Point","properties":{"Station_ID":"WI-JF-17","Station_Nam":"JOHNSON CREEK 2.7 SSW, WI","Latitude":"43.04559","Longitude":"-88.79925","Snowdepth":"16.000","Units":"in","Rept_Date":"2021-02-14 13"},"coordinates":[1982,5496]},{"type":"Point","properties":{"Station_ID":"WI-IR-3","Station_Nam":"PENCE 0.1 E, WI","Latitude":"46.41555","Longitude":"-90.27013","Snowdepth":"16.000","Units":"in","Rept_Date":"2021-02-14 13"},"coordinates":[1637,7244]},{"type":"Point","properties":{"Station_ID":"WI-DA-39","Station_Nam":"MADISON 4.0 W, WI","Latitude":"43.07741","Longitude":"-89.46757","Snowdepth":"16.000","Units":"in","Rept_Date":"2021-02-14 13"},"coordinates":[1825,5512]},{"type":"Point","properties":{"Station_ID":"VT-OL-9","Station_Nam":"GREENSBORO 2.1 NNW, VT","Latitude":"44.60528","Longitude":"-72.30940","Snowdepth":"16.000","Units":"in","Rept_Date":"2021-02-14 12"},"coordinates":[5851,6305]},{"type":"Point","properties":{"Station_ID":"VT-CH-7","Station_Nam":"HUNTINGTON 1.1 E, VT","Latitude":"44.32488","Longitude":"-72.96570","Snowdepth":"16.000","Units":"in","Rept_Date":"2021-02-14 12"},"coordinates":[5697,6160]},{"type":"Point","properties":{"Station_ID":"VQAW3","Station_Nam":"VIROQUA","Latitude":"43.55970","Longitude":"-90.87560","Snowdepth":"16.000","Units":"in","Rept_Date":"2021-02-14 13"},"coordinates":[1495,5763]},{"type":"Point","properties":{"Station_ID":"TLDI4","Station_Nam":"TOLEDO,IA","Latitude":"41.98330","Longitude":"-92.58330","Snowdepth":"16.000","Units":"in","Rept_Date":"2021-02-14 13"},"coordinates":[1094,4945]},{"type":"Point","properties":{"Station_ID":"STMM4","Station_Nam":"STAMBAUGH 2SSE","Latitude":"46.05550","Longitude":"-88.62780","Snowdepth":"16.000","Units":"in","Rept_Date":"2021-02-14 13"},"coordinates":[2022,7057]},{"type":"Point","properties":{"Station_ID":"SLNV1","Station_Nam":"SOUTH LINCOLN","Latitude":"44.07460","Longitude":"-72.97180","Snowdepth":"16.000","Units":"in","Rept_Date":"2021-02-14 12"},"coordinates":[5696,6030]},{"type":"Point","properties":{"Station_ID":"ROCW3","Station_Nam":"ROCHESTER WWTP","Latitude":"42.72690","Longitude":"-88.22580","Snowdepth":"16.000","Units":"in","Rept_Date":"2021-02-14 14"},"coordinates":[2116,5331]},{"type":"Point","properties":{"Station_ID":"RGNM1","Station_Nam":"RANGELEY 2NW","Latitude":"44.98940","Longitude":"-70.67220","Snowdepth":"16.000","Units":"in","Rept_Date":"2021-02-14 13"},"coordinates":[6236,6504]},{"type":"Point","properties":{"Station_ID":"RGLN4","Station_Nam":"REIGELSVILLE","Latitude":"40.59450","Longitude":"-75.18970","Snowdepth":"16.000","Units":"in","Rept_Date":"2021-02-14 11"},"coordinates":[5175,4225]},{"type":"Point","properties":{"Station_ID":"RARM4","Station_Nam":"RAPID RIVER 1 SW","Latitude":"45.91500","Longitude":"-86.98800","Snowdepth":"16.000","Units":"in","Rept_Date":"2021-02-14 12"},"coordinates":[2407,6984]},{"type":"Point","properties":{"Station_ID":"PKFI2","Station_Nam":"PARK FOREST,IL","Latitude":"41.50000","Longitude":"-87.68330","Snowdepth":"16.000","Units":"in","Rept_Date":"2021-02-14 11"},"coordinates":[2244,4694]},{"type":"Point","properties":{"Station_ID":"NY-ER-63","Station_Nam":"GLENWOOD 1.5 SE, NY","Latitude":"42.60195","Longitude":"-78.63910","Snowdepth":"16.000","Units":"in","Rept_Date":"2021-02-14 13"},"coordinates":[4366,5266]},{"type":"Point","properties":{"Station_ID":"NY-ER-166","Station_Nam":"BOSTON 2.5 NE, NY","Latitude":"42.65480","Longitude":"-78.70300","Snowdepth":"16.000","Units":"in","Rept_Date":"2021-02-14 12"},"coordinates":[4351,5293]},{"type":"Point","properties":{"Station_ID":"NY-CR-1","Station_Nam":"FREETOWN 1.0 NE, NY","Latitude":"42.53299","Longitude":"-76.02111","Snowdepth":"16.000","Units":"in","Rept_Date":"2021-02-14 12"},"coordinates":[4980,5230]},{"type":"Point","properties":{"Station_ID":"NJ-SS-39","Station_Nam":"WANTAGE TWP 1.6 SE, NJ","Latitude":"41.22830","Longitude":"-74.60330","Snowdepth":"16.000","Units":"in","Rept_Date":"2021-02-14 12"},"coordinates":[5313,4553]},{"type":"Point","properties":{"Station_ID":"NJ-MS-71","Station_Nam":"DENVILLE TWP 1.5 ESE, NJ","Latitude":"40.88053","Longitude":"-74.46310","Snowdepth":"16.000","Units":"in","Rept_Date":"2021-02-14 12"},"coordinates":[5346,4373]},{"type":"Point","properties":{"Station_ID":"MWOW3","Station_Nam":"MUKWONAGO","Latitude":"42.85380","Longitude":"-88.43550","Snowdepth":"16.000","Units":"in","Rept_Date":"2021-02-14 13"},"coordinates":[2067,5396]},{"type":"Point","properties":{"Station_ID":"MKE","Station_Nam":"GEN MITCHELL INTL AIRPORT","Latitude":"42.94720","Longitude":"-87.89670","Snowdepth":"16.000","Units":"in","Rept_Date":"2021-02-15 00"},"coordinates":[2194,5445]},{"type":"Point","properties":{"Station_ID":"MI-OT-4","Station_Nam":"GAYLORD 1.7 WNW, MI","Latitude":"45.03280","Longitude":"-84.71090","Snowdepth":"16.000","Units":"in","Rept_Date":"2021-02-14 13"},"coordinates":[2941,6527]},{"type":"Point","properties":{"Station_ID":"MI-OT-17","Station_Nam":"GAYLORD 4.1 S, MI","Latitude":"44.96388","Longitude":"-84.68467","Snowdepth":"16.000","Units":"in","Rept_Date":"2021-02-14 12"},"coordinates":[2947,6491]},{"type":"Point","properties":{"Station_ID":"MI-AT-6","Station_Nam":"MANCELONA 0.5 ESE, MI","Latitude":"44.89981","Longitude":"-85.05100","Snowdepth":"16.000","Units":"in","Rept_Date":"2021-02-14 13"},"coordinates":[2861,6458]},{"type":"Point","properties":{"Station_ID":"ME-SM-4","Station_Nam":"SOLON 3.9 ESE, ME","Latitude":"44.94705","Longitude":"-69.77790","Snowdepth":"16.000","Units":"in","Rept_Date":"2021-02-14 12"},"coordinates":[6445,6482]},{"type":"Point","properties":{"Station_ID":"ME-FR-4","Station_Nam":"NEW SHARON 2.0 NW, ME","Latitude":"44.66582","Longitude":"-70.02720","Snowdepth":"16.000","Units":"in","Rept_Date":"2021-02-14 12"},"coordinates":[6387,6336]},{"type":"Point","properties":{"Station_ID":"ME-AR-15","Station_Nam":"PRESQUE ISLE 1.3 WSW, ME","Latitude":"46.67960","Longitude":"-68.01270","Snowdepth":"16.000","Units":"in","Rept_Date":"2021-02-14 12"},"coordinates":[6860,7381]},{"type":"Point","properties":{"Station_ID":"MD-GR-9","Station_Nam":"MOUNTAIN LAKE PARK 0.4 E, MD","Latitude":"39.40407","Longitude":"-79.37220","Snowdepth":"16.000","Units":"in","Rept_Date":"2021-02-14 12"},"coordinates":[4194,3607]},{"type":"Point","properties":{"Station_ID":"MA-MD-125","Station_Nam":"TEWKSBURY 3.6 SSE, MA","Latitude":"42.57083","Longitude":"-71.19813","Snowdepth":"16.000","Units":"in","Rept_Date":"2021-02-14 12"},"coordinates":[6112,5250]},{"type":"Point","properties":{"Station_ID":"MA-ES-48","Station_Nam":"ANDOVER 0.6 E, MA","Latitude":"42.65659","Longitude":"-71.13048","Snowdepth":"16.000","Units":"in","Rept_Date":"2021-02-14 10"},"coordinates":[6128,5294]},{"type":"Point","properties":{"Station_ID":"LNK","Station_Nam":"LINCOLN MUNICIPAL AIRPORT","Latitude":"40.85080","Longitude":"-96.75920","Snowdepth":"16.000","Units":"in","Rept_Date":"2021-02-15 00"},"coordinates":[114,4358]},{"type":"Point","properties":{"Station_ID":"KMKE","Station_Nam":"GEN MITCHELL INTERNATIONAL  AIRPORT","Latitude":"42.95000","Longitude":"-87.90000","Snowdepth":"16.000","Units":"in","Rept_Date":"2021-02-15 06"},"coordinates":[2193,5446]},{"type":"Point","properties":{"Station_ID":"KINM1","Station_Nam":"KINGFIELD","Latitude":"44.95950","Longitude":"-70.17530","Snowdepth":"16.000","Units":"in","Rept_Date":"2021-02-14 12"},"coordinates":[6352,6489]},{"type":"Point","properties":{"Station_ID":"JOHV1","Station_Nam":"JOHNSON 2 N","Latitude":"44.65790","Longitude":"-72.67850","Snowdepth":"16.000","Units":"in","Rept_Date":"2021-02-14 12"},"coordinates":[5765,6332]},{"type":"Point","properties":{"Station_ID":"ISLV1","Station_Nam":"ISLAND POND","Latitude":"44.81280","Longitude":"-71.89020","Snowdepth":"16.000","Units":"in","Rept_Date":"2021-02-14 14"},"coordinates":[5950,6413]},{"type":"Point","properties":{"Station_ID":"IRMM4","Station_Nam":"WWTP","Latitude":"46.46670","Longitude":"-90.18330","Snowdepth":"16.000","Units":"in","Rept_Date":"2021-02-14 13"},"coordinates":[1657,7271]},{"type":"Point","properties":{"Station_ID":"INDN6","Station_Nam":"INDIAN LAKE","Latitude":"43.75500","Longitude":"-74.27560","Snowdepth":"16.000","Units":"in","Rept_Date":"2021-02-14 13"},"coordinates":[5390,5864]},{"type":"Point","properties":{"Station_ID":"IN-PT-98","Station_Nam":"VALPARAISO 0.9 NNW, IN","Latitude":"41.48956","Longitude":"-87.05800","Snowdepth":"16.000","Units":"in","Rept_Date":"2021-02-14 13"},"coordinates":[2390,4689]},{"type":"Point","properties":{"Station_ID":"IN-PT-91","Station_Nam":"CHESTERTON 4.2 E, IN","Latitude":"41.59433","Longitude":"-86.97520","Snowdepth":"16.000","Units":"in","Rept_Date":"2021-02-14 13"},"coordinates":[2410,4743]},{"type":"Point","properties":{"Station_ID":"IL-WL-80","Station_Nam":"LOCKPORT 1.3 SE, IL","Latitude":"41.57454","Longitude":"-88.03300","Snowdepth":"16.000","Units":"in","Rept_Date":"2021-02-14 13"},"coordinates":[2162,4733]},{"type":"Point","properties":{"Station_ID":"IL-MCH-95","Station_Nam":"CARY 0.5 SSW, IL","Latitude":"42.20235","Longitude":"-88.25224","Snowdepth":"16.000","Units":"in","Rept_Date":"2021-02-14 13"},"coordinates":[2110,5059]},{"type":"Point","properties":{"Station_ID":"IL-MCH-13","Station_Nam":"BULL VALLEY 2.5 WNW, IL","Latitude":"42.32455","Longitude":"-88.39460","Snowdepth":"16.000","Units":"in","Rept_Date":"2021-02-14 14"},"coordinates":[2077,5122]},{"type":"Point","properties":{"Station_ID":"IL-DP-127","Station_Nam":"DOWNERS GROVE 0.4 NNE, IL","Latitude":"41.80331","Longitude":"-88.01542","Snowdepth":"16.000","Units":"in","Rept_Date":"2021-02-14 13"},"coordinates":[2166,4852]},{"type":"Point","properties":{"Station_ID":"IL-DP-109","Station_Nam":"ELMHURST 0.8 ESE, IL","Latitude":"41.89287","Longitude":"-87.92960","Snowdepth":"16.000","Units":"in","Rept_Date":"2021-02-14 13"},"coordinates":[2186,4898]},{"type":"Point","properties":{"Station_ID":"IL-CK-61","Station_Nam":"OAK PARK 1.0 SW, IL","Latitude":"41.87558","Longitude":"-87.80110","Snowdepth":"16.000","Units":"in","Rept_Date":"2021-02-14 13"},"coordinates":[2216,4889]},{"type":"Point","properties":{"Station_ID":"IL-CK-320","Station_Nam":"PARK FOREST 0.7 WNW, IL","Latitude":"41.48579","Longitude":"-87.69962","Snowdepth":"16.000","Units":"in","Rept_Date":"2021-02-14 13"},"coordinates":[2240,4687]},{"type":"Point","properties":{"Station_ID":"IA-BT-16","Station_Nam":"SHELLSBURG 2.9 S, IA","Latitude":"42.05091","Longitude":"-91.87008","Snowdepth":"16.000","Units":"in","Rept_Date":"2021-02-14 13"},"coordinates":[1261,4980]},{"type":"Point","properties":{"Station_ID":"HUBN3","Station_Nam":"HUBBARD BROOK","Latitude":"43.93330","Longitude":"-71.71670","Snowdepth":"16.000","Units":"in","Rept_Date":"2021-02-15 06"},"coordinates":[5990,5956]},{"type":"Point","properties":{"Station_ID":"GNDI4","Station_Nam":"GRUNDY CENTER,IA","Latitude":"42.35530","Longitude":"-92.77390","Snowdepth":"16.000","Units":"in","Rept_Date":"2021-02-14 13"},"coordinates":[1049,5138]},{"type":"Point","properties":{"Station_ID":"GLEI2","Station_Nam":"GLEN ELLYN 4S","Latitude":"41.82670","Longitude":"-88.05810","Snowdepth":"16.000","Units":"in","Rept_Date":"2021-02-14 13"},"coordinates":[2156,4864]},{"type":"Point","properties":{"Station_ID":"GAYM4","Station_Nam":"GAYLORD","Latitude":"45.03320","Longitude":"-84.71130","Snowdepth":"16.000","Units":"in","Rept_Date":"2021-02-14 13"},"coordinates":[2941,6527]},{"type":"Point","properties":{"Station_ID":"EAHV1","Station_Nam":"EAST HAVEN","Latitude":"44.64250","Longitude":"-71.89120","Snowdepth":"16.000","Units":"in","Rept_Date":"2021-02-14 12"},"coordinates":[5949,6324]},{"type":"Point","properties":{"Station_ID":"DARW3","Station_Nam":"DARLINGTON","Latitude":"42.67780","Longitude":"-90.11860","Snowdepth":"16.000","Units":"in","Rept_Date":"2021-02-14 15"},"coordinates":[1672,5305]},{"type":"Point","properties":{"Station_ID":"CRPI4","Station_Nam":"CEDAR RAPIDS NO 1","Latitude":"42.05000","Longitude":"-91.58810","Snowdepth":"16.000","Units":"in","Rept_Date":"2021-02-14 23"},"coordinates":[1327,4980]},{"type":"Point","properties":{"Station_ID":"CNNW3","Station_Nam":"CRANDON","Latitude":"45.55110","Longitude":"-88.89830","Snowdepth":"16.000","Units":"in","Rept_Date":"2021-02-14 12"},"coordinates":[1959,6796]},{"type":"Point","properties":{"Station_ID":"CNDP1","Station_Nam":"CANADENSIS","Latitude":"41.18980","Longitude":"-75.23830","Snowdepth":"16.000","Units":"in","Rept_Date":"2021-02-14 12"},"coordinates":[5164,4533]},{"type":"Point","properties":{"Station_ID":"BROW3","Station_Nam":"BRODHEAD,WI","Latitude":"42.61720","Longitude":"-89.38970","Snowdepth":"16.000","Units":"in","Rept_Date":"2021-02-14 13"},"coordinates":[1843,5274]},{"type":"Point","properties":{"Station_ID":"BRLN3","Station_Nam":"BERLIN","Latitude":"44.45350","Longitude":"-71.18540","Snowdepth":"16.000","Units":"in","Rept_Date":"2021-02-14 14"},"coordinates":[6115,6226]},{"type":"Point","properties":{"Station_ID":"BLGW3","Station_Nam":"BELGIUM WWTP","Latitude":"43.51310","Longitude":"-87.85440","Snowdepth":"16.000","Units":"in","Rept_Date":"2021-02-14 13"},"coordinates":[2204,5738]},{"type":"Point","properties":{"Station_ID":"AGNW3","Station_Nam":"ARGONNE-1.5 NW","Latitude":"45.67360","Longitude":"-88.90380","Snowdepth":"16.000","Units":"in","Rept_Date":"2021-02-14 13"},"coordinates":[1957,6859]},{"type":"Point","properties":{"Station_ID":"QTV","Station_Nam":"QTV","Latitude":"49.66000","Longitude":"-69.35690","Snowdepth":"15.984","Units":"in","Rept_Date":"2021-02-14 12"},"coordinates":[6544,8927]},{"type":"Point","properties":{"Station_ID":"NE-SY-25","Station_Nam":"GRETNA 2.9 NNE, NE","Latitude":"41.17831","Longitude":"-96.21984","Snowdepth":"15.800","Units":"in","Rept_Date":"2021-02-14 14"},"coordinates":[241,4527]},{"type":"Point","properties":{"Station_ID":"CAN-ON-791","Station_Nam":"METCALFE 4.4 NNW, CAN","Latitude":"45.27286","Longitude":"-75.48952","Snowdepth":"15.700","Units":"in","Rept_Date":"2021-02-14 11"},"coordinates":[5105,6651]},{"type":"Point","properties":{"Station_ID":"CAN-MB-368","Station_Nam":"WHITESHELL 1.3 NE, CAN","Latitude":"49.74405","Longitude":"-95.19123","Snowdepth":"15.700","Units":"in","Rept_Date":"2021-02-14 14"},"coordinates":[482,8970]},{"type":"Point","properties":{"Station_ID":"NJ-MS-98","Station_Nam":"HARDING TWP 2.4 W, NJ","Latitude":"40.74165","Longitude":"-74.54592","Snowdepth":"15.600","Units":"in","Rept_Date":"2021-02-14 12"},"coordinates":[5327,4301]},{"type":"Point","properties":{"Station_ID":"WI-PR-6","Station_Nam":"PHILLIPS 1.3 S, WI","Latitude":"45.67677","Longitude":"-90.39543","Snowdepth":"15.500","Units":"in","Rept_Date":"2021-02-14 12"},"coordinates":[1607,6861]},{"type":"Point","properties":{"Station_ID":"WI-BY-22","Station_Nam":"MASON 11.5 WNW, WI","Latitude":"46.50198","Longitude":"-91.28339","Snowdepth":"15.500","Units":"in","Rept_Date":"2021-02-14 14"},"coordinates":[1399,7289]},{"type":"Point","properties":{"Station_ID":"VT-CL-18","Station_Nam":"WHEELOCK 1.6 S, VT","Latitude":"44.56491","Longitude":"-72.08830","Snowdepth":"15.500","Units":"in","Rept_Date":"2021-02-14 12"},"coordinates":[5903,6284]},{"type":"Point","properties":{"Station_ID":"VT-CH-13","Station_Nam":"RICHMOND 3.4 SSE, VT","Latitude":"44.36084","Longitude":"-72.96400","Snowdepth":"15.500","Units":"in","Rept_Date":"2021-02-14 12"},"coordinates":[5698,6178]},{"type":"Point","properties":{"Station_ID":"VT-CH-11","Station_Nam":"UNDERHILL 5.1 NNE, VT","Latitude":"44.59811","Longitude":"-72.91880","Snowdepth":"15.500","Units":"in","Rept_Date":"2021-02-14 13"},"coordinates":[5708,6301]},{"type":"Point","properties":{"Station_ID":"NY-OS-15","Station_Nam":"MINETTO 0.1 SE, NY","Latitude":"43.39771","Longitude":"-76.47960","Snowdepth":"15.500","Units":"in","Rept_Date":"2021-02-14 12"},"coordinates":[4873,5679]},{"type":"Point","properties":{"Station_ID":"NY-ER-65","Station_Nam":"BOSTON 1.5 NE, NY","Latitude":"42.65470","Longitude":"-78.72010","Snowdepth":"15.500","Units":"in","Rept_Date":"2021-02-14 13"},"coordinates":[4347,5293]},{"type":"Point","properties":{"Station_ID":"NY-DL-23","Station_Nam":"LONG EDDY 6.5 NNE, NY","Latitude":"41.93510","Longitude":"-75.07840","Snowdepth":"15.500","Units":"in","Rept_Date":"2021-02-14 13"},"coordinates":[5202,4920]},{"type":"Point","properties":{"Station_ID":"MI-MG-13","Station_Nam":"MUSKEGON 3.5 SSE, MI","Latitude":"43.17913","Longitude":"-86.23640","Snowdepth":"15.500","Units":"in","Rept_Date":"2021-02-14 16"},"coordinates":[2583,5565]},{"type":"Point","properties":{"Station_ID":"IL-LK-9","Station_Nam":"LAKE VILLA 1.1 SSW, IL","Latitude":"42.40305","Longitude":"-88.09050","Snowdepth":"15.500","Units":"in","Rept_Date":"2021-02-14 12"},"coordinates":[2148,5163]},{"type":"Point","properties":{"Station_ID":"IL-LK-81","Station_Nam":"LAKE VILLA 2.3 WSW, IL","Latitude":"42.40532","Longitude":"-88.12380","Snowdepth":"15.500","Units":"in","Rept_Date":"2021-02-14 13"},"coordinates":[2140,5164]},{"type":"Point","properties":{"Station_ID":"IL-DP-78","Station_Nam":"NAPERVILLE 2.4 SE, IL","Latitude":"41.74184","Longitude":"-88.11620","Snowdepth":"15.500","Units":"in","Rept_Date":"2021-02-14 13"},"coordinates":[2142,4820]},{"type":"Point","properties":{"Station_ID":"IL-CK-285","Station_Nam":"HARWOOD HEIGHTS 0.4 NNE, IL","Latitude":"41.97154","Longitude":"-87.80325","Snowdepth":"15.500","Units":"in","Rept_Date":"2021-02-14 13"},"coordinates":[2216,4939]},{"type":"Point","properties":{"Station_ID":"IL-CK-145","Station_Nam":"OAK PARK 1.5 S, IL","Latitude":"41.86592","Longitude":"-87.79280","Snowdepth":"15.500","Units":"in","Rept_Date":"2021-02-14 12"},"coordinates":[2218,4884]},{"type":"Point","properties":{"Station_ID":"IA-CT-8","Station_Nam":"ELKADER 6.8 WSW, IA","Latitude":"42.81136","Longitude":"-91.52332","Snowdepth":"15.500","Units":"in","Rept_Date":"2021-02-14 14"},"coordinates":[1343,5374]},{"type":"Point","properties":{"Station_ID":"CAN-NS-39","Station_Nam":"ST. ANNS 2.8 NW, CA","Latitude":"46.25082","Longitude":"-60.64340","Snowdepth":"15.500","Units":"in","Rept_Date":"2021-02-14 12"},"coordinates":[8589,7159]},{"type":"Point","properties":{"Station_ID":"CAN-ON-451","Station_Nam":"OWEN SOUND 1.2 N - GSCA, CAN","Latitude":"44.58092","Longitude":"-80.93025","Snowdepth":"15.400","Units":"in","Rept_Date":"2021-02-14 13"},"coordinates":[3828,6292]},{"type":"Point","properties":{"Station_ID":"CAN-NB-105","Station_Nam":"SISSON BROOK 3.8 E, CAN","Latitude":"46.98305","Longitude":"-67.32532","Snowdepth":"15.400","Units":"in","Rept_Date":"2021-02-14 12"},"coordinates":[7021,7538]},{"type":"Point","properties":{"Station_ID":"QLI","Station_Nam":"QLI","Latitude":"50.27080","Longitude":"-73.92280","Snowdepth":"15.276","Units":"in","Rept_Date":"2021-02-14 12"},"coordinates":[5473,9244]},{"type":"Point","properties":{"Station_ID":"WI-SR-1","Station_Nam":"HAYWARD 9.2 NNE, WI","Latitude":"46.13255","Longitude":"-91.40500","Snowdepth":"15.200","Units":"in","Rept_Date":"2021-02-14 12"},"coordinates":[1370,7097]},{"type":"Point","properties":{"Station_ID":"QGD","Station_Nam":"QGD","Latitude":"51.11140","Longitude":"-67.13940","Snowdepth":"15.079","Units":"in","Rept_Date":"2021-02-14 12"},"coordinates":[7065,9680]},{"type":"Point","properties":{"Station_ID":"WSTW3","Station_Nam":"WEST BEND -FIRE","Latitude":"43.43138","Longitude":"-88.16111","Snowdepth":"15.000","Units":"in","Rept_Date":"2021-02-14 13"},"coordinates":[2132,5696]},{"type":"Point","properties":{"Station_ID":"WRSN6","Station_Nam":"WARSAW 6SW","Latitude":"42.68550","Longitude":"-78.22020","Snowdepth":"15.000","Units":"in","Rept_Date":"2021-02-14 12"},"coordinates":[4464,5309]},{"type":"Point","properties":{"Station_ID":"WMTI4","Station_Nam":"FORT DODGE,IA","Latitude":"42.50610","Longitude":"-94.20110","Snowdepth":"15.000","Units":"in","Rept_Date":"2021-02-14 13"},"coordinates":[714,5216]},{"type":"Point","properties":{"Station_ID":"WLNM4","Station_Nam":"WELLSTON 1N","Latitude":"44.22940","Longitude":"-85.95690","Snowdepth":"15.000","Units":"in","Rept_Date":"2021-02-14 12"},"coordinates":[2649,6110]},{"type":"Point","properties":{"Station_ID":"WILW3","Station_Nam":"RESERVOIR","Latitude":"45.70000","Longitude":"-89.83330","Snowdepth":"15.000","Units":"in","Rept_Date":"2021-02-14 12"},"coordinates":[1739,6873]},{"type":"Point","properties":{"Station_ID":"WI-VL-14","Station_Nam":"BOULDER JUNCTION 1.4 NE, WI","Latitude":"46.12840","Longitude":"-89.62470","Snowdepth":"15.000","Units":"in","Rept_Date":"2021-02-14 13"},"coordinates":[1788,7095]},{"type":"Point","properties":{"Station_ID":"WI-MW-18","Station_Nam":"WEST ALLIS 0.7 SSE, WI","Latitude":"42.99802","Longitude":"-88.02380","Snowdepth":"15.000","Units":"in","Rept_Date":"2021-02-14 14"},"coordinates":[2164,5471]},{"type":"Point","properties":{"Station_ID":"WI-GL-4","Station_Nam":"GREEN LAKE 0.8 E, WI","Latitude":"43.84369","Longitude":"-88.94066","Snowdepth":"15.000","Units":"in","Rept_Date":"2021-02-14 13"},"coordinates":[1949,5910]},{"type":"Point","properties":{"Station_ID":"WI-DA-31","Station_Nam":"DEERFIELD 0.6 N, WI","Latitude":"43.05958","Longitude":"-89.07340","Snowdepth":"15.000","Units":"in","Rept_Date":"2021-02-14 15"},"coordinates":[1918,5503]},{"type":"Point","properties":{"Station_ID":"WI-BY-2","Station_Nam":"MELLEN 18.6 SW, WI","Latitude":"46.16937","Longitude":"-90.98090","Snowdepth":"15.000","Units":"in","Rept_Date":"2021-02-14 13"},"coordinates":[1470,7116]},{"type":"Point","properties":{"Station_ID":"WDSV1","Station_Nam":"WOODSTOCK","Latitude":"43.63030","Longitude":"-72.50720","Snowdepth":"15.000","Units":"in","Rept_Date":"2021-02-14 13"},"coordinates":[5805,5799]},{"type":"Point","properties":{"Station_ID":"VT-OL-25","Station_Nam":"NEWPORT 1.5 WSW, VT","Latitude":"44.93059","Longitude":"-72.23731","Snowdepth":"15.000","Units":"in","Rept_Date":"2021-02-14 12"},"coordinates":[5868,6474]},{"type":"Point","properties":{"Station_ID":"TOPM1","Station_Nam":"TOPSFIELD","Latitude":"45.43470","Longitude":"-67.72020","Snowdepth":"15.000","Units":"in","Rept_Date":"2021-02-14 12"},"coordinates":[6928,6735]},{"type":"Point","properties":{"Station_ID":"TMWN3","Station_Nam":"TAMWORTH 4","Latitude":"43.86390","Longitude":"-71.26610","Snowdepth":"15.000","Units":"in","Rept_Date":"2021-02-14 12"},"coordinates":[6096,5920]},{"type":"Point","properties":{"Station_ID":"TAKW3","Station_Nam":"RICE RESERVOIR NO. 2","Latitude":"45.53770","Longitude":"-89.73220","Snowdepth":"15.000","Units":"in","Rept_Date":"2021-02-14 13"},"coordinates":[1763,6789]},{"type":"Point","properties":{"Station_ID":"SUTV1","Station_Nam":"SUTTON","Latitude":"44.61220","Longitude":"-72.04810","Snowdepth":"15.000","Units":"in","Rept_Date":"2021-02-14 13"},"coordinates":[5913,6309]},{"type":"Point","properties":{"Station_ID":"STIM4","Station_Nam":"ST IGNACE","Latitude":"45.86080","Longitude":"-84.71960","Snowdepth":"15.000","Units":"in","Rept_Date":"2021-02-14 12"},"coordinates":[2939,6956]},{"type":"Point","properties":{"Station_ID":"STGW3","Station_Nam":"ST GERMAIN","Latitude":"45.91550","Longitude":"-89.48940","Snowdepth":"15.000","Units":"in","Rept_Date":"2021-02-14 12"},"coordinates":[1820,6985]},{"type":"Point","properties":{"Station_ID":"SRAW3","Station_Nam":"SARONA","Latitude":"45.80250","Longitude":"-91.86700","Snowdepth":"15.000","Units":"in","Rept_Date":"2021-02-14 14"},"coordinates":[1262,6926]},{"type":"Point","properties":{"Station_ID":"SHIW3","Station_Nam":"SHIOCTON","Latitude":"44.43890","Longitude":"-88.58390","Snowdepth":"15.000","Units":"in","Rept_Date":"2021-02-14 13"},"coordinates":[2032,6219]},{"type":"Point","properties":{"Station_ID":"SAVW3","Station_Nam":"SAUKVILLE WWTP","Latitude":"43.37470","Longitude":"-87.93940","Snowdepth":"15.000","Units":"in","Rept_Date":"2021-02-14 12"},"coordinates":[2184,5667]},{"type":"Point","properties":{"Station_ID":"RLKW3","Station_Nam":"REST LAKE","Latitude":"46.12220","Longitude":"-89.87720","Snowdepth":"15.000","Units":"in","Rept_Date":"2021-02-14 14"},"coordinates":[1729,7092]},{"type":"Point","properties":{"Station_ID":"RHRW3","Station_Nam":"RHINELANDER WJFW TV-12","Latitude":"45.62220","Longitude":"-89.41000","Snowdepth":"15.000","Units":"in","Rept_Date":"2021-02-15 04"},"coordinates":[1839,6832]},{"type":"Point","properties":{"Station_ID":"RHLW3","Station_Nam":"RHINELANDER 4NE","Latitude":"45.65270","Longitude":"-89.30740","Snowdepth":"15.000","Units":"in","Rept_Date":"2021-02-14 12"},"coordinates":[1863,6848]},{"type":"Point","properties":{"Station_ID":"RHI","Station_Nam":"RHINELANDER-ONEIDA COUNTY AIRPORT","Latitude":"45.63080","Longitude":"-89.46530","Snowdepth":"15.000","Units":"in","Rept_Date":"2021-02-14 12"},"coordinates":[1826,6837]},{"type":"Point","properties":{"Station_ID":"PA-NH-15","Station_Nam":"PORTLAND 2.7 WNW, PA","Latitude":"40.93750","Longitude":"-75.14450","Snowdepth":"15.000","Units":"in","Rept_Date":"2021-02-14 12"},"coordinates":[5186,4403]},{"type":"Point","properties":{"Station_ID":"NY-TM-42","Station_Nam":"ITHACA 6.4 E, NY","Latitude":"42.43350","Longitude":"-76.37860","Snowdepth":"15.000","Units":"in","Rept_Date":"2021-02-14 12"},"coordinates":[4896,5178]},{"type":"Point","properties":{"Station_ID":"NY-PT-2","Station_Nam":"BEACON 4.2 ESE, NY","Latitude":"41.48070","Longitude":"-73.89110","Snowdepth":"15.000","Units":"in","Rept_Date":"2021-02-14 12"},"coordinates":[5480,4684]},{"type":"Point","properties":{"Station_ID":"NY-OT-31","Station_Nam":"MARYLAND 1.8 W, NY","Latitude":"42.53310","Longitude":"-74.92090","Snowdepth":"15.000","Units":"in","Rept_Date":"2021-02-14 13"},"coordinates":[5239,5230]},{"type":"Point","properties":{"Station_ID":"NY-MD-10","Station_Nam":"CAZENOVIA 2.9 SE, NY","Latitude":"42.90003","Longitude":"-75.81140","Snowdepth":"15.000","Units":"in","Rept_Date":"2021-02-14 12"},"coordinates":[5030,5420]},{"type":"Point","properties":{"Station_ID":"NY-ER-56","Station_Nam":"COLDEN 1.4 NNW, NY","Latitude":"42.64740","Longitude":"-78.71120","Snowdepth":"15.000","Units":"in","Rept_Date":"2021-02-14 12"},"coordinates":[4349,5289]},{"type":"Point","properties":{"Station_ID":"NY-DL-25","Station_Nam":"HOBART 4.8 ESE, NY","Latitude":"42.35230","Longitude":"-74.57830","Snowdepth":"15.000","Units":"in","Rept_Date":"2021-02-14 12"},"coordinates":[5319,5136]},{"type":"Point","properties":{"Station_ID":"NWSM1","Station_Nam":"NEW SHARON","Latitude":"44.63520","Longitude":"-70.00020","Snowdepth":"15.000","Units":"in","Rept_Date":"2021-02-14 12"},"coordinates":[6393,6321]},{"type":"Point","properties":{"Station_ID":"NJ-WR-5","Station_Nam":"HACKETTSTOWN 0.8 W, NJ","Latitude":"40.85155","Longitude":"-74.84030","Snowdepth":"15.000","Units":"in","Rept_Date":"2021-02-14 12"},"coordinates":[5257,4358]},{"type":"Point","properties":{"Station_ID":"NJ-UN-10","Station_Nam":"NEW PROVIDENCE 0.8 ESE, NJ","Latitude":"40.69450","Longitude":"-74.38980","Snowdepth":"15.000","Units":"in","Rept_Date":"2021-02-14 12"},"coordinates":[5363,4276]},{"type":"Point","properties":{"Station_ID":"NJ-SS-3","Station_Nam":"VERNON TWP 1.7 N, NJ","Latitude":"41.22151","Longitude":"-74.48800","Snowdepth":"15.000","Units":"in","Rept_Date":"2021-02-14 12"},"coordinates":[5340,4550]},{"type":"Point","properties":{"Station_ID":"NJ-SM-56","Station_Nam":"FRANKLIN TWP 5.9 SW, NJ","Latitude":"40.40787","Longitude":"-74.61990","Snowdepth":"15.000","Units":"in","Rept_Date":"2021-02-14 13"},"coordinates":[5309,4128]},{"type":"Point","properties":{"Station_ID":"NJ-SL-7","Station_Nam":"PENNSVILLE TWP 2.0 NNW, NJ","Latitude":"39.65373","Longitude":"-75.51820","Snowdepth":"15.000","Units":"in","Rept_Date":"2021-02-14 12"},"coordinates":[5098,3737]},{"type":"Point","properties":{"Station_ID":"NJ-MS-42","Station_Nam":"RANDOLPH TWP 2.0 E, NJ","Latitude":"40.83980","Longitude":"-74.54320","Snowdepth":"15.000","Units":"in","Rept_Date":"2021-02-14 13"},"coordinates":[5327,4352]},{"type":"Point","properties":{"Station_ID":"NH-MR-60","Station_Nam":"SOUTH SUTTON 1.3 SE, NH","Latitude":"43.29531","Longitude":"-71.90238","Snowdepth":"15.000","Units":"in","Rept_Date":"2021-02-14 13"},"coordinates":[5947,5626]},{"type":"Point","properties":{"Station_ID":"MXON6","Station_Nam":"MEXICO","Latitude":"43.43830","Longitude":"-76.26560","Snowdepth":"15.000","Units":"in","Rept_Date":"2021-02-14 12"},"coordinates":[4923,5700]},{"type":"Point","properties":{"Station_ID":"MSRN3","Station_Nam":"MASCOMA RIVER","Latitude":"43.78330","Longitude":"-72.03330","Snowdepth":"15.000","Units":"in","Rept_Date":"2021-02-15 06"},"coordinates":[5916,5879]},{"type":"Point","properties":{"Station_ID":"MSN","Station_Nam":"MADISON DANE COUNTY RGNL","Latitude":"43.13970","Longitude":"-89.33750","Snowdepth":"15.000","Units":"in","Rept_Date":"2021-02-15 00"},"coordinates":[1856,5545]},{"type":"Point","properties":{"Station_ID":"MRBW3","Station_Nam":"MT HOREB","Latitude":"42.98030","Longitude":"-89.73940","Snowdepth":"15.000","Units":"in","Rept_Date":"2021-02-14 13"},"coordinates":[1761,5462]},{"type":"Point","properties":{"Station_ID":"MO-SN-4","Station_Nam":"BLACKBURN 3.7 E, MO","Latitude":"39.10100","Longitude":"-93.41700","Snowdepth":"15.000","Units":"in","Rept_Date":"2021-02-14 14"},"coordinates":[898,3450]},{"type":"Point","properties":{"Station_ID":"MI-MQ-19","Station_Nam":"ISHPEMING 7.2 SW, MI","Latitude":"46.40550","Longitude":"-87.75670","Snowdepth":"15.000","Units":"in","Rept_Date":"2021-02-14 11"},"coordinates":[2227,7239]},{"type":"Point","properties":{"Station_ID":"MI-MC-4","Station_Nam":"ST. IGNACE 0.5SE, MI","Latitude":"45.86057","Longitude":"-84.71980","Snowdepth":"15.000","Units":"in","Rept_Date":"2021-02-14 12"},"coordinates":[2939,6956]},{"type":"Point","properties":{"Station_ID":"MECN6","Station_Nam":"MECKLENBURG 4 SW","Latitude":"42.44220","Longitude":"-76.75740","Snowdepth":"15.000","Units":"in","Rept_Date":"2021-02-14 12"},"coordinates":[4808,5183]},{"type":"Point","properties":{"Station_ID":"ME-AN-32","Station_Nam":"WINTHROP 9.4 W, ME","Latitude":"44.30476","Longitude":"-70.15835","Snowdepth":"15.000","Units":"in","Rept_Date":"2021-02-14 12"},"coordinates":[6356,6149]},{"type":"Point","properties":{"Station_ID":"MDDW3","Station_Nam":"MIDDLETON,WI","Latitude":"43.09060","Longitude":"-89.51470","Snowdepth":"15.000","Units":"in","Rept_Date":"2021-02-14 13"},"coordinates":[1814,5519]},{"type":"Point","properties":{"Station_ID":"MA-FR-17","Station_Nam":"BUCKLAND 1.8 ESE, MA","Latitude":"42.58900","Longitude":"-72.75110","Snowdepth":"15.000","Units":"in","Rept_Date":"2021-02-14 13"},"coordinates":[5748,5259]},{"type":"Point","properties":{"Station_ID":"LYNW3","Station_Nam":"LYNXVILLE DAM 9","Latitude":"43.21180","Longitude":"-91.09850","Snowdepth":"15.000","Units":"in","Rept_Date":"2021-02-14 14"},"coordinates":[1442,5582]},{"type":"Point","properties":{"Station_ID":"LKMW3","Station_Nam":"LAKE MILLS,WI","Latitude":"43.06670","Longitude":"-88.91220","Snowdepth":"15.000","Units":"in","Rept_Date":"2021-02-14 15"},"coordinates":[1955,5507]},{"type":"Point","properties":{"Station_ID":"LAFW3","Station_Nam":"LA FARGE","Latitude":"43.57340","Longitude":"-90.63200","Snowdepth":"15.000","Units":"in","Rept_Date":"2021-02-14 13"},"coordinates":[1552,5770]},{"type":"Point","properties":{"Station_ID":"KORD","Station_Nam":"CHICAGO OHARE INTERNATIONAL","Latitude":"41.98333","Longitude":"-87.91666","Snowdepth":"15.000","Units":"in","Rept_Date":"2021-02-15 06"},"coordinates":[2189,4945]},{"type":"Point","properties":{"Station_ID":"KMSN","Station_Nam":"MADISON DANE COUNTY RGNL","Latitude":"43.13333","Longitude":"-89.35000","Snowdepth":"15.000","Units":"in","Rept_Date":"2021-02-15 06"},"coordinates":[1853,5541]},{"type":"Point","properties":{"Station_ID":"IN-LP-7","Station_Nam":"LA PORTE 1.6 SW, IN","Latitude":"41.59040","Longitude":"-86.73430","Snowdepth":"15.000","Units":"in","Rept_Date":"2021-02-14 13"},"coordinates":[2466,4741]},{"type":"Point","properties":{"Station_ID":"IL-WL-25","Station_Nam":"CRETE 2.6 E, IL","Latitude":"41.44681","Longitude":"-87.56570","Snowdepth":"15.000","Units":"in","Rept_Date":"2021-02-14 13"},"coordinates":[2271,4667]},{"type":"Point","properties":{"Station_ID":"IL-WL-131","Station_Nam":"HOMER GLEN 0.7 NNE, IL","Latitude":"41.60842","Longitude":"-87.93270","Snowdepth":"15.000","Units":"in","Rept_Date":"2021-02-14 13"},"coordinates":[2185,4751]},{"type":"Point","properties":{"Station_ID":"IL-LK-98","Station_Nam":"LINDENHURST 0.7 NNW, IL","Latitude":"42.42730","Longitude":"-88.03289","Snowdepth":"15.000","Units":"in","Rept_Date":"2021-02-14 13"},"coordinates":[2162,5175]},{"type":"Point","properties":{"Station_ID":"IL-DP-79","Station_Nam":"BURR RIDGE 1.9 SW, IL","Latitude":"41.73194","Longitude":"-87.94860","Snowdepth":"15.000","Units":"in","Rept_Date":"2021-02-14 13"},"coordinates":[2182,4815]},{"type":"Point","properties":{"Station_ID":"IL-DP-118","Station_Nam":"DARIEN 0.4 SSE, IL","Latitude":"41.74312","Longitude":"-87.97462","Snowdepth":"15.000","Units":"in","Rept_Date":"2021-02-14 14"},"coordinates":[2175,4820]},{"type":"Point","properties":{"Station_ID":"IL-CK-75","Station_Nam":"ELK GROVE VILLAGE 2.2 WSW, IL","Latitude":"41.99526","Longitude":"-88.05270","Snowdepth":"15.000","Units":"in","Rept_Date":"2021-02-14 13"},"coordinates":[2157,4951]},{"type":"Point","properties":{"Station_ID":"IA-LN-7","Station_Nam":"CENTRAL CITY 6.7 W, IA","Latitude":"42.19830","Longitude":"-91.65430","Snowdepth":"15.000","Units":"in","Rept_Date":"2021-02-14 13"},"coordinates":[1312,5056]},{"type":"Point","properties":{"Station_ID":"IA-BT-12","Station_Nam":"FAIRFAX 4.0 NW, IA","Latitude":"41.96223","Longitude":"-91.83675","Snowdepth":"15.000","Units":"in","Rept_Date":"2021-02-14 13"},"coordinates":[1269,4934]},{"type":"Point","properties":{"Station_ID":"FREM4","Station_Nam":"FREMONT,MI","Latitude":"43.45000","Longitude":"-86.03330","Snowdepth":"15.000","Units":"in","Rept_Date":"2021-02-14 12"},"coordinates":[2631,5706]},{"type":"Point","properties":{"Station_ID":"EKRI4","Station_Nam":"ELKADER 6SSW","Latitude":"42.77540","Longitude":"-91.45370","Snowdepth":"15.000","Units":"in","Rept_Date":"2021-02-14 13"},"coordinates":[1359,5356]},{"type":"Point","properties":{"Station_ID":"COVP1","Station_Nam":"COVINGTON 2WSW","Latitude":"41.73330","Longitude":"-77.11670","Snowdepth":"15.000","Units":"in","Rept_Date":"2021-02-14 12"},"coordinates":[4723,4815]},{"type":"Point","properties":{"Station_ID":"CODN6","Station_Nam":"COLDEN","Latitude":"42.64720","Longitude":"-78.71110","Snowdepth":"15.000","Units":"in","Rept_Date":"2021-02-14 12"},"coordinates":[4349,5289]},{"type":"Point","properties":{"Station_ID":"CMKW3","Station_Nam":"CLAM LAKE 4W","Latitude":"46.16940","Longitude":"-90.98080","Snowdepth":"15.000","Units":"in","Rept_Date":"2021-02-14 13"},"coordinates":[1470,7116]},{"type":"Point","properties":{"Station_ID":"CAN-ON-42","Station_Nam":"VANKLEEK HILL 3.4 S, CA","Latitude":"45.48987","Longitude":"-74.64570","Snowdepth":"15.000","Units":"in","Rept_Date":"2021-02-14 12"},"coordinates":[5303,6764]},{"type":"Point","properties":{"Station_ID":"CAN-NB-64","Station_Nam":"KESWICK RIDGE 4.0 SE, CAN","Latitude":"45.97014","Longitude":"-66.85538","Snowdepth":"15.000","Units":"in","Rept_Date":"2021-02-14 12"},"coordinates":[7131,7013]},{"type":"Point","properties":{"Station_ID":"BARI2","Station_Nam":"CRABTREE NATURE CENTER","Latitude":"42.11530","Longitude":"-88.16390","Snowdepth":"15.000","Units":"in","Rept_Date":"2021-02-14 14"},"coordinates":[2131,5013]},{"type":"Point","properties":{"Station_ID":"AMOI4","Station_Nam":"ANAMOSA 3 SSW","Latitude":"42.07630","Longitude":"-91.30190","Snowdepth":"15.000","Units":"in","Rept_Date":"2021-02-14 13"},"coordinates":[1395,4993]},{"type":"Point","properties":{"Station_ID":"ALXI4","Station_Nam":"WATERLOO SNOW","Latitude":"42.53130","Longitude":"-92.37550","Snowdepth":"15.000","Units":"in","Rept_Date":"2021-02-15 06"},"coordinates":[1143,5229]},{"type":"Point","properties":{"Station_ID":"ALO","Station_Nam":"WATERLOO MUNICIPAL AIRPORT","Latitude":"42.55690","Longitude":"-92.40000","Snowdepth":"15.000","Units":"in","Rept_Date":"2021-02-15 00"},"coordinates":[1137,5242]},{"type":"Point","properties":{"Station_ID":"MI-GT-27","Station_Nam":"TRAVERSE CITY 4.7 W, MI","Latitude":"44.75372","Longitude":"-85.69934","Snowdepth":"14.800","Units":"in","Rept_Date":"2021-02-14 13"},"coordinates":[2709,6382]},{"type":"Point","properties":{"Station_ID":"IL-WL-63","Station_Nam":"NEW LENOX 1.8 SE, IL","Latitude":"41.49964","Longitude":"-87.96030","Snowdepth":"14.800","Units":"in","Rept_Date":"2021-02-14 13"},"coordinates":[2179,4694]},{"type":"Point","properties":{"Station_ID":"CAN-NB-98","Station_Nam":"HOYT 4.2 S, CAN","Latitude":"45.54763","Longitude":"-66.55440","Snowdepth":"14.800","Units":"in","Rept_Date":"2021-02-14 11"},"coordinates":[7202,6794]},{"type":"Point","properties":{"Station_ID":"IL-CK-50","Station_Nam":"PALOS PARK 1.3 SW, IL","Latitude":"41.65281","Longitude":"-87.86310","Snowdepth":"14.700","Units":"in","Rept_Date":"2021-02-14 13"},"coordinates":[2202,4774]},{"type":"Point","properties":{"Station_ID":"WI-WK-29","Station_Nam":"OCONOMOWOC 4.6 NE, WI","Latitude":"43.14621","Longitude":"-88.42860","Snowdepth":"14.500","Units":"in","Rept_Date":"2021-02-14 15"},"coordinates":[2069,5548]},{"type":"Point","properties":{"Station_ID":"WI-WK-20","Station_Nam":"MUKWONAGO 0.5 N, WI","Latitude":"42.87385","Longitude":"-88.33180","Snowdepth":"14.500","Units":"in","Rept_Date":"2021-02-14 13"},"coordinates":[2092,5407]},{"type":"Point","properties":{"Station_ID":"WI-OZ-22","Station_Nam":"SAUKVILLE 0.9 SSW, WI","Latitude":"43.37254","Longitude":"-87.95009","Snowdepth":"14.500","Units":"in","Rept_Date":"2021-02-14 13"},"coordinates":[2181,5666]},{"type":"Point","properties":{"Station_ID":"WI-MW-68","Station_Nam":"GREENFIELD 0.7 SW, WI","Latitude":"42.95589","Longitude":"-88.01510","Snowdepth":"14.500","Units":"in","Rept_Date":"2021-02-14 13"},"coordinates":[2166,5449]},{"type":"Point","properties":{"Station_ID":"WI-DA-13","Station_Nam":"MADISON 3.7 WSW, WI","Latitude":"43.06230","Longitude":"-89.45650","Snowdepth":"14.500","Units":"in","Rept_Date":"2021-02-14 13"},"coordinates":[1828,5505]},{"type":"Point","properties":{"Station_ID":"VT-LM-1","Station_Nam":"STOWE 0.2 SW, VT","Latitude":"44.46399","Longitude":"-72.69070","Snowdepth":"14.500","Units":"in","Rept_Date":"2021-02-14 12"},"coordinates":[5762,6232]},{"type":"Point","properties":{"Station_ID":"PA-NH-8","Station_Nam":"MARTINS CREEK 0.2 E, PA","Latitude":"40.78285","Longitude":"-75.18270","Snowdepth":"14.500","Units":"in","Rept_Date":"2021-02-14 12"},"coordinates":[5177,4322]},{"type":"Point","properties":{"Station_ID":"NY-OT-11","Station_Nam":"HARTWICK, NY","Latitude":"42.65990","Longitude":"-75.05000","Snowdepth":"14.500","Units":"in","Rept_Date":"2021-02-14 16"},"coordinates":[5208,5296]},{"type":"Point","properties":{"Station_ID":"NY-OS-38","Station_Nam":"MEXICO COOP, NY","Latitude":"43.43830","Longitude":"-76.26570","Snowdepth":"14.500","Units":"in","Rept_Date":"2021-02-14 12"},"coordinates":[4923,5700]},{"type":"Point","properties":{"Station_ID":"NY-CR-5","Station_Nam":"MARATHON 1.0 NW, NY","Latitude":"42.45161","Longitude":"-76.04370","Snowdepth":"14.500","Units":"in","Rept_Date":"2021-02-14 12"},"coordinates":[4975,5188]},{"type":"Point","properties":{"Station_ID":"NJ-SM-67","Station_Nam":"FRANKLIN TWP 2.4 ENE, NJ","Latitude":"40.49170","Longitude":"-74.51077","Snowdepth":"14.500","Units":"in","Rept_Date":"2021-02-14 12"},"coordinates":[5335,4171]},{"type":"Point","properties":{"Station_ID":"NJ-PS-14","Station_Nam":"HAWTHORNE 1.0 SSE, NJ","Latitude":"40.94364","Longitude":"-74.15230","Snowdepth":"14.500","Units":"in","Rept_Date":"2021-02-14 12"},"coordinates":[5419,4406]},{"type":"Point","properties":{"Station_ID":"NJ-BG-23","Station_Nam":"OAKLAND 0.9 SSE, NJ","Latitude":"41.01905","Longitude":"-74.23340","Snowdepth":"14.500","Units":"in","Rept_Date":"2021-02-14 13"},"coordinates":[5400,4445]},{"type":"Point","properties":{"Station_ID":"NH-CR-27","Station_Nam":"TAMWORTH 0.4 NNW, NH","Latitude":"43.86449","Longitude":"-71.26610","Snowdepth":"14.500","Units":"in","Rept_Date":"2021-02-14 12"},"coordinates":[6096,5921]},{"type":"Point","properties":{"Station_ID":"IL-WL-166","Station_Nam":"NAPERVILLE 3.6 SE, IL","Latitude":"41.72312","Longitude":"-88.10876","Snowdepth":"14.500","Units":"in","Rept_Date":"2021-02-14 17"},"coordinates":[2144,4810]},{"type":"Point","properties":{"Station_ID":"IL-LK-16","Station_Nam":"BUFFALO GROVE 1.5 N, IL","Latitude":"42.18800","Longitude":"-87.95900","Snowdepth":"14.500","Units":"in","Rept_Date":"2021-02-14 13"},"coordinates":[2179,5051]},{"type":"Point","properties":{"Station_ID":"IL-DK-36","Station_Nam":"DE KALB 3.5 WSW, IL","Latitude":"41.91085","Longitude":"-88.81389","Snowdepth":"14.500","Units":"in","Rept_Date":"2021-02-14 13"},"coordinates":[1978,4907]},{"type":"Point","properties":{"Station_ID":"IL-CK-12","Station_Nam":"BRIDGEVIEW 1.3 NNW, IL","Latitude":"41.75502","Longitude":"-87.81730","Snowdepth":"14.500","Units":"in","Rept_Date":"2021-02-14 13"},"coordinates":[2212,4827]},{"type":"Point","properties":{"Station_ID":"QLP","Station_Nam":"QLP","Latitude":"48.13920","Longitude":"-72.63830","Snowdepth":"14.409","Units":"in","Rept_Date":"2021-02-14 12"},"coordinates":[5774,8138]},{"type":"Point","properties":{"Station_ID":"NH-CR-11","Station_Nam":"NORTH CONWAY 1.4 SSW, NH","Latitude":"44.03556","Longitude":"-71.14010","Snowdepth":"14.400","Units":"in","Rept_Date":"2021-02-14 12"},"coordinates":[6126,6009]},{"type":"Point","properties":{"Station_ID":"IN-PT-69","Station_Nam":"PORTER 0.6 S, IN","Latitude":"41.61892","Longitude":"-87.08250","Snowdepth":"14.100","Units":"in","Rept_Date":"2021-02-14 13"},"coordinates":[2385,4756]},{"type":"Point","properties":{"Station_ID":"WJWI2","Station_Nam":"WESTMONT,IL","Latitude":"41.80000","Longitude":"-87.95000","Snowdepth":"14.000","Units":"in","Rept_Date":"2021-02-14 13"},"coordinates":[2181,4850]},{"type":"Point","properties":{"Station_ID":"WI-WK-73","Station_Nam":"MENOMONEE FALLS 3.2 NNW, WI","Latitude":"43.18817","Longitude":"-88.15555","Snowdepth":"14.000","Units":"in","Rept_Date":"2021-02-14 13"},"coordinates":[2133,5570]},{"type":"Point","properties":{"Station_ID":"WI-WK-68","Station_Nam":"OCONOMOWOC 1.0 S, WI","Latitude":"43.09530","Longitude":"-88.48590","Snowdepth":"14.000","Units":"in","Rept_Date":"2021-02-14 14"},"coordinates":[2055,5522]},{"type":"Point","properties":{"Station_ID":"WI-OZ-17","Station_Nam":"WEST BEND 7.3 E, WI","Latitude":"43.42860","Longitude":"-88.03870","Snowdepth":"14.000","Units":"in","Rept_Date":"2021-02-14 13"},"coordinates":[2160,5695]},{"type":"Point","properties":{"Station_ID":"WI-ON-6","Station_Nam":"RHINELANDER 5.2 N, WI","Latitude":"45.71388","Longitude":"-89.42150","Snowdepth":"14.000","Units":"in","Rept_Date":"2021-02-14 14"},"coordinates":[1836,6880]},{"type":"Point","properties":{"Station_ID":"WI-MN-9","Station_Nam":"WARRENS 4.7 WSW, WI","Latitude":"44.10386","Longitude":"-90.58884","Snowdepth":"14.000","Units":"in","Rept_Date":"2021-02-14 14"},"coordinates":[1562,6045]},{"type":"Point","properties":{"Station_ID":"WI-DG-20","Station_Nam":"SOLON SPRINGS 1.2 W, WI","Latitude":"46.35217","Longitude":"-91.84405","Snowdepth":"14.000","Units":"in","Rept_Date":"2021-02-14 13"},"coordinates":[1267,7211]},{"type":"Point","properties":{"Station_ID":"WI-DD-4","Station_Nam":"BEAVER DAM 1.4 SSW, WI","Latitude":"43.44719","Longitude":"-88.85260","Snowdepth":"14.000","Units":"in","Rept_Date":"2021-02-14 14"},"coordinates":[1969,5704]},{"type":"Point","properties":{"Station_ID":"WI-DD-14","Station_Nam":"THERESA 0.1 ESE, WI","Latitude":"43.51691","Longitude":"-88.45026","Snowdepth":"14.000","Units":"in","Rept_Date":"2021-02-14 13"},"coordinates":[2064,5740]},{"type":"Point","properties":{"Station_ID":"WI-DA-33","Station_Nam":"OREGON 0.4 SSW, WI","Latitude":"42.92080","Longitude":"-89.38540","Snowdepth":"14.000","Units":"in","Rept_Date":"2021-02-14 13"},"coordinates":[1844,5431]},{"type":"Point","properties":{"Station_ID":"WI-BY-1","Station_Nam":"BAYFIELD 8.8 N, WI","Latitude":"46.93855","Longitude":"-90.83490","Snowdepth":"14.000","Units":"in","Rept_Date":"2021-02-14 13"},"coordinates":[1504,7515]},{"type":"Point","properties":{"Station_ID":"WBRM4","Station_Nam":"WEST BRANCH 3SE","Latitude":"44.25410","Longitude":"-84.20110","Snowdepth":"14.000","Units":"in","Rept_Date":"2021-02-14 13"},"coordinates":[3061,6123]},{"type":"Point","properties":{"Station_ID":"VT-OL-2","Station_Nam":"BARTON 3.0 ENE, VT","Latitude":"44.75863","Longitude":"-72.11680","Snowdepth":"14.000","Units":"in","Rept_Date":"2021-02-14 12"},"coordinates":[5897,6385]},{"type":"Point","properties":{"Station_ID":"VT-CL-14","Station_Nam":"LYNDONVILLE 1.1 W, VT","Latitude":"44.53582","Longitude":"-72.02867","Snowdepth":"14.000","Units":"in","Rept_Date":"2021-02-14 13"},"coordinates":[5917,6269]},{"type":"Point","properties":{"Station_ID":"TURM1","Station_Nam":"TURNER","Latitude":"44.28220","Longitude":"-70.25610","Snowdepth":"14.000","Units":"in","Rept_Date":"2021-02-14 12"},"coordinates":[6333,6137]},{"type":"Point","properties":{"Station_ID":"TAHW3","Station_Nam":"TAYCHEEDAH","Latitude":"43.83390","Longitude":"-88.34690","Snowdepth":"14.000","Units":"in","Rept_Date":"2021-02-14 13"},"coordinates":[2088,5905]},{"type":"Point","properties":{"Station_ID":"SHHN6","Station_Nam":"SCHOHARIE VILLAGE","Latitude":"42.66500","Longitude":"-74.30360","Snowdepth":"14.000","Units":"in","Rept_Date":"2021-02-14 12"},"coordinates":[5383,5299]},{"type":"Point","properties":{"Station_ID":"SAUW3","Station_Nam":"WAUSAU WSAW TV","Latitude":"44.94630","Longitude":"-89.62220","Snowdepth":"14.000","Units":"in","Rept_Date":"2021-02-15 01"},"coordinates":[1789,6482]},{"type":"Point","properties":{"Station_ID":"RHIW3","Station_Nam":"RHINELANDER","Latitude":"45.59860","Longitude":"-89.45080","Snowdepth":"14.000","Units":"in","Rept_Date":"2021-02-14 13"},"coordinates":[1829,6820]},