{"type":"Topology","objects":{"snowdepth_geo":{"type":"GeometryCollection","name":"snowdepth","crs":{"type":"name","properties":{"name":"urn:ogc:def:crs:OGC:1.3:CRS84"}},"geometries":[{"type":"Point","properties":{"Station_ID":"MMSV1","Station_Nam":"MOUNT MANSFIELD","Latitude":"44.53330","Longitude":"-72.83330","Snowdepth":"79.000","Units":"in","Rept_Date":"2019-12-24 05"},"coordinates":[5491,5905]},{"type":"Point","properties":{"Station_ID":"PRKM4","Station_Nam":"MUNISING EAST","Latitude":"46.42580","Longitude":"-86.62000","Snowdepth":"76.500","Units":"in","Rept_Date":"2019-12-24 06"},"coordinates":[2389,6982]},{"type":"Point","properties":{"Station_ID":"OGIQ6","Station_Nam":"OGOKI CAMP","Latitude":"50.76680","Longitude":"-87.85820","Snowdepth":"61.100","Units":"in","Rept_Date":"2019-12-24 06"},"coordinates":[2111,9453]},{"type":"Point","properties":{"Station_ID":"DVLQ6","Station_Nam":"DEVIOUS LAKE","Latitude":"49.19890","Longitude":"-87.76440","Snowdepth":"43.460","Units":"in","Rept_Date":"2019-12-24 06"},"coordinates":[2132,8560]},{"type":"Point","properties":{"Station_ID":"HURW3","Station_Nam":"HURLEY","Latitude":"46.46250","Longitude":"-90.19550","Snowdepth":"34.000","Units":"in","Rept_Date":"2019-12-23 14"},"coordinates":[1585,7003]},{"type":"Point","properties":{"Station_ID":"PDLM4","Station_Nam":"PAINESDALE","Latitude":"47.04160","Longitude":"-88.67170","Snowdepth":"32.000","Units":"in","Rept_Date":"2019-12-23 13"},"coordinates":[1928,7333]},{"type":"Point","properties":{"Station_ID":"LVDW3","Station_Nam":"LAC VIEUX DESERT","Latitude":"46.12110","Longitude":"-89.07580","Snowdepth":"27.000","Units":"in","Rept_Date":"2019-12-23 14"},"coordinates":[1837,6809]},{"type":"Point","properties":{"Station_ID":"QGO","Station_Nam":"QGO","Latitude":"48.85500","Longitude":"-74.20640","Snowdepth":"26.299","Units":"in","Rept_Date":"2019-12-23 12"},"coordinates":[5182,8365]},{"type":"Point","properties":{"Station_ID":"PHEW3","Station_Nam":"PHELPS","Latitude":"46.06630","Longitude":"-89.07520","Snowdepth":"26.000","Units":"in","Rept_Date":"2019-12-23 13"},"coordinates":[1837,6778]},{"type":"Point","properties":{"Station_ID":"HTLN3","Station_Nam":"HERMIT LAKE SNOWPLOT","Latitude":"44.26130","Longitude":"-71.28330","Snowdepth":"26.000","Units":"in","Rept_Date":"2019-12-23 10"},"coordinates":[5840,5750]},{"type":"Point","properties":{"Station_ID":"QOU","Station_Nam":"QOU","Latitude":"50.79250","Longitude":"-69.67470","Snowdepth":"25.945","Units":"in","Rept_Date":"2019-12-23 12"},"coordinates":[6202,9467]},{"type":"Point","properties":{"Station_ID":"MI-BG-3","Station_Nam":"L'ANSE 17.8 SE, MI","Latitude":"46.55730","Longitude":"-88.20770","Snowdepth":"25.000","Units":"in","Rept_Date":"2019-12-23 13"},"coordinates":[2032,7057]},{"type":"Point","properties":{"Station_ID":"IWOM4","Station_Nam":"IRONWOOD#2","Latitude":"46.46520","Longitude":"-90.13820","Snowdepth":"24.000","Units":"in","Rept_Date":"2019-12-23 13"},"coordinates":[1598,7005]},{"type":"Point","properties":{"Station_ID":"IBLM5","Station_Nam":"ISABELLA 14W","Latitude":"47.59360","Longitude":"-91.65140","Snowdepth":"24.000","Units":"in","Rept_Date":"2019-12-23 15"},"coordinates":[1257,7647]},{"type":"Point","properties":{"Station_ID":"QLB","Station_Nam":"QLB","Latitude":"50.72360","Longitude":"-75.10000","Snowdepth":"23.583","Units":"in","Rept_Date":"2019-12-23 12"},"coordinates":[4981,9428]},{"type":"Point","properties":{"Station_ID":"MLZ","Station_Nam":"MLZ","Latitude":"50.66170","Longitude":"-68.82360","Snowdepth":"23.307","Units":"in","Rept_Date":"2019-12-23 12"},"coordinates":[6393,9393]},{"type":"Point","properties":{"Station_ID":"QGD","Station_Nam":"QGD","Latitude":"51.11140","Longitude":"-67.13940","Snowdepth":"23.031","Units":"in","Rept_Date":"2019-12-23 12"},"coordinates":[6772,9649]},{"type":"Point","properties":{"Station_ID":"WTRW3","Station_Nam":"WINTER","Latitude":"45.79920","Longitude":"-90.99470","Snowdepth":"23.000","Units":"in","Rept_Date":"2019-12-23 15"},"coordinates":[1405,6626]},{"type":"Point","properties":{"Station_ID":"WLFM5","Station_Nam":"WOLF RIDGE ENVIRON LEARNING CENTER","Latitude":"47.38240","Longitude":"-91.19730","Snowdepth":"23.000","Units":"in","Rept_Date":"2019-12-23 13"},"coordinates":[1359,7527]},{"type":"Point","properties":{"Station_ID":"MQT","Station_Nam":"MARQUETTE, MI","Latitude":"46.53140","Longitude":"-87.54920","Snowdepth":"23.000","Units":"in","Rept_Date":"2019-12-24 06"},"coordinates":[2180,7042]},{"type":"Point","properties":{"Station_ID":"QCU","Station_Nam":"QCU","Latitude":"47.82750","Longitude":"-76.59830","Snowdepth":"22.283","Units":"in","Rept_Date":"2019-12-23 12"},"coordinates":[4644,7780]},{"type":"Point","properties":{"Station_ID":"WRSM5","Station_Nam":"WRENSHALL","Latitude":"46.61550","Longitude":"-92.38380","Snowdepth":"22.000","Units":"in","Rept_Date":"2019-12-23 14"},"coordinates":[1092,7090]},{"type":"Point","properties":{"Station_ID":"WI-IR-3","Station_Nam":"PENCE 0.1 E, WI","Latitude":"46.41555","Longitude":"-90.27013","Snowdepth":"22.000","Units":"in","Rept_Date":"2019-12-23 13"},"coordinates":[1568,6976]},{"type":"Point","properties":{"Station_ID":"WRPW3","Station_Nam":"WATER PURIFICATION PLANT","Latitude":"44.38800","Longitude":"-89.80550","Snowdepth":"21.000","Units":"in","Rept_Date":"2019-12-23 12"},"coordinates":[1672,5822]},{"type":"Point","properties":{"Station_ID":"MNSM4","Station_Nam":"MUNISING","Latitude":"46.41210","Longitude":"-86.66250","Snowdepth":"21.000","Units":"in","Rept_Date":"2019-12-23 11"},"coordinates":[2380,6974]},{"type":"Point","properties":{"Station_ID":"FLNW3","Station_Nam":"FLORENCE","Latitude":"45.93360","Longitude":"-88.25830","Snowdepth":"21.000","Units":"in","Rept_Date":"2019-12-23 13"},"coordinates":[2021,6702]},{"type":"Point","properties":{"Station_ID":"QMD","Station_Nam":"QMD","Latitude":"49.29060","Longitude":"-75.84500","Snowdepth":"20.945","Units":"in","Rept_Date":"2019-12-23 12"},"coordinates":[4813,8613]},{"type":"Point","properties":{"Station_ID":"QFT","Station_Nam":"QFT","Latitude":"50.83280","Longitude":"-74.40390","Snowdepth":"20.354","Units":"in","Rept_Date":"2019-12-23 12"},"coordinates":[5138,9490]},{"type":"Point","properties":{"Station_ID":"WI-WB-2","Station_Nam":"STONE LAKE 2.0 NW, WI","Latitude":"45.85960","Longitude":"-91.57710","Snowdepth":"20.000","Units":"in","Rept_Date":"2019-12-23 13"},"coordinates":[1274,6660]},{"type":"Point","properties":{"Station_ID":"PDGM4","Station_Nam":"PAULDING","Latitude":"46.39760","Longitude":"-89.17940","Snowdepth":"20.000","Units":"in","Rept_Date":"2019-12-23 15"},"coordinates":[1813,6966]},{"type":"Point","properties":{"Station_ID":"MI-KW-2","Station_Nam":"DELAWARE 5.2 SW, MI","Latitude":"47.36928","Longitude":"-88.17919","Snowdepth":"20.000","Units":"in","Rept_Date":"2019-12-23 09"},"coordinates":[2038,7519]},{"type":"Point","properties":{"Station_ID":"MAIW3","Station_Nam":"MADELINE ISLAND","Latitude":"46.78330","Longitude":"-90.76670","Snowdepth":"20.000","Units":"in","Rept_Date":"2019-12-23 14"},"coordinates":[1456,7186]},{"type":"Point","properties":{"Station_ID":"KISM4","Station_Nam":"K.I. SAWYER WWTP","Latitude":"46.33410","Longitude":"-87.37790","Snowdepth":"20.000","Units":"in","Rept_Date":"2019-12-23 13"},"coordinates":[2219,6930]},{"type":"Point","properties":{"Station_ID":"ILIM5","Station_Nam":"ISLAND LAKE","Latitude":"47.02400","Longitude":"-92.07000","Snowdepth":"20.000","Units":"in","Rept_Date":"2019-12-23 15"},"coordinates":[1163,7323]},{"type":"Point","properties":{"Station_ID":"GNLM4","Station_Nam":"GREENLAND 6N","Latitude":"46.87360","Longitude":"-89.10060","Snowdepth":"20.000","Units":"in","Rept_Date":"2019-12-23 13"},"coordinates":[1831,7237]},{"type":"Point","properties":{"Station_ID":"ASXW3","Station_Nam":"ASHLAND,WI","Latitude":"46.55220","Longitude":"-90.91610","Snowdepth":"20.000","Units":"in","Rept_Date":"2019-12-23 14"},"coordinates":[1423,7054]},{"type":"Point","properties":{"Station_ID":"WI-VL-9","Station_Nam":"LAND O' LAKES 11.7 W, WI","Latitude":"46.19023","Longitude":"-89.45790","Snowdepth":"19.000","Units":"in","Rept_Date":"2019-12-23 13"},"coordinates":[1751,6848]},{"type":"Point","properties":{"Station_ID":"WI-VL-10","Station_Nam":"LAND O LAKES 4.3 WNW, WI","Latitude":"46.17440","Longitude":"-89.30380","Snowdepth":"19.000","Units":"in","Rept_Date":"2019-12-23 13"},"coordinates":[1785,6839]},{"type":"Point","properties":{"Station_ID":"WI-DG-20","Station_Nam":"SOLON SPRINGS 1.2 W, WI","Latitude":"46.35217","Longitude":"-91.84405","Snowdepth":"19.000","Units":"in","Rept_Date":"2019-12-23 13"},"coordinates":[1214,6940]},{"type":"Point","properties":{"Station_ID":"WI-BY-14","Station_Nam":"ASHLAND 9.8 W, WI","Latitude":"46.59742","Longitude":"-91.07856","Snowdepth":"19.000","Units":"in","Rept_Date":"2019-12-23 12"},"coordinates":[1386,7080]},{"type":"Point","properties":{"Station_ID":"STGW3","Station_Nam":"ST GERMAIN","Latitude":"45.91550","Longitude":"-89.48940","Snowdepth":"19.000","Units":"in","Rept_Date":"2019-12-23 12"},"coordinates":[1744,6692]},{"type":"Point","properties":{"Station_ID":"NY-JF-30","Station_Nam":"WEST CARTHAGE 0.3 ENE, NY","Latitude":"43.97493","Longitude":"-75.61640","Snowdepth":"19.000","Units":"in","Rept_Date":"2019-12-23 12"},"coordinates":[4865,5587]},{"type":"Point","properties":{"Station_ID":"MN4DC1DW","Station_Nam":"FOUR CORNERS 3.6 E","Latitude":"46.84373","Longitude":"-92.20633","Snowdepth":"19.000","Units":"in","Rept_Date":"2019-12-23 12"},"coordinates":[1132,7220]},{"type":"Point","properties":{"Station_ID":"MN-SL-18","Station_Nam":"DULUTH 1.4 NNW, MN","Latitude":"46.80321","Longitude":"-92.11240","Snowdepth":"19.000","Units":"in","Rept_Date":"2019-12-23 14"},"coordinates":[1153,7197]},{"type":"Point","properties":{"Station_ID":"LNOW3","Station_Nam":"LAND O LAKES","Latitude":"46.19000","Longitude":"-89.45700","Snowdepth":"19.000","Units":"in","Rept_Date":"2019-12-23 13"},"coordinates":[1751,6848]},{"type":"Point","properties":{"Station_ID":"HVCN3","Station_Nam":"HARVARD CABIN SNOWPLOT","Latitude":"44.26630","Longitude":"-71.27790","Snowdepth":"19.000","Units":"in","Rept_Date":"2019-12-23 10"},"coordinates":[5841,5753]},{"type":"Point","properties":{"Station_ID":"DLHM5","Station_Nam":"DULUTH NWS","Latitude":"46.83680","Longitude":"-92.21080","Snowdepth":"19.000","Units":"in","Rept_Date":"2019-12-24 06"},"coordinates":[1131,7216]},{"type":"Point","properties":{"Station_ID":"DLH","Station_Nam":"DULUTH, MN","Latitude":"46.83690","Longitude":"-92.21030","Snowdepth":"19.000","Units":"in","Rept_Date":"2019-12-24 00"},"coordinates":[1131,7216]},{"type":"Point","properties":{"Station_ID":"ADDN6","Station_Nam":"ADDISON","Latitude":"42.10130","Longitude":"-77.23440","Snowdepth":"19.000","Units":"in","Rept_Date":"2019-12-23 12"},"coordinates":[4501,4521]},{"type":"Point","properties":{"Station_ID":"QCX","Station_Nam":"QCX","Latitude":"51.32830","Longitude":"-70.08060","Snowdepth":"18.898","Units":"in","Rept_Date":"2019-12-23 12"},"coordinates":[6110,9772]},{"type":"Point","properties":{"Station_ID":"MMNV1","Station_Nam":"MT. MANSFIELD","Latitude":"44.52480","Longitude":"-72.81540","Snowdepth":"18.000","Units":"in","Rept_Date":"2019-12-23 21"},"coordinates":[5495,5900]},{"type":"Point","properties":{"Station_ID":"BBEM4","Station_Nam":"BIG BAY 9SW","Latitude":"46.74620","Longitude":"-87.88160","Snowdepth":"18.000","Units":"in","Rept_Date":"2019-12-23 13"},"coordinates":[2105,7164]},{"type":"Point","properties":{"Station_ID":"ASTW3","Station_Nam":"ATHELSTANE","Latitude":"45.42500","Longitude":"-88.05750","Snowdepth":"18.000","Units":"in","Rept_Date":"2019-12-23 12"},"coordinates":[2066,6413]},{"type":"Point","properties":{"Station_ID":"WI-AS-4","Station_Nam":"ASHLAND 0.5 WNW, WI","Latitude":"46.58240","Longitude":"-90.88390","Snowdepth":"17.500","Units":"in","Rept_Date":"2019-12-23 13"},"coordinates":[1430,7071]},{"type":"Point","properties":{"Station_ID":"WI-BY-2","Station_Nam":"MELLEN 18.6 SW, WI","Latitude":"46.16937","Longitude":"-90.98090","Snowdepth":"17.000","Units":"in","Rept_Date":"2019-12-23 13"},"coordinates":[1408,6836]},{"type":"Point","properties":{"Station_ID":"SUAW3","Station_Nam":"SUAMICO","Latitude":"44.60190","Longitude":"-88.09780","Snowdepth":"17.000","Units":"in","Rept_Date":"2019-12-23 12"},"coordinates":[2057,5944]},{"type":"Point","properties":{"Station_ID":"MI-MQ-19","Station_Nam":"ISHPEMING 7.2 SW, MI","Latitude":"46.40550","Longitude":"-87.75670","Snowdepth":"17.000","Units":"in","Rept_Date":"2019-12-23 11"},"coordinates":[2133,6971]},{"type":"Point","properties":{"Station_ID":"HERM4","Station_Nam":"HERMAN,MI","Latitude":"46.65000","Longitude":"-88.33330","Snowdepth":"17.000","Units":"in","Rept_Date":"2019-12-23 13"},"coordinates":[2004,7110]},{"type":"Point","properties":{"Station_ID":"GLDM4","Station_Nam":"GLADSTONE NO. 2","Latitude":"45.84330","Longitude":"-87.03910","Snowdepth":"17.000","Units":"in","Rept_Date":"2019-12-23 12"},"coordinates":[2295,6651]},{"type":"Point","properties":{"Station_ID":"EVRW3","Station_Nam":"EAGLE RIVER-4 E","Latitude":"45.91890","Longitude":"-89.15280","Snowdepth":"17.000","Units":"in","Rept_Date":"2019-12-23 12"},"coordinates":[1819,6694]},{"type":"Point","properties":{"Station_ID":"EGRW3","Station_Nam":"EAGLE RIVER-SOUTH","Latitude":"45.91360","Longitude":"-89.24360","Snowdepth":"17.000","Units":"in","Rept_Date":"2019-12-23 13"},"coordinates":[1799,6691]},{"type":"Point","properties":{"Station_ID":"CRVW3","Station_Nam":"CRIVITZ HIGH FALLS","Latitude":"45.35750","Longitude":"-88.19190","Snowdepth":"17.000","Units":"in","Rept_Date":"2019-12-23 13"},"coordinates":[2035,6374]},{"type":"Point","properties":{"Station_ID":"CMKW3","Station_Nam":"CLAM LAKE 4W","Latitude":"46.16940","Longitude":"-90.98080","Snowdepth":"17.000","Units":"in","Rept_Date":"2019-12-23 13"},"coordinates":[1408,6836]},{"type":"Point","properties":{"Station_ID":"AWXW3","Station_Nam":"ASHLAND","Latitude":"46.58240","Longitude":"-90.88390","Snowdepth":"17.000","Units":"in","Rept_Date":"2019-12-23 13"},"coordinates":[1430,7071]},{"type":"Point","properties":{"Station_ID":"QTV","Station_Nam":"QTV","Latitude":"49.66000","Longitude":"-69.35690","Snowdepth":"16.693","Units":"in","Rept_Date":"2019-12-23 12"},"coordinates":[6273,8823]},{"type":"Point","properties":{"Station_ID":"QYR","Station_Nam":"QYR","Latitude":"48.87220","Longitude":"-75.61470","Snowdepth":"16.653","Units":"in","Rept_Date":"2019-12-23 12"},"coordinates":[4865,8374]},{"type":"Point","properties":{"Station_ID":"WI-BY-6","Station_Nam":"BARNES 2.2 S, WI","Latitude":"46.30264","Longitude":"-91.50320","Snowdepth":"16.500","Units":"in","Rept_Date":"2019-12-23 13"},"coordinates":[1290,6912]},{"type":"Point","properties":{"Station_ID":"MFU","Station_Nam":"MFU","Latitude":"51.52170","Longitude":"-66.91110","Snowdepth":"16.260","Units":"in","Rept_Date":"2019-12-23 12"},"coordinates":[6823,9882]},{"type":"Point","properties":{"Station_ID":"WI-VL-14","Station_Nam":"BOULDER JUNCTION 1.4 NE, WI","Latitude":"46.12840","Longitude":"-89.62470","Snowdepth":"16.000","Units":"in","Rept_Date":"2019-12-23 13"},"coordinates":[1713,6813]},{"type":"Point","properties":{"Station_ID":"RLKW3","Station_Nam":"REST LAKE","Latitude":"46.12220","Longitude":"-89.87720","Snowdepth":"16.000","Units":"in","Rept_Date":"2019-12-23 13"},"coordinates":[1656,6809]},{"type":"Point","properties":{"Station_ID":"IRMM4","Station_Nam":"WWTP","Latitude":"46.46670","Longitude":"-90.18330","Snowdepth":"16.000","Units":"in","Rept_Date":"2019-12-23 13"},"coordinates":[1587,7005]},{"type":"Point","properties":{"Station_ID":"HRVM4","Station_Nam":"HARVEY","Latitude":"46.49080","Longitude":"-87.35470","Snowdepth":"16.000","Units":"in","Rept_Date":"2019-12-23 12"},"coordinates":[2224,7019]},{"type":"Point","properties":{"Station_ID":"GGRM4","Station_Nam":"GREEN GARDEN NO.2","Latitude":"46.45330","Longitude":"-87.30380","Snowdepth":"16.000","Units":"in","Rept_Date":"2019-12-23 13"},"coordinates":[2235,6998]},{"type":"Point","properties":{"Station_ID":"CLGM5","Station_Nam":"COLLEGEVILLE ST JOHN","Latitude":"45.57940","Longitude":"-94.39200","Snowdepth":"16.000","Units":"in","Rept_Date":"2019-12-24 00"},"coordinates":[640,6500]},{"type":"Point","properties":{"Station_ID":"BABM5","Station_Nam":"BABBITT","Latitude":"47.71210","Longitude":"-91.95330","Snowdepth":"16.000","Units":"in","Rept_Date":"2019-12-23 13"},"coordinates":[1189,7714]},{"type":"Point","properties":{"Station_ID":"AURW3","Station_Nam":"AURORA","Latitude":"45.77000","Longitude":"-88.11810","Snowdepth":"16.000","Units":"in","Rept_Date":"2019-12-23 13"},"coordinates":[2052,6609]},{"type":"Point","properties":{"Station_ID":"MI-HG-1","Station_Nam":"HOUGHTON 1.6 ESE, MI","Latitude":"47.10774","Longitude":"-88.52940","Snowdepth":"15.500","Units":"in","Rept_Date":"2019-12-23 13"},"coordinates":[1960,7370]},{"type":"Point","properties":{"Station_ID":"WTRM4","Station_Nam":"WATERSMEET 12WSW","Latitude":"46.22310","Longitude":"-89.40850","Snowdepth":"15.000","Units":"in","Rept_Date":"2019-12-23 12"},"coordinates":[1762,6867]},{"type":"Point","properties":{"Station_ID":"TOHM5","Station_Nam":"TWO HARBORS WWTP","Latitude":"47.01760","Longitude":"-91.66480","Snowdepth":"15.000","Units":"in","Rept_Date":"2019-12-23 13"},"coordinates":[1254,7319]},{"type":"Point","properties":{"Station_ID":"RHIW3","Station_Nam":"RHINELANDER","Latitude":"45.59860","Longitude":"-89.45080","Snowdepth":"15.000","Units":"in","Rept_Date":"2019-12-23 13"},"coordinates":[1752,6511]},{"type":"Point","properties":{"Station_ID":"COUW3","Station_Nam":"COUDERAY,WI","Latitude":"45.86670","Longitude":"-91.45000","Snowdepth":"15.000","Units":"in","Rept_Date":"2019-12-23 22"},"coordinates":[1302,6664]},{"type":"Point","properties":{"Station_ID":"CLKM4","Station_Nam":"CLARKSBURG","Latitude":"46.49910","Longitude":"-87.84500","Snowdepth":"15.000","Units":"in","Rept_Date":"2019-12-23 12"},"coordinates":[2114,7024]},{"type":"Point","properties":{"Station_ID":"CEFM4","Station_Nam":"EXPERIMENT FARM #2","Latitude":"46.33330","Longitude":"-86.91670","Snowdepth":"15.000","Units":"in","Rept_Date":"2019-12-23 13"},"coordinates":[2322,6930]},{"type":"Point","properties":{"Station_ID":"BRUM5","Station_Nam":"BRUNO,MN","Latitude":"46.28330","Longitude":"-92.50000","Snowdepth":"15.000","Units":"in","Rept_Date":"2019-12-23 14"},"coordinates":[1066,6901]},{"type":"Point","properties":{"Station_ID":"BFHW3","Station_Nam":"BAYFIELD FISH HATCHERY","Latitude":"46.78670","Longitude":"-90.86420","Snowdepth":"15.000","Units":"in","Rept_Date":"2019-12-23 14"},"coordinates":[1434,7188]},{"type":"Point","properties":{"Station_ID":"AROM4","Station_Nam":"ARNOLD,MI","Latitude":"46.06670","Longitude":"-87.48330","Snowdepth":"15.000","Units":"in","Rept_Date":"2019-12-23 12"},"coordinates":[2195,6778]},{"type":"Point","properties":{"Station_ID":"QWE","Station_Nam":"QWE","Latitude":"47.84610","Longitude":"-73.80670","Snowdepth":"14.961","Units":"in","Rept_Date":"2019-12-23 12"},"coordinates":[5272,7790]},{"type":"Point","properties":{"Station_ID":"QCO","Station_Nam":"QCO","Latitude":"51.45280","Longitude":"-72.20110","Snowdepth":"14.842","Units":"in","Rept_Date":"2019-12-23 12"},"coordinates":[5633,9843]},{"type":"Point","properties":{"Station_ID":"PTLQ6","Station_Nam":"PORTAGE LAKE","Latitude":"49.06950","Longitude":"-86.65940","Snowdepth":"14.840","Units":"in","Rept_Date":"2019-12-24 06"},"coordinates":[2380,8487]},{"type":"Point","properties":{"Station_ID":"QMA","Station_Nam":"QMA","Latitude":"50.10330","Longitude":"-70.47190","Snowdepth":"14.803","Units":"in","Rept_Date":"2019-12-23 12"},"coordinates":[6022,9075]},{"type":"Point","properties":{"Station_ID":"QLM","Station_Nam":"QLM","Latitude":"48.92030","Longitude":"-70.25280","Snowdepth":"14.803","Units":"in","Rept_Date":"2019-12-23 12"},"coordinates":[6072,8402]},{"type":"Point","properties":{"Station_ID":"WI-ON-8","Station_Nam":"HAZELHURST 2.1 SSE, WI","Latitude":"45.78186","Longitude":"-89.70330","Snowdepth":"14.500","Units":"in","Rept_Date":"2019-12-23 13"},"coordinates":[1695,6616]},{"type":"Point","properties":{"Station_ID":"WI-AS-6","Station_Nam":"ODANAH 1.6 E, WI","Latitude":"46.60462","Longitude":"-90.64920","Snowdepth":"14.200","Units":"in","Rept_Date":"2019-12-23 13"},"coordinates":[1483,7084]},{"type":"Point","properties":{"Station_ID":"WRIM5","Station_Nam":"WRIGHT 3E","Latitude":"46.68040","Longitude":"-92.95420","Snowdepth":"14.000","Units":"in","Rept_Date":"2019-12-23 12"},"coordinates":[964,7127]},{"type":"Point","properties":{"Station_ID":"WI-SR-5","Station_Nam":"HAYWARD 9.7 NE, WI","Latitude":"46.12030","Longitude":"-91.35370","Snowdepth":"14.000","Units":"in","Rept_Date":"2019-12-23 14"},"coordinates":[1324,6808]},{"type":"Point","properties":{"Station_ID":"WI-RS-1","Station_Nam":"LADYSMITH 2.8 WNW, WI","Latitude":"45.48180","Longitude":"-91.14680","Snowdepth":"14.000","Units":"in","Rept_Date":"2019-12-23 13"},"coordinates":[1371,6445]},{"type":"Point","properties":{"Station_ID":"WI-PR-8","Station_Nam":"PHILLIPS 0.4 SSW, WI","Latitude":"45.69086","Longitude":"-90.40200","Snowdepth":"14.000","Units":"in","Rept_Date":"2019-12-23 13"},"coordinates":[1538,6564]},{"type":"Point","properties":{"Station_ID":"WI-OC-1","Station_Nam":"MOUNTAIN 1.1 SW, WI","Latitude":"45.17239","Longitude":"-88.48990","Snowdepth":"14.000","Units":"in","Rept_Date":"2019-12-23 13"},"coordinates":[1968,6269]},{"type":"Point","properties":{"Station_ID":"PRNW3","Station_Nam":"PRENTICE,WI","Latitude":"45.54780","Longitude":"-90.30000","Snowdepth":"14.000","Units":"in","Rept_Date":"2019-12-23 14"},"coordinates":[1561,6482]},{"type":"Point","properties":{"Station_ID":"MOUW3","Station_Nam":"MOUNTAIN 1 SW","Latitude":"45.17220","Longitude":"-88.49390","Snowdepth":"14.000","Units":"in","Rept_Date":"2019-12-23 13"},"coordinates":[1968,6269]},{"type":"Point","properties":{"Station_ID":"MN49YOQ4","Station_Nam":"WRIGHT 3.9 NW","Latitude":"46.70182","Longitude":"-93.07461","Snowdepth":"14.000","Units":"in","Rept_Date":"2019-12-23 12"},"coordinates":[937,7139]},{"type":"Point","properties":{"Station_ID":"AVTW3","Station_Nam":"ARBOR VITAE-JOHNSON LAKE","Latitude":"45.89940","Longitude":"-89.72670","Snowdepth":"14.000","Units":"in","Rept_Date":"2019-12-23 12"},"coordinates":[1690,6683]},{"type":"Point","properties":{"Station_ID":"ABGW3","Station_Nam":"AMBERG 9 E","Latitude":"45.48250","Longitude":"-87.81190","Snowdepth":"14.000","Units":"in","Rept_Date":"2019-12-23 12"},"coordinates":[2121,6445]},{"type":"Point","properties":{"Station_ID":"WI-SR-1","Station_Nam":"HAYWARD 9.2 NNE, WI","Latitude":"46.13255","Longitude":"-91.40500","Snowdepth":"13.400","Units":"in","Rept_Date":"2019-12-23 12"},"coordinates":[1313,6815]},{"type":"Point","properties":{"Station_ID":"SVBQ6","Station_Nam":"SAVANT BASE","Latitude":"50.28730","Longitude":"-90.65670","Snowdepth":"13.390","Units":"in","Rept_Date":"2019-12-24 06"},"coordinates":[1481,9180]},{"type":"Point","properties":{"Station_ID":"CAN-NB-50","Station_Nam":"DOYLEVILLE 2.4 WNW, CAN","Latitude":"47.90803","Longitude":"-66.13279","Snowdepth":"13.200","Units":"in","Rept_Date":"2019-12-23 13"},"coordinates":[6999,7826]},{"type":"Point","properties":{"Station_ID":"QTM","Station_Nam":"QTM","Latitude":"51.05780","Longitude":"-72.57190","Snowdepth":"13.150","Units":"in","Rept_Date":"2019-12-23 12"},"coordinates":[5550,9618]},{"type":"Point","properties":{"Station_ID":"QIQ","Station_Nam":"QIQ","Latitude":"49.82390","Longitude":"-68.54310","Snowdepth":"13.071","Units":"in","Rept_Date":"2019-12-23 12"},"coordinates":[6456,8916]},{"type":"Point","properties":{"Station_ID":"WILW3","Station_Nam":"RESERVOIR","Latitude":"45.70000","Longitude":"-89.83330","Snowdepth":"13.000","Units":"in","Rept_Date":"2019-12-23 12"},"coordinates":[1666,6569]},{"type":"Point","properties":{"Station_ID":"WI-BT-14","Station_Nam":"OAKLAND 9.0 ENE, WI","Latitude":"45.95184","Longitude":"-92.21653","Snowdepth":"13.000","Units":"in","Rept_Date":"2019-12-23 13"},"coordinates":[1130,6712]},{"type":"Point","properties":{"Station_ID":"TOGM5","Station_Nam":"CELINA 2E","Latitude":"47.86630","Longitude":"-93.02660","Snowdepth":"13.000","Units":"in","Rept_Date":"2019-12-23 14"},"coordinates":[948,7802]},{"type":"Point","properties":{"Station_ID":"RARM4","Station_Nam":"RAPID RIVER 1 SW","Latitude":"45.91500","Longitude":"-86.98800","Snowdepth":"13.000","Units":"in","Rept_Date":"2019-12-23 12"},"coordinates":[2306,6691]},{"type":"Point","properties":{"Station_ID":"MN-IT-23","Station_Nam":"BOVEY 13.4 N, MN","Latitude":"47.48855","Longitude":"-93.43497","Snowdepth":"13.000","Units":"in","Rept_Date":"2019-12-23 13"},"coordinates":[856,7587]},{"type":"Point","properties":{"Station_ID":"LTMW3","Station_Nam":"LAKE TOMAHAWK 2 SE","Latitude":"45.80750","Longitude":"-89.55830","Snowdepth":"13.000","Units":"in","Rept_Date":"2019-12-23 12"},"coordinates":[1728,6630]},{"type":"Point","properties":{"Station_ID":"JCBM4","Station_Nam":"JACOBSVILLE","Latitude":"47.00830","Longitude":"-88.43180","Snowdepth":"13.000","Units":"in","Rept_Date":"2019-12-23 12"},"coordinates":[1981,7314]},{"type":"Point","properties":{"Station_ID":"BGFW3","Station_Nam":"BIG FALLS HYDRO","Latitude":"45.55560","Longitude":"-90.95920","Snowdepth":"13.000","Units":"in","Rept_Date":"2019-12-23 13"},"coordinates":[1413,6487]},{"type":"Point","properties":{"Station_ID":"AMAM4","Station_Nam":"AMASA 1W","Latitude":"46.23470","Longitude":"-88.45440","Snowdepth":"13.000","Units":"in","Rept_Date":"2019-12-23 14"},"coordinates":[1976,6873]},{"type":"Point","properties":{"Station_ID":"AGNW3","Station_Nam":"ARGONNE-1.5 NW","Latitude":"45.67360","Longitude":"-88.90380","Snowdepth":"13.000","Units":"in","Rept_Date":"2019-12-23 14"},"coordinates":[1875,6554]},{"type":"Point","properties":{"Station_ID":"QLI","Station_Nam":"QLI","Latitude":"50.27080","Longitude":"-73.92280","Snowdepth":"12.992","Units":"in","Rept_Date":"2019-12-23 12"},"coordinates":[5246,9170]},{"type":"Point","properties":{"Station_ID":"AUDQ6","Station_Nam":"AUDEN","Latitude":"48.52600","Longitude":"-82.57570","Snowdepth":"12.800","Units":"in","Rept_Date":"2019-12-24 06"},"coordinates":[3299,8177]},{"type":"Point","properties":{"Station_ID":"ZNOM4","Station_Nam":"NORWAY","Latitude":"45.77810","Longitude":"-87.89560","Snowdepth":"12.000","Units":"in","Rept_Date":"2019-12-24 01"},"coordinates":[2102,6614]},{"type":"Point","properties":{"Station_ID":"WI-PR-6","Station_Nam":"PHILLIPS 1.3 S, WI","Latitude":"45.67677","Longitude":"-90.39543","Snowdepth":"12.000","Units":"in","Rept_Date":"2019-12-23 12"},"coordinates":[1540,6556]},{"type":"Point","properties":{"Station_ID":"WI-ON-6","Station_Nam":"RHINELANDER 5.2 N, WI","Latitude":"45.71388","Longitude":"-89.42150","Snowdepth":"12.000","Units":"in","Rept_Date":"2019-12-23 14"},"coordinates":[1759,6577]},{"type":"Point","properties":{"Station_ID":"WI-CH-3","Station_Nam":"CORNELL 4.1 W, WI","Latitude":"45.17024","Longitude":"-91.23610","Snowdepth":"12.000","Units":"in","Rept_Date":"2019-12-23 14"},"coordinates":[1351,6268]},{"type":"Point","properties":{"Station_ID":"TAKW3","Station_Nam":"RICE RESERVOIR NO. 2","Latitude":"45.53770","Longitude":"-89.73220","Snowdepth":"12.000","Units":"in","Rept_Date":"2019-12-23 13"},"coordinates":[1689,6477]},{"type":"Point","properties":{"Station_ID":"STMM4","Station_Nam":"STAMBAUGH 2SSE","Latitude":"46.05550","Longitude":"-88.62780","Snowdepth":"12.000","Units":"in","Rept_Date":"2019-12-23 13"},"coordinates":[1937,6771]},{"type":"Point","properties":{"Station_ID":"SDYM5","Station_Nam":"DAM","Latitude":"46.81670","Longitude":"-93.36670","Snowdepth":"12.000","Units":"in","Rept_Date":"2019-12-23 14"},"coordinates":[871,7205]},{"type":"Point","properties":{"Station_ID":"MRQM4","Station_Nam":"MARQUETTE WFP","Latitude":"46.54580","Longitude":"-87.37950","Snowdepth":"12.000","Units":"in","Rept_Date":"2019-12-23 13"},"coordinates":[2218,7050]},{"type":"Point","properties":{"Station_ID":"MN70GOES","Station_Nam":"EMBARRASS 0.6 SSE","Latitude":"47.65101","Longitude":"-92.19222","Snowdepth":"12.000","Units":"in","Rept_Date":"2019-12-23 12"},"coordinates":[1135,7679]},{"type":"Point","properties":{"Station_ID":"MN-SL-139","Station_Nam":"DULUTH 1.2 SE, MN","Latitude":"46.77000","Longitude":"-92.08826","Snowdepth":"12.000","Units":"in","Rept_Date":"2019-12-23 11"},"coordinates":[1159,7178]},{"type":"Point","properties":{"Station_ID":"EMBM5","Station_Nam":"EMBARASS,MN","Latitude":"47.65810","Longitude":"-92.19580","Snowdepth":"12.000","Units":"in","Rept_Date":"2019-12-23 12"},"coordinates":[1135,7683]},{"type":"Point","properties":{"Station_ID":"BRAM5","Station_Nam":"BRAINERD","Latitude":"46.34320","Longitude":"-94.20900","Snowdepth":"12.000","Units":"in","Rept_Date":"2019-12-23 13"},"coordinates":[682,6935]},{"type":"Point","properties":{"Station_ID":"AUW","Station_Nam":"WAUSAU MUNICIPAL AIRPORT","Latitude":"44.92580","Longitude":"-89.62560","Snowdepth":"12.000","Units":"in","Rept_Date":"2019-12-24 00"},"coordinates":[1713,6129]},{"type":"Point","properties":{"Station_ID":"TRIQ6","Station_Nam":"TRIO LAKE","Latitude":"49.22880","Longitude":"-87.22920","Snowdepth":"11.850","Units":"in","Rept_Date":"2019-12-24 06"},"coordinates":[2252,8577]},{"type":"Point","properties":{"Station_ID":"MN-SL-108","Station_Nam":"IRON JUNCTION 3.4 NNW, MN","Latitude":"47.46150","Longitude":"-92.63130","Snowdepth":"11.500","Units":"in","Rept_Date":"2019-12-23 13"},"coordinates":[1037,7572]},{"type":"Point","properties":{"Station_ID":"MN-IT-11","Station_Nam":"NASHWAUK 11.5 N, MN","Latitude":"47.54496","Longitude":"-93.19420","Snowdepth":"11.500","Units":"in","Rept_Date":"2019-12-23 13"},"coordinates":[910,7619]},{"type":"Point","properties":{"Station_ID":"QGA","Station_Nam":"QGA","Latitude":"47.25640","Longitude":"-73.73810","Snowdepth":"11.378","Units":"in","Rept_Date":"2019-12-23 12"},"coordinates":[5287,7455]},{"type":"Point","properties":{"Station_ID":"SOCQ6","Station_Nam":"SOCKET LAKE","Latitude":"50.77870","Longitude":"-91.79300","Snowdepth":"11.140","Units":"in","Rept_Date":"2019-12-24 06"},"coordinates":[1225,9459]},{"type":"Point","properties":{"Station_ID":"WTNM4","Station_Nam":"WATTON 2WSW","Latitude":"46.52660","Longitude":"-88.64240","Snowdepth":"11.000","Units":"in","Rept_Date":"2019-12-23 13"},"coordinates":[1934,7040]},{"type":"Point","properties":{"Station_ID":"WLKW3","Station_Nam":"WHITE LAKE 1 SE","Latitude":"45.14520","Longitude":"-88.74160","Snowdepth":"11.000","Units":"in","Rept_Date":"2019-12-23 14"},"coordinates":[1912,6253]},{"type":"Point","properties":{"Station_ID":"WI-BR-2","Station_Nam":"CHETEK 2.0 SE, WI","Latitude":"45.29427","Longitude":"-91.62470","Snowdepth":"11.000","Units":"in","Rept_Date":"2019-12-23 13"},"coordinates":[1263,6338]},{"type":"Point","properties":{"Station_ID":"SPOW3","Station_Nam":"SPOONER,WI","Latitude":"45.82360","Longitude":"-91.70000","Snowdepth":"11.000","Units":"in","Rept_Date":"2019-12-23 14"},"coordinates":[1246,6639]},{"type":"Point","properties":{"Station_ID":"RRVM4","Station_Nam":"RAPID RIVER 9S","Latitude":"45.78750","Longitude":"-86.93920","Snowdepth":"11.000","Units":"in","Rept_Date":"2019-12-23 13"},"coordinates":[2317,6619]},{"type":"Point","properties":{"Station_ID":"RHLW3","Station_Nam":"RHINELANDER 4NE","Latitude":"45.65270","Longitude":"-89.30740","Snowdepth":"11.000","Units":"in","Rept_Date":"2019-12-23 12"},"coordinates":[1784,6542]},{"type":"Point","properties":{"Station_ID":"RHI","Station_Nam":"RHINELANDER-ONEIDA COUNTY AIRPORT","Latitude":"45.63080","Longitude":"-89.46530","Snowdepth":"11.000","Units":"in","Rept_Date":"2019-12-24 00"},"coordinates":[1749,6530]},{"type":"Point","properties":{"Station_ID":"NH-CS-10","Station_Nam":"RANDOLPH 1.4 NE, NH","Latitude":"44.38824","Longitude":"-71.26950","Snowdepth":"11.000","Units":"in","Rept_Date":"2019-12-23 12"},"coordinates":[5843,5823]},{"type":"Point","properties":{"Station_ID":"MN1867TA","Station_Nam":"LAKE FREMONT 0.9 NW","Latitude":"45.45049","Longitude":"-93.60337","Snowdepth":"11.000","Units":"in","Rept_Date":"2019-12-23 13"},"coordinates":[818,6427]},{"type":"Point","properties":{"Station_ID":"MN-BK-6","Station_Nam":"LAKE PARK 6.0 S, MN","Latitude":"46.79850","Longitude":"-96.12180","Snowdepth":"11.000","Units":"in","Rept_Date":"2019-12-23 13"},"coordinates":[251,7194]},{"type":"Point","properties":{"Station_ID":"MLLW3","Station_Nam":"MERRILL 8W","Latitude":"45.17810","Longitude":"-89.84810","Snowdepth":"11.000","Units":"in","Rept_Date":"2019-12-23 12"},"coordinates":[1663,6272]},{"type":"Point","properties":{"Station_ID":"MI-DL-1","Station_Nam":"GARDEN CORNERS 0.8 NW, MI","Latitude":"45.89815","Longitude":"-86.54850","Snowdepth":"11.000","Units":"in","Rept_Date":"2019-12-23 13"},"coordinates":[2405,6682]},{"type":"Point","properties":{"Station_ID":"HOLW3","Station_Nam":"HOLCOMBE","Latitude":"45.22370","Longitude":"-91.12700","Snowdepth":"11.000","Units":"in","Rept_Date":"2019-12-23 13"},"coordinates":[1375,6298]},{"type":"Point","properties":{"Station_ID":"GDCM4","Station_Nam":"GARDEN CORNERS","Latitude":"45.89830","Longitude":"-86.54850","Snowdepth":"11.000","Units":"in","Rept_Date":"2019-12-23 13"},"coordinates":[2405,6682]},{"type":"Point","properties":{"Station_ID":"ESAM4","Station_Nam":"ESCANABA","Latitude":"45.74380","Longitude":"-87.04060","Snowdepth":"11.000","Units":"in","Rept_Date":"2019-12-23 12"},"coordinates":[2294,6594]},{"type":"Point","properties":{"Station_ID":"ELYM5","Station_Nam":"ELY","Latitude":"47.90560","Longitude":"-91.82830","Snowdepth":"11.000","Units":"in","Rept_Date":"2019-12-23 14"},"coordinates":[1217,7824]},{"type":"Point","properties":{"Station_ID":"CBLW3","Station_Nam":"CUMBERLAND","Latitude":"45.53310","Longitude":"-92.02260","Snowdepth":"11.000","Units":"in","Rept_Date":"2019-12-23 13"},"coordinates":[1174,6474]},{"type":"Point","properties":{"Station_ID":"CAN-ON-526","Station_Nam":"HILTON BEACH 0.7 SW - MNRF, CAN","Latitude":"46.25357","Longitude":"-83.90014","Snowdepth":"11.000","Units":"in","Rept_Date":"2019-12-23 12"},"coordinates":[3001,6884]},{"type":"Point","properties":{"Station_ID":"WI-LN-2","Station_Nam":"MERRILL 7.0 W, WI","Latitude":"45.17746","Longitude":"-89.84820","Snowdepth":"10.500","Units":"in","Rept_Date":"2019-12-23 12"},"coordinates":[1663,6272]},{"type":"Point","properties":{"Station_ID":"WI-CH-7","Station_Nam":"CHIPPEWA FALLS 1.2 E, WI","Latitude":"44.92920","Longitude":"-91.36730","Snowdepth":"10.500","Units":"in","Rept_Date":"2019-12-23 13"},"coordinates":[1321,6130]},{"type":"Point","properties":{"Station_ID":"MI-DL-4","Station_Nam":"GLADSTONE 2.1 SW, MI","Latitude":"45.83218","Longitude":"-87.05727","Snowdepth":"10.500","Units":"in","Rept_Date":"2019-12-23 12"},"coordinates":[2291,6644]},{"type":"Point","properties":{"Station_ID":"ME-AR-23","Station_Nam":"MADAWASKA 2.5 E, ME","Latitude":"47.34933","Longitude":"-68.28141","Snowdepth":"10.500","Units":"in","Rept_Date":"2019-12-23 12"},"coordinates":[6515,7508]},{"type":"Point","properties":{"Station_ID":"QLP","Station_Nam":"QLP","Latitude":"48.13920","Longitude":"-72.63830","Snowdepth":"10.118","Units":"in","Rept_Date":"2019-12-23 12"},"coordinates":[5535,7957]},{"type":"Point","properties":{"Station_ID":"WUNW3","Station_Nam":"WAUSAU-NORTHEAST","Latitude":"44.97310","Longitude":"-89.61690","Snowdepth":"10.000","Units":"in","Rept_Date":"2019-12-23 12"},"coordinates":[1715,6155]},{"type":"Point","properties":{"Station_ID":"WNBM5","Station_Nam":"DAM","Latitude":"47.43060","Longitude":"-94.05000","Snowdepth":"10.000","Units":"in","Rept_Date":"2019-12-23 14"},"coordinates":[717,7554]},{"type":"Point","properties":{"Station_ID":"WI-EC-23","Station_Nam":"EAU CLAIRE 3.7 S, WI","Latitude":"44.76858","Longitude":"-91.49898","Snowdepth":"10.000","Units":"in","Rept_Date":"2019-12-23 15"},"coordinates":[1291,6039]},{"type":"Point","properties":{"Station_ID":"WI-DN-1","Station_Nam":"BOYCEVILLE 3.3 N, WI","Latitude":"45.08913","Longitude":"-92.02760","Snowdepth":"10.000","Units":"in","Rept_Date":"2019-12-23 13"},"coordinates":[1172,6221]},{"type":"Point","properties":{"Station_ID":"SULW3","Station_Nam":"SUMMIT LAKE","Latitude":"45.37880","Longitude":"-89.19410","Snowdepth":"10.000","Units":"in","Rept_Date":"2019-12-23 11"},"coordinates":[1810,6386]},{"type":"Point","properties":{"Station_ID":"SSMM4","Station_Nam":"SAULT STE MARIE","Latitude":"46.48660","Longitude":"-84.40250","Snowdepth":"10.000","Units":"in","Rept_Date":"2019-12-23 13"},"coordinates":[2888,7017]},{"type":"Point","properties":{"Station_ID":"SEBM5","Station_Nam":"SEBEKA","Latitude":"46.62540","Longitude":"-95.09670","Snowdepth":"10.000","Units":"in","Rept_Date":"2019-12-23 13"},"coordinates":[482,7096]},{"type":"Point","properties":{"Station_ID":"RRLW3","Station_Nam":"MERRILL,WI","Latitude":"45.17860","Longitude":"-89.66170","Snowdepth":"10.000","Units":"in","Rept_Date":"2019-12-23 14"},"coordinates":[1705,6272]},{"type":"Point","properties":{"Station_ID":"RHRW3","Station_Nam":"RHINELANDER WJFW TV-12","Latitude":"45.62220","Longitude":"-89.41000","Snowdepth":"10.000","Units":"in","Rept_Date":"2019-12-24 04"},"coordinates":[1761,6525]},{"type":"Point","properties":{"Station_ID":"NYMM5","Station_Nam":"NEW YORK MILLS","Latitude":"46.50920","Longitude":"-95.37990","Snowdepth":"10.000","Units":"in","Rept_Date":"2019-12-23 13"},"coordinates":[418,7030]},{"type":"Point","properties":{"Station_ID":"NOHM5","Station_Nam":"NORTHOME","Latitude":"47.83590","Longitude":"-94.25550","Snowdepth":"10.000","Units":"in","Rept_Date":"2019-12-23 13"},"coordinates":[671,7785]},{"type":"Point","properties":{"Station_ID":"MRAM5","Station_Nam":"MORA","Latitude":"45.87760","Longitude":"-93.31470","Snowdepth":"10.000","Units":"in","Rept_Date":"2019-12-23 13"},"coordinates":[883,6670]},{"type":"Point","properties":{"Station_ID":"MN-CW-22","Station_Nam":"FORT RIPLEY 0.8 N, MN","Latitude":"46.18089","Longitude":"-94.36510","Snowdepth":"10.000","Units":"in","Rept_Date":"2019-12-23 13"},"coordinates":[647,6843]},{"type":"Point","properties":{"Station_ID":"MN-CK-6","Station_Nam":"GRAND MARAIS 4.4 W, MN","Latitude":"47.74865","Longitude":"-90.43760","Snowdepth":"10.000","Units":"in","Rept_Date":"2019-12-23 13"},"coordinates":[1530,7735]},{"type":"Point","properties":{"Station_ID":"MIEM4","Station_Nam":"MICHIGAMME 3WNW","Latitude":"46.54530","Longitude":"-88.18000","Snowdepth":"10.000","Units":"in","Rept_Date":"2019-12-23 13"},"coordinates":[2038,7050]},{"type":"Point","properties":{"Station_ID":"MA-MD-47","Station_Nam":"WEST TOWNSEND 0.5 W, MA","Latitude":"42.67623","Longitude":"-71.74983","Snowdepth":"10.000","Units":"in","Rept_Date":"2019-12-23 11"},"coordinates":[5735,4848]},{"type":"Point","properties":{"Station_ID":"LUCW3","Station_Nam":"LUCK","Latitude":"45.57330","Longitude":"-92.48520","Snowdepth":"10.000","Units":"in","Rept_Date":"2019-12-23 22"},"coordinates":[1069,6497]},{"type":"Point","properties":{"Station_ID":"LEIM5","Station_Nam":"ORR 3E","Latitude":"48.05810","Longitude":"-92.75220","Snowdepth":"10.000","Units":"in","Rept_Date":"2019-12-23 12"},"coordinates":[1009,7911]},{"type":"Point","properties":{"Station_ID":"GRBM5","Station_Nam":"GRAND RAPIDS 12N","Latitude":"47.39800","Longitude":"-93.51330","Snowdepth":"10.000","Units":"in","Rept_Date":"2019-12-23 13"},"coordinates":[838,7535]},{"type":"Point","properties":{"Station_ID":"GLLM5","Station_Nam":"GULL LAKE DAM","Latitude":"46.41190","Longitude":"-94.35000","Snowdepth":"10.000","Units":"in","Rept_Date":"2019-12-23 14"},"coordinates":[650,6974]},{"type":"Point","properties":{"Station_ID":"FLDM5","Station_Nam":"FLOODWOOD,MN","Latitude":"47.00000","Longitude":"-92.91670","Snowdepth":"10.000","Units":"in","Rept_Date":"2019-12-23 14"},"coordinates":[972,7309]},{"type":"Point","properties":{"Station_ID":"ELRW3","Station_Nam":"EAU CLAIRE 3SW","Latitude":"44.78780","Longitude":"-91.51650","Snowdepth":"10.000","Units":"in","Rept_Date":"2019-12-24 06"},"coordinates":[1287,6050]},{"type":"Point","properties":{"Station_ID":"DTVM4","Station_Nam":"DETOUR VILLAGE","Latitude":"45.99830","Longitude":"-83.90130","Snowdepth":"10.000","Units":"in","Rept_Date":"2019-12-23 13"},"coordinates":[3001,6739]},{"type":"Point","properties":{"Station_ID":"CSLM5","Station_Nam":"CASS LAKE,MN","Latitude":"47.38470","Longitude":"-94.61470","Snowdepth":"10.000","Units":"in","Rept_Date":"2019-12-23 14"},"coordinates":[590,7528]},{"type":"Point","properties":{"Station_ID":"CBVM1","Station_Nam":"CARRABASSETT VALLEY","Latitude":"45.08040","Longitude":"-70.30310","Snowdepth":"10.000","Units":"in","Rept_Date":"2019-12-23 12"},"coordinates":[6060,6216]},{"type":"Point","properties":{"Station_ID":"BREW3","Station_Nam":"SURING","Latitude":"44.99580","Longitude":"-88.37860","Snowdepth":"10.000","Units":"in","Rept_Date":"2019-12-23 13"},"coordinates":[1993,6168]},{"type":"Point","properties":{"Station_ID":"BOWW3","Station_Nam":"STOCKBRIDGE-MUNSEE RESERVATION","Latitude":"44.87000","Longitude":"-88.90440","Snowdepth":"10.000","Units":"in","Rept_Date":"2019-12-23 14"},"coordinates":[1875,6097]},{"type":"Point","properties":{"Station_ID":"BALW3","Station_Nam":"BALDWIN","Latitude":"44.96330","Longitude":"-92.39050","Snowdepth":"10.000","Units":"in","Rept_Date":"2019-12-23 13"},"coordinates":[1091,6150]},{"type":"Point","properties":{"Station_ID":"ANJM4","Station_Nam":"SNOW PAID OBSERVER FOR KANJ","Latitude":"46.48670","Longitude":"-84.40260","Snowdepth":"10.000","Units":"in","Rept_Date":"2019-12-23 18"},"coordinates":[2888,7017]},{"type":"Point","properties":{"Station_ID":"ANJ","Station_Nam":"SAULT STE MARIE","Latitude":"46.46670","Longitude":"-84.36670","Snowdepth":"10.000","Units":"in","Rept_Date":"2019-12-24 00"},"coordinates":[2896,7005]},{"type":"Point","properties":{"Station_ID":"MN-SR-29","Station_Nam":"ALBANY 3.8 S, MN","Latitude":"45.57441","Longitude":"-94.55543","Snowdepth":"9.500","Units":"in","Rept_Date":"2019-12-23 13"},"coordinates":[604,6498]},{"type":"Point","properties":{"Station_ID":"CATQ6","Station_Nam":"CAT LAKE","Latitude":"51.72690","Longitude":"-91.82210","Snowdepth":"9.490","Units":"in","Rept_Date":"2019-12-24 06"},"coordinates":[1219,9999]},{"type":"Point","properties":{"Station_ID":"KABQ6","Station_Nam":"CAB LAKE","Latitude":"49.59950","Longitude":"-89.17990","Snowdepth":"9.290","Units":"in","Rept_Date":"2019-12-24 06"},"coordinates":[1813,8788]},{"type":"Point","properties":{"Station_ID":"WLDM5","Station_Nam":"WILD RIVER STATE PARK","Latitude":"45.52310","Longitude":"-92.74890","Snowdepth":"9.000","Units":"in","Rept_Date":"2019-12-23 14"},"coordinates":[1010,6468]},{"type":"Point","properties":{"Station_ID":"WI-DN-15","Station_Nam":"MENOMONIE 0.9 NW, WI","Latitude":"44.89832","Longitude":"-91.92398","Snowdepth":"9.000","Units":"in","Rept_Date":"2019-12-23 13"},"coordinates":[1196,6113]},{"type":"Point","properties":{"Station_ID":"WASW3","Station_Nam":"WASHINGTON IS","Latitude":"45.35800","Longitude":"-86.89110","Snowdepth":"9.000","Units":"in","Rept_Date":"2019-12-23 13"},"coordinates":[2328,6374]},{"type":"Point","properties":{"Station_ID":"STRW3","Station_Nam":"STRATFORD 1NW","Latitude":"44.81750","Longitude":"-90.08990","Snowdepth":"9.000","Units":"in","Rept_Date":"2019-12-23 13"},"coordinates":[1608,6067]},{"type":"Point","properties":{"Station_ID":"SAUW3","Station_Nam":"WAUSAU WSAW TV","Latitude":"44.94630","Longitude":"-89.62220","Snowdepth":"9.000","Units":"in","Rept_Date":"2019-12-24 04"},"coordinates":[1714,6140]},{"type":"Point","properties":{"Station_ID":"PKGM5","Station_Nam":"POKEGANA LK DAM","Latitude":"47.25080","Longitude":"-93.58610","Snowdepth":"9.000","Units":"in","Rept_Date":"2019-12-23 14"},"coordinates":[822,7452]},{"type":"Point","properties":{"Station_ID":"NY-OD-2","Station_Nam":"POINT ROCK 0.6 SE, NY","Latitude":"43.37335","Longitude":"-75.53840","Snowdepth":"9.000","Units":"in","Rept_Date":"2019-12-23 13"},"coordinates":[4882,5245]},{"type":"Point","properties":{"Station_ID":"MRAM4","Station_Nam":"MORAN","Latitude":"45.99030","Longitude":"-84.83610","Snowdepth":"9.000","Units":"in","Rept_Date":"2019-12-23 13"},"coordinates":[2790,6734]},{"type":"Point","properties":{"Station_ID":"MNOW3","Station_Nam":"CEDAR FALLS HYDRO PLANT","Latitude":"44.93550","Longitude":"-91.88850","Snowdepth":"9.000","Units":"in","Rept_Date":"2019-12-23 13"},"coordinates":[1204,6134]},{"type":"Point","properties":{"Station_ID":"MN-SH-10","Station_Nam":"BIG LAKE 5.6 NNE, MN","Latitude":"45.41409","Longitude":"-93.69190","Snowdepth":"9.000","Units":"in","Rept_Date":"2019-12-23 13"},"coordinates":[798,6406]},{"type":"Point","properties":{"Station_ID":"MN-IT-7","Station_Nam":"GRAND RAPIDS 6.2 SSW, MN","Latitude":"47.13687","Longitude":"-93.56660","Snowdepth":"9.000","Units":"in","Rept_Date":"2019-12-23 12"},"coordinates":[826,7387]},{"type":"Point","properties":{"Station_ID":"MN-IT-17","Station_Nam":"GRAND RAPIDS 6.1 N, MN","Latitude":"47.31165","Longitude":"-93.55036","Snowdepth":"9.000","Units":"in","Rept_Date":"2019-12-23 13"},"coordinates":[830,7486]},{"type":"Point","properties":{"Station_ID":"MI-AT-6","Station_Nam":"MANCELONA 0.5 ESE, MI","Latitude":"44.89981","Longitude":"-85.05100","Snowdepth":"9.000","Units":"in","Rept_Date":"2019-12-23 13"},"coordinates":[2742,6114]},{"type":"Point","properties":{"Station_ID":"MCLN8","Station_Nam":"MC LEOD,ND","Latitude":"46.40250","Longitude":"-97.23810","Snowdepth":"9.000","Units":"in","Rept_Date":"2019-12-23 13"},"coordinates":[0,6969]},{"type":"Point","properties":{"Station_ID":"JOHV1","Station_Nam":"JOHNSON 2 N","Latitude":"44.65790","Longitude":"-72.67850","Snowdepth":"9.000","Units":"in","Rept_Date":"2019-12-23 12"},"coordinates":[5526,5976]},{"type":"Point","properties":{"Station_ID":"ISEM5","Station_Nam":"ISLE 12N","Latitude":"46.31970","Longitude":"-93.50140","Snowdepth":"9.000","Units":"in","Rept_Date":"2019-12-23 14"},"coordinates":[841,6922]},{"type":"Point","properties":{"Station_ID":"HGHN6","Station_Nam":"HIGHMARKET","Latitude":"43.57520","Longitude":"-75.52070","Snowdepth":"9.000","Units":"in","Rept_Date":"2019-12-23 10"},"coordinates":[4886,5360]},{"type":"Point","properties":{"Station_ID":"FEDM5","Station_Nam":"LEECH LAKE DAM","Latitude":"47.24670","Longitude":"-94.22280","Snowdepth":"9.000","Units":"in","Rept_Date":"2019-12-23 14"},"coordinates":[679,7449]},{"type":"Point","properties":{"Station_ID":"EPTW3","Station_Nam":"EAU PLEINE TENDER","Latitude":"44.77220","Longitude":"-89.76720","Snowdepth":"9.000","Units":"in","Rept_Date":"2019-12-23 13"},"coordinates":[1681,6041]},{"type":"Point","properties":{"Station_ID":"COTM5","Station_Nam":"COTTON","Latitude":"47.16870","Longitude":"-92.46290","Snowdepth":"9.000","Units":"in","Rept_Date":"2019-12-23 13"},"coordinates":[1075,7405]},{"type":"Point","properties":{"Station_ID":"AVLV1","Station_Nam":"AVERILL","Latitude":"45.00570","Longitude":"-71.69030","Snowdepth":"9.000","Units":"in","Rept_Date":"2019-12-23 13"},"coordinates":[5748,6174]},{"type":"Point","properties":{"Station_ID":"CAN-ON-757","Station_Nam":"SAULT STE. MARIE 2.8 ESE - GLFC, CAN","Latitude":"46.50300","Longitude":"-84.30300","Snowdepth":"8.900","Units":"in","Rept_Date":"2019-12-23 13"},"coordinates":[2910,7026]},{"type":"Point","properties":{"Station_ID":"QWG","Station_Nam":"QWG","Latitude":"48.48890","Longitude":"-73.45940","Snowdepth":"8.898","Units":"in","Rept_Date":"2019-12-23 12"},"coordinates":[5350,8156]},{"type":"Point","properties":{"Station_ID":"VT-OL-5","Station_Nam":"DERBY CENTER 1.8 NW, VT","Latitude":"44.97200","Longitude":"-72.14780","Snowdepth":"8.500","Units":"in","Rept_Date":"2019-12-23 12"},"coordinates":[5645,6155]},{"type":"Point","properties":{"Station_ID":"NY-ER-166","Station_Nam":"BOSTON 2.5 NE, NY","Latitude":"42.65480","Longitude":"-78.70300","Snowdepth":"8.500","Units":"in","Rept_Date":"2019-12-23 12"},"coordinates":[4170,4836]},{"type":"Point","properties":{"Station_ID":"ND-CS-25","Station_Nam":"FARGO 2.1 N, ND","Latitude":"46.90816","Longitude":"-96.77937","Snowdepth":"8.500","Units":"in","Rept_Date":"2019-12-23 14"},"coordinates":[103,7257]},{"type":"Point","properties":{"Station_ID":"MI-OT-17","Station_Nam":"GAYLORD 4.1 S, MI","Latitude":"44.96388","Longitude":"-84.68467","Snowdepth":"8.500","Units":"in","Rept_Date":"2019-12-23 12"},"coordinates":[2825,6150]},{"type":"Point","properties":{"Station_ID":"MI-CP-14","Station_Nam":"SAULT STE. MARIE 2.2 E, MI","Latitude":"46.48933","Longitude":"-84.31971","Snowdepth":"8.500","Units":"in","Rept_Date":"2019-12-23 13"},"coordinates":[2907,7018]},{"type":"Point","properties":{"Station_ID":"NY-HR-18","Station_Nam":"SALISBURY CENTER 1.8 NW, NY","Latitude":"43.16260","Longitude":"-74.80880","Snowdepth":"8.300","Units":"in","Rept_Date":"2019-12-23 11"},"coordinates":[5047,5125]},{"type":"Point","properties":{"Station_ID":"WI-PC-5","Station_Nam":"RIVER FALLS 1.2 SSW, WI","Latitude":"44.84032","Longitude":"-92.63500","Snowdepth":"8.000","Units":"in","Rept_Date":"2019-12-23 13"},"coordinates":[1036,6080]},{"type":"Point","properties":{"Station_ID":"SIBI4","Station_Nam":"SIBLEY","Latitude":"43.40470","Longitude":"-95.74830","Snowdepth":"8.000","Units":"in","Rept_Date":"2019-12-23 13"},"coordinates":[335,5263]},{"type":"Point","properties":{"Station_ID":"RCEM5","Station_Nam":"RICE","Latitude":"45.75760","Longitude":"-94.20720","Snowdepth":"8.000","Units":"in","Rept_Date":"2019-12-23 13"},"coordinates":[682,6602]},{"type":"Point","properties":{"Station_ID":"OWEW3","Station_Nam":"OWEN 1E","Latitude":"44.94610","Longitude":"-90.55170","Snowdepth":"8.000","Units":"in","Rept_Date":"2019-12-23 13"},"coordinates":[1505,6140]},{"type":"Point","properties":{"Station_ID":"OTTM5","Station_Nam":"OTTERTAIL,MN","Latitude":"46.41670","Longitude":"-95.56670","Snowdepth":"8.000","Units":"in","Rept_Date":"2019-12-23 13"},"coordinates":[376,6977]},{"type":"Point","properties":{"Station_ID":"NY-AB-1","Station_Nam":"ALTAMONT 2.7 SSW, NY","Latitude":"42.66696","Longitude":"-74.05090","Snowdepth":"8.000","Units":"in","Rept_Date":"2019-12-23 12"},"coordinates":[5217,4843]},{"type":"Point","properties":{"Station_ID":"MNLGGILP","Station_Nam":"LONG PRAIRIE 1.1 WSW","Latitude":"45.96913","Longitude":"-94.88686","Snowdepth":"8.000","Units":"in","Rept_Date":"2019-12-23 12"},"coordinates":[529,6722]},{"type":"Point","properties":{"Station_ID":"MN-MR-4","Station_Nam":"LITTLE FALLS 1.2 SW, MN","Latitude":"45.96886","Longitude":"-94.37720","Snowdepth":"8.000","Units":"in","Rept_Date":"2019-12-23 13"},"coordinates":[644,6722]},{"type":"Point","properties":{"Station_ID":"MN-MR-13","Station_Nam":"LITTLE FALLS 8.0 NE, MN","Latitude":"46.06785","Longitude":"-94.24789","Snowdepth":"8.000","Units":"in","Rept_Date":"2019-12-23 13"},"coordinates":[673,6778]},{"type":"Point","properties":{"Station_ID":"MN-CY-20","Station_Nam":"HAWLEY 5.2 WNW, MN","Latitude":"46.91652","Longitude":"-96.41147","Snowdepth":"8.000","Units":"in","Rept_Date":"2019-12-23 13"},"coordinates":[186,7261]},{"type":"Point","properties":{"Station_ID":"MN-AA-85","Station_Nam":"LINO LAKES 1.8 W, MN","Latitude":"45.16640","Longitude":"-93.12063","Snowdepth":"8.000","Units":"in","Rept_Date":"2019-12-23 13"},"coordinates":[927,6265]},{"type":"Point","properties":{"Station_ID":"MN-AA-76","Station_Nam":"NOWTHEN 2.9 SSE, MN","Latitude":"45.30360","Longitude":"-93.42620","Snowdepth":"8.000","Units":"in","Rept_Date":"2019-12-23 13"},"coordinates":[858,6344]},{"type":"Point","properties":{"Station_ID":"MLCM5","Station_Nam":"MILACA","Latitude":"45.75320","Longitude":"-93.66170","Snowdepth":"8.000","Units":"in","Rept_Date":"2019-12-23 13"},"coordinates":[805,6599]},{"type":"Point","properties":{"Station_ID":"MI-CP-7","Station_Nam":"DRUMMOND 2.9 NE, MI","Latitude":"46.05329","Longitude":"-83.69060","Snowdepth":"8.000","Units":"in","Rept_Date":"2019-12-23 14"},"coordinates":[3048,6770]},{"type":"Point","properties":{"Station_ID":"MEMW3","Station_Nam":"MENOMONIE","Latitude":"44.87430","Longitude":"-91.93640","Snowdepth":"8.000","Units":"in","Rept_Date":"2019-12-23 13"},"coordinates":[1193,6099]},{"type":"Point","properties":{"Station_ID":"LNGM5","Station_Nam":"LONG PRAIRIE","Latitude":"45.96460","Longitude":"-94.88920","Snowdepth":"8.000","Units":"in","Rept_Date":"2019-12-23 12"},"coordinates":[529,6720]},{"type":"Point","properties":{"Station_ID":"KGFK","Station_Nam":"GRAND FORKS INTERNATIONAL","Latitude":"47.95000","Longitude":"-97.18333","Snowdepth":"8.000","Units":"in","Rept_Date":"2019-12-24 06"},"coordinates":[12,7850]},{"type":"Point","properties":{"Station_ID":"JMPW3","Station_Nam":"JUMP RIVER 1 NW","Latitude":"45.35610","Longitude":"-90.80250","Snowdepth":"8.000","Units":"in","Rept_Date":"2019-12-23 13"},"coordinates":[1448,6373]},{"type":"Point","properties":{"Station_ID":"GRFN8","Station_Nam":"UNIVERSITY","Latitude":"47.93330","Longitude":"-97.08330","Snowdepth":"8.000","Units":"in","Rept_Date":"2019-12-24 06"},"coordinates":[35,7840]},{"type":"Point","properties":{"Station_ID":"GFK","Station_Nam":"GRAND FORKS INTERNATIONAL AIRPORT","Latitude":"47.94920","Longitude":"-97.17610","Snowdepth":"8.000","Units":"in","Rept_Date":"2019-12-24 00"},"coordinates":[14,7849]},{"type":"Point","properties":{"Station_ID":"ELKM5","Station_Nam":"ELK RIVER","Latitude":"45.30470","Longitude":"-93.58420","Snowdepth":"8.000","Units":"in","Rept_Date":"2019-12-23 13"},"coordinates":[822,6344]},{"type":"Point","properties":{"Station_ID":"EJNM4","Station_Nam":"EAST JORDAN 2NW","Latitude":"45.18630","Longitude":"-85.14770","Snowdepth":"8.000","Units":"in","Rept_Date":"2019-12-23 13"},"coordinates":[2720,6277]},{"type":"Point","properties":{"Station_ID":"ECAW3","Station_Nam":"EAU CLAIRE 5 SE - HWY DEPT","Latitude":"44.76220","Longitude":"-91.41390","Snowdepth":"8.000","Units":"in","Rept_Date":"2019-12-23 14"},"coordinates":[1311,6035]},{"type":"Point","properties":{"Station_ID":"EAU","Station_Nam":"CHIPPEWA VALLEY REGIONAL AIRPORT","Latitude":"44.86650","Longitude":"-91.48790","Snowdepth":"8.000","Units":"in","Rept_Date":"2019-12-24 00"},"coordinates":[1294,6095]},{"type":"Point","properties":{"Station_ID":"CORW3","Station_Nam":"CORNELL 2SSW","Latitude":"45.14140","Longitude":"-91.16260","Snowdepth":"8.000","Units":"in","Rept_Date":"2019-12-23 13"},"coordinates":[1367,6251]},{"type":"Point","properties":{"Station_ID":"FTHQ6","Station_Nam":"FORT HOPE","Latitude":"51.55820","Longitude":"-87.90510","Snowdepth":"7.950","Units":"in","Rept_Date":"2019-12-24 06"},"coordinates":[2100,9903]},{"type":"Point","properties":{"Station_ID":"NY-SR-22","Station_Nam":"GREENFIELD CENTER 1.6 W, NY","Latitude":"43.12684","Longitude":"-73.87860","Snowdepth":"7.500","Units":"in","Rept_Date":"2019-12-23 13"},"coordinates":[5256,5105]},{"type":"Point","properties":{"Station_ID":"MN-SR-36","Station_Nam":"SAINT JOSEPH 6.4 N, MN","Latitude":"45.65317","Longitude":"-94.28876","Snowdepth":"7.500","Units":"in","Rept_Date":"2019-12-23 15"},"coordinates":[664,6542]},{"type":"Point","properties":{"Station_ID":"MN-HN-181","Station_Nam":"MINNEAPOLIS 0.4 NE, MN","Latitude":"44.96708","Longitude":"-93.26222","Snowdepth":"7.500","Units":"in","Rept_Date":"2019-12-23 13"},"coordinates":[895,6152]},{"type":"Point","properties":{"Station_ID":"MN-BK-10","Station_Nam":"DETROIT LAKES 5.7 N, MN","Latitude":"46.88666","Longitude":"-95.84444","Snowdepth":"7.500","Units":"in","Rept_Date":"2019-12-23 10"},"coordinates":[314,7244]},{"type":"Point","properties":{"Station_ID":"MI-CX-7","Station_Nam":"EAST JORDAN 2.1 NNW, MI","Latitude":"45.18639","Longitude":"-85.14750","Snowdepth":"7.500","Units":"in","Rept_Date":"2019-12-23 13"},"coordinates":[2720,6277]},{"type":"Point","properties":{"Station_ID":"ME-AR-18","Station_Nam":"NEW SWEDEN 4.9 NNW, ME","Latitude":"47.01080","Longitude":"-68.14390","Snowdepth":"7.500","Units":"in","Rept_Date":"2019-12-23 12"},"coordinates":[6546,7315]},{"type":"Point","properties":{"Station_ID":"MN-AA-54","Station_Nam":"ANOKA 1.3 SSE, MN","Latitude":"45.19465","Longitude":"-93.37489","Snowdepth":"7.200","Units":"in","Rept_Date":"2019-12-23 13"},"coordinates":[869,6282]},{"type":"Point","properties":{"Station_ID":"CAN-NS-94","Station_Nam":"MARGAREE FORKS 2.6 SSE CBN, CAN","Latitude":"46.30937","Longitude":"-61.07603","Snowdepth":"7.100","Units":"in","Rept_Date":"2019-12-23 13"},"coordinates":[8136,6916]},{"type":"Point","properties":{"Station_ID":"VT-OL-1","Station_Nam":"WESTFIELD 0.7 WNW, VT","Latitude":"44.89160","Longitude":"-72.44350","Snowdepth":"7.000","Units":"in","Rept_Date":"2019-12-23 12"},"coordinates":[5579,6109]},{"type":"Point","properties":{"Station_ID":"STIM4","Station_Nam":"ST IGNACE","Latitude":"45.86080","Longitude":"-84.71960","Snowdepth":"7.000","Units":"in","Rept_Date":"2019-12-23 12"},"coordinates":[2817,6661]},{"type":"Point","properties":{"Station_ID":"SHHW3","Station_Nam":"SHAWANO 2SSW","Latitude":"44.76310","Longitude":"-88.61830","Snowdepth":"7.000","Units":"in","Rept_Date":"2019-12-23 14"},"coordinates":[1940,6036]},{"type":"Point","properties":{"Station_ID":"SBNM5","Station_Nam":"SABIN","Latitude":"46.77690","Longitude":"-96.65610","Snowdepth":"7.000","Units":"in","Rept_Date":"2019-12-23 14"},"coordinates":[131,7182]},{"type":"Point","properties":{"Station_ID":"SBEW3","Station_Nam":"EXP. FARM","Latitude":"44.86670","Longitude":"-87.33330","Snowdepth":"7.000","Units":"in","Rept_Date":"2019-12-23 13"},"coordinates":[2229,6095]},{"type":"Point","properties":{"Station_ID":"RSTW3","Station_Nam":"ROSHOLT","Latitude":"44.62710","Longitude":"-89.30600","Snowdepth":"7.000","Units":"in","Rept_Date":"2019-12-23 15"},"coordinates":[1785,5959]},{"type":"Point","properties":{"Station_ID":"RGNM1","Station_Nam":"RANGELEY 2NW","Latitude":"44.98940","Longitude":"-70.67220","Snowdepth":"7.000","Units":"in","Rept_Date":"2019-12-23 11"},"coordinates":[5977,6165]},{"type":"Point","properties":{"Station_ID":"RFDM5","Station_Nam":"ROCKFORD","Latitude":"45.08960","Longitude":"-93.73990","Snowdepth":"7.000","Units":"in","Rept_Date":"2019-12-23 13"},"coordinates":[787,6222]},{"type":"Point","properties":{"Station_ID":"RANM1","Station_Nam":"RANGELEY,ME","Latitude":"44.96670","Longitude":"-70.65000","Snowdepth":"7.000","Units":"in","Rept_Date":"2019-12-23 10"},"coordinates":[5982,6152]},{"type":"Point","properties":{"Station_ID":"PTBN3","Station_Nam":"DAM WITHIN","Latitude":"45.05000","Longitude":"-71.38330","Snowdepth":"7.000","Units":"in","Rept_Date":"2019-12-23 12"},"coordinates":[5817,6199]},{"type":"Point","properties":{"Station_ID":"NY-AB-54","Station_Nam":"ALTAMONT 2.9 SW, NY","Latitude":"42.68182","Longitude":"-74.08326","Snowdepth":"7.000","Units":"in","Rept_Date":"2019-12-23 12"},"coordinates":[5210,4851]},{"type":"Point","properties":{"Station_ID":"MTQM4","Station_Nam":"MANISTIQUE WWTP","Latitude":"45.95120","Longitude":"-86.25130","Snowdepth":"7.000","Units":"in","Rept_Date":"2019-12-23 12"},"coordinates":[2472,6712]},{"type":"Point","properties":{"Station_ID":"MNEY8CTB","Station_Nam":"MIDLAND JUNCTION 2.2 ENE","Latitude":"44.33041","Longitude":"-91.95891","Snowdepth":"7.000","Units":"in","Rept_Date":"2019-12-23 14"},"coordinates":[1188,5790]},{"type":"Point","properties":{"Station_ID":"MN228YHJ","Station_Nam":"RICE 2.8 ESE","Latitude":"45.73609","Longitude":"-94.17230","Snowdepth":"7.000","Units":"in","Rept_Date":"2019-12-23 13"},"coordinates":[690,6590]},{"type":"Point","properties":{"Station_ID":"MN-MC-16","Station_Nam":"HUTCHINSON 0.1 ENE, MN","Latitude":"44.88633","Longitude":"-94.37503","Snowdepth":"7.000","Units":"in","Rept_Date":"2019-12-23 13"},"coordinates":[644,6106]},{"type":"Point","properties":{"Station_ID":"MN-HN-6","Station_Nam":"LONG LAKE 0.2 WSW, MN","Latitude":"44.98290","Longitude":"-93.57360","Snowdepth":"7.000","Units":"in","Rept_Date":"2019-12-23 13"},"coordinates":[825,6161]},{"type":"Point","properties":{"Station_ID":"MN-CY-1","Station_Nam":"MOORHEAD 2.0 N, MN","Latitude":"46.88766","Longitude":"-96.74800","Snowdepth":"7.000","Units":"in","Rept_Date":"2019-12-23 13"},"coordinates":[110,7245]},{"type":"Point","properties":{"Station_ID":"MI-MC-4","Station_Nam":"ST. IGNACE 0.5SE, MI","Latitude":"45.86057","Longitude":"-84.71980","Snowdepth":"7.000","Units":"in","Rept_Date":"2019-12-23 12"},"coordinates":[2817,6660]},{"type":"Point","properties":{"Station_ID":"MFDW3","Station_Nam":"MARSHFIELD EXP FARM","Latitude":"44.64110","Longitude":"-90.13330","Snowdepth":"7.000","Units":"in","Rept_Date":"2019-12-23 13"},"coordinates":[1599,5966]},{"type":"Point","properties":{"Station_ID":"LBKV1","Station_Nam":"LYE BROOK","Latitude":"43.05000","Longitude":"-73.03330","Snowdepth":"7.000","Units":"in","Rept_Date":"2019-12-24 06"},"coordinates":[5446,5061]},{"type":"Point","properties":{"Station_ID":"KIMM5","Station_Nam":"KIMBALL 3N","Latitude":"45.35330","Longitude":"-94.30560","Snowdepth":"7.000","Units":"in","Rept_Date":"2019-12-23 12"},"coordinates":[660,6372]},{"type":"Point","properties":{"Station_ID":"KABM5","Station_Nam":"KABETOGAMA LAKE VISITOR CTR","Latitude":"48.40880","Longitude":"-93.04840","Snowdepth":"7.000","Units":"in","Rept_Date":"2019-12-23 13"},"coordinates":[943,8111]},{"type":"Point","properties":{"Station_ID":"INL","Station_Nam":"FALLS INTERNATIONAL ARPT","Latitude":"48.56640","Longitude":"-93.40310","Snowdepth":"7.000","Units":"in","Rept_Date":"2019-12-24 00"},"coordinates":[863,8200]},{"type":"Point","properties":{"Station_ID":"IFSM5","Station_Nam":"INTERNATIONAL FALLS SNOW","Latitude":"48.57780","Longitude":"-93.39640","Snowdepth":"7.000","Units":"in","Rept_Date":"2019-12-23 12"},"coordinates":[864,8207]},{"type":"Point","properties":{"Station_ID":"HMYM1","Station_Nam":"HARMONY","Latitude":"44.94660","Longitude":"-69.54560","Snowdepth":"7.000","Units":"in","Rept_Date":"2019-12-23 12"},"coordinates":[6231,6140]},{"type":"Point","properties":{"Station_ID":"GLDM5","Station_Nam":"GAYLORD","Latitude":"44.55640","Longitude":"-94.22070","Snowdepth":"7.000","Units":"in","Rept_Date":"2019-12-23 15"},"coordinates":[679,5918]},{"type":"Point","properties":{"Station_ID":"FDRN8","Station_Nam":"FARGO 3S","Latitude":"46.82930","Longitude":"-96.79620","Snowdepth":"7.000","Units":"in","Rept_Date":"2019-12-24 06"},"coordinates":[100,7212]},{"type":"Point","properties":{"Station_ID":"FAR","Station_Nam":"HECTOR INTERNATIONAL ARPT","Latitude":"46.91560","Longitude":"-96.81440","Snowdepth":"7.000","Units":"in","Rept_Date":"2019-12-24 00"},"coordinates":[95,7261]},{"type":"Point","properties":{"Station_ID":"ETTW3","Station_Nam":"ETTRICK 4WNW","Latitude":"44.19000","Longitude":"-91.34240","Snowdepth":"7.000","Units":"in","Rept_Date":"2019-12-23 13"},"coordinates":[1327,5710]},{"type":"Point","properties":{"Station_ID":"ESHN6","Station_Nam":"MEREDITH SNOW","Latitude":"42.35000","Longitude":"-74.93330","Snowdepth":"7.000","Units":"in","Rept_Date":"2019-12-23 14"},"coordinates":[5019,4663]},{"type":"Point","properties":{"Station_ID":"COKM5","Station_Nam":"COOK","Latitude":"47.85060","Longitude":"-92.69250","Snowdepth":"7.000","Units":"in","Rept_Date":"2019-12-23 12"},"coordinates":[1023,7793]},{"type":"Point","properties":{"Station_ID":"BOON6","Station_Nam":"BOONVILLE 4 SSW","Latitude":"43.43610","Longitude":"-75.36970","Snowdepth":"7.000","Units":"in","Rept_Date":"2019-12-23 12"},"coordinates":[4920,5281]},{"type":"Point","properties":{"Station_ID":"BMRW3","Station_Nam":"BLOOMER","Latitude":"45.09070","Longitude":"-91.48640","Snowdepth":"7.000","Units":"in","Rept_Date":"2019-12-23 14"},"coordinates":[1294,6222]},{"type":"Point","properties":{"Station_ID":"ADFN6","Station_Nam":"WEST ALMOND 2NNE SNOW","Latitude":"42.33330","Longitude":"-77.86670","Snowdepth":"7.000","Units":"in","Rept_Date":"2019-12-23 13"},"coordinates":[4359,4653]},{"type":"Point","properties":{"Station_ID":"WI-PT-8","Station_Nam":"RUDOLPH 2.1 NNE, WI","Latitude":"44.52553","Longitude":"-89.78677","Snowdepth":"6.500","Units":"in","Rept_Date":"2019-12-23 11"},"coordinates":[1677,5901]},{"type":"Point","properties":{"Station_ID":"MI-OT-16","Station_Nam":"GAYLORD 2.2 SSE, MI","Latitude":"44.99441","Longitude":"-84.65820","Snowdepth":"6.500","Units":"in","Rept_Date":"2019-12-23 12"},"coordinates":[2831,6168]},{"type":"Point","properties":{"Station_ID":"QGT","Station_Nam":"QGT","Latitude":"49.64720","Longitude":"-67.62640","Snowdepth":"6.024","Units":"in","Rept_Date":"2019-12-23 12"},"coordinates":[6663,8815]},{"type":"Point","properties":{"Station_ID":"WMRM5","Station_Nam":"WILLMAR 5N","Latitude":"45.19010","Longitude":"-95.05860","Snowdepth":"6.000","Units":"in","Rept_Date":"2019-12-23 12"},"coordinates":[490,6279]},{"type":"Point","properties":{"Station_ID":"WI-DN-5","Station_Nam":"ELK MOUND 1.3 NE, WI","Latitude":"44.88627","Longitude":"-91.66680","Snowdepth":"6.000","Units":"in","Rept_Date":"2019-12-23 13"},"coordinates":[1254,6106]},{"type":"Point","properties":{"Station_ID":"WI-CH-10","Station_Nam":"CHIPPEWA FALLS 0.6 SSE, WI","Latitude":"44.92452","Longitude":"-91.38623","Snowdepth":"6.000","Units":"in","Rept_Date":"2019-12-23 13"},"coordinates":[1317,6128]},{"type":"Point","properties":{"Station_ID":"WABM5","Station_Nam":"WABASHA","Latitude":"44.38500","Longitude":"-92.04860","Snowdepth":"6.000","Units":"in","Rept_Date":"2019-12-23 13"},"coordinates":[1168,5821]},{"type":"Point","properties":{"Station_ID":"VT-BN-3","Station_Nam":"LANDGROVE 1.1 NNE, VT","Latitude":"43.29092","Longitude":"-72.83260","Snowdepth":"6.000","Units":"in","Rept_Date":"2019-12-23 12"},"coordinates":[5491,5198]},{"type":"Point","properties":{"Station_ID":"UMNM5","Station_Nam":"UNIVERSITY OF MN ST. PAUL","Latitude":"44.99020","Longitude":"-93.17990","Snowdepth":"6.000","Units":"in","Rept_Date":"2019-12-23 14"},"coordinates":[913,6165]},{"type":"Point","properties":{"Station_ID":"TLLM3","Station_Nam":"TULLY LAKE","Latitude":"42.63940","Longitude":"-72.22440","Snowdepth":"6.000","Units":"in","Rept_Date":"2019-12-23 12"},"coordinates":[5628,4827]},{"type":"Point","properties":{"Station_ID":"THJP1","Station_Nam":"OSGOOD HOLLOWN SNOW","Latitude":"41.86670","Longitude":"-77.31670","Snowdepth":"6.000","Units":"in","Rept_Date":"2019-12-23 16"},"coordinates":[4482,4388]},{"type":"Point","properties":{"Station_ID":"SVSN6","Station_Nam":"SILVER SPRINGS 3N","Latitude":"42.70580","Longitude":"-78.09370","Snowdepth":"6.000","Units":"in","Rept_Date":"2019-12-23 12"},"coordinates":[4307,4865]},{"type":"Point","properties":{"Station_ID":"SUTV1","Station_Nam":"SUTTON","Latitude":"44.61220","Longitude":"-72.04810","Snowdepth":"6.000","Units":"in","Rept_Date":"2019-12-23 13"},"coordinates":[5668,5950]},{"type":"Point","properties":{"Station_ID":"STPW3","Station_Nam":"STEVENS POINT","Latitude":"44.51130","Longitude":"-89.58550","Snowdepth":"6.000","Units":"in","Rept_Date":"2019-12-23 13"},"coordinates":[1722,5893]},{"type":"Point","properties":{"Station_ID":"SPCW3","Station_Nam":"SPENCER-WWTP","Latitude":"44.75390","Longitude":"-90.28920","Snowdepth":"6.000","Units":"in","Rept_Date":"2019-12-23 13"},"coordinates":[1564,6031]},{"type":"Point","properties":{"Station_ID":"ROWM3","Station_Nam":"ROWE 3NE","Latitude":"42.73500","Longitude":"-72.86920","Snowdepth":"6.000","Units":"in","Rept_Date":"2019-12-23 12"},"coordinates":[5483,4882]},{"type":"Point","properties":{"Station_ID":"PSHW3","Station_Nam":"PESHTIGO","Latitude":"45.02810","Longitude":"-87.73560","Snowdepth":"6.000","Units":"in","Rept_Date":"2019-12-23 13"},"coordinates":[2138,6187]},{"type":"Point","properties":{"Station_ID":"PELW3","Station_Nam":"PELLA 3SE","Latitude":"44.73580","Longitude":"-88.73780","Snowdepth":"6.000","Units":"in","Rept_Date":"2019-12-23 11"},"coordinates":[1913,6020]},{"type":"Point","properties":{"Station_ID":"PEKN6","Station_Nam":"PECK LAKE","Latitude":"43.11500","Longitude":"-74.42360","Snowdepth":"6.000","Units":"in","Rept_Date":"2019-12-23 12"},"coordinates":[5133,5098]},{"type":"Point","properties":{"Station_ID":"NY-ER-158","Station_Nam":"EAST AURORA 2.7 SSE, NY","Latitude":"42.72936","Longitude":"-78.60561","Snowdepth":"6.000","Units":"in","Rept_Date":"2019-12-23 13"},"coordinates":[4192,4879]},{"type":"Point","properties":{"Station_ID":"NUMN3","Station_Nam":"NORTHUMBERLAND","Latitude":"44.52830","Longitude":"-71.50440","Snowdepth":"6.000","Units":"in","Rept_Date":"2019-12-23 13"},"coordinates":[5790,5902]},{"type":"Point","properties":{"Station_ID":"NPTV1","Station_Nam":"NEWPORT","Latitude":"44.94900","Longitude":"-72.19120","Snowdepth":"6.000","Units":"in","Rept_Date":"2019-12-23 12"},"coordinates":[5636,6142]},{"type":"Point","properties":{"Station_ID":"NH-HL-48","Station_Nam":"GREENVILLE 1.1 ENE, NH","Latitude":"42.77674","Longitude":"-71.77990","Snowdepth":"6.000","Units":"in","Rept_Date":"2019-12-23 13"},"coordinates":[5728,4905]},{"type":"Point","properties":{"Station_ID":"NALN6","Station_Nam":"CATTARAUGUS","Latitude":"42.32450","Longitude":"-78.86700","Snowdepth":"6.000","Units":"in","Rept_Date":"2019-12-23 13"},"coordinates":[4133,4648]},{"type":"Point","properties":{"Station_ID":"MXON6","Station_Nam":"MEXICO","Latitude":"43.43830","Longitude":"-76.26560","Snowdepth":"6.000","Units":"in","Rept_Date":"2019-12-23 12"},"coordinates":[4719,5282]},{"type":"Point","properties":{"Station_ID":"MSP","Station_Nam":"MINNEAPOLIS-ST PAUL INTL AP","Latitude":"44.88310","Longitude":"-93.22890","Snowdepth":"6.000","Units":"in","Rept_Date":"2019-12-24 00"},"coordinates":[902,6104]},{"type":"Point","properties":{"Station_ID":"MRLV1","Station_Nam":"MARLBORO","Latitude":"42.86000","Longitude":"-72.72000","Snowdepth":"6.000","Units":"in","Rept_Date":"2019-12-23 12"},"coordinates":[5517,4953]},{"type":"Point","properties":{"Station_ID":"MRIW3","Station_Nam":"MARINETTE","Latitude":"45.09830","Longitude":"-87.62360","Snowdepth":"6.000","Units":"in","Rept_Date":"2019-12-23 13"},"coordinates":[2163,6227]},{"type":"Point","properties":{"Station_ID":"MN0GWSNW","Station_Nam":"LAKE ELMO 2.9 SE","Latitude":"44.97220","Longitude":"-92.83065","Snowdepth":"6.000","Units":"in","Rept_Date":"2019-12-23 13"},"coordinates":[992,6155]},{"type":"Point","properties":{"Station_ID":"MN-SC-2","Station_Nam":"PRIOR LAKE 2.0 W, MN","Latitude":"44.71250","Longitude":"-93.46360","Snowdepth":"6.000","Units":"in","Rept_Date":"2019-12-23 13"},"coordinates":[849,6007]},{"type":"Point","properties":{"Station_ID":"MN-HN-78","Station_Nam":"RICHFIELD 1.9 WNW, MN","Latitude":"44.89129","Longitude":"-93.31410","Snowdepth":"6.000","Units":"in","Rept_Date":"2019-12-23 11"},"coordinates":[883,6109]},{"type":"Point","properties":{"Station_ID":"MN-HN-72","Station_Nam":"MAPLE GROVE 2.9 NE, MN","Latitude":"45.13953","Longitude":"-93.42070","Snowdepth":"6.000","Units":"in","Rept_Date":"2019-12-23 14"},"coordinates":[859,6250]},{"type":"Point","properties":{"Station_ID":"ME-FR-4","Station_Nam":"NEW SHARON 2.0 NW, ME","Latitude":"44.66582","Longitude":"-70.02720","Snowdepth":"6.000","Units":"in","Rept_Date":"2019-12-23 12"},"coordinates":[6122,5981]},{"type":"Point","properties":{"Station_ID":"MA-FR-13","Station_Nam":"CONWAY 2.9 NW, MA","Latitude":"42.54419","Longitude":"-72.72743","Snowdepth":"6.000","Units":"in","Rept_Date":"2019-12-23 12"},"coordinates":[5515,4773]},{"type":"Point","properties":{"Station_ID":"LPLN6","Station_Nam":"LAKE PLACID 2 S","Latitude":"44.30420","Longitude":"-73.98390","Snowdepth":"6.000","Units":"in","Rept_Date":"2019-12-23 12"},"coordinates":[5232,5775]},{"type":"Point","properties":{"Station_ID":"KMSP","Station_Nam":"MINNEAPOLIS-ST PAUL INTERNATIONAL","Latitude":"44.86666","Longitude":"-93.21666","Snowdepth":"6.000","Units":"in","Rept_Date":"2019-12-24 00"},"coordinates":[905,6095]},{"type":"Point","properties":{"Station_ID":"ISLV1","Station_Nam":"ISLAND POND","Latitude":"44.81280","Longitude":"-71.89020","Snowdepth":"6.000","Units":"in","Rept_Date":"2019-12-23 16"},"coordinates":[5703,6064]},{"type":"Point","properties":{"Station_ID":"FRKN6","Station_Nam":"FRANKLINVILLE","Latitude":"42.32960","Longitude":"-78.46330","Snowdepth":"6.000","Units":"in","Rept_Date":"2019-12-23 12"},"coordinates":[4224,4651]},{"type":"Point","properties":{"Station_ID":"DFXM1","Station_Nam":"DOVER-FOXCROFT","Latitude":"45.18720","Longitude":"-69.18350","Snowdepth":"6.000","Units":"in","Rept_Date":"2019-12-23 12"},"coordinates":[6312,6277]},{"type":"Point","properties":{"Station_ID":"CORV1","Station_Nam":"CORINTH","Latitude":"44.00690","Longitude":"-72.31940","Snowdepth":"6.000","Units":"in","Rept_Date":"2019-12-23 12"},"coordinates":[5607,5606]},{"type":"Point","properties":{"Station_ID":"CODN6","Station_Nam":"COLDEN","Latitude":"42.64720","Longitude":"-78.71110","Snowdepth":"6.000","Units":"in","Rept_Date":"2019-12-23 12"},"coordinates":[4169,4832]},{"type":"Point","properties":{"Station_ID":"CAN-MB-368","Station_Nam":"WHITESHELL 1.3 NE, CAN","Latitude":"49.74405","Longitude":"-95.19123","Snowdepth":"6.000","Units":"in","Rept_Date":"2019-12-23 14"},"coordinates":[461,8871]},{"type":"Point","properties":{"Station_ID":"BRDM1","Station_Nam":"BRIDGEWATER","Latitude":"46.42870","Longitude":"-67.84370","Snowdepth":"6.000","Units":"in","Rept_Date":"2019-12-23 23"},"coordinates":[6614,6984]},{"type":"Point","properties":{"Station_ID":"ADEN6","Station_Nam":"WEST ALMOND 1E SNOW","Latitude":"42.30000","Longitude":"-77.86670","Snowdepth":"6.000","Units":"in","Rept_Date":"2019-12-23 13"},"coordinates":[4359,4634]},{"type":"Point","properties":{"Station_ID":"CAN-ON-132","Station_Nam":"ORANGEVILLE 5.1 SSW - CANWARN, CAN","Latitude":"43.87372","Longitude":"-80.13428","Snowdepth":"5.900","Units":"in","Rept_Date":"2019-12-23 14"},"coordinates":[3848,5530]},{"type":"Point","properties":{"Station_ID":"VT-WR-2","Station_Nam":"POMFRET 2.6 N, VT","Latitude":"43.74230","Longitude":"-72.52550","Snowdepth":"5.500","Units":"in","Rept_Date":"2019-12-23 12"},"coordinates":[5560,5455]},{"type":"Point","properties":{"Station_ID":"VT-WH-29","Station_Nam":"BRATTLEBORO 0.7 S, VT","Latitude":"42.84030","Longitude":"-72.55580","Snowdepth":"5.500","Units":"in","Rept_Date":"2019-12-23 12"},"coordinates":[5553,4942]},{"type":"Point","properties":{"Station_ID":"NY-WY-11","Station_Nam":"SILVER SPRINGS COOP, NY","Latitude":"42.70580","Longitude":"-78.09370","Snowdepth":"5.500","Units":"in","Rept_Date":"2019-12-23 12"},"coordinates":[4307,4865]},{"type":"Point","properties":{"Station_ID":"NY-OS-15","Station_Nam":"MINETTO 0.1 SE, NY","Latitude":"43.39771","Longitude":"-76.47960","Snowdepth":"5.500","Units":"in","Rept_Date":"2019-12-23 13"},"coordinates":[4671,5259]},{"type":"Point","properties":{"Station_ID":"NY-OG-61","Station_Nam":"SKANEATELES 0.8 NNW, NY","Latitude":"42.95538","Longitude":"-76.43362","Snowdepth":"5.500","Units":"in","Rept_Date":"2019-12-23 12"},"coordinates":[4681,5007]},{"type":"Point","properties":{"Station_ID":"NY-ER-65","Station_Nam":"BOSTON 1.5 NE, NY","Latitude":"42.65470","Longitude":"-78.72010","Snowdepth":"5.500","Units":"in","Rept_Date":"2019-12-23 12"},"coordinates":[4167,4836]},{"type":"Point","properties":{"Station_ID":"MN-RM-54","Station_Nam":"SAINT PAUL 5.1 SW, MN","Latitude":"44.90390","Longitude":"-93.18820","Snowdepth":"5.500","Units":"in","Rept_Date":"2019-12-23 13"},"coordinates":[911,6116]},{"type":"Point","properties":{"Station_ID":"MN-MK-11","Station_Nam":"DASSEL 0.4 S, MN","Latitude":"45.07765","Longitude":"-94.31567","Snowdepth":"5.500","Units":"in","Rept_Date":"2019-12-23 13"},"coordinates":[658,6215]},{"type":"Point","properties":{"Station_ID":"MN-GH-28","Station_Nam":"CANNON FALLS 0.5 SE, MN","Latitude":"44.50866","Longitude":"-92.89526","Snowdepth":"5.500","Units":"in","Rept_Date":"2019-12-23 14"},"coordinates":[977,5891]},{"type":"Point","properties":{"Station_ID":"ME-PN-45","Station_Nam":"MILLINOCKET 2.7 ESE, ME","Latitude":"45.65002","Longitude":"-68.64472","Snowdepth":"5.500","Units":"in","Rept_Date":"2019-12-23 12"},"coordinates":[6433,6541]},{"type":"Point","properties":{"Station_ID":"WI-PK-4","Station_Nam":"DRESSER 6.1 ESE, WI","Latitude":"45.32436","Longitude":"-92.52080","Snowdepth":"5.000","Units":"in","Rept_Date":"2019-12-23 14"},"coordinates":[1061,6355]},{"type":"Point","properties":{"Station_ID":"WI-PC-10","Station_Nam":"RIVER FALLS 1.4 S, WI","Latitude":"44.83580","Longitude":"-92.62100","Snowdepth":"5.000","Units":"in","Rept_Date":"2019-12-23 13"},"coordinates":[1039,6077]},{"type":"Point","properties":{"Station_ID":"WHTN6","Station_Nam":"WHITESVILLE","Latitude":"42.05980","Longitude":"-77.75530","Snowdepth":"5.000","Units":"in","Rept_Date":"2019-12-23 12"},"coordinates":[4384,4497]},{"type":"Point","properties":{"Station_ID":"WDSV1","Station_Nam":"WOODSTOCK","Latitude":"43.63030","Longitude":"-72.50720","Snowdepth":"5.000","Units":"in","Rept_Date":"2019-12-23 13"},"coordinates":[5564,5391]},{"type":"Point","properties":{"Station_ID":"VT-WS-10","Station_Nam":"NORTHFIELD 1.5 N, VT","Latitude":"44.16986","Longitude":"-72.65200","Snowdepth":"5.000","Units":"in","Rept_Date":"2019-12-23 12"},"coordinates":[5532,5698]},{"type":"Point","properties":{"Station_ID":"VT-OG-11","Station_Nam":"VERSHIRE 1.5 ESE, VT","Latitude":"43.96138","Longitude":"-72.29777","Snowdepth":"5.000","Units":"in","Rept_Date":"2019-12-23 11"},"coordinates":[5612,5580]},{"type":"Point","properties":{"Station_ID":"THLM5","Station_Nam":"THEILMAN 1SSW","Latitude":"44.28130","Longitude":"-92.19430","Snowdepth":"5.000","Units":"in","Rept_Date":"2019-12-23 13"},"coordinates":[1135,5762]},{"type":"Point","properties":{"Station_ID":"SBOP1","Station_Nam":"SPRINGBORO","Latitude":"41.81660","Longitude":"-80.43330","Snowdepth":"5.000","Units":"in","Rept_Date":"2019-12-23 12"},"coordinates":[3781,4359]},{"type":"Point","properties":{"Station_ID":"RUHN6","Station_Nam":"RUSHFORD","Latitude":"42.42610","Longitude":"-78.19220","Snowdepth":"5.000","Units":"in","Rept_Date":"2019-12-23 13"},"coordinates":[4285,4706]},{"type":"Point","properties":{"Station_ID":"ROBW3","Station_Nam":"ROBERTS WWTP","Latitude":"44.97070","Longitude":"-92.56200","Snowdepth":"5.000","Units":"in","Rept_Date":"2019-12-23 13"},"coordinates":[1052,6154]},{"type":"Point","properties":{"Station_ID":"PGVN6","Station_Nam":"PORTAGEVILLE","Latitude":"42.57580","Longitude":"-78.06720","Snowdepth":"5.000","Units":"in","Rept_Date":"2019-12-23 12"},"coordinates":[4313,4791]},{"type":"Point","properties":{"Station_ID":"NY-TG-15","Station_Nam":"BERKSHIRE 1.9 ENE, NY","Latitude":"42.31910","Longitude":"-76.21940","Snowdepth":"5.000","Units":"in","Rept_Date":"2019-12-23 13"},"coordinates":[4729,4645]},{"type":"Point","properties":{"Station_ID":"NY-ER-63","Station_Nam":"GLENWOOD 1.5 SE, NY","Latitude":"42.60195","Longitude":"-78.63910","Snowdepth":"5.000","Units":"in","Rept_Date":"2019-12-23 13"},"coordinates":[4185,4806]},{"type":"Point","properties":{"Station_ID":"NY-CT-22","Station_Nam":"FRANKLINVILLE 0.5 NNE, NY","Latitude":"42.34166","Longitude":"-78.45280","Snowdepth":"5.000","Units":"in","Rept_Date":"2019-12-23 12"},"coordinates":[4227,4658]},{"type":"Point","properties":{"Station_ID":"MPXM5","Station_Nam":"CHANHASSEN WSFO","Latitude":"44.84960","Longitude":"-93.56440","Snowdepth":"5.000","Units":"in","Rept_Date":"2019-12-24 06"},"coordinates":[827,6085]},{"type":"Point","properties":{"Station_ID":"MNHMOECS","Station_Nam":"HAZELTINE 1.9 NE","Latitude":"44.85545","Longitude":"-93.57125","Snowdepth":"5.000","Units":"in","Rept_Date":"2019-12-23 12"},"coordinates":[825,6088]},{"type":"Point","properties":{"Station_ID":"MNG0GYSN","Station_Nam":"LONSDALE 1.1 SSW","Latitude":"44.46445","Longitude":"-93.43293","Snowdepth":"5.000","Units":"in","Rept_Date":"2019-12-23 12"},"coordinates":[856,5866]},{"type":"Point","properties":{"Station_ID":"MN-WG-16","Station_Nam":"WOODBURY 1.7 N, MN","Latitude":"44.93054","Longitude":"-92.92490","Snowdepth":"5.000","Units":"in","Rept_Date":"2019-12-23 13"},"coordinates":[971,6131]},{"type":"Point","properties":{"Station_ID":"MN-SV-4","Station_Nam":"DONNELLY 2.9 NW, MN","Latitude":"45.71649","Longitude":"-96.06043","Snowdepth":"5.000","Units":"in","Rept_Date":"2019-12-23 14"},"coordinates":[265,6578]},{"type":"Point","properties":{"Station_ID":"MN-SR-24","Station_Nam":"PAYNESVILLE 1.9 SSW, MN","Latitude":"45.35170","Longitude":"-94.73120","Snowdepth":"5.000","Units":"in","Rept_Date":"2019-12-23 13"},"coordinates":[564,6371]},{"type":"Point","properties":{"Station_ID":"MN-RM-2","Station_Nam":"NORTH SAINT PAUL 1.0 NNW, MN","Latitude":"45.02629","Longitude":"-93.00790","Snowdepth":"5.000","Units":"in","Rept_Date":"2019-12-23 12"},"coordinates":[952,6186]},{"type":"Point","properties":{"Station_ID":"MN-RC-1","Station_Nam":"MONTGOMERY 3.2 ENE, MN","Latitude":"44.46400","Longitude":"-93.51980","Snowdepth":"5.000","Units":"in","Rept_Date":"2019-12-23 12"},"coordinates":[837,5866]},{"type":"Point","properties":{"Station_ID":"MN-PK-15","Station_Nam":"MENTOR 2.5 SSW, MN","Latitude":"47.66625","Longitude":"-96.17328","Snowdepth":"5.000","Units":"in","Rept_Date":"2019-12-23 13"},"coordinates":[240,7688]},{"type":"Point","properties":{"Station_ID":"MI-OT-4","Station_Nam":"GAYLORD 1.7 WNW, MI","Latitude":"45.03280","Longitude":"-84.71090","Snowdepth":"5.000","Units":"in","Rept_Date":"2019-12-23 13"},"coordinates":[2819,6189]},{"type":"Point","properties":{"Station_ID":"ME-AR-15","Station_Nam":"PRESQUE ISLE 1.3 WSW, ME","Latitude":"46.67960","Longitude":"-68.01270","Snowdepth":"5.000","Units":"in","Rept_Date":"2019-12-23 12"},"coordinates":[6576,7127]},{"type":"Point","properties":{"Station_ID":"MALN6","Station_Nam":"MALONE","Latitude":"44.84180","Longitude":"-74.30600","Snowdepth":"5.000","Units":"in","Rept_Date":"2019-12-23 12"},"coordinates":[5160,6081]},{"type":"Point","properties":{"Station_ID":"LSTM5","Station_Nam":"LESTER PRAIRIE 2S","Latitude":"44.85930","Longitude":"-94.05030","Snowdepth":"5.000","Units":"in","Rept_Date":"2019-12-23 13"},"coordinates":[717,6091]},{"type":"Point","properties":{"Station_ID":"LGRN8","Station_Nam":"LIDGERWOOD,ND","Latitude":"46.06670","Longitude":"-97.16670","Snowdepth":"5.000","Units":"in","Rept_Date":"2019-12-23 13"},"coordinates":[16,6778]},{"type":"Point","properties":{"Station_ID":"LBRM5","Station_Nam":"LAKE BRONSON DAM","Latitude":"48.72410","Longitude":"-96.62180","Snowdepth":"5.000","Units":"in","Rept_Date":"2019-12-23 14"},"coordinates":[139,8290]},{"type":"Point","properties":{"Station_ID":"LACN3","Station_Nam":"LACONIA","Latitude":"43.53010","Longitude":"-71.46260","Snowdepth":"5.000","Units":"in","Rept_Date":"2019-12-23 10"},"coordinates":[5799,5334]},{"type":"Point","properties":{"Station_ID":"JEFN3","Station_Nam":"JEFFERSON","Latitude":"44.41690","Longitude":"-71.50080","Snowdepth":"5.000","Units":"in","Rept_Date":"2019-12-23 12"},"coordinates":[5791,5839]},{"type":"Point","properties":{"Station_ID":"INDN6","Station_Nam":"INDIAN LAKE","Latitude":"43.75500","Longitude":"-74.27560","Snowdepth":"5.000","Units":"in","Rept_Date":"2019-12-23 14"},"coordinates":[5167,5462]},{"type":"Point","properties":{"Station_ID":"HRTM1","Station_Nam":"HARTFORD","Latitude":"44.37440","Longitude":"-70.31620","Snowdepth":"5.000","Units":"in","Rept_Date":"2019-12-23 12"},"coordinates":[6057,5815]},{"type":"Point","properties":{"Station_ID":"GILV1","Station_Nam":"GILMAN","Latitude":"44.41120","Longitude":"-71.71860","Snowdepth":"5.000","Units":"in","Rept_Date":"2019-12-23 11"},"coordinates":[5742,5836]},{"type":"Point","properties":{"Station_ID":"GAYM4","Station_Nam":"GAYLORD","Latitude":"45.03320","Longitude":"-84.71130","Snowdepth":"5.000","Units":"in","Rept_Date":"2019-12-23 13"},"coordinates":[2819,6190]},{"type":"Point","properties":{"Station_ID":"FCHM3","Station_Nam":"FITCHBURG COOP","Latitude":"42.61680","Longitude":"-71.80170","Snowdepth":"5.000","Units":"in","Rept_Date":"2019-12-23 13"},"coordinates":[5723,4814]},{"type":"Point","properties":{"Station_ID":"FARM1","Station_Nam":"FARMINGTON","Latitude":"44.68930","Longitude":"-70.15640","Snowdepth":"5.000","Units":"in","Rept_Date":"2019-12-23 12"},"coordinates":[6093,5994]},{"type":"Point","properties":{"Station_ID":"ESKN6","Station_Nam":"DAVENPORT 3N SNOW","Latitude":"42.50000","Longitude":"-74.88330","Snowdepth":"5.000","Units":"in","Rept_Date":"2019-12-23 14"},"coordinates":[5030,4748]},{"type":"Point","properties":{"Station_ID":"EPMW3","Station_Nam":"EPHRAIM-1 NE WWTP","Latitude":"45.17080","Longitude":"-87.15360","Snowdepth":"5.000","Units":"in","Rept_Date":"2019-12-23 13"},"coordinates":[2269,6268]},{"type":"Point","properties":{"Station_ID":"ENFV1","Station_Nam":"ENOSBURG FALLS 2","Latitude":"44.90960","Longitude":"-72.81370","Snowdepth":"5.000","Units":"in","Rept_Date":"2019-12-23 10"},"coordinates":[5495,6119]},{"type":"Point","properties":{"Station_ID":"ELWW3","Station_Nam":"ELLSWORTH 1E","Latitude":"44.73030","Longitude":"-92.45860","Snowdepth":"5.000","Units":"in","Rept_Date":"2019-12-23 13"},"coordinates":[1075,6017]},{"type":"Point","properties":{"Station_ID":"EHYM3","Station_Nam":"EAST HAWLEY","Latitude":"42.57410","Longitude":"-72.86790","Snowdepth":"5.000","Units":"in","Rept_Date":"2019-12-23 13"},"coordinates":[5483,4790]},{"type":"Point","properties":{"Station_ID":"CORM1","Station_Nam":"CORINNA","Latitude":"44.91980","Longitude":"-69.24180","Snowdepth":"5.000","Units":"in","Rept_Date":"2019-12-23 16"},"coordinates":[6299,6125]},{"type":"Point","properties":{"Station_ID":"CARM1","Station_Nam":"CARIBOU WFO","Latitude":"46.86810","Longitude":"-68.01250","Snowdepth":"5.000","Units":"in","Rept_Date":"2019-12-24 04"},"coordinates":[6576,7234]},{"type":"Point","properties":{"Station_ID":"CAR","Station_Nam":"CARIBOU, ME","Latitude":"46.86830","Longitude":"-68.01360","Snowdepth":"5.000","Units":"in","Rept_Date":"2019-12-23 12"},"coordinates":[6575,7234]},{"type":"Point","properties":{"Station_ID":"BKEM5","Station_Nam":"BRECKENRIDGE 4NE","Latitude":"46.30470","Longitude":"-96.52170","Snowdepth":"5.000","Units":"in","Rept_Date":"2019-12-23 13"},"coordinates":[161,6913]},{"type":"Point","properties":{"Station_ID":"BFSW3","Station_Nam":"BIG FALLS-5 NW","Latitude":"44.63980","Longitude":"-89.11330","Snowdepth":"5.000","Units":"in","Rept_Date":"2019-12-23 13"},"coordinates":[1828,5966]},{"type":"Point","properties":{"Station_ID":"BAUM5","Station_Nam":"BAUDETTE,MN","Latitude":"48.71670","Longitude":"-94.61670","Snowdepth":"5.000","Units":"in","Rept_Date":"2019-12-23 21"},"coordinates":[590,8286]},{"type":"Point","properties":{"Station_ID":"APXM4","Station_Nam":"GAYLORD 9SSW","Latitude":"44.90720","Longitude":"-84.71880","Snowdepth":"5.000","Units":"in","Rept_Date":"2019-12-24 06"},"coordinates":[2817,6118]},{"type":"Point","properties":{"Station_ID":"ALTM5","Station_Nam":"ALTURA 5W","Latitude":"44.06330","Longitude":"-92.03970","Snowdepth":"5.000","Units":"in","Rept_Date":"2019-12-23 13"},"coordinates":[1170,5638]},{"type":"Point","properties":{"Station_ID":"ALFN6","Station_Nam":"ALFRED","Latitude":"42.27980","Longitude":"-77.76560","Snowdepth":"5.000","Units":"in","Rept_Date":"2019-12-23 12"},"coordinates":[4381,4623]},{"type":"Point","properties":{"Station_ID":"ADCN6","Station_Nam":"ALFRED 1NW SNOW","Latitude":"42.26670","Longitude":"-77.80000","Snowdepth":"5.000","Units":"in","Rept_Date":"2019-12-23 13"},"coordinates":[4374,4615]},{"type":"Point","properties":{"Station_ID":"WI-BN-6","Station_Nam":"SUAMICO 4.4 WNW, WI","Latitude":"44.66111","Longitude":"-88.11780","Snowdepth":"4.800","Units":"in","Rept_Date":"2019-12-23 15"},"coordinates":[2052,5978]},{"type":"Point","properties":{"Station_ID":"PA-CW-8","Station_Nam":"SPRINGBORO 3.0 WNW, PA","Latitude":"41.81654","Longitude":"-80.42540","Snowdepth":"4.600","Units":"in","Rept_Date":"2019-12-23 12"},"coordinates":[3783,4359]},{"type":"Point","properties":{"Station_ID":"CAN-NB-105","Station_Nam":"SISSON BROOK 3.8 E, CAN","Latitude":"46.98305","Longitude":"-67.32532","Snowdepth":"4.600","Units":"in","Rept_Date":"2019-12-23 12"},"coordinates":[6730,7299]},{"type":"Point","properties":{"Station_ID":"VT-WS-30","Station_Nam":"WOODBURY 3.4 NNW, VT","Latitude":"44.48825","Longitude":"-72.43258","Snowdepth":"4.500","Units":"in","Rept_Date":"2019-12-23 12"},"coordinates":[5581,5879]},{"type":"Point","properties":{"Station_ID":"VT-RT-7","Station_Nam":"RUTLAND 1.2 N, VT","Latitude":"43.62533","Longitude":"-72.97790","Snowdepth":"4.500","Units":"in","Rept_Date":"2019-12-23 12"},"coordinates":[5459,5388]},{"type":"Point","properties":{"Station_ID":"VT-ES-3","Station_Nam":"LUNENBURG 2.3 NNW, VT","Latitude":"44.49324","Longitude":"-71.70446","Snowdepth":"4.500","Units":"in","Rept_Date":"2019-12-23 12"},"coordinates":[5745,5882]},{"type":"Point","properties":{"Station_ID":"NY-WY-10","Station_Nam":"WYOMING COOP, NY","Latitude":"42.82060","Longitude":"-78.14810","Snowdepth":"4.500","Units":"in","Rept_Date":"2019-12-23 12"},"coordinates":[4295,4930]},{"type":"Point","properties":{"Station_ID":"NY-WR-10","Station_Nam":"WARRENSBURG 2.1 WNW, NY","Latitude":"43.51784","Longitude":"-73.81069","Snowdepth":"4.500","Units":"in","Rept_Date":"2019-12-23 13"},"coordinates":[5271,5327]},{"type":"Point","properties":{"Station_ID":"NY-CR-5","Station_Nam":"MARATHON 1.0 NW, NY","Latitude":"42.45161","Longitude":"-76.04370","Snowdepth":"4.500","Units":"in","Rept_Date":"2019-12-23 12"},"coordinates":[4769,4720]},{"type":"Point","properties":{"Station_ID":"NY-CQ-39","Station_Nam":"GERRY 0.8 N, NY","Latitude":"42.20500","Longitude":"-79.24700","Snowdepth":"4.500","Units":"in","Rept_Date":"2019-12-23 13"},"coordinates":[4048,4580]},{"type":"Point","properties":{"Station_ID":"NH-GR-47","Station_Nam":"LITTLETON 7.3 W, NH","Latitude":"44.31847","Longitude":"-71.91086","Snowdepth":"4.500","Units":"in","Rept_Date":"2019-12-23 13"},"coordinates":[5699,5783]},{"type":"Point","properties":{"Station_ID":"CAN-NL-11","Station_Nam":"MOUNT PEARL 2.1 SSE, CA","Latitude":"47.50347","Longitude":"-52.79730","Snowdepth":"4.500","Units":"in","Rept_Date":"2019-12-23 10"},"coordinates":[9999,7595]},{"type":"Point","properties":{"Station_ID":"ME-FR-22","Station_Nam":"FARMINGTON 4.8 NNW, ME","Latitude":"44.73396","Longitude":"-70.18007","Snowdepth":"4.300","Units":"in","Rept_Date":"2019-12-23 14"},"coordinates":[6088,6019]},{"type":"Point","properties":{"Station_ID":"WRNM5","Station_Nam":"WORTHINGTON,MN","Latitude":"43.65440","Longitude":"-95.57920","Snowdepth":"4.000","Units":"in","Rept_Date":"2019-12-23 13"},"coordinates":[373,5405]},{"type":"Point","properties":{"Station_ID":"WNDP1","Station_Nam":"WINDBER COUNTY CLUB","Latitude":"40.28780","Longitude":"-78.77530","Snowdepth":"4.000","Units":"in","Rept_Date":"2019-12-23 12"},"coordinates":[4154,3489]},{"type":"Point","properties":{"Station_ID":"WLSN6","Station_Nam":"WALES","Latitude":"42.73920","Longitude":"-78.58780","Snowdepth":"4.000","Units":"in","Rept_Date":"2019-12-23 12"},"coordinates":[4196,4884]},{"type":"Point","properties":{"Station_ID":"VT-WR-10","Station_Nam":"WEST WINDSOR 1.7 S, VT","Latitude":"43.46164","Longitude":"-72.49197","Snowdepth":"4.000","Units":"in","Rept_Date":"2019-12-23 12"},"coordinates":[5568,5295]},{"type":"Point","properties":{"Station_ID":"VT-OL-2","Station_Nam":"BARTON 3.0 ENE, VT","Latitude":"44.75863","Longitude":"-72.11680","Snowdepth":"4.000","Units":"in","Rept_Date":"2019-12-23 12"},"coordinates":[5652,6033]},{"type":"Point","properties":{"Station_ID":"VT-LM-7","Station_Nam":"HYDE PARK 2.9 NE, VT","Latitude":"44.62080","Longitude":"-72.57250","Snowdepth":"4.000","Units":"in","Rept_Date":"2019-12-23 11"},"coordinates":[5550,5955]},{"type":"Point","properties":{"Station_ID":"VT-CL-23","Station_Nam":"RYEGATE 1.5 N, VT","Latitude":"44.23024","Longitude":"-72.10523","Snowdepth":"4.000","Units":"in","Rept_Date":"2019-12-23 12"},"coordinates":[5655,5733]},{"type":"Point","properties":{"Station_ID":"VANM1","Station_Nam":"VAN BUREN","Latitude":"47.16600","Longitude":"-67.93900","Snowdepth":"4.000","Units":"in","Rept_Date":"2019-12-23 13"},"coordinates":[6592,7403]},{"type":"Point","properties":{"Station_ID":"UVDV1","Station_Nam":"NERON SITE AT UNION VILLAGE DAM","Latitude":"43.79140","Longitude":"-72.25720","Snowdepth":"4.000","Units":"in","Rept_Date":"2019-12-23 14"},"coordinates":[5621,5483]},{"type":"Point","properties":{"Station_ID":"TOPN6","Station_Nam":"TUPPER LAKE SUNMOUNT","Latitude":"44.23070","Longitude":"-74.43820","Snowdepth":"4.000","Units":"in","Rept_Date":"2019-12-23 12"},"coordinates":[5130,5733]},{"type":"Point","properties":{"Station_ID":"THIP1","Station_Nam":"SAND ROAD SNOW","Latitude":"41.81670","Longitude":"-77.30000","Snowdepth":"4.000","Units":"in","Rept_Date":"2019-12-23 16"},"coordinates":[4486,4359]},{"type":"Point","properties":{"Station_ID":"SHHN6","Station_Nam":"SCHOHARIE VILLAGE","Latitude":"42.66500","Longitude":"-74.30360","Snowdepth":"4.000","Units":"in","Rept_Date":"2019-12-23 12"},"coordinates":[5160,4842]},{"type":"Point","properties":{"Station_ID":"RWGM5","Station_Nam":"RED WING","Latitude":"44.57120","Longitude":"-92.52830","Snowdepth":"4.000","Units":"in","Rept_Date":"2019-12-23 14"},"coordinates":[1060,5927]},{"type":"Point","properties":{"Station_ID":"RUTV1","Station_Nam":"RUTLAND","Latitude":"43.62530","Longitude":"-72.97810","Snowdepth":"4.000","Units":"in","Rept_Date":"2019-12-23 12"},"coordinates":[5458,5388]},{"type":"Point","properties":{"Station_ID":"RDWM5","Station_Nam":"RED WING DAM 3","Latitude":"44.61030","Longitude":"-92.61010","Snowdepth":"4.000","Units":"in","Rept_Date":"2019-12-23 14"},"coordinates":[1041,5949]},{"type":"Point","properties":{"Station_ID":"PBAN8","Station_Nam":"SITE 1-3MI.N","Latitude":"48.97420","Longitude":"-97.23860","Snowdepth":"4.000","Units":"in","Rept_Date":"2019-12-23 12"},"coordinates":[0,8432]},{"type":"Point","properties":{"Station_ID":"OONW3","Station_Nam":"OCONTO-1 NW-HWY. DEPT.","Latitude":"44.89470","Longitude":"-87.88030","Snowdepth":"4.000","Units":"in","Rept_Date":"2019-12-23 13"},"coordinates":[2106,6111]},{"type":"Point","properties":{"Station_ID":"NY-TM-4","Station_Nam":"GROTON 0.5 NW, NY","Latitude":"42.59127","Longitude":"-76.37200","Snowdepth":"4.000","Units":"in","Rept_Date":"2019-12-23 12"},"coordinates":[4695,4800]},{"type":"Point","properties":{"Station_ID":"NY-SR-4","Station_Nam":"SARATOGA SPRINGS 0.5 S, NY","Latitude":"43.06032","Longitude":"-73.78010","Snowdepth":"4.000","Units":"in","Rept_Date":"2019-12-23 11"},"coordinates":[5278,5067]},{"type":"Point","properties":{"Station_ID":"NY-SC-16","Station_Nam":"NISKAYUNA 2.0 N, NY","Latitude":"42.84645","Longitude":"-73.89920","Snowdepth":"4.000","Units":"in","Rept_Date":"2019-12-23 12"},"coordinates":[5251,4945]},{"type":"Point","properties":{"Station_ID":"NY-OT-29","Station_Nam":"NEW BERLIN 1.5 NE, NY","Latitude":"42.63689","Longitude":"-75.31090","Snowdepth":"4.000","Units":"in","Rept_Date":"2019-12-23 13"},"coordinates":[4934,4826]},{"type":"Point","properties":{"Station_ID":"NY-OG-46","Station_Nam":"BALDWINSVILLE 3.5 NE, NY","Latitude":"43.19506","Longitude":"-76.28830","Snowdepth":"4.000","Units":"in","Rept_Date":"2019-12-23 13"},"coordinates":[4714,5144]},{"type":"Point","properties":{"Station_ID":"NY-OG-10","Station_Nam":"CAMILLUS 1.0 W, NY","Latitude":"43.03962","Longitude":"-76.32830","Snowdepth":"4.000","Units":"in","Rept_Date":"2019-12-23 12"},"coordinates":[4705,5055]},{"type":"Point","properties":{"Station_ID":"NY-MD-10","Station_Nam":"CAZENOVIA 2.9 SE, NY","Latitude":"42.90003","Longitude":"-75.81140","Snowdepth":"4.000","Units":"in","Rept_Date":"2019-12-23 12"},"coordinates":[4821,4976]},{"type":"Point","properties":{"Station_ID":"NY-GN-6","Station_Nam":"STAFFORD 1.8 NE, NY","Latitude":"42.99890","Longitude":"-78.04830","Snowdepth":"4.000","Units":"in","Rept_Date":"2019-12-23 12"},"coordinates":[4318,5032]},{"type":"Point","properties":{"Station_ID":"NY-FK-9","Station_Nam":"GABRIELS 1.3 SE, NY","Latitude":"44.41934","Longitude":"-74.16194","Snowdepth":"4.000","Units":"in","Rept_Date":"2019-12-23 12"},"coordinates":[5192,5840]},{"type":"Point","properties":{"Station_ID":"NWSM1","Station_Nam":"NEW SHARON","Latitude":"44.63520","Longitude":"-70.00020","Snowdepth":"4.000","Units":"in","Rept_Date":"2019-12-23 12"},"coordinates":[6128,5963]},{"type":"Point","properties":{"Station_ID":"NUNV1","Station_Nam":"NORTH UNDERHILL","Latitude":"44.58760","Longitude":"-72.92150","Snowdepth":"4.000","Units":"in","Rept_Date":"2019-12-23 12"},"coordinates":[5471,5936]},{"type":"Point","properties":{"Station_ID":"NUMM5","Station_Nam":"NEW ULM 3SE","Latitude":"44.29450","Longitude":"-94.40840","Snowdepth":"4.000","Units":"in","Rept_Date":"2019-12-23 11"},"coordinates":[637,5769]},{"type":"Point","properties":{"Station_ID":"NOHV1","Station_Nam":"NORTH HARTLAND LAKE","Latitude":"43.60270","Longitude":"-72.36210","Snowdepth":"4.000","Units":"in","Rept_Date":"2019-12-23 12"},"coordinates":[5597,5376]},{"type":"Point","properties":{"Station_ID":"NH-MR-60","Station_Nam":"SOUTH SUTTON 1.3 SE, NH","Latitude":"43.29531","Longitude":"-71.90238","Snowdepth":"4.000","Units":"in","Rept_Date":"2019-12-23 13"},"coordinates":[5700,5201]},{"type":"Point","properties":{"Station_ID":"NH-MR-45","Station_Nam":"NORTHFIELD 2.8 E, NH","Latitude":"43.43945","Longitude":"-71.53730","Snowdepth":"4.000","Units":"in","Rept_Date":"2019-12-23 12"},"coordinates":[5783,5283]},{"type":"Point","properties":{"Station_ID":"NH-MR-41","Station_Nam":"NEWBURY 1.6 NW, NH","Latitude":"43.33667","Longitude":"-72.06060","Snowdepth":"4.000","Units":"in","Rept_Date":"2019-12-23 12"},"coordinates":[5665,5224]},{"type":"Point","properties":{"Station_ID":"NH-MR-4","Station_Nam":"BOW 1.6 NW, NH","Latitude":"43.14994","Longitude":"-71.55650","Snowdepth":"4.000","Units":"in","Rept_Date":"2019-12-23 12"},"coordinates":[5778,5118]},{"type":"Point","properties":{"Station_ID":"NH-BK-7","Station_Nam":"LACONIA 7.9 E, NH","Latitude":"43.55415","Longitude":"-71.32310","Snowdepth":"4.000","Units":"in","Rept_Date":"2019-12-23 12"},"coordinates":[5831,5348]},{"type":"Point","properties":{"Station_ID":"NH-BK-29","Station_Nam":"SANBORNTON 2.3 WNW, NH","Latitude":"43.49730","Longitude":"-71.62800","Snowdepth":"4.000","Units":"in","Rept_Date":"2019-12-23 12"},"coordinates":[5762,5316]},{"type":"Point","properties":{"Station_ID":"NCKN6","Station_Nam":"NORTH CREEK 5 SE","Latitude":"43.66110","Longitude":"-73.89690","Snowdepth":"4.000","Units":"in","Rept_Date":"2019-12-23 12"},"coordinates":[5252,5409]},{"type":"Point","properties":{"Station_ID":"NCBN6","Station_Nam":"NEWCOMB","Latitude":"43.97070","Longitude":"-74.22200","Snowdepth":"4.000","Units":"in","Rept_Date":"2019-12-23 13"},"coordinates":[5179,5585]},{"type":"Point","properties":{"Station_ID":"MNF74YNU","Station_Nam":"NEW ULM 3.3 ESE","Latitude":"44.29029","Longitude":"-94.40196","Snowdepth":"4.000","Units":"in","Rept_Date":"2019-12-23 10"},"coordinates":[638,5767]},{"type":"Point","properties":{"Station_ID":"MNE9SLWI","Station_Nam":"LEAVENWORTH 5.4 S","Latitude":"44.14481","Longitude":"-94.78882","Snowdepth":"4.000","Units":"in","Rept_Date":"2019-12-23 13"},"coordinates":[551,5684]},{"type":"Point","properties":{"Station_ID":"MN7M8EBJ","Station_Nam":"LUTSEN 15.7 NNW","Latitude":"47.85324","Longitude":"-89.92908","Snowdepth":"4.000","Units":"in","Rept_Date":"2019-12-23 14"},"coordinates":[1645,7795]},{"type":"Point","properties":{"Station_ID":"MN0HS1SL","Station_Nam":"NORTH SAINT PAUL 1.6 NW","Latitude":"45.02800","Longitude":"-93.01506","Snowdepth":"4.000","Units":"in","Rept_Date":"2019-12-23 13"},"coordinates":[950,6187]},{"type":"Point","properties":{"Station_ID":"MN-SE-3","Station_Nam":"ELLENDALE 0.3 SW, MN","Latitude":"43.87046","Longitude":"-93.30360","Snowdepth":"4.000","Units":"in","Rept_Date":"2019-12-23 13"},"coordinates":[885,5528]},{"type":"Point","properties":{"Station_ID":"MN-SE-2","Station_Nam":"OWATONNA 0.8 E, MN","Latitude":"44.09170","Longitude":"-93.21380","Snowdepth":"4.000","Units":"in","Rept_Date":"2019-12-23 12"},"coordinates":[906,5654]},