{"type":"Topology","objects":{"snowdepth_geo":{"type":"GeometryCollection","name":"snowdepth","crs":{"type":"name","properties":{"name":"urn:ogc:def:crs:OGC:1.3:CRS84"}},"geometries":[{"type":"Point","properties":{"Station_ID":"PRKM4","Station_Nam":"MUNISING EAST","Latitude":"46.42580","Longitude":"-86.62000","Snowdepth":"76.500","Units":"in","Rept_Date":"2020-04-11 06"},"coordinates":[2028,6837]},{"type":"Point","properties":{"Station_ID":"MMNV1","Station_Nam":"MT. MANSFIELD","Latitude":"44.52480","Longitude":"-72.81540","Snowdepth":"70.000","Units":"in","Rept_Date":"2020-04-10 20"},"coordinates":[5468,5455]},{"type":"Point","properties":{"Station_ID":"OGIQ6","Station_Nam":"OGOKI CAMP","Latitude":"50.76680","Longitude":"-87.85820","Snowdepth":"61.100","Units":"in","Rept_Date":"2020-04-11 06"},"coordinates":[1719,9990]},{"type":"Point","properties":{"Station_ID":"DVLQ6","Station_Nam":"DEVIOUS LAKE","Latitude":"49.19890","Longitude":"-87.76440","Snowdepth":"43.460","Units":"in","Rept_Date":"2020-04-11 06"},"coordinates":[1743,8851]},{"type":"Point","properties":{"Station_ID":"CLUM4","Station_Nam":"CALUMET-TAMARACK","Latitude":"47.24550","Longitude":"-88.46790","Snowdepth":"33.000","Units":"in","Rept_Date":"2020-04-10 13"},"coordinates":[1567,7432]},{"type":"Point","properties":{"Station_ID":"CAN-NS-39","Station_Nam":"ST. ANNS 2.8 NW, CA","Latitude":"46.25082","Longitude":"-60.64340","Snowdepth":"30.000","Units":"in","Rept_Date":"2020-04-10 12"},"coordinates":[8501,6709]},{"type":"Point","properties":{"Station_ID":"BRAM1","Station_Nam":"BRASSUA DAM","Latitude":"45.66020","Longitude":"-69.81190","Snowdepth":"29.000","Units":"in","Rept_Date":"2020-04-10 11"},"coordinates":[6217,6280]},{"type":"Point","properties":{"Station_ID":"PDLM4","Station_Nam":"PAINESDALE","Latitude":"47.04160","Longitude":"-88.67170","Snowdepth":"28.000","Units":"in","Rept_Date":"2020-04-10 12"},"coordinates":[1517,7284]},{"type":"Point","properties":{"Station_ID":"ME-AR-18","Station_Nam":"NEW SWEDEN 4.9 NNW, ME","Latitude":"47.01080","Longitude":"-68.14390","Snowdepth":"27.500","Units":"in","Rept_Date":"2020-04-10 12"},"coordinates":[6632,7262]},{"type":"Point","properties":{"Station_ID":"CAN-NB-13","Station_Nam":"BATHURST 3.8 NW, CAN","Latitude":"47.64212","Longitude":"-65.68756","Snowdepth":"26.000","Units":"in","Rept_Date":"2020-04-10 11"},"coordinates":[7244,7720]},{"type":"Point","properties":{"Station_ID":"RKWM1","Station_Nam":"MOOSEHEAD LAKE","Latitude":"45.58330","Longitude":"-69.71670","Snowdepth":"25.000","Units":"in","Rept_Date":"2020-04-10 11"},"coordinates":[6240,6225]},{"type":"Point","properties":{"Station_ID":"CAN-NL-82","Station_Nam":"GANDER 2.7 NW, CAN","Latitude":"48.97737","Longitude":"-54.63396","Snowdepth":"24.000","Units":"in","Rept_Date":"2020-04-10 10"},"coordinates":[9999,8690]},{"type":"Point","properties":{"Station_ID":"NH-CS-10","Station_Nam":"RANDOLPH 1.4 NE, NH","Latitude":"44.38824","Longitude":"-71.26950","Snowdepth":"23.000","Units":"in","Rept_Date":"2020-04-10 12"},"coordinates":[5853,5356]},{"type":"Point","properties":{"Station_ID":"CAN-NB-11","Station_Nam":"MIRAMICHI 3.3 S, CAN","Latitude":"46.99343","Longitude":"-65.50690","Snowdepth":"23.000","Units":"in","Rept_Date":"2020-04-10 12"},"coordinates":[7289,7249]},{"type":"Point","properties":{"Station_ID":"MNSM4","Station_Nam":"MUNISING","Latitude":"46.41210","Longitude":"-86.66250","Snowdepth":"21.000","Units":"in","Rept_Date":"2020-04-10 10"},"coordinates":[2017,6827]},{"type":"Point","properties":{"Station_ID":"PA-VN-5","Station_Nam":"SENECA 0.7 NNE, PA","Latitude":"41.38455","Longitude":"-79.69790","Snowdepth":"20.000","Units":"in","Rept_Date":"2020-04-10 13"},"coordinates":[3753,3174]},{"type":"Point","properties":{"Station_ID":"KMWN","Station_Nam":"MOUNT WASHINGTON","Latitude":"44.26666","Longitude":"-71.30000","Snowdepth":"20.000","Units":"in","Rept_Date":"2020-04-11 06"},"coordinates":[5846,5268]},{"type":"Point","properties":{"Station_ID":"FISM1","Station_Nam":"FORT KENT COOP","Latitude":"47.23850","Longitude":"-68.61240","Snowdepth":"20.000","Units":"in","Rept_Date":"2020-04-10 09"},"coordinates":[6516,7427]},{"type":"Point","properties":{"Station_ID":"WLFM5","Station_Nam":"WOLF RIDGE ENVIRON LEARNING CENTER","Latitude":"47.38240","Longitude":"-91.19730","Snowdepth":"19.000","Units":"in","Rept_Date":"2020-04-10 12"},"coordinates":[887,7532]},{"type":"Point","properties":{"Station_ID":"RGNM1","Station_Nam":"RANGELEY 2NW","Latitude":"44.98940","Longitude":"-70.67220","Snowdepth":"18.000","Units":"in","Rept_Date":"2020-04-10 12"},"coordinates":[6002,5793]},{"type":"Point","properties":{"Station_ID":"ME-AR-15","Station_Nam":"PRESQUE ISLE 1.3 WSW, ME","Latitude":"46.67960","Longitude":"-68.01270","Snowdepth":"18.000","Units":"in","Rept_Date":"2020-04-10 11"},"coordinates":[6665,7021]},{"type":"Point","properties":{"Station_ID":"MWN","Station_Nam":"MOUNT WASHINGTON","Latitude":"44.26670","Longitude":"-71.30000","Snowdepth":"17.000","Units":"in","Rept_Date":"2020-04-10 12"},"coordinates":[5846,5268]},{"type":"Point","properties":{"Station_ID":"ME-KX-6","Station_Nam":"UNION 3.0 NW, ME","Latitude":"44.24435","Longitude":"-69.31540","Snowdepth":"17.000","Units":"in","Rept_Date":"2020-04-10 13"},"coordinates":[6340,5252]},{"type":"Point","properties":{"Station_ID":"DHMM1","Station_Nam":"DEDHAM","Latitude":"44.67880","Longitude":"-68.63560","Snowdepth":"17.000","Units":"in","Rept_Date":"2020-04-10 11"},"coordinates":[6510,5567]},{"type":"Point","properties":{"Station_ID":"CARM1","Station_Nam":"CARIBOU WFO","Latitude":"46.86810","Longitude":"-68.01250","Snowdepth":"17.000","Units":"in","Rept_Date":"2020-04-11 04"},"coordinates":[6665,7158]},{"type":"Point","properties":{"Station_ID":"CAR","Station_Nam":"CARIBOU, ME","Latitude":"46.86830","Longitude":"-68.01360","Snowdepth":"17.000","Units":"in","Rept_Date":"2020-04-10 12"},"coordinates":[6665,7158]},{"type":"Point","properties":{"Station_ID":"QNCM4","Station_Nam":"QUINCY HILL","Latitude":"47.13640","Longitude":"-88.57950","Snowdepth":"16.000","Units":"in","Rept_Date":"2020-04-10 12"},"coordinates":[1540,7353]},{"type":"Point","properties":{"Station_ID":"ME-SM-45","Station_Nam":"BRIGHTON PLANTATION 2.1 N, ME","Latitude":"45.07098","Longitude":"-69.69860","Snowdepth":"16.000","Units":"in","Rept_Date":"2020-04-10 12"},"coordinates":[6245,5852]},{"type":"Point","properties":{"Station_ID":"KSGM4","Station_Nam":"KEARSARGE","Latitude":"47.27520","Longitude":"-88.41700","Snowdepth":"16.000","Units":"in","Rept_Date":"2020-04-10 12"},"coordinates":[1580,7454]},{"type":"Point","properties":{"Station_ID":"HERM4","Station_Nam":"HERMAN,MI","Latitude":"46.65000","Longitude":"-88.33330","Snowdepth":"16.000","Units":"in","Rept_Date":"2020-04-10 12"},"coordinates":[1601,6999]},{"type":"Point","properties":{"Station_ID":"PTLQ6","Station_Nam":"PORTAGE LAKE","Latitude":"49.06950","Longitude":"-86.65940","Snowdepth":"15.710","Units":"in","Rept_Date":"2020-04-11 06"},"coordinates":[2018,8757]},{"type":"Point","properties":{"Station_ID":"CAN-NB-96","Station_Nam":"SAINT-IGNACE 2.6 NE, CAN","Latitude":"46.71424","Longitude":"-65.05609","Snowdepth":"15.700","Units":"in","Rept_Date":"2020-04-10 11"},"coordinates":[7402,7046]},{"type":"Point","properties":{"Station_ID":"CAN-QC-47","Station_Nam":"SAINTE-FOY 1.8 ENE, CAN","Latitude":"46.76934","Longitude":"-71.27124","Snowdepth":"15.400","Units":"in","Rept_Date":"2020-04-10 12"},"coordinates":[5853,7086]},{"type":"Point","properties":{"Station_ID":"MI-BG-3","Station_Nam":"L'ANSE 17.8 SE, MI","Latitude":"46.55730","Longitude":"-88.20770","Snowdepth":"15.000","Units":"in","Rept_Date":"2020-04-10 13"},"coordinates":[1632,6932]},{"type":"Point","properties":{"Station_ID":"ME-WL-3","Station_Nam":"BELMONT 2.7 SSE, ME","Latitude":"44.38350","Longitude":"-69.14250","Snowdepth":"15.000","Units":"in","Rept_Date":"2020-04-10 11"},"coordinates":[6383,5353]},{"type":"Point","properties":{"Station_ID":"TRIQ6","Station_Nam":"TRIO LAKE","Latitude":"49.22880","Longitude":"-87.22920","Snowdepth":"14.720","Units":"in","Rept_Date":"2020-04-11 06"},"coordinates":[1876,8873]},{"type":"Point","properties":{"Station_ID":"VANM1","Station_Nam":"VAN BUREN","Latitude":"47.16600","Longitude":"-67.93900","Snowdepth":"14.000","Units":"in","Rept_Date":"2020-04-10 12"},"coordinates":[6683,7374]},{"type":"Point","properties":{"Station_ID":"HRTM1","Station_Nam":"HARTFORD","Latitude":"44.37440","Longitude":"-70.31620","Snowdepth":"14.000","Units":"in","Rept_Date":"2020-04-10 11"},"coordinates":[6091,5346]},{"type":"Point","properties":{"Station_ID":"GHMN3","Station_Nam":"PINKHAM NOTCH","Latitude":"44.25800","Longitude":"-71.25250","Snowdepth":"14.000","Units":"in","Rept_Date":"2020-04-10 10"},"coordinates":[5858,5262]},{"type":"Point","properties":{"Station_ID":"PRQM1","Station_Nam":"PRESQUE ISLE HILLTOP","Latitude":"46.68630","Longitude":"-67.99470","Snowdepth":"13.500","Units":"in","Rept_Date":"2020-04-10 12"},"coordinates":[6669,7026]},{"type":"Point","properties":{"Station_ID":"VT-OL-12","Station_Nam":"GREENSBORO 3.9 NNE, VT","Latitude":"44.63100","Longitude":"-72.28000","Snowdepth":"13.000","Units":"in","Rept_Date":"2020-04-10 12"},"coordinates":[5602,5533]},{"type":"Point","properties":{"Station_ID":"MQT","Station_Nam":"MARQUETTE, MI","Latitude":"46.53140","Longitude":"-87.54920","Snowdepth":"13.000","Units":"in","Rept_Date":"2020-04-11 06"},"coordinates":[1796,6913]},{"type":"Point","properties":{"Station_ID":"IBLM5","Station_Nam":"ISABELLA 14W","Latitude":"47.59360","Longitude":"-91.65140","Snowdepth":"13.000","Units":"in","Rept_Date":"2020-04-10 14"},"coordinates":[774,7685]},{"type":"Point","properties":{"Station_ID":"SVBQ6","Station_Nam":"SAVANT BASE","Latitude":"50.28730","Longitude":"-90.65670","Snowdepth":"12.560","Units":"in","Rept_Date":"2020-04-11 06"},"coordinates":[1022,9642]},{"type":"Point","properties":{"Station_ID":"ME-AN-32","Station_Nam":"WINTHROP 9.4 W, ME","Latitude":"44.30476","Longitude":"-70.15835","Snowdepth":"12.500","Units":"in","Rept_Date":"2020-04-10 11"},"coordinates":[6130,5296]},{"type":"Point","properties":{"Station_ID":"RANM1","Station_Nam":"RANGELEY","Latitude":"44.98910","Longitude":"-70.67190","Snowdepth":"12.000","Units":"in","Rept_Date":"2020-04-10 10"},"coordinates":[6002,5793]},{"type":"Point","properties":{"Station_ID":"MWTM1","Station_Nam":"MILLINOCKET WWTP","Latitude":"45.64030","Longitude":"-68.67480","Snowdepth":"12.000","Units":"in","Rept_Date":"2020-04-10 10"},"coordinates":[6500,6266]},{"type":"Point","properties":{"Station_ID":"BRDM1","Station_Nam":"BRIDGEWATER","Latitude":"46.42870","Longitude":"-67.84370","Snowdepth":"12.000","Units":"in","Rept_Date":"2020-04-10 22"},"coordinates":[6707,6839]},{"type":"Point","properties":{"Station_ID":"AVLV1","Station_Nam":"AVERILL","Latitude":"45.00570","Longitude":"-71.69030","Snowdepth":"12.000","Units":"in","Rept_Date":"2020-04-10 12"},"coordinates":[5749,5805]},{"type":"Point","properties":{"Station_ID":"CAN-NB-105","Station_Nam":"SISSON BROOK 3.8 E, CAN","Latitude":"46.98305","Longitude":"-67.32532","Snowdepth":"11.800","Units":"in","Rept_Date":"2020-04-10 12"},"coordinates":[6836,7241]},{"type":"Point","properties":{"Station_ID":"ME-KX-12","Station_Nam":"UNION 3.0 W, ME","Latitude":"44.21320","Longitude":"-69.34160","Snowdepth":"11.500","Units":"in","Rept_Date":"2020-04-10 12"},"coordinates":[6334,5229]},{"type":"Point","properties":{"Station_ID":"STEM4","Station_Nam":"STEUBEN","Latitude":"46.18530","Longitude":"-86.46410","Snowdepth":"11.000","Units":"in","Rept_Date":"2020-04-10 13"},"coordinates":[2067,6662]},{"type":"Point","properties":{"Station_ID":"JKMM1","Station_Nam":"JACKMAN","Latitude":"45.62600","Longitude":"-70.24600","Snowdepth":"11.000","Units":"in","Rept_Date":"2020-04-10 11"},"coordinates":[6108,6256]},{"type":"Point","properties":{"Station_ID":"AUDQ6","Station_Nam":"AUDEN","Latitude":"48.52600","Longitude":"-82.57570","Snowdepth":"10.200","Units":"in","Rept_Date":"2020-04-11 06"},"coordinates":[3036,8362]},{"type":"Point","properties":{"Station_ID":"ME-KB-25","Station_Nam":"SIDNEY 2.6 NNW, ME","Latitude":"44.44985","Longitude":"-69.73840","Snowdepth":"10.000","Units":"in","Rept_Date":"2020-04-10 12"},"coordinates":[6235,5401]},{"type":"Point","properties":{"Station_ID":"CAN-NB-18","Station_Nam":"MCLEOD HILL 1.1 ENE, CA","Latitude":"46.02725","Longitude":"-66.67460","Snowdepth":"10.000","Units":"in","Rept_Date":"2020-04-10 12"},"coordinates":[6998,6547]},{"type":"Point","properties":{"Station_ID":"TOPM1","Station_Nam":"TOPSFIELD","Latitude":"45.43470","Longitude":"-67.72020","Snowdepth":"9.000","Units":"in","Rept_Date":"2020-04-10 11"},"coordinates":[6738,6117]},{"type":"Point","properties":{"Station_ID":"PTBN3","Station_Nam":"PITTSBURG RESERVOIR","Latitude":"45.04690","Longitude":"-71.38300","Snowdepth":"9.000","Units":"in","Rept_Date":"2020-04-10 12"},"coordinates":[5825,5835]},{"type":"Point","properties":{"Station_ID":"ME-KB-6","Station_Nam":"WINSLOW 1.2 SSE, ME","Latitude":"44.53579","Longitude":"-69.60290","Snowdepth":"9.000","Units":"in","Rept_Date":"2020-04-10 12"},"coordinates":[6269,5463]},{"type":"Point","properties":{"Station_ID":"FARM1","Station_Nam":"FARMINGTON","Latitude":"44.68930","Longitude":"-70.15640","Snowdepth":"9.000","Units":"in","Rept_Date":"2020-04-10 12"},"coordinates":[6131,5575]},{"type":"Point","properties":{"Station_ID":"BERM4","Station_Nam":"BERGLAND DAM","Latitude":"46.58690","Longitude":"-89.54750","Snowdepth":"9.000","Units":"in","Rept_Date":"2020-04-10 12"},"coordinates":[1298,6954]},{"type":"Point","properties":{"Station_ID":"ME-OX-29","Station_Nam":"SUMNER 1.1 N, ME","Latitude":"44.40840","Longitude":"-70.44010","Snowdepth":"8.800","Units":"in","Rept_Date":"2020-04-10 12"},"coordinates":[6060,5371]},{"type":"Point","properties":{"Station_ID":"CAN-NB-98","Station_Nam":"HOYT 4.2 S, CAN","Latitude":"45.54763","Longitude":"-66.55440","Snowdepth":"8.300","Units":"in","Rept_Date":"2020-04-10 13"},"coordinates":[7028,6199]},{"type":"Point","properties":{"Station_ID":"PRDM4","Station_Nam":"PARADISE","Latitude":"46.60380","Longitude":"-85.03960","Snowdepth":"8.000","Units":"in","Rept_Date":"2020-04-10 11"},"coordinates":[2422,6966]},{"type":"Point","properties":{"Station_ID":"NWCM4","Station_Nam":"NEWBERRY CITY","Latitude":"46.35720","Longitude":"-85.51780","Snowdepth":"8.000","Units":"in","Rept_Date":"2020-04-10 11"},"coordinates":[2303,6787]},{"type":"Point","properties":{"Station_ID":"ME-PN-43","Station_Nam":"ORONO 0.9 NE, ME","Latitude":"44.89261","Longitude":"-68.66903","Snowdepth":"8.000","Units":"in","Rept_Date":"2020-04-10 12"},"coordinates":[6501,5723]},{"type":"Point","properties":{"Station_ID":"ME-HN-2","Station_Nam":"EAST SURRY, ME","Latitude":"44.49367","Longitude":"-68.45775","Snowdepth":"8.000","Units":"in","Rept_Date":"2020-04-10 13"},"coordinates":[6554,5433]},{"type":"Point","properties":{"Station_ID":"KINM1","Station_Nam":"KINGFIELD","Latitude":"44.95950","Longitude":"-70.17530","Snowdepth":"8.000","Units":"in","Rept_Date":"2020-04-10 09"},"coordinates":[6126,5771]},{"type":"Point","properties":{"Station_ID":"KBGR","Station_Nam":"BANGOR INTL AIRPORT","Latitude":"44.80000","Longitude":"-68.81666","Snowdepth":"8.000","Units":"in","Rept_Date":"2020-04-10 12"},"coordinates":[6465,5655]},{"type":"Point","properties":{"Station_ID":"BGR","Station_Nam":"BANGOR INTERNATIONAL AIRPORT","Latitude":"44.79780","Longitude":"-68.81840","Snowdepth":"8.000","Units":"in","Rept_Date":"2020-04-10 12"},"coordinates":[6464,5654]},{"type":"Point","properties":{"Station_ID":"CAN-NB-64","Station_Nam":"KESWICK RIDGE 4.0 SE, CAN","Latitude":"45.97014","Longitude":"-66.85538","Snowdepth":"7.900","Units":"in","Rept_Date":"2020-04-10 13"},"coordinates":[6953,6506]},{"type":"Point","properties":{"Station_ID":"ME-HN-57","Station_Nam":"ELLSWORTH 2.9 E, ME","Latitude":"44.58545","Longitude":"-68.43757","Snowdepth":"7.500","Units":"in","Rept_Date":"2020-04-10 14"},"coordinates":[6559,5500]},{"type":"Point","properties":{"Station_ID":"CAN-NS-60","Station_Nam":"SYDNEY FORKS, CAN","Latitude":"46.05645","Longitude":"-60.31510","Snowdepth":"7.500","Units":"in","Rept_Date":"2020-04-10 15"},"coordinates":[8583,6568]},{"type":"Point","properties":{"Station_ID":"VT-CL-3","Station_Nam":"GROTON 4.4 WSW, VT","Latitude":"44.19440","Longitude":"-72.28240","Snowdepth":"7.000","Units":"in","Rept_Date":"2020-04-10 11"},"coordinates":[5601,5215]},{"type":"Point","properties":{"Station_ID":"POLM1","Station_Nam":"POLAND","Latitude":"44.00700","Longitude":"-70.36140","Snowdepth":"7.000","Units":"in","Rept_Date":"2020-04-10 11"},"coordinates":[6080,5079]},{"type":"Point","properties":{"Station_ID":"MI-HG-1","Station_Nam":"HOUGHTON 1.6 ESE, MI","Latitude":"47.10774","Longitude":"-88.52940","Snowdepth":"7.000","Units":"in","Rept_Date":"2020-04-10 13"},"coordinates":[1552,7332]},{"type":"Point","properties":{"Station_ID":"ME-FR-4","Station_Nam":"NEW SHARON 2.0 NW, ME","Latitude":"44.66582","Longitude":"-70.02720","Snowdepth":"7.000","Units":"in","Rept_Date":"2020-04-10 12"},"coordinates":[6163,5558]},{"type":"Point","properties":{"Station_ID":"LNKM1","Station_Nam":"LINCOLN SANITARY DISTRICT/WTP","Latitude":"45.37520","Longitude":"-68.50820","Snowdepth":"7.000","Units":"in","Rept_Date":"2020-04-10 11"},"coordinates":[6542,6073]},{"type":"Point","properties":{"Station_ID":"LILM1","Station_Nam":"LILLE","Latitude":"47.27770","Longitude":"-68.10520","Snowdepth":"7.000","Units":"in","Rept_Date":"2020-04-10 11"},"coordinates":[6642,7456]},{"type":"Point","properties":{"Station_ID":"41.9034_079.6523","Station_Nam":"CORRY (CLE0230)","Latitude":"41.90340","Longitude":"-79.65230","Snowdepth":"7.000","Units":"in","Rept_Date":"2020-04-10 13"},"coordinates":[3764,3551]},{"type":"Point","properties":{"Station_ID":"ME-KX-10","Station_Nam":"UNION 2.1 NNE, ME","Latitude":"44.23693","Longitude":"-69.27170","Snowdepth":"6.800","Units":"in","Rept_Date":"2020-04-10 12"},"coordinates":[6351,5246]},{"type":"Point","properties":{"Station_ID":"MN-CK-18","Station_Nam":"GRAND MARAIS 4.4 WSW, MN","Latitude":"47.74462","Longitude":"-90.43796","Snowdepth":"6.500","Units":"in","Rept_Date":"2020-04-10 13"},"coordinates":[1077,7795]},{"type":"Point","properties":{"Station_ID":"ME-LN-4","Station_Nam":"DRESDEN 1.5 NW, ME","Latitude":"44.10540","Longitude":"-69.74060","Snowdepth":"6.500","Units":"in","Rept_Date":"2020-04-10 12"},"coordinates":[6234,5151]},{"type":"Point","properties":{"Station_ID":"ME-AN-40","Station_Nam":"MECHANIC FALLS 2.7 S, ME","Latitude":"44.07342","Longitude":"-70.40151","Snowdepth":"6.500","Units":"in","Rept_Date":"2020-04-10 22"},"coordinates":[6070,5128]},{"type":"Point","properties":{"Station_ID":"CAN-NB-97","Station_Nam":"NEW MARYLAND 0.6 NW, CAN","Latitude":"45.90112","Longitude":"-66.68739","Snowdepth":"6.300","Units":"in","Rept_Date":"2020-04-10 12"},"coordinates":[6995,6455]},{"type":"Point","properties":{"Station_ID":"WI-IR-3","Station_Nam":"PENCE 0.1 E, WI","Latitude":"46.41555","Longitude":"-90.27013","Snowdepth":"6.000","Units":"in","Rept_Date":"2020-04-10 13"},"coordinates":[1118,6829]},{"type":"Point","properties":{"Station_ID":"VT-OL-1","Station_Nam":"WESTFIELD 0.7 WNW, VT","Latitude":"44.89160","Longitude":"-72.44350","Snowdepth":"6.000","Units":"in","Rept_Date":"2020-04-10 12"},"coordinates":[5561,5722]},{"type":"Point","properties":{"Station_ID":"NH-CR-15","Station_Nam":"JACKSON 3.7 NW, NH","Latitude":"44.19069","Longitude":"-71.22598","Snowdepth":"6.000","Units":"in","Rept_Date":"2020-04-10 12"},"coordinates":[5864,5213]},{"type":"Point","properties":{"Station_ID":"MI-HG-6","Station_Nam":"CALUMET 5.8 ENE, MI","Latitude":"47.27200","Longitude":"-88.33400","Snowdepth":"6.000","Units":"in","Rept_Date":"2020-04-10 11"},"coordinates":[1601,7451]},{"type":"Point","properties":{"Station_ID":"ME-SG-1","Station_Nam":"BATH 1.1 WSW, ME","Latitude":"43.93063","Longitude":"-69.85730","Snowdepth":"6.000","Units":"in","Rept_Date":"2020-04-10 12"},"coordinates":[6205,5024]},{"type":"Point","properties":{"Station_ID":"ME-CM-137","Station_Nam":"GRAY 1.5 NE, ME","Latitude":"43.90034","Longitude":"-70.30883","Snowdepth":"6.000","Units":"in","Rept_Date":"2020-04-10 12"},"coordinates":[6093,5002]},{"type":"Point","properties":{"Station_ID":"LVRM1","Station_Nam":"LIVERMORE FALLS 1 E","Latitude":"44.47160","Longitude":"-70.15940","Snowdepth":"6.000","Units":"in","Rept_Date":"2020-04-10 11"},"coordinates":[6130,5417]},{"type":"Point","properties":{"Station_ID":"ISLV1","Station_Nam":"ISLAND POND","Latitude":"44.81280","Longitude":"-71.89020","Snowdepth":"6.000","Units":"in","Rept_Date":"2020-04-10 14"},"coordinates":[5699,5665]},{"type":"Point","properties":{"Station_ID":"DURM1","Station_Nam":"DURHAM","Latitude":"43.99960","Longitude":"-70.09630","Snowdepth":"6.000","Units":"in","Rept_Date":"2020-04-10 11"},"coordinates":[6146,5074]},{"type":"Point","properties":{"Station_ID":"BTHM1","Station_Nam":"BATH","Latitude":"43.93160","Longitude":"-69.85640","Snowdepth":"6.000","Units":"in","Rept_Date":"2020-04-10 11"},"coordinates":[6206,5025]},{"type":"Point","properties":{"Station_ID":"BETM1","Station_Nam":"BETHEL 6 SSE","Latitude":"44.32000","Longitude":"-70.75680","Snowdepth":"6.000","Units":"in","Rept_Date":"2020-04-10 11"},"coordinates":[5981,5307]},{"type":"Point","properties":{"Station_ID":"KABQ6","Station_Nam":"CAB LAKE","Latitude":"49.59950","Longitude":"-89.17990","Snowdepth":"5.940","Units":"in","Rept_Date":"2020-04-11 06"},"coordinates":[1390,9142]},{"type":"Point","properties":{"Station_ID":"VT-OL-5","Station_Nam":"DERBY CENTER 1.8 NW, VT","Latitude":"44.97200","Longitude":"-72.14780","Snowdepth":"5.500","Units":"in","Rept_Date":"2020-04-10 12"},"coordinates":[5635,5780]},{"type":"Point","properties":{"Station_ID":"VT-ES-1","Station_Nam":"GRANBY 1.4 NW, VT","Latitude":"44.58330","Longitude":"-71.77870","Snowdepth":"5.500","Units":"in","Rept_Date":"2020-04-10 12"},"coordinates":[5726,5498]},{"type":"Point","properties":{"Station_ID":"NY-CT-2","Station_Nam":"RANDOLPH 1.1 ENE, NY","Latitude":"42.17056","Longitude":"-78.96120","Snowdepth":"5.500","Units":"in","Rept_Date":"2020-04-10 12"},"coordinates":[3937,3745]},{"type":"Point","properties":{"Station_ID":"ME-AN-43","Station_Nam":"LISBON 0.6 S, ME","Latitude":"44.02320","Longitude":"-70.10550","Snowdepth":"5.500","Units":"in","Rept_Date":"2020-04-10 12"},"coordinates":[6143,5091]},{"type":"Point","properties":{"Station_ID":"CAN-NB-104","Station_Nam":"PENNFIELD RIDGE 2.7 SSW, CAN","Latitude":"45.09355","Longitude":"-66.71389","Snowdepth":"5.100","Units":"in","Rept_Date":"2020-04-10 11"},"coordinates":[6989,5869]},{"type":"Point","properties":{"Station_ID":"CAN-NB-1","Station_Nam":"FREDERICTON 4.0 SSE, CA","Latitude":"45.92897","Longitude":"-66.62830","Snowdepth":"5.100","Units":"in","Rept_Date":"2020-04-10 12"},"coordinates":[7010,6476]},{"type":"Point","properties":{"Station_ID":"SOCQ6","Station_Nam":"SOCKET LAKE","Latitude":"50.77870","Longitude":"-91.79300","Snowdepth":"5.040","Units":"in","Rept_Date":"2020-04-11 06"},"coordinates":[739,9999]},{"type":"Point","properties":{"Station_ID":"MN-CK-6","Station_Nam":"GRAND MARAIS 4.4 W, MN","Latitude":"47.74865","Longitude":"-90.43760","Snowdepth":"5.000","Units":"in","Rept_Date":"2020-04-10 13"},"coordinates":[1077,7798]},{"type":"Point","properties":{"Station_ID":"ME-CM-15","Station_Nam":"FREEPORT 2.6 WNW, ME","Latitude":"43.86683","Longitude":"-70.15070","Snowdepth":"5.000","Units":"in","Rept_Date":"2020-04-10 12"},"coordinates":[6132,4977]},{"type":"Point","properties":{"Station_ID":"GYX","Station_Nam":"PORTLAND, ME","Latitude":"43.89250","Longitude":"-70.25500","Snowdepth":"5.000","Units":"in","Rept_Date":"2020-04-10 12"},"coordinates":[6106,4996]},{"type":"Point","properties":{"Station_ID":"CAN-NB-55","Station_Nam":"FREDERICTON 4.5 N, CAN","Latitude":"45.99547","Longitude":"-66.64252","Snowdepth":"4.600","Units":"in","Rept_Date":"2020-04-10 12"},"coordinates":[7006,6524]},{"type":"Point","properties":{"Station_ID":"NY-CQ-39","Station_Nam":"GERRY 0.8 N, NY","Latitude":"42.20500","Longitude":"-79.24700","Snowdepth":"4.500","Units":"in","Rept_Date":"2020-04-10 13"},"coordinates":[3865,3770]},{"type":"Point","properties":{"Station_ID":"ME-LN-21","Station_Nam":"WESTPORT ISLAND 2.2 SSW, ME","Latitude":"43.88806","Longitude":"-69.70890","Snowdepth":"4.500","Units":"in","Rept_Date":"2020-04-10 13"},"coordinates":[6242,4993]},{"type":"Point","properties":{"Station_ID":"WITM1","Station_Nam":"WHITING","Latitude":"44.74240","Longitude":"-67.30520","Snowdepth":"4.000","Units":"in","Rept_Date":"2020-04-10 11"},"coordinates":[6841,5614]},{"type":"Point","properties":{"Station_ID":"WI-VL-10","Station_Nam":"LAND O LAKES 4.3 WNW, WI","Latitude":"46.17440","Longitude":"-89.30380","Snowdepth":"4.000","Units":"in","Rept_Date":"2020-04-10 13"},"coordinates":[1359,6654]},{"type":"Point","properties":{"Station_ID":"NY-CQ-34","Station_Nam":"KENNEDY 2.6 SE, NY","Latitude":"42.12567","Longitude":"-79.07235","Snowdepth":"4.000","Units":"in","Rept_Date":"2020-04-10 13"},"coordinates":[3909,3713]},{"type":"Point","properties":{"Station_ID":"NUMN3","Station_Nam":"NORTHUMBERLAND","Latitude":"44.52830","Longitude":"-71.50440","Snowdepth":"4.000","Units":"in","Rept_Date":"2020-04-10 12"},"coordinates":[5795,5458]},{"type":"Point","properties":{"Station_ID":"ME-CM-86","Station_Nam":"POWNAL 4.1 S, ME","Latitude":"43.85370","Longitude":"-70.17210","Snowdepth":"4.000","Units":"in","Rept_Date":"2020-04-10 12"},"coordinates":[6127,4968]},{"type":"Point","properties":{"Station_ID":"HUBN3","Station_Nam":"HUBBARD BROOK","Latitude":"43.93330","Longitude":"-71.71670","Snowdepth":"4.000","Units":"in","Rept_Date":"2020-04-10 09"},"coordinates":[5742,5026]},{"type":"Point","properties":{"Station_ID":"CAN-PE-3","Station_Nam":"WELLINGTON 1.6 NE, CA","Latitude":"46.46672","Longitude":"-63.98920","Snowdepth":"4.000","Units":"in","Rept_Date":"2020-04-10 11"},"coordinates":[7668,6866]},{"type":"Point","properties":{"Station_ID":"BNDM5","Station_Nam":"ELY 25E","Latitude":"47.97190","Longitude":"-91.44860","Snowdepth":"4.000","Units":"in","Rept_Date":"2020-04-10 12"},"coordinates":[825,7960]},{"type":"Point","properties":{"Station_ID":"BGRM1","Station_Nam":"BANGOR FSS","Latitude":"44.80440","Longitude":"-68.81330","Snowdepth":"4.000","Units":"in","Rept_Date":"2020-04-11 06"},"coordinates":[6465,5659]},{"type":"Point","properties":{"Station_ID":"BDFP1","Station_Nam":"BRADFORD,PA","Latitude":"41.95000","Longitude":"-78.73330","Snowdepth":"4.000","Units":"in","Rept_Date":"2020-04-10 12"},"coordinates":[3993,3585]},{"type":"Point","properties":{"Station_ID":"PA-PT-2","Station_Nam":"ROULETTE 1.8 NNE, PA","Latitude":"41.80759","Longitude":"-78.14140","Snowdepth":"3.700","Units":"in","Rept_Date":"2020-04-10 12"},"coordinates":[4141,3481]},{"type":"Point","properties":{"Station_ID":"VT-OL-9","Station_Nam":"GREENSBORO 2.1 NNW, VT","Latitude":"44.60528","Longitude":"-72.30940","Snowdepth":"3.500","Units":"in","Rept_Date":"2020-04-10 12"},"coordinates":[5594,5514]},{"type":"Point","properties":{"Station_ID":"VT-ES-3","Station_Nam":"LUNENBURG 2.3 NNW, VT","Latitude":"44.49324","Longitude":"-71.70446","Snowdepth":"3.500","Units":"in","Rept_Date":"2020-04-10 11"},"coordinates":[5745,5433]},{"type":"Point","properties":{"Station_ID":"ME-KX-18","Station_Nam":"ROCKLAND 1.4 E, ME","Latitude":"44.12540","Longitude":"-69.10280","Snowdepth":"3.500","Units":"in","Rept_Date":"2020-04-10 11"},"coordinates":[6393,5165]},{"type":"Point","properties":{"Station_ID":"HPN04_MADIS","Station_Nam":"HANOVER","Latitude":"45.16770","Longitude":"-93.63430","Snowdepth":"3.140","Units":"in","Rept_Date":"2020-04-11 06"},"coordinates":[280,5923]},{"type":"Point","properties":{"Station_ID":"CAN-NB-46","Station_Nam":"MACES BAY 7.3 SSW, CAN","Latitude":"45.06409","Longitude":"-66.82160","Snowdepth":"3.100","Units":"in","Rept_Date":"2020-04-10 12"},"coordinates":[6962,5847]},{"type":"Point","properties":{"Station_ID":"WRRP1","Station_Nam":"ALLEGHENY RIVER AT WARREN","Latitude":"41.84380","Longitude":"-79.15000","Snowdepth":"3.000","Units":"in","Rept_Date":"2020-04-10 11"},"coordinates":[3890,3508]},{"type":"Point","properties":{"Station_ID":"WNDM1","Station_Nam":"WINDHAM 2NW","Latitude":"43.85670","Longitude":"-70.46630","Snowdepth":"3.000","Units":"in","Rept_Date":"2020-04-10 11"},"coordinates":[6054,4970]},{"type":"Point","properties":{"Station_ID":"WLXP1","Station_Nam":"GLEN HAZEL,PA","Latitude":"41.56670","Longitude":"-78.60000","Snowdepth":"3.000","Units":"in","Rept_Date":"2020-04-10 11"},"coordinates":[4027,3306]},{"type":"Point","properties":{"Station_ID":"WI-VL-9","Station_Nam":"LAND O' LAKES 11.7 W, WI","Latitude":"46.19023","Longitude":"-89.45790","Snowdepth":"3.000","Units":"in","Rept_Date":"2020-04-10 13"},"coordinates":[1321,6665]},{"type":"Point","properties":{"Station_ID":"WDLM1","Station_Nam":"WOODLAND (BAILEYVILLE)","Latitude":"45.15700","Longitude":"-67.40450","Snowdepth":"3.000","Units":"in","Rept_Date":"2020-04-10 11"},"coordinates":[6817,5915]},{"type":"Point","properties":{"Station_ID":"VT-LM-7","Station_Nam":"HYDE PARK 2.9 NE, VT","Latitude":"44.62080","Longitude":"-72.57250","Snowdepth":"3.000","Units":"in","Rept_Date":"2020-04-10 12"},"coordinates":[5529,5525]},{"type":"Point","properties":{"Station_ID":"SUTV1","Station_Nam":"SUTTON","Latitude":"44.61220","Longitude":"-72.04810","Snowdepth":"3.000","Units":"in","Rept_Date":"2020-04-10 12"},"coordinates":[5659,5519]},{"type":"Point","properties":{"Station_ID":"RUHN6","Station_Nam":"RUSHFORD","Latitude":"42.42610","Longitude":"-78.19220","Snowdepth":"3.000","Units":"in","Rept_Date":"2020-04-10 12"},"coordinates":[4128,3931]},{"type":"Point","properties":{"Station_ID":"ROBM1","Station_Nam":"ROBBINSTON","Latitude":"45.08520","Longitude":"-67.12050","Snowdepth":"3.000","Units":"in","Rept_Date":"2020-04-11 04"},"coordinates":[6887,5863]},{"type":"Point","properties":{"Station_ID":"RFDM1","Station_Nam":"RUMFORD 7SW","Latitude":"44.49470","Longitude":"-70.65640","Snowdepth":"3.000","Units":"in","Rept_Date":"2020-04-10 12"},"coordinates":[6006,5434]},{"type":"Point","properties":{"Station_ID":"ORAN3","Station_Nam":"ORANGE","Latitude":"43.66880","Longitude":"-71.94830","Snowdepth":"3.000","Units":"in","Rept_Date":"2020-04-10 11"},"coordinates":[5684,4834]},{"type":"Point","properties":{"Station_ID":"OLNN6","Station_Nam":"OLEAN","Latitude":"42.07370","Longitude":"-78.45180","Snowdepth":"3.000","Units":"in","Rept_Date":"2020-04-10 11"},"coordinates":[4064,3675]},{"type":"Point","properties":{"Station_ID":"MN-SL-15","Station_Nam":"CHISHOLM 0.4 WSW, MN","Latitude":"47.48557","Longitude":"-92.88690","Snowdepth":"3.000","Units":"in","Rept_Date":"2020-04-10 12"},"coordinates":[466,7607]},{"type":"Point","properties":{"Station_ID":"ME-YK-67","Station_Nam":"CORNISH 5.6 ESE, ME","Latitude":"43.78308","Longitude":"-70.69539","Snowdepth":"3.000","Units":"in","Rept_Date":"2020-04-10 12"},"coordinates":[5996,4917]},{"type":"Point","properties":{"Station_ID":"ME-CM-54","Station_Nam":"WINDHAM 3.9 NW, ME","Latitude":"43.85787","Longitude":"-70.46200","Snowdepth":"3.000","Units":"in","Rept_Date":"2020-04-10 12"},"coordinates":[6055,4971]},{"type":"Point","properties":{"Station_ID":"ME-CM-18","Station_Nam":"PORTLAND 5.5 WNW, ME","Latitude":"43.70288","Longitude":"-70.30550","Snowdepth":"3.000","Units":"in","Rept_Date":"2020-04-10 12"},"coordinates":[6094,4858]},{"type":"Point","properties":{"Station_ID":"LNOW3","Station_Nam":"LAND O LAKES","Latitude":"46.19000","Longitude":"-89.45700","Snowdepth":"3.000","Units":"in","Rept_Date":"2020-04-10 12"},"coordinates":[1321,6665]},{"type":"Point","properties":{"Station_ID":"KZAP1","Station_Nam":"KINZUA","Latitude":"41.90060","Longitude":"-79.11860","Snowdepth":"3.000","Units":"in","Rept_Date":"2020-04-10 11"},"coordinates":[3897,3549]},{"type":"Point","properties":{"Station_ID":"KANP1","Station_Nam":"KANE,PA","Latitude":"41.68330","Longitude":"-78.80000","Snowdepth":"3.000","Units":"in","Rept_Date":"2020-04-10 11"},"coordinates":[3977,3391]},{"type":"Point","properties":{"Station_ID":"CVWP1","Station_Nam":"CHANDLER VALLEY 1SE","Latitude":"41.93010","Longitude":"-79.29700","Snowdepth":"3.000","Units":"in","Rept_Date":"2020-04-10 11"},"coordinates":[3853,3570]},{"type":"Point","properties":{"Station_ID":"COVM4","Station_Nam":"COVINGTON","Latitude":"46.55880","Longitude":"-88.54190","Snowdepth":"3.000","Units":"in","Rept_Date":"2020-04-10 12"},"coordinates":[1549,6933]},{"type":"Point","properties":{"Station_ID":"CLKM4","Station_Nam":"CLARKSBURG","Latitude":"46.49910","Longitude":"-87.84500","Snowdepth":"3.000","Units":"in","Rept_Date":"2020-04-10 11"},"coordinates":[1723,6890]},{"type":"Point","properties":{"Station_ID":"CJRP1","Station_Nam":"COUDERSPORT 7SE","Latitude":"41.73920","Longitude":"-77.97110","Snowdepth":"3.000","Units":"in","Rept_Date":"2020-04-10 11"},"coordinates":[4183,3432]},{"type":"Point","properties":{"Station_ID":"AMAM4","Station_Nam":"AMASA 1W","Latitude":"46.23470","Longitude":"-88.45440","Snowdepth":"3.000","Units":"in","Rept_Date":"2020-04-10 13"},"coordinates":[1571,6698]},{"type":"Point","properties":{"Station_ID":"41.8222_080.1028","Station_Nam":"CAMBRIDGE SPRINGS  SNOW SPOTTER (CLE0344)","Latitude":"41.82220","Longitude":"-80.10280","Snowdepth":"3.000","Units":"in","Rept_Date":"2020-04-10 12"},"coordinates":[3652,3492]},{"type":"Point","properties":{"Station_ID":"CAN-NB-5","Station_Nam":"OAK POINT 0.9 SSW, CA","Latitude":"45.50752","Longitude":"-66.09860","Snowdepth":"2.800","Units":"in","Rept_Date":"2020-04-10 12"},"coordinates":[7142,6169]},{"type":"Point","properties":{"Station_ID":"CAN-PE-7","Station_Nam":"MORELL 1.4 NNW, CA","Latitude":"46.42741","Longitude":"-62.70870","Snowdepth":"2.600","Units":"in","Rept_Date":"2020-04-10 12"},"coordinates":[7987,6838]},{"type":"Point","properties":{"Station_ID":"NY-ST-35","Station_Nam":"BATH 6.8 SW, NY","Latitude":"42.26736","Longitude":"-77.41329","Snowdepth":"2.500","Units":"in","Rept_Date":"2020-04-10 12"},"coordinates":[4322,3815]},{"type":"Point","properties":{"Station_ID":"CAN-NB-16","Station_Nam":"DORCHESTER 1.0 SSE, CAN","Latitude":"45.89160","Longitude":"-64.51269","Snowdepth":"2.500","Units":"in","Rept_Date":"2020-04-10 11"},"coordinates":[7537,6448]},{"type":"Point","properties":{"Station_ID":"CAN-NB-7","Station_Nam":"CHAMCOOK 6.1 NNW, CAN","Latitude":"45.17149","Longitude":"-67.08163","Snowdepth":"2.400","Units":"in","Rept_Date":"2020-04-10 11"},"coordinates":[6897,5925]},{"type":"Point","properties":{"Station_ID":"CAN-NB-28","Station_Nam":"SUSSEX CORNER 1.4 NE - KWRC, CAN","Latitude":"45.71691","Longitude":"-65.46217","Snowdepth":"2.400","Units":"in","Rept_Date":"2020-04-10 10"},"coordinates":[7301,6322]},{"type":"Point","properties":{"Station_ID":"VT-CL-40","Station_Nam":"LYNDONVILLE 4.2 NNW, VT","Latitude":"44.59440","Longitude":"-72.02389","Snowdepth":"2.300","Units":"in","Rept_Date":"2020-04-10 12"},"coordinates":[5665,5506]},{"type":"Point","properties":{"Station_ID":"WTNM4","Station_Nam":"WATTON 2WSW","Latitude":"46.52660","Longitude":"-88.64240","Snowdepth":"2.000","Units":"in","Rept_Date":"2020-04-10 12"},"coordinates":[1524,6910]},{"type":"Point","properties":{"Station_ID":"WSWN6","Station_Nam":"WARSAW","Latitude":"42.74220","Longitude":"-78.20850","Snowdepth":"2.000","Units":"in","Rept_Date":"2020-04-10 11"},"coordinates":[4124,4160]},{"type":"Point","properties":{"Station_ID":"WRSN6","Station_Nam":"WARSAW 6SW","Latitude":"42.68550","Longitude":"-78.22020","Snowdepth":"2.000","Units":"in","Rept_Date":"2020-04-10 11"},"coordinates":[4121,4119]},{"type":"Point","properties":{"Station_ID":"WRPW3","Station_Nam":"WATER PURIFICATION PLANT","Latitude":"44.38800","Longitude":"-89.80550","Snowdepth":"2.000","Units":"in","Rept_Date":"2020-04-10 11"},"coordinates":[1234,5356]},{"type":"Point","properties":{"Station_ID":"VT-WS-30","Station_Nam":"WOODBURY 3.4 NNW, VT","Latitude":"44.48825","Longitude":"-72.43258","Snowdepth":"2.000","Units":"in","Rept_Date":"2020-04-10 12"},"coordinates":[5564,5429]},{"type":"Point","properties":{"Station_ID":"VT-OL-2","Station_Nam":"BARTON 3.0 ENE, VT","Latitude":"44.75863","Longitude":"-72.11680","Snowdepth":"2.000","Units":"in","Rept_Date":"2020-04-10 12"},"coordinates":[5642,5625]},{"type":"Point","properties":{"Station_ID":"VT-BN-12","Station_Nam":"STAMFORD 5.0 NNE, VT","Latitude":"42.82000","Longitude":"-73.02000","Snowdepth":"2.000","Units":"in","Rept_Date":"2020-04-10 21"},"coordinates":[5417,4217]},{"type":"Point","properties":{"Station_ID":"SVSN6","Station_Nam":"SILVER SPRINGS 3N","Latitude":"42.70580","Longitude":"-78.09370","Snowdepth":"2.000","Units":"in","Rept_Date":"2020-04-10 11"},"coordinates":[4153,4134]},{"type":"Point","properties":{"Station_ID":"STRN6","Station_Nam":"STILLWATER RESERVOIR","Latitude":"43.89140","Longitude":"-75.03610","Snowdepth":"2.000","Units":"in","Rept_Date":"2020-04-10 12"},"coordinates":[4915,4995]},{"type":"Point","properties":{"Station_ID":"STMM4","Station_Nam":"STAMBAUGH 2SSE","Latitude":"46.05550","Longitude":"-88.62780","Snowdepth":"2.000","Units":"in","Rept_Date":"2020-04-10 12"},"coordinates":[1528,6568]},{"type":"Point","properties":{"Station_ID":"RHAN6","Station_Nam":"ALLEGANY STATE PARK","Latitude":"42.10030","Longitude":"-78.74970","Snowdepth":"2.000","Units":"in","Rept_Date":"2020-04-10 11"},"coordinates":[3989,3694]},{"type":"Point","properties":{"Station_ID":"PWM","Station_Nam":"RESIDUAL OFFICE TO PORTLAND WSFO (GYX)","Latitude":"43.64610","Longitude":"-70.30920","Snowdepth":"2.000","Units":"in","Rept_Date":"2020-04-10 12"},"coordinates":[6093,4817]},{"type":"Point","properties":{"Station_ID":"PGVN6","Station_Nam":"PORTAGEVILLE","Latitude":"42.57580","Longitude":"-78.06720","Snowdepth":"2.000","Units":"in","Rept_Date":"2020-04-10 11"},"coordinates":[4159,4040]},{"type":"Point","properties":{"Station_ID":"NY-WY-11","Station_Nam":"SILVER SPRINGS COOP, NY","Latitude":"42.70580","Longitude":"-78.09370","Snowdepth":"2.000","Units":"in","Rept_Date":"2020-04-10 12"},"coordinates":[4153,4134]},{"type":"Point","properties":{"Station_ID":"NY-OD-2","Station_Nam":"POINT ROCK 0.6 SE, NY","Latitude":"43.37335","Longitude":"-75.53840","Snowdepth":"2.000","Units":"in","Rept_Date":"2020-04-10 13"},"coordinates":[4790,4619]},{"type":"Point","properties":{"Station_ID":"NY-ER-77","Station_Nam":"COLDEN 2.4 ENE, NY","Latitude":"42.65088","Longitude":"-78.61060","Snowdepth":"2.000","Units":"in","Rept_Date":"2020-04-10 13"},"coordinates":[4024,4094]},{"type":"Point","properties":{"Station_ID":"NY-CT-22","Station_Nam":"FRANKLINVILLE 0.5 NNE, NY","Latitude":"42.34166","Longitude":"-78.45280","Snowdepth":"2.000","Units":"in","Rept_Date":"2020-04-10 14"},"coordinates":[4063,3869]},{"type":"Point","properties":{"Station_ID":"NH-CR-26","Station_Nam":"CENTER SANDWICH 4.9 E, NH","Latitude":"43.80976","Longitude":"-71.34150","Snowdepth":"2.000","Units":"in","Rept_Date":"2020-04-10 11"},"coordinates":[5835,4936]},{"type":"Point","properties":{"Station_ID":"NALN6","Station_Nam":"CATTARAUGUS","Latitude":"42.32450","Longitude":"-78.86700","Snowdepth":"2.000","Units":"in","Rept_Date":"2020-04-10 12"},"coordinates":[3960,3857]},{"type":"Point","properties":{"Station_ID":"MI-MQ-19","Station_Nam":"ISHPEMING 7.2 SW, MI","Latitude":"46.40550","Longitude":"-87.75670","Snowdepth":"2.000","Units":"in","Rept_Date":"2020-04-10 11"},"coordinates":[1745,6822]},{"type":"Point","properties":{"Station_ID":"ME-CM-98","Station_Nam":"SEBAGO 2.4 ESE, ME","Latitude":"43.88000","Longitude":"-70.63000","Snowdepth":"2.000","Units":"in","Rept_Date":"2020-04-10 15"},"coordinates":[6013,4987]},{"type":"Point","properties":{"Station_ID":"LVDW3","Station_Nam":"LAC VIEUX DESERT","Latitude":"46.12110","Longitude":"-89.07580","Snowdepth":"2.000","Units":"in","Rept_Date":"2020-04-10 12"},"coordinates":[1416,6615]},{"type":"Point","properties":{"Station_ID":"LTVN6","Station_Nam":"LITTLE VALLEY","Latitude":"42.24730","Longitude":"-78.81250","Snowdepth":"2.000","Units":"in","Rept_Date":"2020-04-10 11"},"coordinates":[3974,3801]},{"type":"Point","properties":{"Station_ID":"LPLN6","Station_Nam":"LAKE PLACID 2 S","Latitude":"44.30420","Longitude":"-73.98390","Snowdepth":"2.000","Units":"in","Rept_Date":"2020-04-10 12"},"coordinates":[5177,5295]},{"type":"Point","properties":{"Station_ID":"JSTN6","Station_Nam":"JAMESTOWN 4 ENE","Latitude":"42.11000","Longitude":"-79.15910","Snowdepth":"2.000","Units":"in","Rept_Date":"2020-04-10 11"},"coordinates":[3887,3701]},{"type":"Point","properties":{"Station_ID":"JOHV1","Station_Nam":"JOHNSON 2 N","Latitude":"44.65790","Longitude":"-72.67850","Snowdepth":"2.000","Units":"in","Rept_Date":"2020-04-10 11"},"coordinates":[5502,5552]},{"type":"Point","properties":{"Station_ID":"HOLM1","Station_Nam":"HOLLIS","Latitude":"43.64750","Longitude":"-70.67490","Snowdepth":"2.000","Units":"in","Rept_Date":"2020-04-10 11"},"coordinates":[6002,4818]},{"type":"Point","properties":{"Station_ID":"GRMM1","Station_Nam":"GORHAM","Latitude":"43.67440","Longitude":"-70.43900","Snowdepth":"2.000","Units":"in","Rept_Date":"2020-04-10 12"},"coordinates":[6060,4838]},{"type":"Point","properties":{"Station_ID":"FKNP1","Station_Nam":"FRANKLIN","Latitude":"41.39030","Longitude":"-79.82170","Snowdepth":"2.000","Units":"in","Rept_Date":"2020-04-10 13"},"coordinates":[3722,3178]},{"type":"Point","properties":{"Station_ID":"ESDN3","Station_Nam":"EAST SANDWICH","Latitude":"43.80990","Longitude":"-71.34250","Snowdepth":"2.000","Units":"in","Rept_Date":"2020-04-10 10"},"coordinates":[5835,4936]},{"type":"Point","properties":{"Station_ID":"EBNP1","Station_Nam":"EBENSBURG,PA","Latitude":"40.46810","Longitude":"-78.72890","Snowdepth":"2.000","Units":"in","Rept_Date":"2020-04-10 12"},"coordinates":[3994,2508]},{"type":"Point","properties":{"Station_ID":"EAHV1","Station_Nam":"EAST HAVEN","Latitude":"44.64250","Longitude":"-71.89120","Snowdepth":"2.000","Units":"in","Rept_Date":"2020-04-10 11"},"coordinates":[5698,5541]},{"type":"Point","properties":{"Station_ID":"DJBP1","Station_Nam":"DUBOIS 2S","Latitude":"41.09470","Longitude":"-78.75550","Snowdepth":"2.000","Units":"in","Rept_Date":"2020-04-10 11"},"coordinates":[3988,2964]},{"type":"Point","properties":{"Station_ID":"COKM5","Station_Nam":"COOK","Latitude":"47.85060","Longitude":"-92.69250","Snowdepth":"2.000","Units":"in","Rept_Date":"2020-04-10 11"},"coordinates":[515,7872]},{"type":"Point","properties":{"Station_ID":"COBN6","Station_Nam":"COBLESKILL 2ESE","Latitude":"42.66710","Longitude":"-74.44230","Snowdepth":"2.000","Units":"in","Rept_Date":"2020-04-10 11"},"coordinates":[5063,4106]},{"type":"Point","properties":{"Station_ID":"CAN-PE-10","Station_Nam":"NEW LONDON 1.6 ENE, CA","Latitude":"46.46985","Longitude":"-63.49200","Snowdepth":"2.000","Units":"in","Rept_Date":"2020-04-10 12"},"coordinates":[7792,6869]},{"type":"Point","properties":{"Station_ID":"CAN-ON-506","Station_Nam":"FLESHERTON 6.9 NE - GSCA, CAN","Latitude":"44.31106","Longitude":"-80.49525","Snowdepth":"2.000","Units":"in","Rept_Date":"2020-04-10 13"},"coordinates":[3554,5300]},{"type":"Point","properties":{"Station_ID":"CAN-ON-245","Station_Nam":"PHELPSTON 3.1 ESE, CAN","Latitude":"44.50564","Longitude":"-79.81035","Snowdepth":"2.000","Units":"in","Rept_Date":"2020-04-10 14"},"coordinates":[3725,5442]},{"type":"Point","properties":{"Station_ID":"CAN-ON-130","Station_Nam":"BARRIE 3.6 N - CANWARN, CAN","Latitude":"44.41135","Longitude":"-79.69817","Snowdepth":"2.000","Units":"in","Rept_Date":"2020-04-10 13"},"coordinates":[3753,5373]},{"type":"Point","properties":{"Station_ID":"CAN-NB-84","Station_Nam":"NORTON 7.1 WNW - KWRC, CAN","Latitude":"45.66195","Longitude":"-65.78279","Snowdepth":"2.000","Units":"in","Rept_Date":"2020-04-10 12"},"coordinates":[7221,6282]},{"type":"Point","properties":{"Station_ID":"BTLN3","Station_Nam":"BARTLETT","Latitude":"44.08380","Longitude":"-71.29340","Snowdepth":"2.000","Units":"in","Rept_Date":"2020-04-10 11"},"coordinates":[5847,5135]},{"type":"Point","properties":{"Station_ID":"BRLN3","Station_Nam":"BERLIN","Latitude":"44.45350","Longitude":"-71.18540","Snowdepth":"2.000","Units":"in","Rept_Date":"2020-04-10 11"},"coordinates":[5874,5404]},{"type":"Point","properties":{"Station_ID":"BMON6","Station_Nam":"BIG MOOSE 3SE","Latitude":"43.80000","Longitude":"-74.86670","Snowdepth":"2.000","Units":"in","Rept_Date":"2020-04-10 12"},"coordinates":[4957,4929]},{"type":"Point","properties":{"Station_ID":"ANGN6","Station_Nam":"ANGELICA","Latitude":"42.31080","Longitude":"-78.02300","Snowdepth":"2.000","Units":"in","Rept_Date":"2020-04-10 11"},"coordinates":[4170,3847]},{"type":"Point","properties":{"Station_ID":"ALFN6","Station_Nam":"ALFRED","Latitude":"42.27980","Longitude":"-77.76560","Snowdepth":"2.000","Units":"in","Rept_Date":"2020-04-10 11"},"coordinates":[4235,3824]},{"type":"Point","properties":{"Station_ID":"42.1284_079.8945","Station_Nam":"NORTHEAST 6SW (CLE0249)","Latitude":"42.12840","Longitude":"-79.89450","Snowdepth":"2.000","Units":"in","Rept_Date":"2020-04-10 10"},"coordinates":[3704,3714]},{"type":"Point","properties":{"Station_ID":"41.1978_081.6324","Station_Nam":"BATH TWP  TRAINED SPOTTER (CLE2135)","Latitude":"41.19780","Longitude":"-81.63240","Snowdepth":"2.000","Units":"in","Rept_Date":"2020-04-10 11"},"coordinates":[3271,3038]},{"type":"Point","properties":{"Station_ID":"CAN-NS-163","Station_Nam":"SYDNEY MINES 2.2 WNW, CAN","Latitude":"46.24851","Longitude":"-60.25161","Snowdepth":"1.600","Units":"in","Rept_Date":"2020-04-10 12"},"coordinates":[8599,6708]},{"type":"Point","properties":{"Station_ID":"VT-CL-18","Station_Nam":"WHEELOCK 1.6 S, VT","Latitude":"44.56491","Longitude":"-72.08830","Snowdepth":"1.500","Units":"in","Rept_Date":"2020-04-10 12"},"coordinates":[5649,5485]},{"type":"Point","properties":{"Station_ID":"VT-CL-14","Station_Nam":"LYNDONVILLE 1.1 W, VT","Latitude":"44.53582","Longitude":"-72.02867","Snowdepth":"1.500","Units":"in","Rept_Date":"2020-04-10 13"},"coordinates":[5664,5464]},{"type":"Point","properties":{"Station_ID":"PA-FR-1","Station_Nam":"TIONESTA 7.3 SSE, PA","Latitude":"41.39404","Longitude":"-79.41310","Snowdepth":"1.500","Units":"in","Rept_Date":"2020-04-10 11"},"coordinates":[3824,3181]},{"type":"Point","properties":{"Station_ID":"PA-EL-1","Station_Nam":"ST. MARYS 1.7 SE, PA","Latitude":"41.41069","Longitude":"-78.53480","Snowdepth":"1.500","Units":"in","Rept_Date":"2020-04-10 11"},"coordinates":[4043,3193]},{"type":"Point","properties":{"Station_ID":"OH-PT-12","Station_Nam":"MOGADORE 4.7 SE, OH","Latitude":"41.00849","Longitude":"-81.32900","Snowdepth":"1.500","Units":"in","Rept_Date":"2020-04-10 12"},"coordinates":[3347,2901]},{"type":"Point","properties":{"Station_ID":"NY-MD-16","Station_Nam":"CHITTENANGO 2.1 ESE, NY","Latitude":"43.03297","Longitude":"-75.83480","Snowdepth":"1.500","Units":"in","Rept_Date":"2020-04-10 13"},"coordinates":[4716,4372]},{"type":"Point","properties":{"Station_ID":"NY-ER-65","Station_Nam":"BOSTON 1.5 NE, NY","Latitude":"42.65470","Longitude":"-78.72010","Snowdepth":"1.500","Units":"in","Rept_Date":"2020-04-10 12"},"coordinates":[3997,4097]},{"type":"Point","properties":{"Station_ID":"NY-CR-5","Station_Nam":"MARATHON 1.0 NW, NY","Latitude":"42.45161","Longitude":"-76.04370","Snowdepth":"1.500","Units":"in","Rept_Date":"2020-04-10 12"},"coordinates":[4664,3949]},{"type":"Point","properties":{"Station_ID":"NY-CQ-35","Station_Nam":"FALCONER 0.3 WSW, NY","Latitude":"42.11766","Longitude":"-79.20278","Snowdepth":"1.500","Units":"in","Rept_Date":"2020-04-10 12"},"coordinates":[3876,3707]},{"type":"Point","properties":{"Station_ID":"NH-CR-41","Station_Nam":"ALBANY 2.8 SW, NH","Latitude":"43.92648","Longitude":"-71.21556","Snowdepth":"1.500","Units":"in","Rept_Date":"2020-04-10 13"},"coordinates":[5867,5021]},{"type":"Point","properties":{"Station_ID":"MN-HB-12","Station_Nam":"LAPORTE 1.8 N, MN","Latitude":"47.24130","Longitude":"-94.75792","Snowdepth":"1.500","Units":"in","Rept_Date":"2020-04-10 13"},"coordinates":[0,7429]},{"type":"Point","properties":{"Station_ID":"ME-YK-48","Station_Nam":"ACTON 2.7 NW, ME","Latitude":"43.56581","Longitude":"-70.94300","Snowdepth":"1.500","Units":"in","Rept_Date":"2020-04-10 11"},"coordinates":[5935,4759]},{"type":"Point","properties":{"Station_ID":"ME-YK-3","Station_Nam":"HOLLIS CENTER 5.4 NW, ME","Latitude":"43.64750","Longitude":"-70.67510","Snowdepth":"1.500","Units":"in","Rept_Date":"2020-04-10 12"},"coordinates":[6002,4818]},{"type":"Point","properties":{"Station_ID":"ME-CM-128","Station_Nam":"SOUTH PORTLAND 1.6 S, ME","Latitude":"43.60900","Longitude":"-70.28600","Snowdepth":"1.500","Units":"in","Rept_Date":"2020-04-10 12"},"coordinates":[6098,4790]},{"type":"Point","properties":{"Station_ID":"CAN-ON-109","Station_Nam":"MILDMAY 5.9 SSE, CA","Latitude":"43.98733","Longitude":"-81.10330","Snowdepth":"1.500","Units":"in","Rept_Date":"2020-04-10 13"},"coordinates":[3403,5065]},{"type":"Point","properties":{"Station_ID":"CAN-NS-81","Station_Nam":"SCOTS BAY 3.1 WNW, CA","Latitude":"45.31472","Longitude":"-64.42890","Snowdepth":"1.500","Units":"in","Rept_Date":"2020-04-10 11"},"coordinates":[7558,6029]},{"type":"Point","properties":{"Station_ID":"NY-BM-14","Station_Nam":"WHITNEY POINT 1.7 SSE, NY","Latitude":"42.30837","Longitude":"-75.95690","Snowdepth":"1.300","Units":"in","Rept_Date":"2020-04-10 12"},"coordinates":[4685,3845]},{"type":"Point","properties":{"Station_ID":"NH-BK-18","Station_Nam":"NEW HAMPTON 4.1 N, NH","Latitude":"43.66397","Longitude":"-71.64270","Snowdepth":"1.300","Units":"in","Rept_Date":"2020-04-10 12"},"coordinates":[5760,4830]},{"type":"Point","properties":{"Station_ID":"PA-CR-1","Station_Nam":"EMPORIUM 2.6 S, PA","Latitude":"41.47342","Longitude":"-78.24330","Snowdepth":"1.200","Units":"in","Rept_Date":"2020-04-10 13"},"coordinates":[4115,3239]},{"type":"Point","properties":{"Station_ID":"OH-GG-4","Station_Nam":"MONTVILLE 1.2 SSE, OH","Latitude":"41.59030","Longitude":"-81.04800","Snowdepth":"1.200","Units":"in","Rept_Date":"2020-04-10 12"},"coordinates":[3417,3324]},{"type":"Point","properties":{"Station_ID":"CAN-QC-56","Station_Nam":"SUTTON 2.6 N, CAN","Latitude":"45.13119","Longitude":"-72.61218","Snowdepth":"1.200","Units":"in","Rept_Date":"2020-04-10 12"},"coordinates":[5519,5896]},{"type":"Point","properties":{"Station_ID":"CAN-PE-47","Station_Nam":"LONG CREEK 0.3 NNW, CAN","Latitude":"46.17420","Longitude":"-63.27320","Snowdepth":"1.200","Units":"in","Rept_Date":"2020-04-10 12"},"coordinates":[7846,6654]},{"type":"Point","properties":{"Station_ID":"CAN-ON-452","Station_Nam":"CHATSWORTH 1.8 ENE - GSCA, CAN","Latitude":"44.46118","Longitude":"-80.87506","Snowdepth":"1.200","Units":"in","Rept_Date":"2020-04-10 12"},"coordinates":[3460,5409]},{"type":"Point","properties":{"Station_ID":"NY-ER-158","Station_Nam":"EAST AURORA 2.7 SSE, NY","Latitude":"42.72936","Longitude":"-78.60561","Snowdepth":"1.100","Units":"in","Rept_Date":"2020-04-10 13"},"coordinates":[4025,4151]},{"type":"Point","properties":{"Station_ID":"YNG","Station_Nam":"YOUNGSTOWN-WARREN REG AIRPRT","Latitude":"41.25890","Longitude":"-80.67610","Snowdepth":"1.000","Units":"in","Rept_Date":"2020-04-10 12"},"coordinates":[3509,3083]},{"type":"Point","properties":{"Station_ID":"WYON6","Station_Nam":"WYOMING 3W","Latitude":"42.82060","Longitude":"-78.14810","Snowdepth":"1.000","Units":"in","Rept_Date":"2020-04-10 11"},"coordinates":[4139,4217]},{"type":"Point","properties":{"Station_ID":"WV-PC-4","Station_Nam":"CASS 3.7 SW, WV","Latitude":"38.35660","Longitude":"-79.96210","Snowdepth":"1.000","Units":"in","Rept_Date":"2020-04-10 12"},"coordinates":[3687,974]},{"type":"Point","properties":{"Station_ID":"WV-NC-4","Station_Nam":"CRAIGSVILLE 0.6 NE, WV","Latitude":"38.33698","Longitude":"-80.64520","Snowdepth":"1.000","Units":"in","Rept_Date":"2020-04-10 12"},"coordinates":[3517,960]},{"type":"Point","properties":{"Station_ID":"WSTN6","Station_Nam":"WESTMORELAND 4 N","Latitude":"43.15950","Longitude":"-75.46110","Snowdepth":"1.000","Units":"in","Rept_Date":"2020-04-10 11"},"coordinates":[4809,4464]},{"type":"Point","properties":{"Station_ID":"WORV1","Station_Nam":"WORCESTER 2 W","Latitude":"44.37470","Longitude":"-72.58220","Snowdepth":"1.000","Units":"in","Rept_Date":"2020-04-10 11"},"coordinates":[5526,5346]},{"type":"Point","properties":{"Station_ID":"WNDP1","Station_Nam":"WINDBER COUNTY CLUB","Latitude":"40.28780","Longitude":"-78.77530","Snowdepth":"1.000","Units":"in","Rept_Date":"2020-04-10 11"},"coordinates":[3983,2377]},{"type":"Point","properties":{"Station_ID":"WLLP1","Station_Nam":"WELLSBORO 4 SW","Latitude":"41.70030","Longitude":"-77.38940","Snowdepth":"1.000","Units":"in","Rept_Date":"2020-04-10 11"},"coordinates":[4328,3403]},{"type":"Point","properties":{"Station_ID":"WI-LF-6","Station_Nam":"SOUTH WAYNE 3.9 SSW, WI","Latitude":"42.51173","Longitude":"-89.89555","Snowdepth":"1.000","Units":"in","Rept_Date":"2020-04-10 12"},"coordinates":[1212,3993]},{"type":"Point","properties":{"Station_ID":"WBLN6","Station_Nam":"WEST BLOOMFIELD","Latitude":"42.88460","Longitude":"-77.53400","Snowdepth":"1.000","Units":"in","Rept_Date":"2020-04-10 11"},"coordinates":[4292,4264]},{"type":"Point","properties":{"Station_ID":"VT-WR-17","Station_Nam":"ROCHESTER 2.3 NE, VT","Latitude":"43.89418","Longitude":"-72.76992","Snowdepth":"1.000","Units":"in","Rept_Date":"2020-04-10 12"},"coordinates":[5479,4997]},{"type":"Point","properties":{"Station_ID":"TMWN3","Station_Nam":"TAMWORTH 4","Latitude":"43.86390","Longitude":"-71.26610","Snowdepth":"1.000","Units":"in","Rept_Date":"2020-04-10 11"},"coordinates":[5854,4975]},{"type":"Point","properties":{"Station_ID":"STWO1","Station_Nam":"MONROE FALLS","Latitude":"41.13110","Longitude":"-81.40000","Snowdepth":"1.000","Units":"in","Rept_Date":"2020-04-10 11"},"coordinates":[3329,2990]},{"type":"Point","properties":{"Station_ID":"STIM4","Station_Nam":"ST IGNACE","Latitude":"45.86080","Longitude":"-84.71960","Snowdepth":"1.000","Units":"in","Rept_Date":"2020-04-10 11"},"coordinates":[2502,6426]},{"type":"Point","properties":{"Station_ID":"SPPP1","Station_Nam":"SLIPPERY ROCK","Latitude":"41.05600","Longitude":"-80.05950","Snowdepth":"1.000","Units":"in","Rept_Date":"2020-04-10 11"},"coordinates":[3663,2935]},{"type":"Point","properties":{"Station_ID":"SNOW2","Station_Nam":"SNOWSHOE","Latitude":"38.39900","Longitude":"-79.99490","Snowdepth":"1.000","Units":"in","Rept_Date":"2020-04-10 10"},"coordinates":[3679,1005]},{"type":"Point","properties":{"Station_ID":"SLNV1","Station_Nam":"SOUTH LINCOLN","Latitude":"44.07460","Longitude":"-72.97180","Snowdepth":"1.000","Units":"in","Rept_Date":"2020-04-10 11"},"coordinates":[5429,5128]},{"type":"Point","properties":{"Station_ID":"SGVN6","Station_Nam":"SPRINGVILLE","Latitude":"42.54970","Longitude":"-78.57670","Snowdepth":"1.000","Units":"in","Rept_Date":"2020-04-11 00"},"coordinates":[4032,4021]},{"type":"Point","properties":{"Station_ID":"SBOP1","Station_Nam":"SPRINGBORO","Latitude":"41.81660","Longitude":"-80.43330","Snowdepth":"1.000","Units":"in","Rept_Date":"2020-04-10 11"},"coordinates":[3570,3488]},{"type":"Point","properties":{"Station_ID":"RDWP1","Station_Nam":"RIDGWAY,PA","Latitude":"41.41670","Longitude":"-78.75000","Snowdepth":"1.000","Units":"in","Rept_Date":"2020-04-10 11"},"coordinates":[3989,3197]},{"type":"Point","properties":{"Station_ID":"PLBP1","Station_Nam":"PHILIPSBURG,PA","Latitude":"40.87220","Longitude":"-78.21530","Snowdepth":"1.000","Units":"in","Rept_Date":"2020-04-10 12"},"coordinates":[4122,2802]},{"type":"Point","properties":{"Station_ID":"PDGM4","Station_Nam":"PAULDING","Latitude":"46.39760","Longitude":"-89.17940","Snowdepth":"1.000","Units":"in","Rept_Date":"2020-04-10 12"},"coordinates":[1390,6816]},{"type":"Point","properties":{"Station_ID":"PA-VN-7","Station_Nam":"COOPERSTOWN 1.3 E, PA","Latitude":"41.50067","Longitude":"-79.84970","Snowdepth":"1.000","Units":"in","Rept_Date":"2020-04-10 12"},"coordinates":[3715,3258]},{"type":"Point","properties":{"Station_ID":"PA-IN-9","Station_Nam":"INDIANA 6.5 WNW, PA","Latitude":"40.66123","Longitude":"-79.26802","Snowdepth":"1.000","Units":"in","Rept_Date":"2020-04-10 13"},"coordinates":[3860,2649]},{"type":"Point","properties":{"Station_ID":"PA-CW-8","Station_Nam":"SPRINGBORO 3.0 WNW, PA","Latitude":"41.81654","Longitude":"-80.42540","Snowdepth":"1.000","Units":"in","Rept_Date":"2020-04-10 12"},"coordinates":[3572,3488]},{"type":"Point","properties":{"Station_ID":"PA-BT-6","Station_Nam":"BUTLER 6.6 SW, PA","Latitude":"40.77069","Longitude":"-79.93850","Snowdepth":"1.000","Units":"in","Rept_Date":"2020-04-10 12"},"coordinates":[3693,2728]},{"type":"Point","properties":{"Station_ID":"PA-BT-24","Station_Nam":"CABOT 0.3 N, PA","Latitude":"40.76870","Longitude":"-79.76690","Snowdepth":"1.000","Units":"in","Rept_Date":"2020-04-10 12"},"coordinates":[3736,2727]},{"type":"Point","properties":{"Station_ID":"PA-BT-15","Station_Nam":"FOX RUN 1.6 NNE, PA","Latitude":"40.72384","Longitude":"-80.07056","Snowdepth":"1.000","Units":"in","Rept_Date":"2020-04-10 11"},"coordinates":[3660,2694]},{"type":"Point","properties":{"Station_ID":"OLMN6","Station_Nam":"OLD FORGE - MOOSE","Latitude":"43.71270","Longitude":"-74.96930","Snowdepth":"1.000","Units":"in","Rept_Date":"2020-04-10 12"},"coordinates":[4931,4866]},{"type":"Point","properties":{"Station_ID":"OH-MD-2","Station_Nam":"BRUNSWICK 0.5 NE, OH","Latitude":"41.24980","Longitude":"-81.81330","Snowdepth":"1.000","Units":"in","Rept_Date":"2020-04-10 12"},"coordinates":[3226,3076]},{"type":"Point","properties":{"Station_ID":"NY-WY-10","Station_Nam":"WYOMING COOP, NY","Latitude":"42.82060","Longitude":"-78.14810","Snowdepth":"1.000","Units":"in","Rept_Date":"2020-04-10 12"},"coordinates":[4139,4217]},{"type":"Point","properties":{"Station_ID":"NY-TM-5","Station_Nam":"FREEVILLE 1.5 NE, NY","Latitude":"42.52530","Longitude":"-76.32180","Snowdepth":"1.000","Units":"in","Rept_Date":"2020-04-10 12"},"coordinates":[4594,4003]},{"type":"Point","properties":{"Station_ID":"NY-TM-27","Station_Nam":"GROTON 3.2 SSW, NY","Latitude":"42.54725","Longitude":"-76.39960","Snowdepth":"1.000","Units":"in","Rept_Date":"2020-04-10 12"},"coordinates":[4575,4019]},{"type":"Point","properties":{"Station_ID":"NY-OD-21","Station_Nam":"ROME 4.8 SSE, NY","Latitude":"43.16000","Longitude":"-75.46000","Snowdepth":"1.000","Units":"in","Rept_Date":"2020-04-10 12"},"coordinates":[4809,4464]},{"type":"Point","properties":{"Station_ID":"NY-MR-21","Station_Nam":"PITTSFORD 4.0 SSE, NY","Latitude":"43.03498","Longitude":"-77.49450","Snowdepth":"1.000","Units":"in","Rept_Date":"2020-04-10 14"},"coordinates":[4302,4373]},{"type":"Point","properties":{"Station_ID":"NY-MG-3","Station_Nam":"HESSVILLE 1.8 WSW, NY","Latitude":"42.86430","Longitude":"-74.72140","Snowdepth":"1.000","Units":"in","Rept_Date":"2020-04-10 14"},"coordinates":[4993,4249]},{"type":"Point","properties":{"Station_ID":"NY-MD-22","Station_Nam":"ONEIDA 0.4 NW, NY","Latitude":"43.08012","Longitude":"-75.66860","Snowdepth":"1.000","Units":"in","Rept_Date":"2020-04-10 12"},"coordinates":[4757,4406]},{"type":"Point","properties":{"Station_ID":"NY-LV-5","Station_Nam":"DANSVILLE 1.0 ENE, NY","Latitude":"42.56802","Longitude":"-77.67900","Snowdepth":"1.000","Units":"in","Rept_Date":"2020-04-10 12"},"coordinates":[4256,4034]},{"type":"Point","properties":{"Station_ID":"NY-HR-16","Station_Nam":"ILION 0.7 WSW, NY","Latitude":"43.00880","Longitude":"-75.05390","Snowdepth":"1.000","Units":"in","Rept_Date":"2020-04-10 12"},"coordinates":[4910,4354]},{"type":"Point","properties":{"Station_ID":"NY-GN-6","Station_Nam":"STAFFORD 1.8 NE, NY","Latitude":"42.99890","Longitude":"-78.04830","Snowdepth":"1.000","Units":"in","Rept_Date":"2020-04-10 12"},"coordinates":[4164,4347]},{"type":"Point","properties":{"Station_ID":"NY-FK-9","Station_Nam":"GABRIELS 1.3 SE, NY","Latitude":"44.41934","Longitude":"-74.16194","Snowdepth":"1.000","Units":"in","Rept_Date":"2020-04-10 12"},"coordinates":[5133,5379]},{"type":"Point","properties":{"Station_ID":"NY-FK-7","Station_Nam":"SARANAC LAKE 6.2 N, NY","Latitude":"44.41359","Longitude":"-74.15211","Snowdepth":"1.000","Units":"in","Rept_Date":"2020-04-10 12"},"coordinates":[5135,5375]},{"type":"Point","properties":{"Station_ID":"NY-ER-63","Station_Nam":"GLENWOOD 1.5 SE, NY","Latitude":"42.60195","Longitude":"-78.63910","Snowdepth":"1.000","Units":"in","Rept_Date":"2020-04-10 13"},"coordinates":[4017,4059]},{"type":"Point","properties":{"Station_ID":"NY-ER-166","Station_Nam":"BOSTON 2.5 NE, NY","Latitude":"42.65480","Longitude":"-78.70300","Snowdepth":"1.000","Units":"in","Rept_Date":"2020-04-10 12"},"coordinates":[4001,4097]},{"type":"Point","properties":{"Station_ID":"NY-CN-9","Station_Nam":"NORWICH 5.4 W, NY","Latitude":"42.53356","Longitude":"-75.63060","Snowdepth":"1.000","Units":"in","Rept_Date":"2020-04-10 12"},"coordinates":[4767,4009]},{"type":"Point","properties":{"Station_ID":"NRWN6","Station_Nam":"NORWICH","Latitude":"42.51170","Longitude":"-75.51970","Snowdepth":"1.000","Units":"in","Rept_Date":"2020-04-10 10"},"coordinates":[4794,3993]},{"type":"Point","properties":{"Station_ID":"NPTV1","Station_Nam":"NEWPORT","Latitude":"44.94900","Longitude":"-72.19120","Snowdepth":"1.000","Units":"in","Rept_Date":"2020-04-10 11"},"coordinates":[5624,5764]},{"type":"Point","properties":{"Station_ID":"NORV2","Station_Nam":"NORA 4 SSE","Latitude":"37.01560","Longitude":"-82.32140","Snowdepth":"1.000","Units":"in","Rept_Date":"2020-04-10 11"},"coordinates":[3099,0]},{"type":"Point","properties":{"Station_ID":"NH-CS-7","Station_Nam":"LANCASTER 0.5 N, NH","Latitude":"44.49611","Longitude":"-71.57640","Snowdepth":"1.000","Units":"in","Rept_Date":"2020-04-10 11"},"coordinates":[5777,5435]},{"type":"Point","properties":{"Station_ID":"NH-CR-27","Station_Nam":"TAMWORTH 0.4 NNW, NH","Latitude":"43.86449","Longitude":"-71.26610","Snowdepth":"1.000","Units":"in","Rept_Date":"2020-04-10 12"},"coordinates":[5854,4976]},{"type":"Point","properties":{"Station_ID":"NCUW2","Station_Nam":"NEW CUMBERLAND DAM","Latitude":"40.52610","Longitude":"-80.62750","Snowdepth":"1.000","Units":"in","Rept_Date":"2020-04-10 10"},"coordinates":[3521,2550]},{"type":"Point","properties":{"Station_ID":"NCON3","Station_Nam":"NORTH CONWAY","Latitude":"44.05620","Longitude":"-71.12970","Snowdepth":"1.000","Units":"in","Rept_Date":"2020-04-10 12"},"coordinates":[5888,5115]},{"type":"Point","properties":{"Station_ID":"NCBN6","Station_Nam":"NEWCOMB","Latitude":"43.97070","Longitude":"-74.22200","Snowdepth":"1.000","Units":"in","Rept_Date":"2020-04-10 12"},"coordinates":[5118,5053]},{"type":"Point","properties":{"Station_ID":"MOSO1","Station_Nam":"MOSQUITO CREEK DAM","Latitude":"41.28830","Longitude":"-80.76470","Snowdepth":"1.000","Units":"in","Rept_Date":"2020-04-10 11"},"coordinates":[3487,3104]},{"type":"Point","properties":{"Station_ID":"MN7M8EBJ","Station_Nam":"LUTSEN 15.7 NNW","Latitude":"47.85324","Longitude":"-89.92908","Snowdepth":"1.000","Units":"in","Rept_Date":"2020-04-10 13"},"coordinates":[1203,7874]},{"type":"Point","properties":{"Station_ID":"MIEM4","Station_Nam":"MICHIGAMME 3WNW","Latitude":"46.54530","Longitude":"-88.18000","Snowdepth":"1.000","Units":"in","Rept_Date":"2020-04-10 12"},"coordinates":[1639,6923]},{"type":"Point","properties":{"Station_ID":"MI-OT-17","Station_Nam":"GAYLORD 4.1 S, MI","Latitude":"44.96388","Longitude":"-84.68467","Snowdepth":"1.000","Units":"in","Rept_Date":"2020-04-10 12"},"coordinates":[2510,5774]},{"type":"Point","properties":{"Station_ID":"ME-WS-31","Station_Nam":"EASTPORT 1.4 ESE, ME","Latitude":"44.91044","Longitude":"-66.98572","Snowdepth":"1.000","Units":"in","Rept_Date":"2020-04-10 12"},"coordinates":[6921,5736]},{"type":"Point","properties":{"Station_ID":"ME-HN-3","Station_Nam":"SOUTHWEST HARBOR 2.6 SE, ME","Latitude":"44.25170","Longitude":"-68.29450","Snowdepth":"1.000","Units":"in","Rept_Date":"2020-04-10 13"},"coordinates":[6595,5257]},{"type":"Point","properties":{"Station_ID":"LOWN6","Station_Nam":"LOWVILLE","Latitude":"43.79280","Longitude":"-75.48290","Snowdepth":"1.000","Units":"in","Rept_Date":"2020-04-10 11"},"coordinates":[4803,4924]},{"type":"Point","properties":{"Station_ID":"LERN6","Station_Nam":"LE ROY 1E","Latitude":"42.97360","Longitude":"-77.96710","Snowdepth":"1.000","Units":"in","Rept_Date":"2020-04-10 12"},"coordinates":[4184,4329]},{"type":"Point","properties":{"Station_ID":"KYNG","Station_Nam":"YOUNGSTOWN-WARREN REG AIRPRT","Latitude":"41.25000","Longitude":"-80.66666","Snowdepth":"1.000","Units":"in","Rept_Date":"2020-04-10 12"},"coordinates":[3512,3076]},{"type":"Point","properties":{"Station_ID":"KROC","Station_Nam":"GREATER ROCHESTER INTERNATIONAL","Latitude":"43.11666","Longitude":"-77.68333","Snowdepth":"1.000","Units":"in","Rept_Date":"2020-04-10 18"},"coordinates":[4255,4432]},{"type":"Point","properties":{"Station_ID":"KCAK","Station_Nam":"AKRON-CANTON REGIONAL AIRPORT","Latitude":"40.91666","Longitude":"-81.45000","Snowdepth":"1.000","Units":"in","Rept_Date":"2020-04-10 12"},"coordinates":[3316,2834]},{"type":"Point","properties":{"Station_ID":"JEFV1","Station_Nam":"JEFFERSONVILLE","Latitude":"44.58430","Longitude":"-72.78700","Snowdepth":"1.000","Units":"in","Rept_Date":"2020-04-10 11"},"coordinates":[5475,5499]},{"type":"Point","properties":{"Station_ID":"INDN6","Station_Nam":"INDIAN LAKE","Latitude":"43.75500","Longitude":"-74.27560","Snowdepth":"1.000","Units":"in","Rept_Date":"2020-04-10 12"},"coordinates":[5104,4896]},{"type":"Point","properties":{"Station_ID":"HRLN6","Station_Nam":"HORNELL ALMOND DAM","Latitude":"42.34880","Longitude":"-77.70440","Snowdepth":"1.000","Units":"in","Rept_Date":"2020-04-10 10"},"coordinates":[4250,3875]},{"type":"Point","properties":{"Station_ID":"HGHN6","Station_Nam":"HIGHMARKET","Latitude":"43.57520","Longitude":"-75.52070","Snowdepth":"1.000","Units":"in","Rept_Date":"2020-04-10 10"},"coordinates":[4794,4766]},{"type":"Point","properties":{"Station_ID":"GNEN6","Station_Nam":"GREENE","Latitude":"42.32440","Longitude":"-75.77170","Snowdepth":"1.000","Units":"in","Rept_Date":"2020-04-10 12"},"coordinates":[4731,3857]},{"type":"Point","properties":{"Station_ID":"GLTP1","Station_Nam":"GALETON,PA","Latitude":"41.73330","Longitude":"-77.63330","Snowdepth":"1.000","Units":"in","Rept_Date":"2020-04-10 12"},"coordinates":[4268,3427]},{"type":"Point","properties":{"Station_ID":"DLSN6","Station_Nam":"DELANSON 2NE","Latitude":"42.76720","Longitude":"-74.17110","Snowdepth":"1.000","Units":"in","Rept_Date":"2020-04-10 11"},"coordinates":[5130,4179]},{"type":"Point","properties":{"Station_ID":"DELN6","Station_Nam":"DELHI 2 SE","Latitude":"42.25580","Longitude":"-74.91270","Snowdepth":"1.000","Units":"in","Rept_Date":"2020-04-10 12"},"coordinates":[4945,3807]},{"type":"Point","properties":{"Station_ID":"CSBP1","Station_Nam":"COOKSBURG","Latitude":"41.35750","Longitude":"-79.21720","Snowdepth":"1.000","Units":"in","Rept_Date":"2020-04-10 11"},"coordinates":[3873,3154]},{"type":"Point","properties":{"Station_ID":"COVP1","Station_Nam":"COVINGTON 2WSW","Latitude":"41.73330","Longitude":"-77.11670","Snowdepth":"1.000","Units":"in","Rept_Date":"2020-04-10 11"},"coordinates":[4396,3427]},{"type":"Point","properties":{"Station_ID":"CORN6","Station_Nam":"CORNING","Latitude":"42.13410","Longitude":"-77.06910","Snowdepth":"1.000","Units":"in","Rept_Date":"2020-04-10 11"},"coordinates":[4408,3719]},{"type":"Point","properties":{"Station_ID":"CNDP1","Station_Nam":"CANADENSIS","Latitude":"41.18980","Longitude":"-75.23830","Snowdepth":"1.000","Units":"in","Rept_Date":"2020-04-10 11"},"coordinates":[4864,3033]},{"type":"Point","properties":{"Station_ID":"CLAP1","Station_Nam":"PINEY LAKE","Latitude":"41.19220","Longitude":"-79.43560","Snowdepth":"1.000","Units":"in","Rept_Date":"2020-04-10 11"},"coordinates":[3818,3034]},{"type":"Point","properties":{"Station_ID":"CAN-PE-19","Station_Nam":"CHARLOTTETOWN 6.5 NNW, CAN","Latitude":"46.29235","Longitude":"-63.17271","Snowdepth":"1.000","Units":"in","Rept_Date":"2020-04-10 12"},"coordinates":[7871,6740]},{"type":"Point","properties":{"Station_ID":"CAN-ON-5","Station_Nam":"OWEN SOUND 1.5 NW - GSCA, CAN","Latitude":"44.57837","Longitude":"-80.95461","Snowdepth":"1.000","Units":"in","Rept_Date":"2020-04-10 13"},"coordinates":[3440,5494]},{"type":"Point","properties":{"Station_ID":"CAN-ON-31","Station_Nam":"KOMOKA 2.8 W, CAN","Latitude":"42.95424","Longitude":"-81.43488","Snowdepth":"1.000","Units":"in","Rept_Date":"2020-04-10 14"},"coordinates":[3320,4314]},{"type":"Point","properties":{"Station_ID":"CAK","Station_Nam":"AKRON-CANTON REGIONAL ARPT","Latitude":"40.91640","Longitude":"-81.44250","Snowdepth":"1.000","Units":"in","Rept_Date":"2020-04-10 12"},"coordinates":[3318,2834]},{"type":"Point","properties":{"Station_ID":"BURV2","Station_Nam":"BURKES GARDEN","Latitude":"37.09250","Longitude":"-81.33580","Snowdepth":"1.000","Units":"in","Rept_Date":"2020-04-10 11"},"coordinates":[3345,56]},{"type":"Point","properties":{"Station_ID":"BLFW2","Station_Nam":"BLUEFIELD","Latitude":"37.25550","Longitude":"-81.22630","Snowdepth":"1.000","Units":"in","Rept_Date":"2020-04-10 11"},"coordinates":[3372,174]},{"type":"Point","properties":{"Station_ID":"BKBW2","Station_Nam":"DAVIS.","Latitude":"39.09830","Longitude":"-79.43190","Snowdepth":"1.000","Units":"in","Rept_Date":"2020-04-10 11"},"coordinates":[3819,1513]},{"type":"Point","properties":{"Station_ID":"BENN6","Station_Nam":"BENNETTS BRIDGE","Latitude":"43.53180","Longitude":"-75.95260","Snowdepth":"1.000","Units":"in","Rept_Date":"2020-04-10 11"},"coordinates":[4686,4734]},{"type":"Point","properties":{"Station_ID":"BARW2","Station_Nam":"BARTOW 1S","Latitude":"38.53120","Longitude":"-79.77140","Snowdepth":"1.000","Units":"in","Rept_Date":"2020-04-10 11"},"coordinates":[3735,1101]},{"type":"Point","properties":{"Station_ID":"AURW3","Station_Nam":"AURORA","Latitude":"45.77000","Longitude":"-88.11810","Snowdepth":"1.000","Units":"in","Rept_Date":"2020-04-10 12"},"coordinates":[1655,6360]},{"type":"Point","properties":{"Station_ID":"ATAN6","Station_Nam":"ATTICA 7 SW","Latitude":"42.81070","Longitude":"-78.39790","Snowdepth":"1.000","Units":"in","Rept_Date":"2020-04-10 10"},"coordinates":[4077,4210]},{"type":"Point","properties":{"Station_ID":"42.2002_079.8021","Station_Nam":"2 ESE North East  Trained Spotter (CLE0183)","Latitude":"42.20018","Longitude":"-79.80210","Snowdepth":"1.000","Units":"in","Rept_Date":"2020-04-10 12"},"coordinates":[3727,3767]},{"type":"Point","properties":{"Station_ID":"41.8166_080.4333","Station_Nam":"3 WNW Springboro  Co-Op Observer (SBOP1)","Latitude":"41.81660","Longitude":"-80.43330","Snowdepth":"1.000","Units":"in","Rept_Date":"2020-04-10 11"},"coordinates":[3570,3488]},{"type":"Point","properties":{"Station_ID":"41.8165_080.4254","Station_Nam":"3 WNW Springboro  CoCoRaHS (PA-CW-8)","Latitude":"41.81650","Longitude":"-80.42540","Snowdepth":"1.000","Units":"in","Rept_Date":"2020-04-10 12"},"coordinates":[3572,3488]},{"type":"Point","properties":{"Station_ID":"41.5363_080.8353","Station_Nam":"ORWELL 1E  SNOW SPOTTER (CLE1445)","Latitude":"41.53630","Longitude":"-80.83530","Snowdepth":"1.000","Units":"in","Rept_Date":"2020-04-10 12"},"coordinates":[3470,3284]},{"type":"Point","properties":{"Station_ID":"41.3292_080.7272","Station_Nam":"Cortland  Trained Spotter (X4130807)","Latitude":"41.32922","Longitude":"-80.72719","Snowdepth":"1.000","Units":"in","Rept_Date":"2020-04-10 10"},"coordinates":[3497,3134]},{"type":"Point","properties":{"Station_ID":"41.2982_081.8151","Station_Nam":"1 SE Strongsville  Trained Spotter (CLE1180)","Latitude":"41.29818","Longitude":"-81.81507","Snowdepth":"1.000","Units":"in","Rept_Date":"2020-04-10 12"},"coordinates":[3225,3111]},{"type":"Point","properties":{"Station_ID":"41.2883_080.7647","Station_Nam":"Mosquito Creek Lake  Co-Op Observer (MOSO1)","Latitude":"41.28830","Longitude":"-80.76470","Snowdepth":"1.000","Units":"in","Rept_Date":"2020-04-10 11"},"coordinates":[3487,3104]},{"type":"Point","properties":{"Station_ID":"41.2574_080.6670","Station_Nam":"Youngstown Regional Airport  Trained Spotter (CLE2302)","Latitude":"41.25735","Longitude":"-80.66700","Snowdepth":"1.000","Units":"in","Rept_Date":"2020-04-10 12"},"coordinates":[3512,3082]},{"type":"Point","properties":{"Station_ID":"41.2499_081.8127","Station_Nam":"BRUNSWICK (CLE2007)","Latitude":"41.24990","Longitude":"-81.81270","Snowdepth":"1.000","Units":"in","Rept_Date":"2020-04-10 11"},"coordinates":[3226,3076]},{"type":"Point","properties":{"Station_ID":"41.2288_081.7159","Station_Nam":"HINCKLEY  TRAINED SPOTTER (CLE2006)","Latitude":"41.22880","Longitude":"-81.71590","Snowdepth":"1.000","Units":"in","Rept_Date":"2020-04-10 10"},"coordinates":[3250,3061]},{"type":"Point","properties":{"Station_ID":"41.2282_080.8472","Station_Nam":"WARREN (CLE2324)","Latitude":"41.22820","Longitude":"-80.84720","Snowdepth":"1.000","Units":"in","Rept_Date":"2020-04-10 11"},"coordinates":[3467,3060]},{"type":"Point","properties":{"Station_ID":"41.1970_080.9871","Station_Nam":"NEWTON FALLS (CLE2322)","Latitude":"41.19700","Longitude":"-80.98710","Snowdepth":"1.000","Units":"in","Rept_Date":"2020-04-10 12"},"coordinates":[3432,3038]},{"type":"Point","properties":{"Station_ID":"41.1403_081.4956","Station_Nam":"CUYAHOGA FALLS (CLE2128)","Latitude":"41.14030","Longitude":"-81.49560","Snowdepth":"1.000","Units":"in","Rept_Date":"2020-04-10 12"},"coordinates":[3305,2997]},{"type":"Point","properties":{"Station_ID":"41.1311_081.4000","Station_Nam":"MONROE FALLS  CO-OP OBSERVER (STWO1)","Latitude":"41.13110","Longitude":"-81.40000","Snowdepth":"1.000","Units":"in","Rept_Date":"2020-04-10 11"},"coordinates":[3329,2990]},{"type":"Point","properties":{"Station_ID":"41.1184_081.4397","Station_Nam":"TALLMADGE (CLE2118)","Latitude":"41.11840","Longitude":"-81.43970","Snowdepth":"1.000","Units":"in","Rept_Date":"2020-04-10 13"},"coordinates":[3319,2981]},{"type":"Point","properties":{"Station_ID":"41.0648_082.0192","Station_Nam":"LODI  SNOW SPOTTER (X4110820)","Latitude":"41.06480","Longitude":"-82.01920","Snowdepth":"1.000","Units":"in","Rept_Date":"2020-04-10 12"},"coordinates":[3175,2942]},{"type":"Point","properties":{"Station_ID":"40.9877_081.6532","Station_Nam":"3 ENE Doylestown  Trained Spotter (CLE3106)","Latitude":"40.98769","Longitude":"-81.65317","Snowdepth":"1.000","Units":"in","Rept_Date":"2020-04-10 11"},"coordinates":[3266,2886]},{"type":"Point","properties":{"Station_ID":"40.9167_081.4354","Station_Nam":"Akron-Canton Airport  Trained Spotter (CLE2105)","Latitude":"40.91669","Longitude":"-81.43544","Snowdepth":"1.000","Units":"in","Rept_Date":"2020-04-10 12"},"coordinates":[3320,2834]},{"type":"Point","properties":{"Station_ID":"40.8570_081.1246","Station_Nam":"ALLIANCE  SNOW SPOTTER (CLE3201)","Latitude":"40.85700","Longitude":"-81.12460","Snowdepth":"1.000","Units":"in","Rept_Date":"2020-04-10 10"},"coordinates":[3397,2791]},{"type":"Point","properties":{"Station_ID":"38.5312_079.7714","Station_Nam":"1 S BARTOW  CO-OP OBSERVER (X3850798)","Latitude":"38.53120","Longitude":"-79.77140","Snowdepth":"1.000","Units":"in","Rept_Date":"2020-04-10 11"},"coordinates":[3735,1101]},{"type":"Point","properties":{"Station_ID":"38.3990_079.9949","Station_Nam":"SNOWSHOE  CO-OP OBSERVER (X3840800)","Latitude":"38.39900","Longitude":"-79.99490","Snowdepth":"1.000","Units":"in","Rept_Date":"2020-04-10 10"},"coordinates":[3679,1005]},{"type":"Point","properties":{"Station_ID":"38.3566_079.9621","Station_Nam":"4 SW Cass  CoCoRaHS (WV-PC-4)","Latitude":"38.35660","Longitude":"-79.96210","Snowdepth":"1.000","Units":"in","Rept_Date":"2020-04-10 12"},"coordinates":[3687,974]},{"type":"Point","properties":{"Station_ID":"38.3370_080.6452","Station_Nam":"1 NE Craigsville  CoCoRaHS (WV-NC-4)","Latitude":"38.33700","Longitude":"-80.64520","Snowdepth":"1.000","Units":"in","Rept_Date":"2020-04-10 12"},"coordinates":[3517,960]},{"type":"Point","properties":{"Station_ID":"37.0156_082.3214","Station_Nam":"4 SSE NORA (NORV2)","Latitude":"37.01560","Longitude":"-82.32140","Snowdepth":"1.000","Units":"in","Rept_Date":"2020-04-10 11"},"coordinates":[3099,0]}]}},"arcs":[],"transform":{"scale":[0.004012797279727973,0.0013764476447644767],"translate":[-94.75792,37.0156]}}