{"type":"Topology","objects":{"snowdepth_geo":{"type":"GeometryCollection","name":"snowdepth","crs":{"type":"name","properties":{"name":"urn:ogc:def:crs:OGC:1.3:CRS84"}},"geometries":[{"type":"Point","properties":{"Station_ID":"MMSV1","Station_Nam":"MOUNT MANSFIELD","Latitude":"44.53330","Longitude":"-72.83330","Snowdepth":"84.000","Units":"in","Rept_Date":"2019-12-18 05"},"coordinates":[6319,5110]},{"type":"Point","properties":{"Station_ID":"PRKM4","Station_Nam":"MUNISING EAST","Latitude":"46.42580","Longitude":"-86.62000","Snowdepth":"76.500","Units":"in","Rept_Date":"2019-12-18 06"},"coordinates":[2749,6396]},{"type":"Point","properties":{"Station_ID":"OGIQ6","Station_Nam":"OGOKI CAMP","Latitude":"50.76680","Longitude":"-87.85820","Snowdepth":"61.100","Units":"in","Rept_Date":"2019-12-18 06"},"coordinates":[2429,9347]},{"type":"Point","properties":{"Station_ID":"AUDQ6","Station_Nam":"AUDEN","Latitude":"48.52600","Longitude":"-82.57570","Snowdepth":"47.640","Units":"in","Rept_Date":"2019-12-18 06"},"coordinates":[3796,7824]},{"type":"Point","properties":{"Station_ID":"DVLQ6","Station_Nam":"DEVIOUS LAKE","Latitude":"49.19890","Longitude":"-87.76440","Snowdepth":"43.460","Units":"in","Rept_Date":"2019-12-18 06"},"coordinates":[2453,8281]},{"type":"Point","properties":{"Station_ID":"HURW3","Station_Nam":"HURLEY","Latitude":"46.46250","Longitude":"-90.19550","Snowdepth":"36.000","Units":"in","Rept_Date":"2019-12-17 14"},"coordinates":[1824,6421]},{"type":"Point","properties":{"Station_ID":"SWTW3","Station_Nam":"SUPERIOR WWTP","Latitude":"46.72700","Longitude":"-92.07200","Snowdepth":"34.000","Units":"in","Rept_Date":"2019-12-18 06"},"coordinates":[1338,6601]},{"type":"Point","properties":{"Station_ID":"IWOM4","Station_Nam":"IRONWOOD#2","Latitude":"46.46520","Longitude":"-90.13820","Snowdepth":"34.000","Units":"in","Rept_Date":"2019-12-17 13"},"coordinates":[1838,6423]},{"type":"Point","properties":{"Station_ID":"GMSM4","Station_Nam":"GRAND MARAIS 10S","Latitude":"46.50940","Longitude":"-85.96310","Snowdepth":"33.000","Units":"in","Rept_Date":"2019-12-17 12"},"coordinates":[2919,6453]},{"type":"Point","properties":{"Station_ID":"BERM4","Station_Nam":"BERGLAND DAM","Latitude":"46.58690","Longitude":"-89.54750","Snowdepth":"31.000","Units":"in","Rept_Date":"2019-12-17 13"},"coordinates":[1991,6506]},{"type":"Point","properties":{"Station_ID":"KSGM4","Station_Nam":"KEARSARGE","Latitude":"47.27520","Longitude":"-88.41700","Snowdepth":"30.000","Units":"in","Rept_Date":"2019-12-17 13"},"coordinates":[2284,6974]},{"type":"Point","properties":{"Station_ID":"QNCM4","Station_Nam":"QUINCY HILL","Latitude":"47.13640","Longitude":"-88.57950","Snowdepth":"29.000","Units":"in","Rept_Date":"2019-12-17 12"},"coordinates":[2242,6879]},{"type":"Point","properties":{"Station_ID":"GNLM4","Station_Nam":"GREENLAND 6N","Latitude":"46.87360","Longitude":"-89.10060","Snowdepth":"29.000","Units":"in","Rept_Date":"2019-12-17 13"},"coordinates":[2107,6701]},{"type":"Point","properties":{"Station_ID":"QGO","Station_Nam":"QGO","Latitude":"48.85500","Longitude":"-74.20640","Snowdepth":"28.031","Units":"in","Rept_Date":"2019-12-17 12"},"coordinates":[5963,8047]},{"type":"Point","properties":{"Station_ID":"WI-IR-3","Station_Nam":"PENCE 0.1 E, WI","Latitude":"46.41555","Longitude":"-90.27013","Snowdepth":"28.000","Units":"in","Rept_Date":"2019-12-17 13"},"coordinates":[1804,6389]},{"type":"Point","properties":{"Station_ID":"ASXW3","Station_Nam":"ASHLAND,WI","Latitude":"46.55220","Longitude":"-90.91610","Snowdepth":"28.000","Units":"in","Rept_Date":"2019-12-17 14"},"coordinates":[1637,6482]},{"type":"Point","properties":{"Station_ID":"WLFM5","Station_Nam":"WOLF RIDGE ENVIRON LEARNING CENTER","Latitude":"47.38240","Longitude":"-91.19730","Snowdepth":"27.000","Units":"in","Rept_Date":"2019-12-17 13"},"coordinates":[1564,7046]},{"type":"Point","properties":{"Station_ID":"WI-BY-1","Station_Nam":"BAYFIELD 8.8 N, WI","Latitude":"46.93855","Longitude":"-90.83490","Snowdepth":"27.000","Units":"in","Rept_Date":"2019-12-17 13"},"coordinates":[1658,6745]},{"type":"Point","properties":{"Station_ID":"MQT","Station_Nam":"MARQUETTE, MI","Latitude":"46.53140","Longitude":"-87.54920","Snowdepth":"27.000","Units":"in","Rept_Date":"2019-12-18 06"},"coordinates":[2509,6468]},{"type":"Point","properties":{"Station_ID":"IBLM5","Station_Nam":"ISABELLA 14W","Latitude":"47.59360","Longitude":"-91.65140","Snowdepth":"27.000","Units":"in","Rept_Date":"2019-12-17 15"},"coordinates":[1447,7190]},{"type":"Point","properties":{"Station_ID":"QMD","Station_Nam":"QMD","Latitude":"49.29060","Longitude":"-75.84500","Snowdepth":"26.457","Units":"in","Rept_Date":"2019-12-17 12"},"coordinates":[5539,8343]},{"type":"Point","properties":{"Station_ID":"MI-BG-3","Station_Nam":"L'ANSE 17.8 SE, MI","Latitude":"46.55730","Longitude":"-88.20770","Snowdepth":"26.000","Units":"in","Rept_Date":"2019-12-17 13"},"coordinates":[2338,6486]},{"type":"Point","properties":{"Station_ID":"WTRW3","Station_Nam":"WINTER","Latitude":"45.79920","Longitude":"-90.99470","Snowdepth":"25.000","Units":"in","Rept_Date":"2019-12-17 15"},"coordinates":[1617,5970]},{"type":"Point","properties":{"Station_ID":"WRSM5","Station_Nam":"WRENSHALL","Latitude":"46.61550","Longitude":"-92.38380","Snowdepth":"25.000","Units":"in","Rept_Date":"2019-12-17 14"},"coordinates":[1257,6525]},{"type":"Point","properties":{"Station_ID":"PDGM4","Station_Nam":"PAULDING","Latitude":"46.39760","Longitude":"-89.17940","Snowdepth":"25.000","Units":"in","Rept_Date":"2019-12-17 13"},"coordinates":[2087,6377]},{"type":"Point","properties":{"Station_ID":"KISM4","Station_Nam":"K.I. SAWYER WWTP","Latitude":"46.33410","Longitude":"-87.37790","Snowdepth":"25.000","Units":"in","Rept_Date":"2019-12-17 13"},"coordinates":[2553,6334]},{"type":"Point","properties":{"Station_ID":"FLNW3","Station_Nam":"FLORENCE","Latitude":"45.93360","Longitude":"-88.25830","Snowdepth":"25.000","Units":"in","Rept_Date":"2019-12-17 13"},"coordinates":[2325,6062]},{"type":"Point","properties":{"Station_ID":"QOU","Station_Nam":"QOU","Latitude":"50.79250","Longitude":"-69.67470","Snowdepth":"24.882","Units":"in","Rept_Date":"2019-12-17 12"},"coordinates":[7136,9364]},{"type":"Point","properties":{"Station_ID":"QLB","Station_Nam":"QLB","Latitude":"50.72360","Longitude":"-75.10000","Snowdepth":"24.646","Units":"in","Rept_Date":"2019-12-17 12"},"coordinates":[5732,9317]},{"type":"Point","properties":{"Station_ID":"QCU","Station_Nam":"QCU","Latitude":"47.82750","Longitude":"-76.59830","Snowdepth":"24.567","Units":"in","Rept_Date":"2019-12-17 12"},"coordinates":[5344,7349]},{"type":"Point","properties":{"Station_ID":"WRPW3","Station_Nam":"WATER PURIFICATION PLANT","Latitude":"44.38800","Longitude":"-89.80550","Snowdepth":"24.000","Units":"in","Rept_Date":"2019-12-17 12"},"coordinates":[1924,5011]},{"type":"Point","properties":{"Station_ID":"MAIW3","Station_Nam":"MADELINE ISLAND","Latitude":"46.78330","Longitude":"-90.76670","Snowdepth":"24.000","Units":"in","Rept_Date":"2019-12-17 13"},"coordinates":[1676,6639]},{"type":"Point","properties":{"Station_ID":"WI-VL-10","Station_Nam":"LAND O LAKES 4.3 WNW, WI","Latitude":"46.17440","Longitude":"-89.30380","Snowdepth":"23.500","Units":"in","Rept_Date":"2019-12-17 13"},"coordinates":[2054,6225]},{"type":"Point","properties":{"Station_ID":"WI-BY-14","Station_Nam":"ASHLAND 9.8 W, WI","Latitude":"46.59742","Longitude":"-91.07856","Snowdepth":"23.000","Units":"in","Rept_Date":"2019-12-17 12"},"coordinates":[1595,6513]},{"type":"Point","properties":{"Station_ID":"MI-GG-4","Station_Nam":"WATERSMEET 5.0 SE, MI","Latitude":"46.20333","Longitude":"-89.13170","Snowdepth":"23.000","Units":"in","Rept_Date":"2019-12-17 14"},"coordinates":[2099,6245]},{"type":"Point","properties":{"Station_ID":"HERM4","Station_Nam":"HERMAN,MI","Latitude":"46.65000","Longitude":"-88.33330","Snowdepth":"23.000","Units":"in","Rept_Date":"2019-12-17 13"},"coordinates":[2306,6549]},{"type":"Point","properties":{"Station_ID":"CLQM5","Station_Nam":"CLOQUET","Latitude":"46.70470","Longitude":"-92.52530","Snowdepth":"23.000","Units":"in","Rept_Date":"2019-12-17 14"},"coordinates":[1220,6586]},{"type":"Point","properties":{"Station_ID":"BBEM4","Station_Nam":"BIG BAY 9SW","Latitude":"46.74620","Longitude":"-87.88160","Snowdepth":"23.000","Units":"in","Rept_Date":"2019-12-17 13"},"coordinates":[2423,6614]},{"type":"Point","properties":{"Station_ID":"WTRM4","Station_Nam":"WATERSMEET 12WSW","Latitude":"46.22310","Longitude":"-89.40850","Snowdepth":"22.000","Units":"in","Rept_Date":"2019-12-17 12"},"coordinates":[2027,6259]},{"type":"Point","properties":{"Station_ID":"WI-VL-9","Station_Nam":"LAND O' LAKES 11.7 W, WI","Latitude":"46.19023","Longitude":"-89.45790","Snowdepth":"22.000","Units":"in","Rept_Date":"2019-12-17 13"},"coordinates":[2014,6236]},{"type":"Point","properties":{"Station_ID":"WI-BY-2","Station_Nam":"MELLEN 18.6 SW, WI","Latitude":"46.16937","Longitude":"-90.98090","Snowdepth":"22.000","Units":"in","Rept_Date":"2019-12-17 13"},"coordinates":[1620,6222]},{"type":"Point","properties":{"Station_ID":"STGW3","Station_Nam":"ST GERMAIN","Latitude":"45.91550","Longitude":"-89.48940","Snowdepth":"22.000","Units":"in","Rept_Date":"2019-12-17 12"},"coordinates":[2006,6049]},{"type":"Point","properties":{"Station_ID":"MI-MQ-19","Station_Nam":"ISHPEMING 7.2 SW, MI","Latitude":"46.40550","Longitude":"-87.75670","Snowdepth":"22.000","Units":"in","Rept_Date":"2019-12-17 11"},"coordinates":[2455,6383]},{"type":"Point","properties":{"Station_ID":"LNOW3","Station_Nam":"LAND O LAKES","Latitude":"46.19000","Longitude":"-89.45700","Snowdepth":"22.000","Units":"in","Rept_Date":"2019-12-17 13"},"coordinates":[2015,6236]},{"type":"Point","properties":{"Station_ID":"ILIM5","Station_Nam":"ISLAND LAKE","Latitude":"47.02400","Longitude":"-92.07000","Snowdepth":"22.000","Units":"in","Rept_Date":"2019-12-17 15"},"coordinates":[1338,6803]},{"type":"Point","properties":{"Station_ID":"DLHM5","Station_Nam":"DULUTH NWS","Latitude":"46.83680","Longitude":"-92.21080","Snowdepth":"22.000","Units":"in","Rept_Date":"2019-12-18 06"},"coordinates":[1302,6676]},{"type":"Point","properties":{"Station_ID":"DLH","Station_Nam":"DULUTH, MN","Latitude":"46.83690","Longitude":"-92.21030","Snowdepth":"22.000","Units":"in","Rept_Date":"2019-12-18 00"},"coordinates":[1302,6676]},{"type":"Point","properties":{"Station_ID":"CMKW3","Station_Nam":"CLAM LAKE 4W","Latitude":"46.16940","Longitude":"-90.98080","Snowdepth":"22.000","Units":"in","Rept_Date":"2019-12-17 13"},"coordinates":[1620,6222]},{"type":"Point","properties":{"Station_ID":"AROM4","Station_Nam":"ARNOLD,MI","Latitude":"46.06670","Longitude":"-87.48330","Snowdepth":"22.000","Units":"in","Rept_Date":"2019-12-17 13"},"coordinates":[2526,6152]},{"type":"Point","properties":{"Station_ID":"WI-DG-20","Station_Nam":"SOLON SPRINGS 1.2 W, WI","Latitude":"46.35217","Longitude":"-91.84405","Snowdepth":"21.500","Units":"in","Rept_Date":"2019-12-17 13"},"coordinates":[1397,6346]},{"type":"Point","properties":{"Station_ID":"MI-HG-6","Station_Nam":"CALUMET 5.8 ENE, MI","Latitude":"47.27200","Longitude":"-88.33400","Snowdepth":"21.500","Units":"in","Rept_Date":"2019-12-17 11"},"coordinates":[2305,6971]},{"type":"Point","properties":{"Station_ID":"MLZ","Station_Nam":"MLZ","Latitude":"50.66170","Longitude":"-68.82360","Snowdepth":"21.220","Units":"in","Rept_Date":"2019-12-17 12"},"coordinates":[7357,9275]},{"type":"Point","properties":{"Station_ID":"QGD","Station_Nam":"QGD","Latitude":"51.11140","Longitude":"-67.13940","Snowdepth":"21.181","Units":"in","Rept_Date":"2019-12-17 12"},"coordinates":[7793,9581]},{"type":"Point","properties":{"Station_ID":"WI-WB-2","Station_Nam":"STONE LAKE 2.0 NW, WI","Latitude":"45.85960","Longitude":"-91.57710","Snowdepth":"21.000","Units":"in","Rept_Date":"2019-12-17 13"},"coordinates":[1466,6012]},{"type":"Point","properties":{"Station_ID":"IRMM4","Station_Nam":"WWTP","Latitude":"46.46670","Longitude":"-90.18330","Snowdepth":"21.000","Units":"in","Rept_Date":"2019-12-17 13"},"coordinates":[1827,6424]},{"type":"Point","properties":{"Station_ID":"CRVW3","Station_Nam":"CRIVITZ HIGH FALLS","Latitude":"45.35750","Longitude":"-88.19190","Snowdepth":"21.000","Units":"in","Rept_Date":"2019-12-17 13"},"coordinates":[2342,5670]},{"type":"Point","properties":{"Station_ID":"BRSW3","Station_Nam":"BRULE,WI","Latitude":"46.53780","Longitude":"-91.59190","Snowdepth":"21.000","Units":"in","Rept_Date":"2019-12-17 16"},"coordinates":[1462,6472]},{"type":"Point","properties":{"Station_ID":"AWXW3","Station_Nam":"ASHLAND","Latitude":"46.58240","Longitude":"-90.88390","Snowdepth":"21.000","Units":"in","Rept_Date":"2019-12-17 13"},"coordinates":[1645,6503]},{"type":"Point","properties":{"Station_ID":"AURW3","Station_Nam":"AURORA","Latitude":"45.77000","Longitude":"-88.11810","Snowdepth":"21.000","Units":"in","Rept_Date":"2019-12-17 13"},"coordinates":[2361,5951]},{"type":"Point","properties":{"Station_ID":"ASTW3","Station_Nam":"ATHELSTANE","Latitude":"45.42500","Longitude":"-88.05750","Snowdepth":"21.000","Units":"in","Rept_Date":"2019-12-17 12"},"coordinates":[2377,5716]},{"type":"Point","properties":{"Station_ID":"WI-AS-4","Station_Nam":"ASHLAND 0.5 WNW, WI","Latitude":"46.58240","Longitude":"-90.88390","Snowdepth":"20.500","Units":"in","Rept_Date":"2019-12-17 13"},"coordinates":[1645,6503]},{"type":"Point","properties":{"Station_ID":"SUAW3","Station_Nam":"SUAMICO","Latitude":"44.60190","Longitude":"-88.09780","Snowdepth":"20.000","Units":"in","Rept_Date":"2019-12-17 12"},"coordinates":[2367,5157]},{"type":"Point","properties":{"Station_ID":"MNSM4","Station_Nam":"MUNISING","Latitude":"46.41210","Longitude":"-86.66250","Snowdepth":"20.000","Units":"in","Rept_Date":"2019-12-17 11"},"coordinates":[2738,6387]},{"type":"Point","properties":{"Station_ID":"MI-HG-1","Station_Nam":"HOUGHTON 1.6 ESE, MI","Latitude":"47.10774","Longitude":"-88.52940","Snowdepth":"20.000","Units":"in","Rept_Date":"2019-12-17 13"},"coordinates":[2255,6860]},{"type":"Point","properties":{"Station_ID":"HTLN3","Station_Nam":"HERMIT LAKE SNOWPLOT","Latitude":"44.26130","Longitude":"-71.28330","Snowdepth":"20.000","Units":"in","Rept_Date":"2019-12-17 10"},"coordinates":[6720,4925]},{"type":"Point","properties":{"Station_ID":"HRVM4","Station_Nam":"HARVEY","Latitude":"46.49080","Longitude":"-87.35470","Snowdepth":"20.000","Units":"in","Rept_Date":"2019-12-17 12"},"coordinates":[2559,6440]},{"type":"Point","properties":{"Station_ID":"GLDM4","Station_Nam":"GLADSTONE NO. 2","Latitude":"45.84330","Longitude":"-87.03910","Snowdepth":"20.000","Units":"in","Rept_Date":"2019-12-17 12"},"coordinates":[2641,6000]},{"type":"Point","properties":{"Station_ID":"GGRM4","Station_Nam":"GREEN GARDEN NO.2","Latitude":"46.45330","Longitude":"-87.30380","Snowdepth":"20.000","Units":"in","Rept_Date":"2019-12-17 11"},"coordinates":[2572,6415]},{"type":"Point","properties":{"Station_ID":"EVRW3","Station_Nam":"EAGLE RIVER-4 E","Latitude":"45.91890","Longitude":"-89.15280","Snowdepth":"20.000","Units":"in","Rept_Date":"2019-12-17 13"},"coordinates":[2093,6052]},{"type":"Point","properties":{"Station_ID":"EGRW3","Station_Nam":"EAGLE RIVER-SOUTH","Latitude":"45.91360","Longitude":"-89.24360","Snowdepth":"20.000","Units":"in","Rept_Date":"2019-12-17 13"},"coordinates":[2070,6048]},{"type":"Point","properties":{"Station_ID":"WI-VL-14","Station_Nam":"BOULDER JUNCTION 1.4 NE, WI","Latitude":"46.12840","Longitude":"-89.62470","Snowdepth":"19.500","Units":"in","Rept_Date":"2019-12-17 13"},"coordinates":[1971,6194]},{"type":"Point","properties":{"Station_ID":"WI-BY-6","Station_Nam":"BARNES 2.2 S, WI","Latitude":"46.30264","Longitude":"-91.50320","Snowdepth":"19.000","Units":"in","Rept_Date":"2019-12-17 13"},"coordinates":[1485,6313]},{"type":"Point","properties":{"Station_ID":"WI-AS-6","Station_Nam":"ODANAH 1.6 E, WI","Latitude":"46.60462","Longitude":"-90.64920","Snowdepth":"19.000","Units":"in","Rept_Date":"2019-12-17 13"},"coordinates":[1706,6518]},{"type":"Point","properties":{"Station_ID":"STMM4","Station_Nam":"STAMBAUGH 2SSE","Latitude":"46.05550","Longitude":"-88.62780","Snowdepth":"19.000","Units":"in","Rept_Date":"2019-12-17 13"},"coordinates":[2229,6145]},{"type":"Point","properties":{"Station_ID":"MMNV1","Station_Nam":"MT. MANSFIELD","Latitude":"44.52480","Longitude":"-72.81540","Snowdepth":"19.000","Units":"in","Rept_Date":"2019-12-17 21"},"coordinates":[6323,5104]},{"type":"Point","properties":{"Station_ID":"LTMW3","Station_Nam":"LAKE TOMAHAWK 2 SE","Latitude":"45.80750","Longitude":"-89.55830","Snowdepth":"19.000","Units":"in","Rept_Date":"2019-12-17 12"},"coordinates":[1988,5976]},{"type":"Point","properties":{"Station_ID":"COUW3","Station_Nam":"COUDERAY,WI","Latitude":"45.86670","Longitude":"-91.45000","Snowdepth":"19.000","Units":"in","Rept_Date":"2019-12-17 22"},"coordinates":[1499,6016]},{"type":"Point","properties":{"Station_ID":"BABM5","Station_Nam":"BABBITT","Latitude":"47.71210","Longitude":"-91.95330","Snowdepth":"19.000","Units":"in","Rept_Date":"2019-12-17 13"},"coordinates":[1368,7270]},{"type":"Point","properties":{"Station_ID":"RLKW3","Station_Nam":"REST LAKE","Latitude":"46.12220","Longitude":"-89.87720","Snowdepth":"18.000","Units":"in","Rept_Date":"2019-12-17 14"},"coordinates":[1906,6190]},{"type":"Point","properties":{"Station_ID":"RHIW3","Station_Nam":"RHINELANDER","Latitude":"45.59860","Longitude":"-89.45080","Snowdepth":"18.000","Units":"in","Rept_Date":"2019-12-17 13"},"coordinates":[2016,5834]},{"type":"Point","properties":{"Station_ID":"MN-SL-15","Station_Nam":"CHISHOLM 0.4 WSW, MN","Latitude":"47.48557","Longitude":"-92.88690","Snowdepth":"18.000","Units":"in","Rept_Date":"2019-12-17 13"},"coordinates":[1127,7117]},{"type":"Point","properties":{"Station_ID":"CLKM4","Station_Nam":"CLARKSBURG","Latitude":"46.49910","Longitude":"-87.84500","Snowdepth":"18.000","Units":"in","Rept_Date":"2019-12-17 12"},"coordinates":[2432,6446]},{"type":"Point","properties":{"Station_ID":"CLGM5","Station_Nam":"COLLEGEVILLE ST JOHN","Latitude":"45.57940","Longitude":"-94.39200","Snowdepth":"18.000","Units":"in","Rept_Date":"2019-12-18 00"},"coordinates":[737,5821]},{"type":"Point","properties":{"Station_ID":"ABGW3","Station_Nam":"AMBERG 9 E","Latitude":"45.48250","Longitude":"-87.81190","Snowdepth":"18.000","Units":"in","Rept_Date":"2019-12-17 12"},"coordinates":[2441,5755]},{"type":"Point","properties":{"Station_ID":"QCX","Station_Nam":"QCX","Latitude":"51.32830","Longitude":"-70.08060","Snowdepth":"17.953","Units":"in","Rept_Date":"2019-12-17 12"},"coordinates":[7031,9728]},{"type":"Point","properties":{"Station_ID":"QFT","Station_Nam":"QFT","Latitude":"50.83280","Longitude":"-74.40390","Snowdepth":"17.677","Units":"in","Rept_Date":"2019-12-17 12"},"coordinates":[5912,9391]},{"type":"Point","properties":{"Station_ID":"WI-SR-1","Station_Nam":"HAYWARD 9.2 NNE, WI","Latitude":"46.13255","Longitude":"-91.40500","Snowdepth":"17.400","Units":"in","Rept_Date":"2019-12-17 12"},"coordinates":[1510,6197]},{"type":"Point","properties":{"Station_ID":"WRIM5","Station_Nam":"WRIGHT 3E","Latitude":"46.68040","Longitude":"-92.95420","Snowdepth":"17.000","Units":"in","Rept_Date":"2019-12-17 12"},"coordinates":[1109,6569]},{"type":"Point","properties":{"Station_ID":"WI-PR-2","Station_Nam":"BUTTERNUT 5.9 SW, WI","Latitude":"45.96501","Longitude":"-90.59750","Snowdepth":"17.000","Units":"in","Rept_Date":"2019-12-17 12"},"coordinates":[1719,6083]},{"type":"Point","properties":{"Station_ID":"RRVM4","Station_Nam":"RAPID RIVER 9S","Latitude":"45.78750","Longitude":"-86.93920","Snowdepth":"17.000","Units":"in","Rept_Date":"2019-12-17 14"},"coordinates":[2667,5963]},{"type":"Point","properties":{"Station_ID":"PRNW3","Station_Nam":"PRENTICE,WI","Latitude":"45.54780","Longitude":"-90.30000","Snowdepth":"17.000","Units":"in","Rept_Date":"2019-12-17 14"},"coordinates":[1796,5800]},{"type":"Point","properties":{"Station_ID":"MN49YOQ4","Station_Nam":"WRIGHT 3.9 NW","Latitude":"46.70182","Longitude":"-93.07461","Snowdepth":"17.000","Units":"in","Rept_Date":"2019-12-17 12"},"coordinates":[1078,6584]},{"type":"Point","properties":{"Station_ID":"JCBM4","Station_Nam":"JACOBSVILLE","Latitude":"47.00830","Longitude":"-88.43180","Snowdepth":"17.000","Units":"in","Rept_Date":"2019-12-17 12"},"coordinates":[2280,6792]},{"type":"Point","properties":{"Station_ID":"COVM4","Station_Nam":"COVINGTON","Latitude":"46.55880","Longitude":"-88.54190","Snowdepth":"17.000","Units":"in","Rept_Date":"2019-12-17 13"},"coordinates":[2252,6487]},{"type":"Point","properties":{"Station_ID":"CEFM4","Station_Nam":"EXPERIMENT FARM #2","Latitude":"46.33330","Longitude":"-86.91670","Snowdepth":"17.000","Units":"in","Rept_Date":"2019-12-17 13"},"coordinates":[2672,6333]},{"type":"Point","properties":{"Station_ID":"BNDM5","Station_Nam":"ELY 25E","Latitude":"47.97190","Longitude":"-91.44860","Snowdepth":"17.000","Units":"in","Rept_Date":"2019-12-17 13"},"coordinates":[1499,7447]},{"type":"Point","properties":{"Station_ID":"ANTW3","Station_Nam":"ANTIGO,WI","Latitude":"45.13330","Longitude":"-89.15000","Snowdepth":"17.000","Units":"in","Rept_Date":"2019-12-17 14"},"coordinates":[2094,5518]},{"type":"Point","properties":{"Station_ID":"QYR","Station_Nam":"QYR","Latitude":"48.87220","Longitude":"-75.61470","Snowdepth":"16.653","Units":"in","Rept_Date":"2019-12-17 12"},"coordinates":[5599,8059]},{"type":"Point","properties":{"Station_ID":"WI-ON-8","Station_Nam":"HAZELHURST 2.1 SSE, WI","Latitude":"45.78186","Longitude":"-89.70330","Snowdepth":"16.500","Units":"in","Rept_Date":"2019-12-17 13"},"coordinates":[1951,5959]},{"type":"Point","properties":{"Station_ID":"WI-SR-5","Station_Nam":"HAYWARD 9.7 NE, WI","Latitude":"46.12030","Longitude":"-91.35370","Snowdepth":"16.000","Units":"in","Rept_Date":"2019-12-17 14"},"coordinates":[1524,6189]},{"type":"Point","properties":{"Station_ID":"WI-RS-1","Station_Nam":"LADYSMITH 2.8 WNW, WI","Latitude":"45.48180","Longitude":"-91.14680","Snowdepth":"16.000","Units":"in","Rept_Date":"2019-12-17 13"},"coordinates":[1577,5755]},{"type":"Point","properties":{"Station_ID":"WI-PR-8","Station_Nam":"PHILLIPS 0.4 SSW, WI","Latitude":"45.69086","Longitude":"-90.40200","Snowdepth":"16.000","Units":"in","Rept_Date":"2019-12-17 13"},"coordinates":[1770,5897]},{"type":"Point","properties":{"Station_ID":"WI-PR-6","Station_Nam":"PHILLIPS 1.3 S, WI","Latitude":"45.67677","Longitude":"-90.39543","Snowdepth":"16.000","Units":"in","Rept_Date":"2019-12-17 12"},"coordinates":[1772,5887]},{"type":"Point","properties":{"Station_ID":"ESAM4","Station_Nam":"ESCANABA","Latitude":"45.74380","Longitude":"-87.04060","Snowdepth":"16.000","Units":"in","Rept_Date":"2019-12-17 12"},"coordinates":[2640,5933]},{"type":"Point","properties":{"Station_ID":"ENGM4","Station_Nam":"ENGADINE MDOT","Latitude":"46.12800","Longitude":"-85.56960","Snowdepth":"16.000","Units":"in","Rept_Date":"2019-12-17 12"},"coordinates":[3021,6194]},{"type":"Point","properties":{"Station_ID":"AVTW3","Station_Nam":"ARBOR VITAE-JOHNSON LAKE","Latitude":"45.89940","Longitude":"-89.72670","Snowdepth":"16.000","Units":"in","Rept_Date":"2019-12-17 12"},"coordinates":[1945,6039]},{"type":"Point","properties":{"Station_ID":"WI-BT-14","Station_Nam":"OAKLAND 9.0 ENE, WI","Latitude":"45.95184","Longitude":"-92.21653","Snowdepth":"15.500","Units":"in","Rept_Date":"2019-12-17 13"},"coordinates":[1300,6074]},{"type":"Point","properties":{"Station_ID":"MFU","Station_Nam":"MFU","Latitude":"51.52170","Longitude":"-66.91110","Snowdepth":"15.079","Units":"in","Rept_Date":"2019-12-17 12"},"coordinates":[7852,9860]},{"type":"Point","properties":{"Station_ID":"WTNM4","Station_Nam":"WATTON 2WSW","Latitude":"46.52660","Longitude":"-88.64240","Snowdepth":"15.000","Units":"in","Rept_Date":"2019-12-17 13"},"coordinates":[2226,6465]},{"type":"Point","properties":{"Station_ID":"WILW3","Station_Nam":"RESERVOIR","Latitude":"45.70000","Longitude":"-89.83330","Snowdepth":"15.000","Units":"in","Rept_Date":"2019-12-17 12"},"coordinates":[1917,5903]},{"type":"Point","properties":{"Station_ID":"WI-ON-4","Station_Nam":"RHINELANDER 0.6 SSW, WI","Latitude":"45.63141","Longitude":"-89.41470","Snowdepth":"15.000","Units":"in","Rept_Date":"2019-12-17 13"},"coordinates":[2026,5856]},{"type":"Point","properties":{"Station_ID":"TOHM5","Station_Nam":"TWO HARBORS WWTP","Latitude":"47.01760","Longitude":"-91.66480","Snowdepth":"15.000","Units":"in","Rept_Date":"2019-12-17 13"},"coordinates":[1443,6798]},{"type":"Point","properties":{"Station_ID":"MQRW3","Station_Nam":"MINOCQUA","Latitude":"45.88630","Longitude":"-89.73220","Snowdepth":"15.000","Units":"in","Rept_Date":"2019-12-17 12"},"coordinates":[1943,6030]},{"type":"Point","properties":{"Station_ID":"MN-IT-23","Station_Nam":"BOVEY 13.4 N, MN","Latitude":"47.48855","Longitude":"-93.43497","Snowdepth":"15.000","Units":"in","Rept_Date":"2019-12-17 13"},"coordinates":[985,7119]},{"type":"Point","properties":{"Station_ID":"ELYM5","Station_Nam":"ELY","Latitude":"47.90560","Longitude":"-91.82830","Snowdepth":"15.000","Units":"in","Rept_Date":"2019-12-17 14"},"coordinates":[1401,7402]},{"type":"Point","properties":{"Station_ID":"BALW3","Station_Nam":"BALDWIN","Latitude":"44.96330","Longitude":"-92.39050","Snowdepth":"15.000","Units":"in","Rept_Date":"2019-12-17 13"},"coordinates":[1255,5402]},{"type":"Point","properties":{"Station_ID":"AMAM4","Station_Nam":"AMASA 1W","Latitude":"46.23470","Longitude":"-88.45440","Snowdepth":"15.000","Units":"in","Rept_Date":"2019-12-17 14"},"coordinates":[2274,6266]},{"type":"Point","properties":{"Station_ID":"QTV","Station_Nam":"QTV","Latitude":"49.66000","Longitude":"-69.35690","Snowdepth":"14.803","Units":"in","Rept_Date":"2019-12-17 12"},"coordinates":[7219,8594]},{"type":"Point","properties":{"Station_ID":"PTLQ6","Station_Nam":"PORTAGE LAKE","Latitude":"49.06950","Longitude":"-86.65940","Snowdepth":"14.090","Units":"in","Rept_Date":"2019-12-18 06"},"coordinates":[2739,8193]},{"type":"Point","properties":{"Station_ID":"ZNOM4","Station_Nam":"NORWAY","Latitude":"45.77810","Longitude":"-87.89560","Snowdepth":"14.000","Units":"in","Rept_Date":"2019-12-18 01"},"coordinates":[2419,5956]},{"type":"Point","properties":{"Station_ID":"WI-ON-6","Station_Nam":"RHINELANDER 5.2 N, WI","Latitude":"45.71388","Longitude":"-89.42150","Snowdepth":"14.000","Units":"in","Rept_Date":"2019-12-17 14"},"coordinates":[2024,5912]},{"type":"Point","properties":{"Station_ID":"WI-CH-3","Station_Nam":"CORNELL 4.1 W, WI","Latitude":"45.17024","Longitude":"-91.23610","Snowdepth":"14.000","Units":"in","Rept_Date":"2019-12-17 14"},"coordinates":[1554,5543]},{"type":"Point","properties":{"Station_ID":"TAKW3","Station_Nam":"RICE RESERVOIR NO. 2","Latitude":"45.53770","Longitude":"-89.73220","Snowdepth":"14.000","Units":"in","Rept_Date":"2019-12-17 13"},"coordinates":[1943,5793]},{"type":"Point","properties":{"Station_ID":"SBEW3","Station_Nam":"EXP. FARM","Latitude":"44.86670","Longitude":"-87.33330","Snowdepth":"14.000","Units":"in","Rept_Date":"2019-12-17 13"},"coordinates":[2565,5337]},{"type":"Point","properties":{"Station_ID":"SAUW3","Station_Nam":"WAUSAU WSAW TV","Latitude":"44.94630","Longitude":"-89.62220","Snowdepth":"14.000","Units":"in","Rept_Date":"2019-12-18 04"},"coordinates":[1972,5391]},{"type":"Point","properties":{"Station_ID":"RHLW3","Station_Nam":"RHINELANDER 4NE","Latitude":"45.65270","Longitude":"-89.30740","Snowdepth":"14.000","Units":"in","Rept_Date":"2019-12-17 12"},"coordinates":[2053,5871]},{"type":"Point","properties":{"Station_ID":"NYMM5","Station_Nam":"NEW YORK MILLS","Latitude":"46.50920","Longitude":"-95.37990","Snowdepth":"14.000","Units":"in","Rept_Date":"2019-12-17 13"},"coordinates":[481,6453]},{"type":"Point","properties":{"Station_ID":"MLLW3","Station_Nam":"MERRILL 8W","Latitude":"45.17810","Longitude":"-89.84810","Snowdepth":"14.000","Units":"in","Rept_Date":"2019-12-17 12"},"coordinates":[1913,5548]},{"type":"Point","properties":{"Station_ID":"CRLM5","Station_Nam":"CROSS LAKE DAM","Latitude":"46.66930","Longitude":"-94.11060","Snowdepth":"14.000","Units":"in","Rept_Date":"2019-12-17 14"},"coordinates":[810,6562]},{"type":"Point","properties":{"Station_ID":"QMA","Station_Nam":"QMA","Latitude":"50.10330","Longitude":"-70.47190","Snowdepth":"13.740","Units":"in","Rept_Date":"2019-12-17 12"},"coordinates":[6930,8896]},{"type":"Point","properties":{"Station_ID":"WI-LN-2","Station_Nam":"MERRILL 7.0 W, WI","Latitude":"45.17746","Longitude":"-89.84820","Snowdepth":"13.500","Units":"in","Rept_Date":"2019-12-17 12"},"coordinates":[1913,5548]},{"type":"Point","properties":{"Station_ID":"SVBQ6","Station_Nam":"SAVANT BASE","Latitude":"50.28730","Longitude":"-90.65670","Snowdepth":"13.500","Units":"in","Rept_Date":"2019-12-18 06"},"coordinates":[1704,9021]},{"type":"Point","properties":{"Station_ID":"MN-SL-108","Station_Nam":"IRON JUNCTION 3.4 NNW, MN","Latitude":"47.46150","Longitude":"-92.63130","Snowdepth":"13.500","Units":"in","Rept_Date":"2019-12-17 13"},"coordinates":[1193,7100]},{"type":"Point","properties":{"Station_ID":"QLM","Station_Nam":"QLM","Latitude":"48.92030","Longitude":"-70.25280","Snowdepth":"13.425","Units":"in","Rept_Date":"2019-12-17 12"},"coordinates":[6987,8092]},{"type":"Point","properties":{"Station_ID":"WUNW3","Station_Nam":"WAUSAU-NORTHEAST","Latitude":"44.97310","Longitude":"-89.61690","Snowdepth":"13.000","Units":"in","Rept_Date":"2019-12-17 12"},"coordinates":[1973,5409]},{"type":"Point","properties":{"Station_ID":"WSKW3","Station_Nam":"WAUSAUKEE","Latitude":"45.38020","Longitude":"-87.95660","Snowdepth":"13.000","Units":"in","Rept_Date":"2019-12-17 14"},"coordinates":[2403,5686]},{"type":"Point","properties":{"Station_ID":"WLKW3","Station_Nam":"WHITE LAKE 1 SE","Latitude":"45.14520","Longitude":"-88.74160","Snowdepth":"13.000","Units":"in","Rept_Date":"2019-12-17 14"},"coordinates":[2200,5526]},{"type":"Point","properties":{"Station_ID":"WI-MT-4","Station_Nam":"WAUSAU 1.7 ENE, WI","Latitude":"44.96943","Longitude":"-89.61090","Snowdepth":"13.000","Units":"in","Rept_Date":"2019-12-17 13"},"coordinates":[1975,5407]},{"type":"Point","properties":{"Station_ID":"WI-DN-1","Station_Nam":"BOYCEVILLE 3.3 N, WI","Latitude":"45.08913","Longitude":"-92.02760","Snowdepth":"13.000","Units":"in","Rept_Date":"2019-12-17 13"},"coordinates":[1349,5488]},{"type":"Point","properties":{"Station_ID":"WASW3","Station_Nam":"WASHINGTON IS","Latitude":"45.35800","Longitude":"-86.89110","Snowdepth":"13.000","Units":"in","Rept_Date":"2019-12-17 13"},"coordinates":[2679,5671]},{"type":"Point","properties":{"Station_ID":"VT-BN-12","Station_Nam":"STAMFORD 5.0 NNE, VT","Latitude":"42.82000","Longitude":"-73.02000","Snowdepth":"13.000","Units":"in","Rept_Date":"2019-12-17 23"},"coordinates":[6270,3946]},{"type":"Point","properties":{"Station_ID":"MN-CK-6","Station_Nam":"GRAND MARAIS 4.4 W, MN","Latitude":"47.74865","Longitude":"-90.43760","Snowdepth":"13.000","Units":"in","Rept_Date":"2019-12-17 13"},"coordinates":[1761,7295]},{"type":"Point","properties":{"Station_ID":"MIEM4","Station_Nam":"MICHIGAMME 3WNW","Latitude":"46.54530","Longitude":"-88.18000","Snowdepth":"13.000","Units":"in","Rept_Date":"2019-12-17 13"},"coordinates":[2345,6478]},{"type":"Point","properties":{"Station_ID":"MI-DL-1","Station_Nam":"GARDEN CORNERS 0.8 NW, MI","Latitude":"45.89815","Longitude":"-86.54850","Snowdepth":"13.000","Units":"in","Rept_Date":"2019-12-17 13"},"coordinates":[2768,6038]},{"type":"Point","properties":{"Station_ID":"MCLN8","Station_Nam":"MC LEOD,ND","Latitude":"46.40250","Longitude":"-97.23810","Snowdepth":"13.000","Units":"in","Rept_Date":"2019-12-17 16"},"coordinates":[0,6380]},{"type":"Point","properties":{"Station_ID":"GDCM4","Station_Nam":"GARDEN CORNERS","Latitude":"45.89830","Longitude":"-86.54850","Snowdepth":"13.000","Units":"in","Rept_Date":"2019-12-17 13"},"coordinates":[2768,6038]},{"type":"Point","properties":{"Station_ID":"BRAM5","Station_Nam":"BRAINERD","Latitude":"46.34320","Longitude":"-94.20900","Snowdepth":"13.000","Units":"in","Rept_Date":"2019-12-17 13"},"coordinates":[784,6340]},{"type":"Point","properties":{"Station_ID":"QLI","Station_Nam":"QLI","Latitude":"50.27080","Longitude":"-73.92280","Snowdepth":"12.677","Units":"in","Rept_Date":"2019-12-17 12"},"coordinates":[6037,9009]},{"type":"Point","properties":{"Station_ID":"QWE","Station_Nam":"QWE","Latitude":"47.84610","Longitude":"-73.80670","Snowdepth":"12.559","Units":"in","Rept_Date":"2019-12-17 12"},"coordinates":[6067,7362]},{"type":"Point","properties":{"Station_ID":"MN-SL-115","Station_Nam":"COTTON 5.7 ESE, MN","Latitude":"47.15142","Longitude":"-92.35772","Snowdepth":"12.500","Units":"in","Rept_Date":"2019-12-17 13"},"coordinates":[1264,6889]},{"type":"Point","properties":{"Station_ID":"WI-BR-2","Station_Nam":"CHETEK 2.0 SE, WI","Latitude":"45.29427","Longitude":"-91.62470","Snowdepth":"12.000","Units":"in","Rept_Date":"2019-12-17 13"},"coordinates":[1453,5627]},{"type":"Point","properties":{"Station_ID":"SULW3","Station_Nam":"SUMMIT LAKE","Latitude":"45.37880","Longitude":"-89.19410","Snowdepth":"12.000","Units":"in","Rept_Date":"2019-12-17 11"},"coordinates":[2083,5685]},{"type":"Point","properties":{"Station_ID":"STRW3","Station_Nam":"STRATFORD 1NW","Latitude":"44.81750","Longitude":"-90.08990","Snowdepth":"12.000","Units":"in","Rept_Date":"2019-12-17 13"},"coordinates":[1851,5303]},{"type":"Point","properties":{"Station_ID":"SEBM5","Station_Nam":"SEBEKA","Latitude":"46.62540","Longitude":"-95.09670","Snowdepth":"12.000","Units":"in","Rept_Date":"2019-12-17 13"},"coordinates":[555,6532]},{"type":"Point","properties":{"Station_ID":"RHRW3","Station_Nam":"RHINELANDER WJFW TV-12","Latitude":"45.62220","Longitude":"-89.41000","Snowdepth":"12.000","Units":"in","Rept_Date":"2019-12-18 04"},"coordinates":[2027,5850]},{"type":"Point","properties":{"Station_ID":"MN6JKRHL","Station_Nam":"TOFTE 0.6 SSW","Latitude":"47.56557","Longitude":"-90.84117","Snowdepth":"12.000","Units":"in","Rept_Date":"2019-12-17 13"},"coordinates":[1656,7171]},{"type":"Point","properties":{"Station_ID":"MN-IT-10","Station_Nam":"DEER RIVER 3.7 W, MN","Latitude":"47.33564","Longitude":"-93.87514","Snowdepth":"12.000","Units":"in","Rept_Date":"2019-12-17 14"},"coordinates":[871,7015]},{"type":"Point","properties":{"Station_ID":"MN-IT-1","Station_Nam":"GRAND RAPIDS 2.0 E, MN","Latitude":"47.22266","Longitude":"-93.49600","Snowdepth":"12.000","Units":"in","Rept_Date":"2019-12-17 12"},"coordinates":[969,6938]},{"type":"Point","properties":{"Station_ID":"LUCW3","Station_Nam":"LUCK","Latitude":"45.57330","Longitude":"-92.48520","Snowdepth":"12.000","Units":"in","Rept_Date":"2019-12-17 22"},"coordinates":[1231,5817]},{"type":"Point","properties":{"Station_ID":"LEIM5","Station_Nam":"ORR 3E","Latitude":"48.05810","Longitude":"-92.75220","Snowdepth":"12.000","Units":"in","Rept_Date":"2019-12-17 12"},"coordinates":[1162,7506]},{"type":"Point","properties":{"Station_ID":"ISEM5","Station_Nam":"ISLE 12N","Latitude":"46.31970","Longitude":"-93.50140","Snowdepth":"12.000","Units":"in","Rept_Date":"2019-12-17 14"},"coordinates":[968,6324]},{"type":"Point","properties":{"Station_ID":"GRBM5","Station_Nam":"GRAND RAPIDS 12N","Latitude":"47.39800","Longitude":"-93.51330","Snowdepth":"12.000","Units":"in","Rept_Date":"2019-12-17 14"},"coordinates":[965,7057]},{"type":"Point","properties":{"Station_ID":"EPTW3","Station_Nam":"EAU PLEINE TENDER","Latitude":"44.77220","Longitude":"-89.76720","Snowdepth":"12.000","Units":"in","Rept_Date":"2019-12-17 13"},"coordinates":[1934,5272]},{"type":"Point","properties":{"Station_ID":"COTM5","Station_Nam":"COTTON","Latitude":"47.16870","Longitude":"-92.46290","Snowdepth":"12.000","Units":"in","Rept_Date":"2019-12-17 12"},"coordinates":[1236,6901]},{"type":"Point","properties":{"Station_ID":"ANJM4","Station_Nam":"SNOW PAID OBSERVER FOR KANJ","Latitude":"46.48670","Longitude":"-84.40260","Snowdepth":"12.000","Units":"in","Rept_Date":"2019-12-18 06"},"coordinates":[3323,6438]},{"type":"Point","properties":{"Station_ID":"TRIQ6","Station_Nam":"TRIO LAKE","Latitude":"49.22880","Longitude":"-87.22920","Snowdepth":"11.890","Units":"in","Rept_Date":"2019-12-18 06"},"coordinates":[2592,8301]},{"type":"Point","properties":{"Station_ID":"MN-CK-18","Station_Nam":"GRAND MARAIS 4.4 WSW, MN","Latitude":"47.74462","Longitude":"-90.43796","Snowdepth":"11.500","Units":"in","Rept_Date":"2019-12-17 13"},"coordinates":[1761,7293]},{"type":"Point","properties":{"Station_ID":"MN-BM-15","Station_Nam":"BEMIDJI 7.8 ENE, MN","Latitude":"47.52043","Longitude":"-94.72121","Snowdepth":"11.500","Units":"in","Rept_Date":"2019-12-17 13"},"coordinates":[652,7140]},{"type":"Point","properties":{"Station_ID":"CAN-ON-245","Station_Nam":"PHELPSTON 3.1 ESE, CAN","Latitude":"44.50564","Longitude":"-79.81035","Snowdepth":"11.500","Units":"in","Rept_Date":"2019-12-17 14"},"coordinates":[4512,5091]},{"type":"Point","properties":{"Station_ID":"SOCQ6","Station_Nam":"SOCKET LAKE","Latitude":"50.77870","Longitude":"-91.79300","Snowdepth":"11.420","Units":"in","Rept_Date":"2019-12-18 06"},"coordinates":[1410,9355]},{"type":"Point","properties":{"Station_ID":"WI-MT-14","Station_Nam":"MOSINEE 2.7 WSW, WI","Latitude":"44.77240","Longitude":"-89.73441","Snowdepth":"11.000","Units":"in","Rept_Date":"2019-12-17 13"},"coordinates":[1943,5273]},{"type":"Point","properties":{"Station_ID":"WI-EC-23","Station_Nam":"EAU CLAIRE 3.7 S, WI","Latitude":"44.76858","Longitude":"-91.49898","Snowdepth":"11.000","Units":"in","Rept_Date":"2019-12-17 14"},"coordinates":[1486,5270]},{"type":"Point","properties":{"Station_ID":"WI-CH-7","Station_Nam":"CHIPPEWA FALLS 1.2 E, WI","Latitude":"44.92920","Longitude":"-91.36730","Snowdepth":"11.000","Units":"in","Rept_Date":"2019-12-17 13"},"coordinates":[1520,5379]},{"type":"Point","properties":{"Station_ID":"RRLW3","Station_Nam":"MERRILL,WI","Latitude":"45.17860","Longitude":"-89.66170","Snowdepth":"11.000","Units":"in","Rept_Date":"2019-12-17 14"},"coordinates":[1962,5549]},{"type":"Point","properties":{"Station_ID":"NY-ER-77","Station_Nam":"COLDEN 2.4 ENE, NY","Latitude":"42.65088","Longitude":"-78.61060","Snowdepth":"11.000","Units":"in","Rept_Date":"2019-12-17 21"},"coordinates":[4823,3831]},{"type":"Point","properties":{"Station_ID":"NOHM5","Station_Nam":"NORTHOME","Latitude":"47.83590","Longitude":"-94.25550","Snowdepth":"11.000","Units":"in","Rept_Date":"2019-12-17 13"},"coordinates":[772,7355]},{"type":"Point","properties":{"Station_ID":"MRAM5","Station_Nam":"MORA","Latitude":"45.87760","Longitude":"-93.31470","Snowdepth":"11.000","Units":"in","Rept_Date":"2019-12-17 13"},"coordinates":[1016,6024]},{"type":"Point","properties":{"Station_ID":"MRAM4","Station_Nam":"MORAN","Latitude":"45.99030","Longitude":"-84.83610","Snowdepth":"11.000","Units":"in","Rept_Date":"2019-12-17 13"},"coordinates":[3211,6100]},{"type":"Point","properties":{"Station_ID":"MN-CW-22","Station_Nam":"FORT RIPLEY 0.8 N, MN","Latitude":"46.18089","Longitude":"-94.36510","Snowdepth":"11.000","Units":"in","Rept_Date":"2019-12-17 13"},"coordinates":[744,6230]},{"type":"Point","properties":{"Station_ID":"MLCM5","Station_Nam":"MILACA","Latitude":"45.75320","Longitude":"-93.66170","Snowdepth":"11.000","Units":"in","Rept_Date":"2019-12-17 13"},"coordinates":[926,5939]},{"type":"Point","properties":{"Station_ID":"LADW3","Station_Nam":"LADYSMITH WTP","Latitude":"45.44290","Longitude":"-91.08970","Snowdepth":"11.000","Units":"in","Rept_Date":"2019-12-17 13"},"coordinates":[1592,5728]},{"type":"Point","properties":{"Station_ID":"KGFK","Station_Nam":"GRAND FORKS INTERNATIONAL","Latitude":"47.95000","Longitude":"-97.18333","Snowdepth":"11.000","Units":"in","Rept_Date":"2019-12-18 06"},"coordinates":[14,7432]},{"type":"Point","properties":{"Station_ID":"GFK","Station_Nam":"GRAND FORKS INTERNATIONAL AIRPORT","Latitude":"47.94920","Longitude":"-97.17610","Snowdepth":"11.000","Units":"in","Rept_Date":"2019-12-18 00"},"coordinates":[16,7432]},{"type":"Point","properties":{"Station_ID":"FLDM5","Station_Nam":"FLOODWOOD,MN","Latitude":"47.00000","Longitude":"-92.91670","Snowdepth":"11.000","Units":"in","Rept_Date":"2019-12-17 14"},"coordinates":[1119,6787]},{"type":"Point","properties":{"Station_ID":"FEDM5","Station_Nam":"LEECH LAKE DAM","Latitude":"47.24670","Longitude":"-94.22280","Snowdepth":"11.000","Units":"in","Rept_Date":"2019-12-17 14"},"coordinates":[781,6954]},{"type":"Point","properties":{"Station_ID":"DTVM4","Station_Nam":"DETOUR VILLAGE","Latitude":"45.99830","Longitude":"-83.90130","Snowdepth":"11.000","Units":"in","Rept_Date":"2019-12-17 13"},"coordinates":[3453,6106]},{"type":"Point","properties":{"Station_ID":"CSLM5","Station_Nam":"CASS LAKE,MN","Latitude":"47.38470","Longitude":"-94.61470","Snowdepth":"11.000","Units":"in","Rept_Date":"2019-12-17 14"},"coordinates":[679,7048]},{"type":"Point","properties":{"Station_ID":"MN-SR-29","Station_Nam":"ALBANY 3.8 S, MN","Latitude":"45.57441","Longitude":"-94.55543","Snowdepth":"10.500","Units":"in","Rept_Date":"2019-12-17 13"},"coordinates":[695,5818]},{"type":"Point","properties":{"Station_ID":"MN-IT-7","Station_Nam":"GRAND RAPIDS 6.2 SSW, MN","Latitude":"47.13687","Longitude":"-93.56660","Snowdepth":"10.500","Units":"in","Rept_Date":"2019-12-17 12"},"coordinates":[951,6880]},{"type":"Point","properties":{"Station_ID":"MN-IT-17","Station_Nam":"GRAND RAPIDS 6.1 N, MN","Latitude":"47.31165","Longitude":"-93.55036","Snowdepth":"10.500","Units":"in","Rept_Date":"2019-12-17 13"},"coordinates":[955,6998]},{"type":"Point","properties":{"Station_ID":"MN-CW-29","Station_Nam":"BRAINERD 7.7 SSE, MN","Latitude":"46.24996","Longitude":"-94.14576","Snowdepth":"10.500","Units":"in","Rept_Date":"2019-12-17 16"},"coordinates":[801,6277]},{"type":"Point","properties":{"Station_ID":"QIQ","Station_Nam":"QIQ","Latitude":"49.82390","Longitude":"-68.54310","Snowdepth":"10.118","Units":"in","Rept_Date":"2019-12-17 12"},"coordinates":[7429,8706]},{"type":"Point","properties":{"Station_ID":"QCO","Station_Nam":"QCO","Latitude":"51.45280","Longitude":"-72.20110","Snowdepth":"10.118","Units":"in","Rept_Date":"2019-12-17 12"},"coordinates":[6482,9813]},{"type":"Point","properties":{"Station_ID":"WI-PC-25","Station_Nam":"ELLSWORTH 2.6 SW, WI","Latitude":"44.71119","Longitude":"-92.51849","Snowdepth":"10.000","Units":"in","Rept_Date":"2019-12-17 13"},"coordinates":[1222,5231]},{"type":"Point","properties":{"Station_ID":"STIM4","Station_Nam":"ST IGNACE","Latitude":"45.86080","Longitude":"-84.71960","Snowdepth":"10.000","Units":"in","Rept_Date":"2019-12-17 12"},"coordinates":[3241,6012]},{"type":"Point","properties":{"Station_ID":"SSMM4","Station_Nam":"SAULT STE MARIE","Latitude":"46.48660","Longitude":"-84.40250","Snowdepth":"10.000","Units":"in","Rept_Date":"2019-12-17 13"},"coordinates":[3323,6438]},{"type":"Point","properties":{"Station_ID":"SPCW3","Station_Nam":"SPENCER-WWTP","Latitude":"44.75390","Longitude":"-90.28920","Snowdepth":"10.000","Units":"in","Rept_Date":"2019-12-17 13"},"coordinates":[1799,5260]},{"type":"Point","properties":{"Station_ID":"OWEW3","Station_Nam":"OWEN 2N","Latitude":"44.98010","Longitude":"-90.55440","Snowdepth":"10.000","Units":"in","Rept_Date":"2019-12-17 13"},"coordinates":[1731,5414]},{"type":"Point","properties":{"Station_ID":"OTTM5","Station_Nam":"OTTERTAIL,MN","Latitude":"46.41670","Longitude":"-95.56670","Snowdepth":"10.000","Units":"in","Rept_Date":"2019-12-17 14"},"coordinates":[433,6390]},{"type":"Point","properties":{"Station_ID":"MN-SH-10","Station_Nam":"BIG LAKE 5.6 NNE, MN","Latitude":"45.41409","Longitude":"-93.69190","Snowdepth":"10.000","Units":"in","Rept_Date":"2019-12-17 13"},"coordinates":[918,5709]},{"type":"Point","properties":{"Station_ID":"MN-CV-40","Station_Nam":"EXCELSIOR 0.8 S, MN","Latitude":"44.88996","Longitude":"-93.56646","Snowdepth":"10.000","Units":"in","Rept_Date":"2019-12-17 13"},"coordinates":[951,5353]},{"type":"Point","properties":{"Station_ID":"MEDW3","Station_Nam":"MEDFORD","Latitude":"45.13080","Longitude":"-90.34390","Snowdepth":"10.000","Units":"in","Rept_Date":"2019-12-17 14"},"coordinates":[1785,5516]},{"type":"Point","properties":{"Station_ID":"KABM5","Station_Nam":"KABETOGAMA LAKE VISITOR CTR","Latitude":"48.40880","Longitude":"-93.04840","Snowdepth":"10.000","Units":"in","Rept_Date":"2019-12-17 13"},"coordinates":[1085,7744]},{"type":"Point","properties":{"Station_ID":"EAU","Station_Nam":"CHIPPEWA VALLEY REGIONAL AIRPORT","Latitude":"44.86650","Longitude":"-91.48790","Snowdepth":"10.000","Units":"in","Rept_Date":"2019-12-18 00"},"coordinates":[1489,5337]},{"type":"Point","properties":{"Station_ID":"COKM5","Station_Nam":"COOK","Latitude":"47.85060","Longitude":"-92.69250","Snowdepth":"10.000","Units":"in","Rept_Date":"2019-12-17 12"},"coordinates":[1177,7365]},{"type":"Point","properties":{"Station_ID":"BREW3","Station_Nam":"SURING","Latitude":"44.99580","Longitude":"-88.37860","Snowdepth":"10.000","Units":"in","Rept_Date":"2019-12-17 12"},"coordinates":[2294,5424]},{"type":"Point","properties":{"Station_ID":"ANJ","Station_Nam":"SAULT STE MARIE","Latitude":"46.46670","Longitude":"-84.36670","Snowdepth":"10.000","Units":"in","Rept_Date":"2019-12-18 00"},"coordinates":[3333,6424]},{"type":"Point","properties":{"Station_ID":"QWG","Station_Nam":"QWG","Latitude":"48.48890","Longitude":"-73.45940","Snowdepth":"9.606","Units":"in","Rept_Date":"2019-12-17 12"},"coordinates":[6157,7798]},{"type":"Point","properties":{"Station_ID":"ND-CS-25","Station_Nam":"FARGO 2.1 N, ND","Latitude":"46.90816","Longitude":"-96.77937","Snowdepth":"9.500","Units":"in","Rept_Date":"2019-12-17 14"},"coordinates":[119,6724]},{"type":"Point","properties":{"Station_ID":"MI-MC-4","Station_Nam":"ST. IGNACE 0.5SE, MI","Latitude":"45.86057","Longitude":"-84.71980","Snowdepth":"9.500","Units":"in","Rept_Date":"2019-12-17 12"},"coordinates":[3241,6012]},{"type":"Point","properties":{"Station_ID":"QTM","Station_Nam":"QTM","Latitude":"51.05780","Longitude":"-72.57190","Snowdepth":"9.409","Units":"in","Rept_Date":"2019-12-17 12"},"coordinates":[6386,9544]},{"type":"Point","properties":{"Station_ID":"KABQ6","Station_Nam":"CAB LAKE","Latitude":"49.59950","Longitude":"-89.17990","Snowdepth":"9.290","Units":"in","Rept_Date":"2019-12-18 06"},"coordinates":[2086,8553]},{"type":"Point","properties":{"Station_ID":"QGA","Station_Nam":"QGA","Latitude":"47.25640","Longitude":"-73.73810","Snowdepth":"9.213","Units":"in","Rept_Date":"2019-12-17 12"},"coordinates":[6084,6961]},{"type":"Point","properties":{"Station_ID":"CAN-ON-757","Station_Nam":"SAULT STE. MARIE 2.8 ESE - GLFC, CAN","Latitude":"46.50300","Longitude":"-84.30300","Snowdepth":"9.100","Units":"in","Rept_Date":"2019-12-17 13"},"coordinates":[3349,6449]},{"type":"Point","properties":{"Station_ID":"WI-PC-5","Station_Nam":"RIVER FALLS 1.2 SSW, WI","Latitude":"44.84032","Longitude":"-92.63500","Snowdepth":"9.000","Units":"in","Rept_Date":"2019-12-17 13"},"coordinates":[1192,5319]},{"type":"Point","properties":{"Station_ID":"WI-DR-5","Station_Nam":"ELLISON BAY 2.2 E, WI","Latitude":"45.25750","Longitude":"-87.02670","Snowdepth":"9.000","Units":"in","Rept_Date":"2019-12-17 13"},"coordinates":[2644,5602]},{"type":"Point","properties":{"Station_ID":"SIBI4","Station_Nam":"SIBLEY","Latitude":"43.40470","Longitude":"-95.74830","Snowdepth":"9.000","Units":"in","Rept_Date":"2019-12-17 13"},"coordinates":[386,4343]},{"type":"Point","properties":{"Station_ID":"SHHW3","Station_Nam":"SHAWANO 2SSW","Latitude":"44.76310","Longitude":"-88.61830","Snowdepth":"9.000","Units":"in","Rept_Date":"2019-12-17 14"},"coordinates":[2232,5266]},{"type":"Point","properties":{"Station_ID":"SCSM5","Station_Nam":"ST CLOUD STATE","Latitude":"45.55100","Longitude":"-94.14950","Snowdepth":"9.000","Units":"in","Rept_Date":"2019-12-17 12"},"coordinates":[800,5802]},{"type":"Point","properties":{"Station_ID":"RSTW3","Station_Nam":"ROSHOLT","Latitude":"44.62710","Longitude":"-89.30600","Snowdepth":"9.000","Units":"in","Rept_Date":"2019-12-17 11"},"coordinates":[2054,5174]},{"type":"Point","properties":{"Station_ID":"PSHW3","Station_Nam":"PESHTIGO","Latitude":"45.02810","Longitude":"-87.73560","Snowdepth":"9.000","Units":"in","Rept_Date":"2019-12-17 13"},"coordinates":[2460,5446]},{"type":"Point","properties":{"Station_ID":"MN-MR-4","Station_Nam":"LITTLE FALLS 1.2 SW, MN","Latitude":"45.96886","Longitude":"-94.37720","Snowdepth":"9.000","Units":"in","Rept_Date":"2019-12-17 13"},"coordinates":[741,6086]},{"type":"Point","properties":{"Station_ID":"MN-MR-13","Station_Nam":"LITTLE FALLS 8.0 NE, MN","Latitude":"46.06785","Longitude":"-94.24789","Snowdepth":"9.000","Units":"in","Rept_Date":"2019-12-17 13"},"coordinates":[774,6153]},{"type":"Point","properties":{"Station_ID":"MLRM5","Station_Nam":"MELROSE","Latitude":"45.67710","Longitude":"-94.80200","Snowdepth":"9.000","Units":"in","Rept_Date":"2019-12-17 13"},"coordinates":[631,5887]},{"type":"Point","properties":{"Station_ID":"MI-CP-7","Station_Nam":"DRUMMOND 2.9 NE, MI","Latitude":"46.05329","Longitude":"-83.69060","Snowdepth":"9.000","Units":"in","Rept_Date":"2019-12-17 14"},"coordinates":[3508,6143]},{"type":"Point","properties":{"Station_ID":"MFDW3","Station_Nam":"MARSHFIELD EXP FARM","Latitude":"44.64110","Longitude":"-90.13330","Snowdepth":"9.000","Units":"in","Rept_Date":"2019-12-17 13"},"coordinates":[1840,5183]},{"type":"Point","properties":{"Station_ID":"MEMW3","Station_Nam":"MENOMONIE","Latitude":"44.87430","Longitude":"-91.93640","Snowdepth":"9.000","Units":"in","Rept_Date":"2019-12-17 13"},"coordinates":[1373,5342]},{"type":"Point","properties":{"Station_ID":"LNGM5","Station_Nam":"LONG PRAIRIE","Latitude":"45.96460","Longitude":"-94.88920","Snowdepth":"9.000","Units":"in","Rept_Date":"2019-12-17 12"},"coordinates":[608,6083]},{"type":"Point","properties":{"Station_ID":"INL","Station_Nam":"FALLS INTERNATIONAL ARPT","Latitude":"48.56640","Longitude":"-93.40310","Snowdepth":"9.000","Units":"in","Rept_Date":"2019-12-18 00"},"coordinates":[993,7851]},{"type":"Point","properties":{"Station_ID":"IFSM5","Station_Nam":"INTERNATIONAL FALLS SNOW","Latitude":"48.57780","Longitude":"-93.39640","Snowdepth":"9.000","Units":"in","Rept_Date":"2019-12-17 12"},"coordinates":[995,7859]},{"type":"Point","properties":{"Station_ID":"FORM5","Station_Nam":"FOREST LAKE 5NE","Latitude":"45.33170","Longitude":"-92.89820","Snowdepth":"9.000","Units":"in","Rept_Date":"2019-12-17 13"},"coordinates":[1124,5653]},{"type":"Point","properties":{"Station_ID":"EPMW3","Station_Nam":"EPHRAIM-1 NE WWTP","Latitude":"45.17080","Longitude":"-87.15360","Snowdepth":"9.000","Units":"in","Rept_Date":"2019-12-17 14"},"coordinates":[2611,5543]},{"type":"Point","properties":{"Station_ID":"CVZW3","Station_Nam":"WISCONSIN PUBLIC SERVICE","Latitude":"45.23530","Longitude":"-88.01360","Snowdepth":"9.000","Units":"in","Rept_Date":"2019-12-17 12"},"coordinates":[2388,5587]},{"type":"Point","properties":{"Station_ID":"BMRW3","Station_Nam":"BLOOMER","Latitude":"45.09070","Longitude":"-91.48640","Snowdepth":"9.000","Units":"in","Rept_Date":"2019-12-17 14"},"coordinates":[1489,5489]},{"type":"Point","properties":{"Station_ID":"CATQ6","Station_Nam":"CAT LAKE","Latitude":"51.72690","Longitude":"-91.82210","Snowdepth":"8.620","Units":"in","Rept_Date":"2019-12-18 06"},"coordinates":[1402,9999]},{"type":"Point","properties":{"Station_ID":"NY-OD-2","Station_Nam":"POINT ROCK 0.6 SE, NY","Latitude":"43.37335","Longitude":"-75.53840","Snowdepth":"8.500","Units":"in","Rept_Date":"2019-12-17 13"},"coordinates":[5618,4322]},{"type":"Point","properties":{"Station_ID":"MN-BK-10","Station_Nam":"DETROIT LAKES 5.7 N, MN","Latitude":"46.88666","Longitude":"-95.84444","Snowdepth":"8.500","Units":"in","Rept_Date":"2019-12-17 13"},"coordinates":[361,6710]},{"type":"Point","properties":{"Station_ID":"MA-HS-7","Station_Nam":"PLAINFIELD 2.2 SW, MA","Latitude":"42.49272","Longitude":"-72.94540","Snowdepth":"8.500","Units":"in","Rept_Date":"2019-12-17 13"},"coordinates":[6290,3723]},{"type":"Point","properties":{"Station_ID":"MN-DK-53","Station_Nam":"LAKEVILLE 3.8 ENE, MN","Latitude":"44.70423","Longitude":"-93.18460","Snowdepth":"8.300","Units":"in","Rept_Date":"2019-12-17 13"},"coordinates":[1050,5226]},{"type":"Point","properties":{"Station_ID":"WRSN6","Station_Nam":"WARSAW 6SW","Latitude":"42.68550","Longitude":"-78.22020","Snowdepth":"8.000","Units":"in","Rept_Date":"2019-12-17 12"},"coordinates":[4924,3854]},{"type":"Point","properties":{"Station_ID":"WMRM5","Station_Nam":"WILLMAR 5N","Latitude":"45.19010","Longitude":"-95.05860","Snowdepth":"8.000","Units":"in","Rept_Date":"2019-12-17 12"},"coordinates":[564,5557]},{"type":"Point","properties":{"Station_ID":"WI-PT-8","Station_Nam":"RUDOLPH 2.1 NNE, WI","Latitude":"44.52553","Longitude":"-89.78677","Snowdepth":"8.000","Units":"in","Rept_Date":"2019-12-17 11"},"coordinates":[1929,5105]},{"type":"Point","properties":{"Station_ID":"WI-PC-10","Station_Nam":"RIVER FALLS 1.4 S, WI","Latitude":"44.83580","Longitude":"-92.62100","Snowdepth":"8.000","Units":"in","Rept_Date":"2019-12-17 13"},"coordinates":[1196,5316]},{"type":"Point","properties":{"Station_ID":"WI-DN-5","Station_Nam":"ELK MOUND 1.3 NE, WI","Latitude":"44.88627","Longitude":"-91.66680","Snowdepth":"8.000","Units":"in","Rept_Date":"2019-12-17 13"},"coordinates":[1443,5350]},{"type":"Point","properties":{"Station_ID":"WAMK1","Station_Nam":"WAMEGO 4W","Latitude":"39.21410","Longitude":"-96.37000","Snowdepth":"8.000","Units":"in","Rept_Date":"2019-12-17 13"},"coordinates":[225,1495]},{"type":"Point","properties":{"Station_ID":"WABM5","Station_Nam":"WABASHA","Latitude":"44.38500","Longitude":"-92.04860","Snowdepth":"8.000","Units":"in","Rept_Date":"2019-12-17 13"},"coordinates":[1344,5009]},{"type":"Point","properties":{"Station_ID":"SLYK1","Station_Nam":"STANLEY 3S","Latitude":"38.80670","Longitude":"-94.66470","Snowdepth":"8.000","Units":"in","Rept_Date":"2019-12-17 13"},"coordinates":[666,1218]},{"type":"Point","properties":{"Station_ID":"SGVN6","Station_Nam":"SPRINGVILLE","Latitude":"42.54970","Longitude":"-78.57670","Snowdepth":"8.000","Units":"in","Rept_Date":"2019-12-17 23"},"coordinates":[4832,3762]},{"type":"Point","properties":{"Station_ID":"SBNM5","Station_Nam":"SABIN","Latitude":"46.77690","Longitude":"-96.65610","Snowdepth":"8.000","Units":"in","Rept_Date":"2019-12-17 14"},"coordinates":[151,6635]},{"type":"Point","properties":{"Station_ID":"RCEM5","Station_Nam":"RICE","Latitude":"45.75760","Longitude":"-94.20720","Snowdepth":"8.000","Units":"in","Rept_Date":"2019-12-17 13"},"coordinates":[785,5942]},{"type":"Point","properties":{"Station_ID":"NY-ER-65","Station_Nam":"BOSTON 1.5 NE, NY","Latitude":"42.65470","Longitude":"-78.72010","Snowdepth":"8.000","Units":"in","Rept_Date":"2019-12-17 12"},"coordinates":[4795,3833]},{"type":"Point","properties":{"Station_ID":"NY-CQ-39","Station_Nam":"GERRY 0.8 N, NY","Latitude":"42.20500","Longitude":"-79.24700","Snowdepth":"8.000","Units":"in","Rept_Date":"2019-12-17 13"},"coordinates":[4658,3528]},{"type":"Point","properties":{"Station_ID":"ND-CS-1","Station_Nam":"WEST FARGO 3.8 SSE, ND","Latitude":"46.82750","Longitude":"-96.85280","Snowdepth":"8.000","Units":"in","Rept_Date":"2019-12-17 13"},"coordinates":[100,6669]},{"type":"Point","properties":{"Station_ID":"MRIW3","Station_Nam":"MARINETTE","Latitude":"45.09830","Longitude":"-87.62360","Snowdepth":"8.000","Units":"in","Rept_Date":"2019-12-17 13"},"coordinates":[2489,5494]},{"type":"Point","properties":{"Station_ID":"MOOI2","Station_Nam":"MATTOON","Latitude":"39.47260","Longitude":"-88.35450","Snowdepth":"8.000","Units":"in","Rept_Date":"2019-12-17 14"},"coordinates":[2300,1671]},{"type":"Point","properties":{"Station_ID":"MNEY8CTB","Station_Nam":"MIDLAND JUNCTION 2.2 ENE","Latitude":"44.33041","Longitude":"-91.95891","Snowdepth":"8.000","Units":"in","Rept_Date":"2019-12-17 14"},"coordinates":[1367,4972]},{"type":"Point","properties":{"Station_ID":"MN228YHJ","Station_Nam":"RICE 2.8 ESE","Latitude":"45.73609","Longitude":"-94.17230","Snowdepth":"8.000","Units":"in","Rept_Date":"2019-12-17 13"},"coordinates":[794,5928]},{"type":"Point","properties":{"Station_ID":"MN0GWSNW","Station_Nam":"LAKE ELMO 2.9 SE","Latitude":"44.97220","Longitude":"-92.83065","Snowdepth":"8.000","Units":"in","Rept_Date":"2019-12-17 13"},"coordinates":[1141,5408]},{"type":"Point","properties":{"Station_ID":"MN-DK-73","Station_Nam":"LAKEVILLE 2.6 NNE, MN","Latitude":"44.71250","Longitude":"-93.23043","Snowdepth":"8.000","Units":"in","Rept_Date":"2019-12-17 13"},"coordinates":[1038,5232]},{"type":"Point","properties":{"Station_ID":"MN-CY-1","Station_Nam":"MOORHEAD 2.0 N, MN","Latitude":"46.88766","Longitude":"-96.74800","Snowdepth":"8.000","Units":"in","Rept_Date":"2019-12-17 13"},"coordinates":[127,6710]},{"type":"Point","properties":{"Station_ID":"JUDW3","Station_Nam":"FISH CREEK 3S - JUDDVILLE","Latitude":"45.08920","Longitude":"-87.25890","Snowdepth":"8.000","Units":"in","Rept_Date":"2019-12-17 14"},"coordinates":[2584,5488]},{"type":"Point","properties":{"Station_ID":"IN-HM-67","Station_Nam":"FISHERS 4.3 ENE, IN","Latitude":"39.96656","Longitude":"-85.94314","Snowdepth":"8.000","Units":"in","Rept_Date":"2019-12-17 12"},"coordinates":[2924,2007]},{"type":"Point","properties":{"Station_ID":"GRFN8","Station_Nam":"UNIVERSITY","Latitude":"47.93330","Longitude":"-97.08330","Snowdepth":"8.000","Units":"in","Rept_Date":"2019-12-18 06"},"coordinates":[40,7421]},{"type":"Point","properties":{"Station_ID":"FDRN8","Station_Nam":"FARGO 3S","Latitude":"46.82930","Longitude":"-96.79620","Snowdepth":"8.000","Units":"in","Rept_Date":"2019-12-18 00"},"coordinates":[115,6671]},{"type":"Point","properties":{"Station_ID":"FAR","Station_Nam":"HECTOR INTERNATIONAL ARPT","Latitude":"46.91560","Longitude":"-96.81440","Snowdepth":"8.000","Units":"in","Rept_Date":"2019-12-18 00"},"coordinates":[110,6729]},{"type":"Point","properties":{"Station_ID":"ETTW3","Station_Nam":"ETTRICK 4WNW","Latitude":"44.19000","Longitude":"-91.34240","Snowdepth":"8.000","Units":"in","Rept_Date":"2019-12-17 13"},"coordinates":[1527,4877]},{"type":"Point","properties":{"Station_ID":"BFSW3","Station_Nam":"BIG FALLS-5 NW","Latitude":"44.63980","Longitude":"-89.11330","Snowdepth":"8.000","Units":"in","Rept_Date":"2019-12-17 13"},"coordinates":[2104,5183]},{"type":"Point","properties":{"Station_ID":"NY-HR-18","Station_Nam":"SALISBURY CENTER 1.8 NW, NY","Latitude":"43.16260","Longitude":"-74.80880","Snowdepth":"7.800","Units":"in","Rept_Date":"2019-12-17 11"},"coordinates":[5807,4179]},{"type":"Point","properties":{"Station_ID":"QLP","Station_Nam":"QLP","Latitude":"48.13920","Longitude":"-72.63830","Snowdepth":"7.559","Units":"in","Rept_Date":"2019-12-17 12"},"coordinates":[6369,7561]},{"type":"Point","properties":{"Station_ID":"MN-PK-15","Station_Nam":"MENTOR 2.5 SSW, MN","Latitude":"47.66625","Longitude":"-96.17328","Snowdepth":"7.500","Units":"in","Rept_Date":"2019-12-17 13"},"coordinates":[276,7239]},{"type":"Point","properties":{"Station_ID":"MN-MK-12","Station_Nam":"WATKINS 3.2 WSW, MN","Latitude":"45.30107","Longitude":"-94.47460","Snowdepth":"7.500","Units":"in","Rept_Date":"2019-12-17 15"},"coordinates":[716,5632]},{"type":"Point","properties":{"Station_ID":"MN-MC-16","Station_Nam":"HUTCHINSON 0.1 ENE, MN","Latitude":"44.88633","Longitude":"-94.37503","Snowdepth":"7.500","Units":"in","Rept_Date":"2019-12-17 13"},"coordinates":[741,5350]},{"type":"Point","properties":{"Station_ID":"MI-OT-17","Station_Nam":"GAYLORD 4.1 S, MI","Latitude":"44.96388","Longitude":"-84.68467","Snowdepth":"7.500","Units":"in","Rept_Date":"2019-12-17 12"},"coordinates":[3250,5403]},{"type":"Point","properties":{"Station_ID":"KS-DG-63","Station_Nam":"BALDWIN CITY 10.1 WSW, KS","Latitude":"38.74788","Longitude":"-95.36909","Snowdepth":"7.500","Units":"in","Rept_Date":"2019-12-17 14"},"coordinates":[484,1178]},{"type":"Point","properties":{"Station_ID":"IN-MG-18","Station_Nam":"MOORESVILLE 3.8 NE, IN","Latitude":"39.62123","Longitude":"-86.34595","Snowdepth":"7.500","Units":"in","Rept_Date":"2019-12-17 12"},"coordinates":[2820,1772]},{"type":"Point","properties":{"Station_ID":"IN-HS-44","Station_Nam":"PLAINFIELD 2.0 W, IN","Latitude":"39.69850","Longitude":"-86.42633","Snowdepth":"7.500","Units":"in","Rept_Date":"2019-12-17 14"},"coordinates":[2799,1824]},{"type":"Point","properties":{"Station_ID":"IN-HM-48","Station_Nam":"FISHERS 1.1 N, IN","Latitude":"39.96981","Longitude":"-86.02760","Snowdepth":"7.500","Units":"in","Rept_Date":"2019-12-17 12"},"coordinates":[2903,2009]},{"type":"Point","properties":{"Station_ID":"IL-SC-26","Station_Nam":"MASCOUTAH 1.5 SSE, IL","Latitude":"38.48795","Longitude":"-89.79602","Snowdepth":"7.500","Units":"in","Rept_Date":"2019-12-17 12"},"coordinates":[1927,1002]},{"type":"Point","properties":{"Station_ID":"IL-MY-1","Station_Nam":"NOKOMIS 4.5 NW, IL","Latitude":"39.34698","Longitude":"-89.34550","Snowdepth":"7.500","Units":"in","Rept_Date":"2019-12-17 13"},"coordinates":[2044,1585]},{"type":"Point","properties":{"Station_ID":"IL-MO-7","Station_Nam":"COLUMBIA 4.7 S, IL","Latitude":"38.38720","Longitude":"-90.21490","Snowdepth":"7.500","Units":"in","Rept_Date":"2019-12-17 13"},"coordinates":[1818,933]},{"type":"Point","properties":{"Station_ID":"FTHQ6","Station_Nam":"FORT HOPE","Latitude":"51.55820","Longitude":"-87.90510","Snowdepth":"7.360","Units":"in","Rept_Date":"2019-12-18 06"},"coordinates":[2417,9884]},{"type":"Point","properties":{"Station_ID":"WYON6","Station_Nam":"WYOMING 3W","Latitude":"42.82060","Longitude":"-78.14810","Snowdepth":"7.000","Units":"in","Rept_Date":"2019-12-17 12"},"coordinates":[4943,3946]},{"type":"Point","properties":{"Station_ID":"SVSN6","Station_Nam":"SILVER SPRINGS 3N","Latitude":"42.70580","Longitude":"-78.09370","Snowdepth":"7.000","Units":"in","Rept_Date":"2019-12-17 12"},"coordinates":[4957,3868]},{"type":"Point","properties":{"Station_ID":"STPW3","Station_Nam":"STEVENS POINT","Latitude":"44.51130","Longitude":"-89.58550","Snowdepth":"7.000","Units":"in","Rept_Date":"2019-12-17 13"},"coordinates":[1981,5095]},{"type":"Point","properties":{"Station_ID":"SBYI2","Station_Nam":"KASKASKIA RIVER AT LAKE SHELBYVILLE (POOL)","Latitude":"39.40790","Longitude":"-88.77390","Snowdepth":"7.000","Units":"in","Rept_Date":"2019-12-17 13"},"coordinates":[2192,1627]},{"type":"Point","properties":{"Station_ID":"ROWM3","Station_Nam":"ROWE 3NE","Latitude":"42.73500","Longitude":"-72.86920","Snowdepth":"7.000","Units":"in","Rept_Date":"2019-12-17 12"},"coordinates":[6309,3888]},{"type":"Point","properties":{"Station_ID":"ROBW3","Station_Nam":"ROBERTS WWTP","Latitude":"44.97070","Longitude":"-92.56200","Snowdepth":"7.000","Units":"in","Rept_Date":"2019-12-17 13"},"coordinates":[1211,5407]},{"type":"Point","properties":{"Station_ID":"RFDM5","Station_Nam":"ROCKFORD","Latitude":"45.08960","Longitude":"-93.73990","Snowdepth":"7.000","Units":"in","Rept_Date":"2019-12-17 13"},"coordinates":[906,5488]},{"type":"Point","properties":{"Station_ID":"PELW3","Station_Nam":"PELLA 3SE","Latitude":"44.73580","Longitude":"-88.73780","Snowdepth":"7.000","Units":"in","Rept_Date":"2019-12-17 11"},"coordinates":[2201,5248]},{"type":"Point","properties":{"Station_ID":"NY-WY-11","Station_Nam":"SILVER SPRINGS COOP, NY","Latitude":"42.70580","Longitude":"-78.09370","Snowdepth":"7.000","Units":"in","Rept_Date":"2019-12-17 12"},"coordinates":[4957,3868]},{"type":"Point","properties":{"Station_ID":"NY-JF-30","Station_Nam":"WEST CARTHAGE 0.3 ENE, NY","Latitude":"43.97493","Longitude":"-75.61640","Snowdepth":"7.000","Units":"in","Rept_Date":"2019-12-17 12"},"coordinates":[5598,4731]},{"type":"Point","properties":{"Station_ID":"NY-CY-27","Station_Nam":"MORAVIA 5.9 ENE, NY","Latitude":"42.73491","Longitude":"-76.31137","Snowdepth":"7.000","Units":"in","Rept_Date":"2019-12-17 12"},"coordinates":[5418,3888]},{"type":"Point","properties":{"Station_ID":"NY-AB-54","Station_Nam":"ALTAMONT 2.9 SW, NY","Latitude":"42.68182","Longitude":"-74.08326","Snowdepth":"7.000","Units":"in","Rept_Date":"2019-12-17 12"},"coordinates":[5995,3852]},{"type":"Point","properties":{"Station_ID":"NALN6","Station_Nam":"CATTARAUGUS","Latitude":"42.32450","Longitude":"-78.86700","Snowdepth":"7.000","Units":"in","Rept_Date":"2019-12-17 13"},"coordinates":[4757,3609]},{"type":"Point","properties":{"Station_ID":"MTQM4","Station_Nam":"MANISTIQUE WWTP","Latitude":"45.95120","Longitude":"-86.25130","Snowdepth":"7.000","Units":"in","Rept_Date":"2019-12-17 12"},"coordinates":[2845,6074]},{"type":"Point","properties":{"Station_ID":"MSP","Station_Nam":"MINNEAPOLIS-ST PAUL INTL AP","Latitude":"44.88310","Longitude":"-93.22890","Snowdepth":"7.000","Units":"in","Rept_Date":"2019-12-18 00"},"coordinates":[1038,5348]},{"type":"Point","properties":{"Station_ID":"MN-WR-25","Station_Nam":"SAINT MICHAEL 2.0 ENE, MN","Latitude":"45.20820","Longitude":"-93.65280","Snowdepth":"7.000","Units":"in","Rept_Date":"2019-12-17 12"},"coordinates":[928,5569]},{"type":"Point","properties":{"Station_ID":"MN-RM-2","Station_Nam":"NORTH SAINT PAUL 1.0 NNW, MN","Latitude":"45.02629","Longitude":"-93.00790","Snowdepth":"7.000","Units":"in","Rept_Date":"2019-12-17 12"},"coordinates":[1095,5445]},{"type":"Point","properties":{"Station_ID":"MN-HN-239","Station_Nam":"MINNEAPOLIS 4.7 SSW, MN","Latitude":"44.90319","Longitude":"-93.31282","Snowdepth":"7.000","Units":"in","Rept_Date":"2019-12-17 13"},"coordinates":[1016,5362]},{"type":"Point","properties":{"Station_ID":"MN-DK-70","Station_Nam":"EAGAN 2.0 NNW, MN","Latitude":"44.84322","Longitude":"-93.17899","Snowdepth":"7.000","Units":"in","Rept_Date":"2019-12-17 15"},"coordinates":[1051,5321]},{"type":"Point","properties":{"Station_ID":"MN-CG-16","Station_Nam":"NORTH BRANCH 1.3 NNW, MN","Latitude":"45.53121","Longitude":"-92.97110","Snowdepth":"7.000","Units":"in","Rept_Date":"2019-12-17 12"},"coordinates":[1105,5788]},{"type":"Point","properties":{"Station_ID":"MA-MD-47","Station_Nam":"WEST TOWNSEND 0.5 W, MA","Latitude":"42.67623","Longitude":"-71.74983","Snowdepth":"7.000","Units":"in","Rept_Date":"2019-12-17 11"},"coordinates":[6599,3848]},{"type":"Point","properties":{"Station_ID":"LTVN6","Station_Nam":"LITTLE VALLEY","Latitude":"42.24730","Longitude":"-78.81250","Snowdepth":"7.000","Units":"in","Rept_Date":"2019-12-17 12"},"coordinates":[4771,3557]},{"type":"Point","properties":{"Station_ID":"LKFM5","Station_Nam":"LAKEFIELD,MN","Latitude":"43.68330","Longitude":"-95.18330","Snowdepth":"7.000","Units":"in","Rept_Date":"2019-12-17 13"},"coordinates":[532,4532]},{"type":"Point","properties":{"Station_ID":"LGRN8","Station_Nam":"LIDGERWOOD,ND","Latitude":"46.06670","Longitude":"-97.16670","Snowdepth":"7.000","Units":"in","Rept_Date":"2019-12-17 13"},"coordinates":[19,6152]},{"type":"Point","properties":{"Station_ID":"LBKV1","Station_Nam":"LYE BROOK","Latitude":"43.05000","Longitude":"-73.03330","Snowdepth":"7.000","Units":"in","Rept_Date":"2019-12-18 06"},"coordinates":[6267,4102]},{"type":"Point","properties":{"Station_ID":"KS-JO-71","Station_Nam":"OLATHE 3.5 NW, KS","Latitude":"38.91971","Longitude":"-94.86385","Snowdepth":"7.000","Units":"in","Rept_Date":"2019-12-17 14"},"coordinates":[615,1295]},{"type":"Point","properties":{"Station_ID":"KS-JO-61","Station_Nam":"OVERLAND PARK 4.0 S, KS","Latitude":"38.85700","Longitude":"-94.68000","Snowdepth":"7.000","Units":"in","Rept_Date":"2019-12-17 13"},"coordinates":[662,1252]},{"type":"Point","properties":{"Station_ID":"KS-DG-65","Station_Nam":"BALDWIN CITY 7.5 WSW, KS","Latitude":"38.75030","Longitude":"-95.32086","Snowdepth":"7.000","Units":"in","Rept_Date":"2019-12-17 13"},"coordinates":[497,1180]},{"type":"Point","properties":{"Station_ID":"KMSP","Station_Nam":"MINNEAPOLIS-ST PAUL INTERNATIONAL","Latitude":"44.86666","Longitude":"-93.21666","Snowdepth":"7.000","Units":"in","Rept_Date":"2019-12-18 00"},"coordinates":[1041,5337]},{"type":"Point","properties":{"Station_ID":"KLKM4","Station_Nam":"KALKASKA","Latitude":"44.72800","Longitude":"-85.17270","Snowdepth":"7.000","Units":"in","Rept_Date":"2019-12-17 13"},"coordinates":[3124,5242]},{"type":"Point","properties":{"Station_ID":"KIMM5","Station_Nam":"KIMBALL 3N","Latitude":"45.35330","Longitude":"-94.30560","Snowdepth":"7.000","Units":"in","Rept_Date":"2019-12-17 12"},"coordinates":[759,5667]},{"type":"Point","properties":{"Station_ID":"IN-MR-157","Station_Nam":"INDIANAPOLIS 9.3 E, IN","Latitude":"39.78524","Longitude":"-85.97166","Snowdepth":"7.000","Units":"in","Rept_Date":"2019-12-17 15"},"coordinates":[2917,1883]},{"type":"Point","properties":{"Station_ID":"IN-MR-149","Station_Nam":"INDIANAPOLIS 6.8 NNE, IN","Latitude":"39.86241","Longitude":"-86.08343","Snowdepth":"7.000","Units":"in","Rept_Date":"2019-12-17 11"},"coordinates":[2888,1936]},{"type":"Point","properties":{"Station_ID":"IN-HS-4","Station_Nam":"BROWNSBURG 4.6 S, IN","Latitude":"39.77486","Longitude":"-86.40220","Snowdepth":"7.000","Units":"in","Rept_Date":"2019-12-17 12"},"coordinates":[2806,1876]},{"type":"Point","properties":{"Station_ID":"IN-HN-3","Station_Nam":"NEW PALESTINE 1.4 S, IN","Latitude":"39.70061","Longitude":"-85.89500","Snowdepth":"7.000","Units":"in","Rept_Date":"2019-12-17 13"},"coordinates":[2937,1826]},{"type":"Point","properties":{"Station_ID":"IN-HN-11","Station_Nam":"MCCORDSVILLE 2.6 NE, IN","Latitude":"39.93700","Longitude":"-85.90000","Snowdepth":"7.000","Units":"in","Rept_Date":"2019-12-17 12"},"coordinates":[2936,1986]},{"type":"Point","properties":{"Station_ID":"ILEW3","Station_Nam":"STILES 1S","Latitude":"44.84190","Longitude":"-88.05420","Snowdepth":"7.000","Units":"in","Rept_Date":"2019-12-17 13"},"coordinates":[2378,5320]},{"type":"Point","properties":{"Station_ID":"IL-SH-3","Station_Nam":"MODE 3.7 NW, IL","Latitude":"39.28272","Longitude":"-88.79730","Snowdepth":"7.000","Units":"in","Rept_Date":"2019-12-17 13"},"coordinates":[2186,1542]},{"type":"Point","properties":{"Station_ID":"IL-SC-23","Station_Nam":"BELLEVILLE 2.7 SSE, IL","Latitude":"38.49485","Longitude":"-89.98110","Snowdepth":"7.000","Units":"in","Rept_Date":"2019-12-17 13"},"coordinates":[1879,1006]},{"type":"Point","properties":{"Station_ID":"GLDM5","Station_Nam":"GAYLORD","Latitude":"44.55640","Longitude":"-94.22070","Snowdepth":"7.000","Units":"in","Rept_Date":"2019-12-17 15"},"coordinates":[781,5126]},{"type":"Point","properties":{"Station_ID":"ELWW3","Station_Nam":"ELLSWORTH 1E","Latitude":"44.73030","Longitude":"-92.45860","Snowdepth":"7.000","Units":"in","Rept_Date":"2019-12-17 13"},"coordinates":[1238,5244]},{"type":"Point","properties":{"Station_ID":"EJNM4","Station_Nam":"EAST JORDAN 2NW","Latitude":"45.18630","Longitude":"-85.14770","Snowdepth":"7.000","Units":"in","Rept_Date":"2019-12-17 13"},"coordinates":[3130,5554]},{"type":"Point","properties":{"Station_ID":"EGNM5","Station_Nam":"ELGIN 2SSW","Latitude":"44.09700","Longitude":"-92.27010","Snowdepth":"7.000","Units":"in","Rept_Date":"2019-12-17 13"},"coordinates":[1286,4814]},{"type":"Point","properties":{"Station_ID":"DANI3","Station_Nam":"DANVILLE 3SW","Latitude":"39.73440","Longitude":"-86.53610","Snowdepth":"7.000","Units":"in","Rept_Date":"2019-12-17 12"},"coordinates":[2771,1849]},{"type":"Point","properties":{"Station_ID":"CRSI2","Station_Nam":"CHARLESTON","Latitude":"39.47620","Longitude":"-88.16520","Snowdepth":"7.000","Units":"in","Rept_Date":"2019-12-18 00"},"coordinates":[2349,1673]},{"type":"Point","properties":{"Station_ID":"CBVM1","Station_Nam":"CARRABASSETT VALLEY","Latitude":"45.08040","Longitude":"-70.30310","Snowdepth":"7.000","Units":"in","Rept_Date":"2019-12-17 12"},"coordinates":[6974,5482]},{"type":"Point","properties":{"Station_ID":"APXM4","Station_Nam":"GAYLORD 9SSW","Latitude":"44.90720","Longitude":"-84.71880","Snowdepth":"7.000","Units":"in","Rept_Date":"2019-12-18 06"},"coordinates":[3241,5364]},{"type":"Point","properties":{"Station_ID":"41.9034_079.6523","Station_Nam":"CORRY (CLE0230)","Latitude":"41.90340","Longitude":"-79.65230","Snowdepth":"7.000","Units":"in","Rept_Date":"2019-12-17 14"},"coordinates":[4553,3323]},{"type":"Point","properties":{"Station_ID":"41.8717_080.0850","Station_Nam":"EDINBORO 2E  SNOW SPOTTER (X4190801)","Latitude":"41.87170","Longitude":"-80.08500","Snowdepth":"7.000","Units":"in","Rept_Date":"2019-12-17 23"},"coordinates":[4441,3301]},{"type":"Point","properties":{"Station_ID":"NY-WY-10","Station_Nam":"WYOMING COOP, NY","Latitude":"42.82060","Longitude":"-78.14810","Snowdepth":"6.500","Units":"in","Rept_Date":"2019-12-17 12"},"coordinates":[4943,3946]},{"type":"Point","properties":{"Station_ID":"NY-ER-158","Station_Nam":"EAST AURORA 2.7 SSE, NY","Latitude":"42.72936","Longitude":"-78.60561","Snowdepth":"6.500","Units":"in","Rept_Date":"2019-12-17 13"},"coordinates":[4824,3884]},{"type":"Point","properties":{"Station_ID":"NY-CT-22","Station_Nam":"FRANKLINVILLE 0.5 NNE, NY","Latitude":"42.34166","Longitude":"-78.45280","Snowdepth":"6.500","Units":"in","Rept_Date":"2019-12-17 13"},"coordinates":[4864,3621]},{"type":"Point","properties":{"Station_ID":"MN-WG-33","Station_Nam":"COTTAGE GROVE 1.6 NNW, MN","Latitude":"44.83821","Longitude":"-92.93590","Snowdepth":"6.500","Units":"in","Rept_Date":"2019-12-17 13"},"coordinates":[1114,5317]},{"type":"Point","properties":{"Station_ID":"MN-HN-30","Station_Nam":"PLYMOUTH 2.4 ENE, MN","Latitude":"45.04063","Longitude":"-93.41950","Snowdepth":"6.500","Units":"in","Rept_Date":"2019-12-17 13"},"coordinates":[989,5455]},{"type":"Point","properties":{"Station_ID":"MI-CX-7","Station_Nam":"EAST JORDAN 2.1 NNW, MI","Latitude":"45.18639","Longitude":"-85.14750","Snowdepth":"6.500","Units":"in","Rept_Date":"2019-12-17 13"},"coordinates":[3130,5554]},{"type":"Point","properties":{"Station_ID":"IN-PM-11","Station_Nam":"GREENCASTLE 3.6 ESE, IN","Latitude":"39.62210","Longitude":"-86.77900","Snowdepth":"6.500","Units":"in","Rept_Date":"2019-12-17 14"},"coordinates":[2708,1772]},{"type":"Point","properties":{"Station_ID":"IN-MR-52","Station_Nam":"INDIANAPOLIS 9.2 NNE, IN","Latitude":"39.89939","Longitude":"-86.12830","Snowdepth":"6.500","Units":"in","Rept_Date":"2019-12-17 14"},"coordinates":[2877,1961]},{"type":"Point","properties":{"Station_ID":"IN-HS-47","Station_Nam":"BROWNSBURG 0.8 NNW, IN","Latitude":"39.85245","Longitude":"-86.40137","Snowdepth":"6.500","Units":"in","Rept_Date":"2019-12-17 12"},"coordinates":[2806,1929]},{"type":"Point","properties":{"Station_ID":"IN-HS-21","Station_Nam":"AVON 1.6 NNW, IN","Latitude":"39.78488","Longitude":"-86.39390","Snowdepth":"6.500","Units":"in","Rept_Date":"2019-12-17 12"},"coordinates":[2808,1883]},{"type":"Point","properties":{"Station_ID":"IL-EF-29","Station_Nam":"ALTAMONT 3.8 SSW, IL","Latitude":"39.00473","Longitude":"-88.76790","Snowdepth":"6.500","Units":"in","Rept_Date":"2019-12-17 14"},"coordinates":[2193,1353]},{"type":"Point","properties":{"Station_ID":"IL-EF-10","Station_Nam":"WATSON 0.3 NE, IL","Latitude":"39.02843","Longitude":"-88.56590","Snowdepth":"6.500","Units":"in","Rept_Date":"2019-12-17 10"},"coordinates":[2245,1369]},{"type":"Point","properties":{"Station_ID":"CAN-MB-32","Station_Nam":"PINAWA 1.0 SW, CA","Latitude":"50.14747","Longitude":"-95.89020","Snowdepth":"6.500","Units":"in","Rept_Date":"2019-12-17 13"},"coordinates":[349,8926]},{"type":"Point","properties":{"Station_ID":"KS-OS-13","Station_Nam":"SCRANTON 6.7 SE, KS","Latitude":"38.72347","Longitude":"-95.63750","Snowdepth":"6.300","Units":"in","Rept_Date":"2019-12-17 13"},"coordinates":[415,1162]},{"type":"Point","properties":{"Station_ID":"IL-JS-3","Station_Nam":"NEWTON 6.4 NNE, IL","Latitude":"39.06890","Longitude":"-88.10580","Snowdepth":"6.300","Units":"in","Rept_Date":"2019-12-17 15"},"coordinates":[2365,1396]},{"type":"Point","properties":{"Station_ID":"KS-JO-53","Station_Nam":"OVERLAND PARK 3.3 S, KS","Latitude":"38.86693","Longitude":"-94.69233","Snowdepth":"6.200","Units":"in","Rept_Date":"2019-12-17 13"},"coordinates":[659,1259]},{"type":"Point","properties":{"Station_ID":"WRNM5","Station_Nam":"WORTHINGTON,MN","Latitude":"43.65440","Longitude":"-95.57920","Snowdepth":"6.000","Units":"in","Rept_Date":"2019-12-17 13"},"coordinates":[430,4513]},{"type":"Point","properties":{"Station_ID":"WLKM5","Station_Nam":"AH-GWAH-CHING","Latitude":"47.15000","Longitude":"-94.65000","Snowdepth":"6.000","Units":"in","Rept_Date":"2019-12-17 11"},"coordinates":[670,6888]},{"type":"Point","properties":{"Station_ID":"WISI2","Station_Nam":"WINDSOR","Latitude":"39.44590","Longitude":"-88.59620","Snowdepth":"6.000","Units":"in","Rept_Date":"2019-12-17 12"},"coordinates":[2238,1653]},{"type":"Point","properties":{"Station_ID":"WI-PK-4","Station_Nam":"DRESSER 6.1 ESE, WI","Latitude":"45.32436","Longitude":"-92.52080","Snowdepth":"6.000","Units":"in","Rept_Date":"2019-12-17 14"},"coordinates":[1221,5648]},{"type":"Point","properties":{"Station_ID":"WI-DR-6","Station_Nam":"SISTER BAY 1.3 NNE, WI","Latitude":"45.20296","Longitude":"-87.11326","Snowdepth":"6.000","Units":"in","Rept_Date":"2019-12-17 12"},"coordinates":[2622,5565]},{"type":"Point","properties":{"Station_ID":"WI-BN-6","Station_Nam":"SUAMICO 4.4 WNW, WI","Latitude":"44.66111","Longitude":"-88.11780","Snowdepth":"6.000","Units":"in","Rept_Date":"2019-12-17 13"},"coordinates":[2361,5197]},{"type":"Point","properties":{"Station_ID":"WELN6","Station_Nam":"WELLSVILLE","Latitude":"42.11730","Longitude":"-77.94750","Snowdepth":"6.000","Units":"in","Rept_Date":"2019-12-17 10"},"coordinates":[4995,3468]},{"type":"Point","properties":{"Station_ID":"WDOM5","Station_Nam":"WINDOM","Latitude":"43.87700","Longitude":"-95.11590","Snowdepth":"6.000","Units":"in","Rept_Date":"2019-12-17 14"},"coordinates":[550,4664]},{"type":"Point","properties":{"Station_ID":"WBLN6","Station_Nam":"WEST BLOOMFIELD","Latitude":"42.88460","Longitude":"-77.53400","Snowdepth":"6.000","Units":"in","Rept_Date":"2019-12-17 12"},"coordinates":[5102,3990]},{"type":"Point","properties":{"Station_ID":"UMCM7","Station_Nam":"SANBORN FIELD","Latitude":"38.94240","Longitude":"-92.32040","Snowdepth":"6.000","Units":"in","Rept_Date":"2019-12-17 13"},"coordinates":[1273,1310]},{"type":"Point","properties":{"Station_ID":"THLM5","Station_Nam":"THEILMAN 1SSW","Latitude":"44.28130","Longitude":"-92.19430","Snowdepth":"6.000","Units":"in","Rept_Date":"2019-12-17 13"},"coordinates":[1306,4939]},{"type":"Point","properties":{"Station_ID":"RYMM7","Station_Nam":"RAYMORE #2","Latitude":"38.79880","Longitude":"-94.44550","Snowdepth":"6.000","Units":"in","Rept_Date":"2019-12-17 13"},"coordinates":[723,1213]},{"type":"Point","properties":{"Station_ID":"RWGM5","Station_Nam":"RED WING","Latitude":"44.57120","Longitude":"-92.52830","Snowdepth":"6.000","Units":"in","Rept_Date":"2019-12-17 14"},"coordinates":[1220,5136]},{"type":"Point","properties":{"Station_ID":"RUHN6","Station_Nam":"RUSHFORD","Latitude":"42.42610","Longitude":"-78.19220","Snowdepth":"6.000","Units":"in","Rept_Date":"2019-12-17 13"},"coordinates":[4931,3678]},{"type":"Point","properties":{"Station_ID":"ROKI3","Station_Nam":"ROCKVILLE","Latitude":"39.75940","Longitude":"-87.22690","Snowdepth":"6.000","Units":"in","Rept_Date":"2019-12-17 22"},"coordinates":[2592,1866]},{"type":"Point","properties":{"Station_ID":"RGNM1","Station_Nam":"RANGELEY 2NW","Latitude":"44.98940","Longitude":"-70.67220","Snowdepth":"6.000","Units":"in","Rept_Date":"2019-12-17 11"},"coordinates":[6878,5420]},{"type":"Point","properties":{"Station_ID":"RDGI3","Station_Nam":"RIDGEVILLE 3SSE","Latitude":"40.25520","Longitude":"-84.99580","Snowdepth":"6.000","Units":"in","Rept_Date":"2019-12-17 12"},"coordinates":[3170,2203]},{"type":"Point","properties":{"Station_ID":"RATM7","Station_Nam":"NO.2","Latitude":"38.97440","Longitude":"-94.48170","Snowdepth":"6.000","Units":"in","Rept_Date":"2019-12-17 13"},"coordinates":[714,1332]},{"type":"Point","properties":{"Station_ID":"RAMI2","Station_Nam":"RAMSEY","Latitude":"39.14790","Longitude":"-89.10230","Snowdepth":"6.000","Units":"in","Rept_Date":"2019-12-17 13"},"coordinates":[2107,1450]},{"type":"Point","properties":{"Station_ID":"PNAI2","Station_Nam":"PANA","Latitude":"39.36850","Longitude":"-89.08660","Snowdepth":"6.000","Units":"in","Rept_Date":"2019-12-17 13"},"coordinates":[2111,1600]},{"type":"Point","properties":{"Station_ID":"PLKK1","Station_Nam":"POMONA LAKE-HUNDRED TEN MILE CREEK","Latitude":"38.64490","Longitude":"-95.56600","Snowdepth":"6.000","Units":"in","Rept_Date":"2019-12-17 13"},"coordinates":[433,1108]},{"type":"Point","properties":{"Station_ID":"PBGI3","Station_Nam":"BROOKLYN 1 NE","Latitude":"39.54460","Longitude":"-86.36010","Snowdepth":"6.000","Units":"in","Rept_Date":"2019-12-17 13"},"coordinates":[2817,1720]},{"type":"Point","properties":{"Station_ID":"PBAN8","Station_Nam":"SITE 1-3MI.N","Latitude":"48.97420","Longitude":"-97.23860","Snowdepth":"6.000","Units":"in","Rept_Date":"2019-12-17 13"},"coordinates":[0,8128]},{"type":"Point","properties":{"Station_ID":"OTTK1","Station_Nam":"OTTAWA,KS","Latitude":"38.61670","Longitude":"-95.28330","Snowdepth":"6.000","Units":"in","Rept_Date":"2019-12-17 13"},"coordinates":[506,1089]},{"type":"Point","properties":{"Station_ID":"OFLM7","Station_Nam":"O'FALLON,MO","Latitude":"38.78690","Longitude":"-90.71640","Snowdepth":"6.000","Units":"in","Rept_Date":"2019-12-17 13"},"coordinates":[1689,1205]},{"type":"Point","properties":{"Station_ID":"OCON6","Station_Nam":"OSCEOLA","Latitude":"43.49910","Longitude":"-75.71210","Snowdepth":"6.000","Units":"in","Rept_Date":"2019-12-17 12"},"coordinates":[5573,4407]},{"type":"Point","properties":{"Station_ID":"NY-ER-63","Station_Nam":"GLENWOOD 1.5 SE, NY","Latitude":"42.60195","Longitude":"-78.63910","Snowdepth":"6.000","Units":"in","Rept_Date":"2019-12-17 13"},"coordinates":[4816,3798]},{"type":"Point","properties":{"Station_ID":"NY-CQ-34","Station_Nam":"KENNEDY 2.6 SE, NY","Latitude":"42.12567","Longitude":"-79.07235","Snowdepth":"6.000","Units":"in","Rept_Date":"2019-12-17 13"},"coordinates":[4703,3474]},{"type":"Point","properties":{"Station_ID":"NTVK1","Station_Nam":"NORTONVILLE","Latitude":"39.41700","Longitude":"-95.33710","Snowdepth":"6.000","Units":"in","Rept_Date":"2019-12-17 10"},"coordinates":[492,1633]},{"type":"Point","properties":{"Station_ID":"MWN","Station_Nam":"MOUNT WASHINGTON","Latitude":"44.26670","Longitude":"-71.30000","Snowdepth":"6.000","Units":"in","Rept_Date":"2019-12-18 05"},"coordinates":[6716,4929]},{"type":"Point","properties":{"Station_ID":"MPXM5","Station_Nam":"CHANHASSEN WSFO","Latitude":"44.84960","Longitude":"-93.56440","Snowdepth":"6.000","Units":"in","Rept_Date":"2019-12-18 06"},"coordinates":[951,5325]},{"type":"Point","properties":{"Station_ID":"MO-SN-4","Station_Nam":"BLACKBURN 3.7 E, MO","Latitude":"39.10100","Longitude":"-93.41700","Snowdepth":"6.000","Units":"in","Rept_Date":"2019-12-17 14"},"coordinates":[989,1418]},{"type":"Point","properties":{"Station_ID":"MO-MY-2","Station_Nam":"MIDDLETOWN 3.5 SW, MO","Latitude":"39.09223","Longitude":"-91.46130","Snowdepth":"6.000","Units":"in","Rept_Date":"2019-12-17 13"},"coordinates":[1496,1412]},{"type":"Point","properties":{"Station_ID":"MO-JC-42","Station_Nam":"LEE'S SUMMIT 1.4 WSW, MO","Latitude":"38.90716","Longitude":"-94.40569","Snowdepth":"6.000","Units":"in","Rept_Date":"2019-12-17 13"},"coordinates":[733,1287]},{"type":"Point","properties":{"Station_ID":"MO-BN-11","Station_Nam":"COLUMBIA 0.9 SSE, MO","Latitude":"38.94250","Longitude":"-92.32000","Snowdepth":"6.000","Units":"in","Rept_Date":"2019-12-17 13"},"coordinates":[1273,1311]},{"type":"Point","properties":{"Station_ID":"MNP0GYWA","Station_Nam":"WALKER 2.0 SSE","Latitude":"47.07505","Longitude":"-94.56757","Snowdepth":"6.000","Units":"in","Rept_Date":"2019-12-17 11"},"coordinates":[692,6838]},{"type":"Point","properties":{"Station_ID":"MNHMOECS","Station_Nam":"HAZELTINE 1.9 NE","Latitude":"44.85545","Longitude":"-93.57125","Snowdepth":"6.000","Units":"in","Rept_Date":"2019-12-17 12"},"coordinates":[950,5329]},{"type":"Point","properties":{"Station_ID":"MNG0GYSN","Station_Nam":"LONSDALE 1.1 SSW","Latitude":"44.46445","Longitude":"-93.43293","Snowdepth":"6.000","Units":"in","Rept_Date":"2019-12-17 12"},"coordinates":[985,5063]},{"type":"Point","properties":{"Station_ID":"MN7M8EBJ","Station_Nam":"LUTSEN 15.7 NNW","Latitude":"47.85324","Longitude":"-89.92908","Snowdepth":"6.000","Units":"in","Rept_Date":"2019-12-17 14"},"coordinates":[1892,7366]},{"type":"Point","properties":{"Station_ID":"MN-SV-4","Station_Nam":"DONNELLY 2.9 NW, MN","Latitude":"45.71649","Longitude":"-96.06043","Snowdepth":"6.000","Units":"in","Rept_Date":"2019-12-17 13"},"coordinates":[305,5914]},{"type":"Point","properties":{"Station_ID":"MN-SR-24","Station_Nam":"PAYNESVILLE 1.9 SSW, MN","Latitude":"45.35170","Longitude":"-94.73120","Snowdepth":"6.000","Units":"in","Rept_Date":"2019-12-17 13"},"coordinates":[649,5666]},{"type":"Point","properties":{"Station_ID":"MN-SC-2","Station_Nam":"PRIOR LAKE 2.0 W, MN","Latitude":"44.71250","Longitude":"-93.46360","Snowdepth":"6.000","Units":"in","Rept_Date":"2019-12-17 13"},"coordinates":[977,5232]},{"type":"Point","properties":{"Station_ID":"MN-RC-1","Station_Nam":"MONTGOMERY 3.2 ENE, MN","Latitude":"44.46400","Longitude":"-93.51980","Snowdepth":"6.000","Units":"in","Rept_Date":"2019-12-17 11"},"coordinates":[963,5063]},{"type":"Point","properties":{"Station_ID":"MN-HN-78","Station_Nam":"RICHFIELD 1.9 WNW, MN","Latitude":"44.89129","Longitude":"-93.31410","Snowdepth":"6.000","Units":"in","Rept_Date":"2019-12-17 11"},"coordinates":[1016,5353]},{"type":"Point","properties":{"Station_ID":"MN-HN-31","Station_Nam":"MAPLE GROVE 1.0 NNE, MN","Latitude":"45.12261","Longitude":"-93.45790","Snowdepth":"6.000","Units":"in","Rept_Date":"2019-12-17 16"},"coordinates":[979,5511]},{"type":"Point","properties":{"Station_ID":"MN-HN-110","Station_Nam":"EDINA 1.9 SSE, MN","Latitude":"44.86875","Longitude":"-93.33940","Snowdepth":"6.000","Units":"in","Rept_Date":"2019-12-17 13"},"coordinates":[1010,5338]},{"type":"Point","properties":{"Station_ID":"MN-GH-4","Station_Nam":"NERSTRAND 4.2 E, MN","Latitude":"44.34247","Longitude":"-92.97920","Snowdepth":"6.000","Units":"in","Rept_Date":"2019-12-17 13"},"coordinates":[1103,4980]},{"type":"Point","properties":{"Station_ID":"MN-GH-28","Station_Nam":"CANNON FALLS 0.5 SE, MN","Latitude":"44.50866","Longitude":"-92.89526","Snowdepth":"6.000","Units":"in","Rept_Date":"2019-12-17 14"},"coordinates":[1125,5093]},{"type":"Point","properties":{"Station_ID":"MLVK1","Station_Nam":"MELVERN LAKE-MARAIS DES CYGNES RIVER","Latitude":"38.50400","Longitude":"-95.70370","Snowdepth":"6.000","Units":"in","Rept_Date":"2019-12-17 13"},"coordinates":[397,1013]},{"type":"Point","properties":{"Station_ID":"MI-OT-16","Station_Nam":"GAYLORD 2.2 SSE, MI","Latitude":"44.99441","Longitude":"-84.65820","Snowdepth":"6.000","Units":"in","Rept_Date":"2019-12-17 13"},"coordinates":[3257,5424]},{"type":"Point","properties":{"Station_ID":"MCFK1","Station_Nam":"MCFARLAND","Latitude":"39.05410","Longitude":"-96.23660","Snowdepth":"6.000","Units":"in","Rept_Date":"2019-12-17 13"},"coordinates":[259,1386]},{"type":"Point","properties":{"Station_ID":"MARI3","Station_Nam":"MARTINSVILLE 2 SW","Latitude":"39.40390","Longitude":"-86.45310","Snowdepth":"6.000","Units":"in","Rept_Date":"2019-12-17 12"},"coordinates":[2792,1624]},{"type":"Point","properties":{"Station_ID":"LOAI2","Station_Nam":"LOAMI,IL","Latitude":"39.63710","Longitude":"-89.88200","Snowdepth":"6.000","Units":"in","Rept_Date":"2019-12-17 13"},"coordinates":[1905,1783]},{"type":"Point","properties":{"Station_ID":"LCTK1","Station_Nam":"LECOMPTON","Latitude":"39.04650","Longitude":"-95.39200","Snowdepth":"6.000","Units":"in","Rept_Date":"2019-12-17 14"},"coordinates":[478,1381]},{"type":"Point","properties":{"Station_ID":"LBRM5","Station_Nam":"LAKE BRONSON DAM","Latitude":"48.72410","Longitude":"-96.62180","Snowdepth":"6.000","Units":"in","Rept_Date":"2019-12-17 14"},"coordinates":[160,7958]},{"type":"Point","properties":{"Station_ID":"KS-WB-3","Station_Nam":"MCFARLAND 0.1 SE, KS","Latitude":"39.05350","Longitude":"-96.23710","Snowdepth":"6.000","Units":"in","Rept_Date":"2019-12-17 13"},"coordinates":[259,1386]},{"type":"Point","properties":{"Station_ID":"KS-RL-6","Station_Nam":"MANHATTAN 1.9 NW, KS","Latitude":"39.20940","Longitude":"-96.61640","Snowdepth":"6.000","Units":"in","Rept_Date":"2019-12-17 13"},"coordinates":[161,1492]},{"type":"Point","properties":{"Station_ID":"KS-DK-19","Station_Nam":"HOPE 0.3 S, KS","Latitude":"38.68681","Longitude":"-97.07520","Snowdepth":"6.000","Units":"in","Rept_Date":"2019-12-17 13"},"coordinates":[42,1137]},{"type":"Point","properties":{"Station_ID":"KS-DG-61","Station_Nam":"BALDWIN CITY 0.6 W, KS","Latitude":"38.77669","Longitude":"-95.19597","Snowdepth":"6.000","Units":"in","Rept_Date":"2019-12-17 12"},"coordinates":[529,1198]},{"type":"Point","properties":{"Station_ID":"KMWN","Station_Nam":"MOUNT WASHINGTON","Latitude":"44.26666","Longitude":"-71.30000","Snowdepth":"6.000","Units":"in","Rept_Date":"2019-12-18 06"},"coordinates":[6716,4929]},{"type":"Point","properties":{"Station_ID":"IN-PM-16","Station_Nam":"GREENCASTLE 1.0 NNW, IN","Latitude":"39.65524","Longitude":"-86.84621","Snowdepth":"6.000","Units":"in","Rept_Date":"2019-12-17 13"},"coordinates":[2691,1795]},{"type":"Point","properties":{"Station_ID":"IN-PM-13","Station_Nam":"GREENCASTLE 1.7 NE, IN","Latitude":"39.66056","Longitude":"-86.82070","Snowdepth":"6.000","Units":"in","Rept_Date":"2019-12-17 13"},"coordinates":[2697,1799]},{"type":"Point","properties":{"Station_ID":"IN-MR-2","Station_Nam":"LAWRENCE 2.0 ENE, IN","Latitude":"39.88025","Longitude":"-85.95350","Snowdepth":"6.000","Units":"in","Rept_Date":"2019-12-17 12"},"coordinates":[2922,1948]},{"type":"Point","properties":{"Station_ID":"IN-MR-155","Station_Nam":"INDIANAPOLIS 5.1 ENE, IN","Latitude":"39.81302","Longitude":"-86.06196","Snowdepth":"6.000","Units":"in","Rept_Date":"2019-12-17 12"},"coordinates":[2894,1902]},{"type":"Point","properties":{"Station_ID":"IN-MG-11","Station_Nam":"BROOKLYN 0.5 ENE, IN","Latitude":"39.54460","Longitude":"-86.36290","Snowdepth":"6.000","Units":"in","Rept_Date":"2019-12-17 13"},"coordinates":[2816,1720]},{"type":"Point","properties":{"Station_ID":"IN-MD-25","Station_Nam":"ANDERSON 2.0 S, IN","Latitude":"40.06382","Longitude":"-85.69160","Snowdepth":"6.000","Units":"in","Rept_Date":"2019-12-17 12"},"coordinates":[2990,2073]},{"type":"Point","properties":{"Station_ID":"IN-HS-8","Station_Nam":"PLAINFIELD 1.1 W, IN","Latitude":"39.70126","Longitude":"-86.40790","Snowdepth":"6.000","Units":"in","Rept_Date":"2019-12-17 14"},"coordinates":[2804,1826]},{"type":"Point","properties":{"Station_ID":"IN-HM-34","Station_Nam":"CARMEL 1.4 NNE, IN","Latitude":"39.98795","Longitude":"-86.10150","Snowdepth":"6.000","Units":"in","Rept_Date":"2019-12-17 12"},"coordinates":[2883,2021]},{"type":"Point","properties":{"Station_ID":"IN-DL-46","Station_Nam":"MUNCIE 1.6 WNW, IN","Latitude":"40.20692","Longitude":"-85.41790","Snowdepth":"6.000","Units":"in","Rept_Date":"2019-12-17 12"},"coordinates":[3060,2170]},{"type":"Point","properties":{"Station_ID":"IN-BN-2","Station_Nam":"NEW ROSS 2.0 E, IN","Latitude":"39.96088","Longitude":"-86.67620","Snowdepth":"6.000","Units":"in","Rept_Date":"2019-12-17 12"},"coordinates":[2735,2003]},{"type":"Point","properties":{"Station_ID":"IL-SC-11","Station_Nam":"CENTREVILLE 1.9 E, IL","Latitude":"38.57350","Longitude":"-90.06600","Snowdepth":"6.000","Units":"in","Rept_Date":"2019-12-17 13"},"coordinates":[1857,1060]},{"type":"Point","properties":{"Station_ID":"IL-MD-37","Station_Nam":"HIGHLAND 1.0 E, IL","Latitude":"38.73930","Longitude":"-89.65748","Snowdepth":"6.000","Units":"in","Rept_Date":"2019-12-17 15"},"coordinates":[1963,1172]},{"type":"Point","properties":{"Station_ID":"IL-JS-5","Station_Nam":"YALE 0.1 SSW, IL","Latitude":"39.11824","Longitude":"-88.02512","Snowdepth":"6.000","Units":"in","Rept_Date":"2019-12-17 13"},"coordinates":[2385,1430]},{"type":"Point","properties":{"Station_ID":"IL-CN-3","Station_Nam":"PANA 6.2 NNE, IL","Latitude":"39.47360","Longitude":"-89.04620","Snowdepth":"6.000","Units":"in","Rept_Date":"2019-12-17 13"},"coordinates":[2121,1671]},{"type":"Point","properties":{"Station_ID":"HVJP1","Station_Nam":"HIDDEN VALLEY COOP","Latitude":"40.04200","Longitude":"-79.25660","Snowdepth":"6.000","Units":"in","Rept_Date":"2019-12-17 13"},"coordinates":[4656,2058]},{"type":"Point","properties":{"Station_ID":"HRVM7","Station_Nam":"HARVESTER,MO","Latitude":"38.72560","Longitude":"-90.61470","Snowdepth":"6.000","Units":"in","Rept_Date":"2019-12-17 13"},"coordinates":[1715,1163]},{"type":"Point","properties":{"Station_ID":"FESM7","Station_Nam":"FESTUS,MO","Latitude":"38.25000","Longitude":"-90.41670","Snowdepth":"6.000","Units":"in","Rept_Date":"2019-12-17 12"},"coordinates":[1766,840]},{"type":"Point","properties":{"Station_ID":"DRDW3","Station_Nam":"DURAND","Latitude":"44.61970","Longitude":"-91.97950","Snowdepth":"6.000","Units":"in","Rept_Date":"2019-12-17 14"},"coordinates":[1362,5169]},{"type":"Point","properties":{"Station_ID":"CWVI3","Station_Nam":"CRAWFORDSVILLE 6SE","Latitude":"39.96630","Longitude":"-86.92890","Snowdepth":"6.000","Units":"in","Rept_Date":"2019-12-17 11"},"coordinates":[2669,2006]},{"type":"Point","properties":{"Station_ID":"CNVM7","Station_Nam":"CENTERVIEW 3W","Latitude":"38.74030","Longitude":"-93.89690","Snowdepth":"6.000","Units":"in","Rept_Date":"2019-12-17 13"},"coordinates":[865,1173]},{"type":"Point","properties":{"Station_ID":"CNTW3","Station_Nam":"CLINTONVILLE","Latitude":"44.62270","Longitude":"-88.74830","Snowdepth":"6.000","Units":"in","Rept_Date":"2019-12-17 13"},"coordinates":[2198,5171]},{"type":"Point","properties":{"Station_ID":"BKEM5","Station_Nam":"BRECKENRIDGE 4NE","Latitude":"46.30470","Longitude":"-96.52170","Snowdepth":"6.000","Units":"in","Rept_Date":"2019-12-17 13"},"coordinates":[186,6314]},{"type":"Point","properties":{"Station_ID":"ATAN6","Station_Nam":"ATTICA 7 SW","Latitude":"42.81070","Longitude":"-78.39790","Snowdepth":"6.000","Units":"in","Rept_Date":"2019-12-17 11"},"coordinates":[4878,3939]},{"type":"Point","properties":{"Station_ID":"ALVK1","Station_Nam":"ALTA VISTA","Latitude":"38.86630","Longitude":"-96.48920","Snowdepth":"6.000","Units":"in","Rept_Date":"2019-12-17 13"},"coordinates":[194,1259]},{"type":"Point","properties":{"Station_ID":"ALTM5","Station_Nam":"ALTURA 5W","Latitude":"44.06330","Longitude":"-92.03970","Snowdepth":"6.000","Units":"in","Rept_Date":"2019-12-17 13"},"coordinates":[1346,4791]},{"type":"Point","properties":{"Station_ID":"MO-BN-73","Station_Nam":"ASHLAND 2.1 NW, MO","Latitude":"38.79766","Longitude":"-92.28186","Snowdepth":"5.900","Units":"in","Rept_Date":"2019-12-17 13"},"coordinates":[1283,1212]},{"type":"Point","properties":{"Station_ID":"IN-JH-12","Station_Nam":"GREENWOOD 4.8 WSW, IN","Latitude":"39.58580","Longitude":"-86.19470","Snowdepth":"5.800","Units":"in","Rept_Date":"2019-12-17 12"},"coordinates":[2859,1748]},{"type":"Point","properties":{"Station_ID":"OH-AL-5","Station_Nam":"LIMA 2.7 NE, OH","Latitude":"40.77390","Longitude":"-84.08000","Snowdepth":"5.500","Units":"in","Rept_Date":"2019-12-17 12"},"coordinates":[3407,2555]},{"type":"Point","properties":{"Station_ID":"MO-JC-44","Station_Nam":"BLUE SPRINGS 2.3 WNW, MO","Latitude":"39.03945","Longitude":"-94.31104","Snowdepth":"5.500","Units":"in","Rept_Date":"2019-12-17 12"},"coordinates":[758,1376]},{"type":"Point","properties":{"Station_ID":"MO-BN-82","Station_Nam":"COLUMBIA 2.1 W, MO","Latitude":"38.95238","Longitude":"-92.36661","Snowdepth":"5.500","Units":"in","Rept_Date":"2019-12-17 13"},"coordinates":[1261,1317]},{"type":"Point","properties":{"Station_ID":"ME-AR-18","Station_Nam":"NEW SWEDEN 4.9 NNW, ME","Latitude":"47.01080","Longitude":"-68.14390","Snowdepth":"5.500","Units":"in","Rept_Date":"2019-12-17 12"},"coordinates":[7533,6794]},{"type":"Point","properties":{"Station_ID":"KS-JO-65","Station_Nam":"SHAWNEE 1.0 ESE, KS","Latitude":"39.00762","Longitude":"-94.78804","Snowdepth":"5.500","Units":"in","Rept_Date":"2019-12-17 13"},"coordinates":[634,1355]},{"type":"Point","properties":{"Station_ID":"IN-SH-20","Station_Nam":"(KB9RBB)FAIRLAND 0.9 SSW, IN","Latitude":"39.58690","Longitude":"-85.86610","Snowdepth":"5.500","Units":"in","Rept_Date":"2019-12-17 12"},"coordinates":[2944,1748]},{"type":"Point","properties":{"Station_ID":"IN-RS-4","Station_Nam":"MORRISTOWN 3.8 ENE, IN","Latitude":"39.69179","Longitude":"-85.63260","Snowdepth":"5.500","Units":"in","Rept_Date":"2019-12-17 13"},"coordinates":[3005,1820]},{"type":"Point","properties":{"Station_ID":"IN-MN-7","Station_Nam":"BLOOMINGTON 6.5 WNW, IN","Latitude":"39.20827","Longitude":"-86.63050","Snowdepth":"5.500","Units":"in","Rept_Date":"2019-12-17 13"},"coordinates":[2747,1491]},{"type":"Point","properties":{"Station_ID":"IN-MG-24","Station_Nam":"(N9JPX)PARAGON 3.2 ENE, IN","Latitude":"39.40580","Longitude":"-86.50450","Snowdepth":"5.500","Units":"in","Rept_Date":"2019-12-17 12"},"coordinates":[2779,1625]},{"type":"Point","properties":{"Station_ID":"IN-HY-7","Station_Nam":"NEW CASTLE 2.4 SW, IN","Latitude":"39.89440","Longitude":"-85.39510","Snowdepth":"5.500","Units":"in","Rept_Date":"2019-12-17 12"},"coordinates":[3066,1957]},{"type":"Point","properties":{"Station_ID":"IL-SC-9","Station_Nam":"BELLEVILLE 4.5 WNW, IL","Latitude":"38.55240","Longitude":"-90.08050","Snowdepth":"5.500","Units":"in","Rept_Date":"2019-12-17 13"},"coordinates":[1853,1045]},{"type":"Point","properties":{"Station_ID":"CAN-NB-13","Station_Nam":"BATHURST 3.8 NW, CAN","Latitude":"47.64212","Longitude":"-65.68756","Snowdepth":"5.500","Units":"in","Rept_Date":"2019-12-17 11"},"coordinates":[8169,7223]},{"type":"Point","properties":{"Station_ID":"MN-SC-33","Station_Nam":"SHAKOPEE 2.6 W, MN","Latitude":"44.78173","Longitude":"-93.52868","Snowdepth":"5.300","Units":"in","Rept_Date":"2019-12-17 13"},"coordinates":[961,5279]},{"type":"Point","properties":{"Station_ID":"MN-FM-10","Station_Nam":"WYKOFF 3.1 NW, MN","Latitude":"43.74340","Longitude":"-92.30650","Snowdepth":"5.200","Units":"in","Rept_Date":"2019-12-17 13"},"coordinates":[1277,4573]},{"type":"Point","properties":{"Station_ID":"MO-FR-28","Station_Nam":"LABADIE 2.4 E, MO","Latitude":"38.52440","Longitude":"-90.80670","Snowdepth":"5.100","Units":"in","Rept_Date":"2019-12-17 15"},"coordinates":[1665,1026]},{"type":"Point","properties":{"Station_ID":"CAN-ON-132","Station_Nam":"ORANGEVILLE 5.1 SSW - CANWARN, CAN","Latitude":"43.87372","Longitude":"-80.13428","Snowdepth":"5.100","Units":"in","Rept_Date":"2019-12-17 14"},"coordinates":[4428,4662]},{"type":"Point","properties":{"Station_ID":"WNNM5","Station_Nam":"WINNEBAGO","Latitude":"43.76920","Longitude":"-94.18730","Snowdepth":"5.000","Units":"in","Rept_Date":"2019-12-17 14"},"coordinates":[790,4591]},{"type":"Point","properties":{"Station_ID":"WIPW3","Station_Nam":"WISCONSIN RAPIDS-SOUTHEAST","Latitude":"44.38190","Longitude":"-89.80470","Snowdepth":"5.000","Units":"in","Rept_Date":"2019-12-17 12"},"coordinates":[1925,5007]},{"type":"Point","properties":{"Station_ID":"WHLI2","Station_Nam":"WHITE HALL 1 E","Latitude":"39.44080","Longitude":"-90.37880","Snowdepth":"5.000","Units":"in","Rept_Date":"2019-12-17 13"},"coordinates":[1776,1649]},{"type":"Point","properties":{"Station_ID":"WHGM7","Station_Nam":"NO. 2","Latitude":"38.55000","Longitude":"-91.00000","Snowdepth":"5.000","Units":"in","Rept_Date":"2019-12-17 13"},"coordinates":[1615,1044]},{"type":"Point","properties":{"Station_ID":"WELM5","Station_Nam":"WELLS","Latitude":"43.74680","Longitude":"-93.73680","Snowdepth":"5.000","Units":"in","Rept_Date":"2019-12-17 14"},"coordinates":[907,4576]},