{"type":"Topology","objects":{"snowdepth_geo":{"type":"GeometryCollection","name":"snowdepth","crs":{"type":"name","properties":{"name":"urn:ogc:def:crs:OGC:1.3:CRS84"}},"geometries":[{"type":"Point","properties":{"Station_ID":"PRKM4","Station_Nam":"MUNISING EAST","Latitude":"46.42580","Longitude":"-86.62000","Snowdepth":"76.500","Units":"in","Rept_Date":"2021-02-12 06"},"coordinates":[2492,6868]},{"type":"Point","properties":{"Station_ID":"PDLM4","Station_Nam":"PAINESDALE","Latitude":"47.04160","Longitude":"-88.67170","Snowdepth":"48.000","Units":"in","Rept_Date":"2021-02-11 13"},"coordinates":[2011,7232]},{"type":"Point","properties":{"Station_ID":"MMNV1","Station_Nam":"MT. MANSFIELD","Latitude":"44.52480","Longitude":"-72.81540","Snowdepth":"48.000","Units":"in","Rept_Date":"2021-02-11 21"},"coordinates":[5732,5746]},{"type":"Point","properties":{"Station_ID":"HTLN3","Station_Nam":"HERMIT LAKE SNOWPLOT","Latitude":"44.26130","Longitude":"-71.28330","Snowdepth":"45.000","Units":"in","Rept_Date":"2021-02-11 10"},"coordinates":[6092,5590]},{"type":"Point","properties":{"Station_ID":"CLUM4","Station_Nam":"CALUMET-TAMARACK","Latitude":"47.24550","Longitude":"-88.46790","Snowdepth":"43.000","Units":"in","Rept_Date":"2021-02-11 14"},"coordinates":[2058,7352]},{"type":"Point","properties":{"Station_ID":"KSGM4","Station_Nam":"KEARSARGE","Latitude":"47.27520","Longitude":"-88.41700","Snowdepth":"42.000","Units":"in","Rept_Date":"2021-02-11 13"},"coordinates":[2070,7370]},{"type":"Point","properties":{"Station_ID":"HGHN6","Station_Nam":"HIGHMARKET","Latitude":"43.60510","Longitude":"-75.55430","Snowdepth":"41.000","Units":"in","Rept_Date":"2021-02-11 11"},"coordinates":[5089,5202]},{"type":"Point","properties":{"Station_ID":"HLSN3","Station_Nam":"HERMIT LAKE SNOTEL","Latitude":"44.26130","Longitude":"-71.28320","Snowdepth":"40.710","Units":"in","Rept_Date":"2021-02-12 06"},"coordinates":[6092,5590]},{"type":"Point","properties":{"Station_ID":"RDFN6","Station_Nam":"REDFIELD 8N","Latitude":"43.64130","Longitude":"-75.88400","Snowdepth":"39.000","Units":"in","Rept_Date":"2021-02-11 12"},"coordinates":[5012,5224]},{"type":"Point","properties":{"Station_ID":"QNCM4","Station_Nam":"QUINCY HILL","Latitude":"47.13640","Longitude":"-88.57950","Snowdepth":"39.000","Units":"in","Rept_Date":"2021-02-11 12"},"coordinates":[2032,7288]},{"type":"Point","properties":{"Station_ID":"MI-HG-20","Station_Nam":"CALUMET 1.1 SSW, MI","Latitude":"47.23165","Longitude":"-88.45823","Snowdepth":"38.000","Units":"in","Rept_Date":"2021-02-11 11"},"coordinates":[2061,7344]},{"type":"Point","properties":{"Station_ID":"PTLQ6","Station_Nam":"PORTAGE LAKE","Latitude":"49.06950","Longitude":"-86.65940","Snowdepth":"31.650","Units":"in","Rept_Date":"2021-02-12 06"},"coordinates":[2483,8430]},{"type":"Point","properties":{"Station_ID":"NH-CS-10","Station_Nam":"RANDOLPH 1.4 NE, NH","Latitude":"44.38824","Longitude":"-71.26950","Snowdepth":"31.000","Units":"in","Rept_Date":"2021-02-11 12"},"coordinates":[6095,5665]},{"type":"Point","properties":{"Station_ID":"WDFV1","Station_Nam":"WOODFORD MOUNTAIN","Latitude":"42.88330","Longitude":"-73.06670","Snowdepth":"30.700","Units":"in","Rept_Date":"2021-02-11 12"},"coordinates":[5673,4776]},{"type":"Point","properties":{"Station_ID":"GNLM4","Station_Nam":"GREENLAND 6N","Latitude":"46.87360","Longitude":"-89.10060","Snowdepth":"30.000","Units":"in","Rept_Date":"2021-02-11 13"},"coordinates":[1910,7133]},{"type":"Point","properties":{"Station_ID":"SBMV1","Station_Nam":"SEARSBURG MOUNTAIN","Latitude":"42.90000","Longitude":"-73.00000","Snowdepth":"29.600","Units":"in","Rept_Date":"2021-02-11 12"},"coordinates":[5689,4786]},{"type":"Point","properties":{"Station_ID":"VT-BN-12","Station_Nam":"STAMFORD 5.0 NNE, VT","Latitude":"42.82000","Longitude":"-73.02000","Snowdepth":"29.500","Units":"in","Rept_Date":"2021-02-11 21"},"coordinates":[5684,4739]},{"type":"Point","properties":{"Station_ID":"BOON6","Station_Nam":"BOONVILLE 4 SSW","Latitude":"43.43610","Longitude":"-75.36970","Snowdepth":"29.000","Units":"in","Rept_Date":"2021-02-11 12"},"coordinates":[5132,5103]},{"type":"Point","properties":{"Station_ID":"MI-KW-2","Station_Nam":"DELAWARE 5.2 SW, MI","Latitude":"47.36928","Longitude":"-88.17919","Snowdepth":"28.000","Units":"in","Rept_Date":"2021-02-11 09"},"coordinates":[2126,7425]},{"type":"Point","properties":{"Station_ID":"LBKV1","Station_Nam":"LYE BROOK","Latitude":"43.05000","Longitude":"-73.03330","Snowdepth":"28.000","Units":"in","Rept_Date":"2021-02-12 06"},"coordinates":[5681,4875]},{"type":"Point","properties":{"Station_ID":"EHYM3","Station_Nam":"EAST HAWLEY","Latitude":"42.57410","Longitude":"-72.86790","Snowdepth":"28.000","Units":"in","Rept_Date":"2021-02-11 13"},"coordinates":[5720,4594]},{"type":"Point","properties":{"Station_ID":"DVLQ6","Station_Nam":"DEVIOUS LAKE","Latitude":"49.19890","Longitude":"-87.76440","Snowdepth":"27.680","Units":"in","Rept_Date":"2021-02-12 06"},"coordinates":[2224,8506]},{"type":"Point","properties":{"Station_ID":"NY-HR-18","Station_Nam":"SALISBURY CENTER 1.8 NW, NY","Latitude":"43.16260","Longitude":"-74.80880","Snowdepth":"27.500","Units":"in","Rept_Date":"2021-02-11 10"},"coordinates":[5264,4941]},{"type":"Point","properties":{"Station_ID":"TRIQ6","Station_Nam":"TRIO LAKE","Latitude":"49.22880","Longitude":"-87.22920","Snowdepth":"27.090","Units":"in","Rept_Date":"2021-02-12 06"},"coordinates":[2349,8524]},{"type":"Point","properties":{"Station_ID":"WNDP1","Station_Nam":"WINDBER COUNTY CLUB","Latitude":"40.28780","Longitude":"-78.77530","Snowdepth":"27.000","Units":"in","Rept_Date":"2021-02-11 12"},"coordinates":[4333,3243]},{"type":"Point","properties":{"Station_ID":"VT-BN-3","Station_Nam":"LANDGROVE 1.1 NNE, VT","Latitude":"43.29092","Longitude":"-72.83260","Snowdepth":"27.000","Units":"in","Rept_Date":"2021-02-11 12"},"coordinates":[5728,5017]},{"type":"Point","properties":{"Station_ID":"ROWM3","Station_Nam":"ROWE 3NE","Latitude":"42.73500","Longitude":"-72.86920","Snowdepth":"27.000","Units":"in","Rept_Date":"2021-02-11 12"},"coordinates":[5719,4689]},{"type":"Point","properties":{"Station_ID":"JEFV1","Station_Nam":"JEFFERSONVILLE","Latitude":"44.58430","Longitude":"-72.78700","Snowdepth":"27.000","Units":"in","Rept_Date":"2021-02-11 12"},"coordinates":[5739,5781]},{"type":"Point","properties":{"Station_ID":"SMSV1","Station_Nam":"SOMERSET RESERVOIR","Latitude":"42.97640","Longitude":"-72.95170","Snowdepth":"26.800","Units":"in","Rept_Date":"2021-02-11 12"},"coordinates":[5700,4831]},{"type":"Point","properties":{"Station_ID":"WHFN6","Station_Nam":"WILMINGTON 2W","Latitude":"44.39310","Longitude":"-73.85890","Snowdepth":"26.000","Units":"in","Rept_Date":"2021-02-11 13"},"coordinates":[5487,5668]},{"type":"Point","properties":{"Station_ID":"OCON6","Station_Nam":"OSCEOLA","Latitude":"43.50370","Longitude":"-75.72170","Snowdepth":"26.000","Units":"in","Rept_Date":"2021-02-11 13"},"coordinates":[5050,5143]},{"type":"Point","properties":{"Station_ID":"MI-HG-1","Station_Nam":"HOUGHTON 1.6 ESE, MI","Latitude":"47.10774","Longitude":"-88.52940","Snowdepth":"25.500","Units":"in","Rept_Date":"2021-02-11 13"},"coordinates":[2044,7271]},{"type":"Point","properties":{"Station_ID":"ME-FR-2","Station_Nam":"TEMPLE 1.8 W, ME","Latitude":"44.68329","Longitude":"-70.26420","Snowdepth":"25.500","Units":"in","Rept_Date":"2021-02-11 12"},"coordinates":[6331,5839]},{"type":"Point","properties":{"Station_ID":"PROP1","Station_Nam":"PROMPTON DAM","Latitude":"41.58900","Longitude":"-75.33030","Snowdepth":"25.000","Units":"in","Rept_Date":"2021-02-11 12"},"coordinates":[5142,4012]},{"type":"Point","properties":{"Station_ID":"NY-LW-12","Station_Nam":"CHASES LAKE COOP, NY","Latitude":"43.75924","Longitude":"-75.29982","Snowdepth":"25.000","Units":"in","Rept_Date":"2021-02-11 11"},"coordinates":[5149,5293]},{"type":"Point","properties":{"Station_ID":"NY-CL-12","Station_Nam":"SARANAC 0.8 SSE, NY","Latitude":"44.63980","Longitude":"-73.73848","Snowdepth":"25.000","Units":"in","Rept_Date":"2021-02-11 12"},"coordinates":[5515,5814]},{"type":"Point","properties":{"Station_ID":"MI-EM-8","Station_Nam":"PETOSKEY 1.7 SSW, MI","Latitude":"45.34209","Longitude":"-84.96530","Snowdepth":"25.000","Units":"in","Rept_Date":"2021-02-11 11"},"coordinates":[2880,6228]},{"type":"Point","properties":{"Station_ID":"GFDN6","Station_Nam":"CHASES LAKE","Latitude":"43.75920","Longitude":"-75.29980","Snowdepth":"25.000","Units":"in","Rept_Date":"2021-02-11 11"},"coordinates":[5149,5293]},{"type":"Point","properties":{"Station_ID":"AUDQ6","Station_Nam":"AUDEN","Latitude":"48.52600","Longitude":"-82.57570","Snowdepth":"25.000","Units":"in","Rept_Date":"2021-02-12 06"},"coordinates":[3441,8109]},{"type":"Point","properties":{"Station_ID":"QGO","Station_Nam":"QGO","Latitude":"48.85500","Longitude":"-74.20640","Snowdepth":"24.646","Units":"in","Rept_Date":"2021-02-11 12"},"coordinates":[5405,8303]},{"type":"Point","properties":{"Station_ID":"VT-WR-17","Station_Nam":"ROCHESTER 2.3 NE, VT","Latitude":"43.89418","Longitude":"-72.76992","Snowdepth":"24.500","Units":"in","Rept_Date":"2021-02-11 12"},"coordinates":[5743,5373]},{"type":"Point","properties":{"Station_ID":"SBSV1","Station_Nam":"SEARSBURG STATION","Latitude":"42.87060","Longitude":"-72.92660","Snowdepth":"24.400","Units":"in","Rept_Date":"2021-02-11 12"},"coordinates":[5706,4769]},{"type":"Point","properties":{"Station_ID":"VT-WS-33","Station_Nam":"WAITSFIELD 3.5 WNW, VT","Latitude":"44.20052","Longitude":"-72.89421","Snowdepth":"24.000","Units":"in","Rept_Date":"2021-02-11 13"},"coordinates":[5713,5554]},{"type":"Point","properties":{"Station_ID":"VT-WH-19","Station_Nam":"EAST DOVER 1.8 N, VT","Latitude":"42.97658","Longitude":"-72.77637","Snowdepth":"24.000","Units":"in","Rept_Date":"2021-02-11 12"},"coordinates":[5741,4831]},{"type":"Point","properties":{"Station_ID":"LPLN6","Station_Nam":"LAKE PLACID 2 S","Latitude":"44.30420","Longitude":"-73.98390","Snowdepth":"24.000","Units":"in","Rept_Date":"2021-02-11 13"},"coordinates":[5458,5615]},{"type":"Point","properties":{"Station_ID":"GHMN3","Station_Nam":"PINKHAM NOTCH","Latitude":"44.25800","Longitude":"-71.25250","Snowdepth":"24.000","Units":"in","Rept_Date":"2021-02-11 10"},"coordinates":[6099,5588]},{"type":"Point","properties":{"Station_ID":"BRAM1","Station_Nam":"BRASSUA DAM","Latitude":"45.66020","Longitude":"-69.81190","Snowdepth":"24.000","Units":"in","Rept_Date":"2021-02-11 12"},"coordinates":[6437,6416]},{"type":"Point","properties":{"Station_ID":"QLB","Station_Nam":"QLB","Latitude":"50.72360","Longitude":"-75.10000","Snowdepth":"23.583","Units":"in","Rept_Date":"2021-02-11 12"},"coordinates":[5196,9406]},{"type":"Point","properties":{"Station_ID":"NY-HM-10","Station_Nam":"LAKE PLEASANT 2.3 WSW, NY","Latitude":"43.45490","Longitude":"-74.45287","Snowdepth":"23.500","Units":"in","Rept_Date":"2021-02-11 12"},"coordinates":[5348,5114]},{"type":"Point","properties":{"Station_ID":"NY-FK-9","Station_Nam":"GABRIELS 1.3 SE, NY","Latitude":"44.41934","Longitude":"-74.16194","Snowdepth":"23.500","Units":"in","Rept_Date":"2021-02-11 12"},"coordinates":[5416,5683]},{"type":"Point","properties":{"Station_ID":"VT-OL-12","Station_Nam":"GREENSBORO 3.9 NNE, VT","Latitude":"44.63100","Longitude":"-72.28000","Snowdepth":"23.000","Units":"in","Rept_Date":"2021-02-11 10"},"coordinates":[5858,5808]},{"type":"Point","properties":{"Station_ID":"RKHN6","Station_Nam":"ROCK HILL 3 SW","Latitude":"41.59170","Longitude":"-74.61410","Snowdepth":"23.000","Units":"in","Rept_Date":"2021-02-11 12"},"coordinates":[5310,4013]},{"type":"Point","properties":{"Station_ID":"PTBN3","Station_Nam":"PITTSBURG RESERVOIR","Latitude":"45.04690","Longitude":"-71.38300","Snowdepth":"23.000","Units":"in","Rept_Date":"2021-02-11 12"},"coordinates":[6068,6054]},{"type":"Point","properties":{"Station_ID":"PLEP1","Station_Nam":"PLEASANT MOUNT 1 W","Latitude":"41.73940","Longitude":"-75.44650","Snowdepth":"23.000","Units":"in","Rept_Date":"2021-02-11 14"},"coordinates":[5114,4101]},{"type":"Point","properties":{"Station_ID":"NY-ES-11","Station_Nam":"VERMONTVILLE 2.8 S, NY","Latitude":"44.41205","Longitude":"-74.06760","Snowdepth":"23.000","Units":"in","Rept_Date":"2021-02-11 12"},"coordinates":[5438,5679]},{"type":"Point","properties":{"Station_ID":"NJ-SS-54","Station_Nam":"SPARTA TWP 3.6 SSW, NJ","Latitude":"41.00503","Longitude":"-74.66358","Snowdepth":"23.000","Units":"in","Rept_Date":"2021-02-11 12"},"coordinates":[5298,3667]},{"type":"Point","properties":{"Station_ID":"NCBN6","Station_Nam":"NEWCOMB","Latitude":"43.97070","Longitude":"-74.22200","Snowdepth":"23.000","Units":"in","Rept_Date":"2021-02-11 14"},"coordinates":[5402,5418]},{"type":"Point","properties":{"Station_ID":"LVDW3","Station_Nam":"LAC VIEUX DESERT","Latitude":"46.12110","Longitude":"-89.07580","Snowdepth":"23.000","Units":"in","Rept_Date":"2021-02-11 15"},"coordinates":[1916,6688]},{"type":"Point","properties":{"Station_ID":"HRTM1","Station_Nam":"HARTFORD","Latitude":"44.37440","Longitude":"-70.31620","Snowdepth":"23.000","Units":"in","Rept_Date":"2021-02-11 12"},"coordinates":[6318,5657]},{"type":"Point","properties":{"Station_ID":"HERM4","Station_Nam":"HERMAN,MI","Latitude":"46.65000","Longitude":"-88.33330","Snowdepth":"23.000","Units":"in","Rept_Date":"2021-02-11 13"},"coordinates":[2090,7001]},{"type":"Point","properties":{"Station_ID":"VT-WS-19","Station_Nam":"WATERBURY 3.0 NW, VT","Latitude":"44.36060","Longitude":"-72.80770","Snowdepth":"22.500","Units":"in","Rept_Date":"2021-02-11 11"},"coordinates":[5734,5649]},{"type":"Point","properties":{"Station_ID":"NY-OD-2","Station_Nam":"POINT ROCK 0.6 SE, NY","Latitude":"43.37335","Longitude":"-75.53840","Snowdepth":"22.500","Units":"in","Rept_Date":"2021-02-11 13"},"coordinates":[5093,5066]},{"type":"Point","properties":{"Station_ID":"NH-MR-41","Station_Nam":"NEWBURY 1.6 NW, NH","Latitude":"43.33667","Longitude":"-72.06060","Snowdepth":"22.500","Units":"in","Rept_Date":"2021-02-11 12"},"coordinates":[5909,5044]},{"type":"Point","properties":{"Station_ID":"NH-CS-19","Station_Nam":"CARROLL 4.6 NE, NH","Latitude":"44.33765","Longitude":"-71.46461","Snowdepth":"22.500","Units":"in","Rept_Date":"2021-02-11 12"},"coordinates":[6049,5635]},{"type":"Point","properties":{"Station_ID":"MA-HS-7","Station_Nam":"PLAINFIELD 2.2 SW, MA","Latitude":"42.49272","Longitude":"-72.94540","Snowdepth":"22.500","Units":"in","Rept_Date":"2021-02-11 13"},"coordinates":[5701,4545]},{"type":"Point","properties":{"Station_ID":"WAIV1","Station_Nam":"WAITSFIELD","Latitude":"44.17560","Longitude":"-72.79610","Snowdepth":"22.000","Units":"in","Rept_Date":"2021-02-11 12"},"coordinates":[5736,5539]},{"type":"Point","properties":{"Station_ID":"VT-WS-11","Station_Nam":"WAITSFIELD 1.8 SE, VT","Latitude":"44.17551","Longitude":"-72.79540","Snowdepth":"22.000","Units":"in","Rept_Date":"2021-02-11 12"},"coordinates":[5737,5539]},{"type":"Point","properties":{"Station_ID":"VT-WR-2","Station_Nam":"POMFRET 2.6 N, VT","Latitude":"43.74230","Longitude":"-72.52550","Snowdepth":"22.000","Units":"in","Rept_Date":"2021-02-11 12"},"coordinates":[5800,5283]},{"type":"Point","properties":{"Station_ID":"VT-WH-30","Station_Nam":"MARLBORO 2.0 NNE, VT","Latitude":"42.88484","Longitude":"-72.70935","Snowdepth":"22.000","Units":"in","Rept_Date":"2021-02-11 12"},"coordinates":[5757,4777]},{"type":"Point","properties":{"Station_ID":"PRGN6","Station_Nam":"PERRYSBURG","Latitude":"42.46470","Longitude":"-79.00310","Snowdepth":"22.000","Units":"in","Rept_Date":"2021-02-11 12"},"coordinates":[4280,4529]},{"type":"Point","properties":{"Station_ID":"MRLV1","Station_Nam":"MARLBORO","Latitude":"42.86000","Longitude":"-72.72000","Snowdepth":"22.000","Units":"in","Rept_Date":"2021-02-11 12"},"coordinates":[5754,4762]},{"type":"Point","properties":{"Station_ID":"MALN6","Station_Nam":"MALONE","Latitude":"44.84180","Longitude":"-74.30600","Snowdepth":"22.000","Units":"in","Rept_Date":"2021-02-11 12"},"coordinates":[5382,5933]},{"type":"Point","properties":{"Station_ID":"FISM1","Station_Nam":"FORT KENT COOP","Latitude":"47.23850","Longitude":"-68.61240","Snowdepth":"22.000","Units":"in","Rept_Date":"2021-02-11 12"},"coordinates":[6718,7348]},{"type":"Point","properties":{"Station_ID":"BKBW2","Station_Nam":"DAVIS.","Latitude":"39.09830","Longitude":"-79.43190","Snowdepth":"22.000","Units":"in","Rept_Date":"2021-02-11 12"},"coordinates":[4179,2541]},{"type":"Point","properties":{"Station_ID":"WDOV1","Station_Nam":"WEST DOVER","Latitude":"42.95000","Longitude":"-72.85000","Snowdepth":"21.900","Units":"in","Rept_Date":"2021-02-11 12"},"coordinates":[5724,4816]},{"type":"Point","properties":{"Station_ID":"MA-WR-56","Station_Nam":"STERLING 4.3 NW, MA","Latitude":"42.47540","Longitude":"-71.81140","Snowdepth":"21.500","Units":"in","Rept_Date":"2021-02-11 12"},"coordinates":[5968,4535]},{"type":"Point","properties":{"Station_ID":"WLFM5","Station_Nam":"WOLF RIDGE ENVIRON LEARNING CENTER","Latitude":"47.38240","Longitude":"-91.19730","Snowdepth":"21.000","Units":"in","Rept_Date":"2021-02-11 13"},"coordinates":[1418,7433]},{"type":"Point","properties":{"Station_ID":"VT-OL-1","Station_Nam":"WESTFIELD 0.7 WNW, VT","Latitude":"44.89160","Longitude":"-72.44350","Snowdepth":"21.000","Units":"in","Rept_Date":"2021-02-11 12"},"coordinates":[5819,5962]},{"type":"Point","properties":{"Station_ID":"VT-CH-4","Station_Nam":"UNDERHILL 4.4 NNE, VT","Latitude":"44.58774","Longitude":"-72.92250","Snowdepth":"21.000","Units":"in","Rept_Date":"2021-02-11 12"},"coordinates":[5707,5783]},{"type":"Point","properties":{"Station_ID":"SPRP1","Station_Nam":"SPRINGTOWN 1 NNE","Latitude":"40.57110","Longitude":"-75.27810","Snowdepth":"21.000","Units":"in","Rept_Date":"2021-02-11 12"},"coordinates":[5154,3411]},{"type":"Point","properties":{"Station_ID":"RKWM1","Station_Nam":"MOOSEHEAD LAKE","Latitude":"45.58330","Longitude":"-69.71670","Snowdepth":"21.000","Units":"in","Rept_Date":"2021-02-11 12"},"coordinates":[6459,6371]},{"type":"Point","properties":{"Station_ID":"PHON6","Station_Nam":"PHOENICIA 2SW","Latitude":"42.06420","Longitude":"-74.34080","Snowdepth":"21.000","Units":"in","Rept_Date":"2021-02-11 13"},"coordinates":[5374,4292]},{"type":"Point","properties":{"Station_ID":"PEKN6","Station_Nam":"PECK LAKE","Latitude":"43.11500","Longitude":"-74.42360","Snowdepth":"21.000","Units":"in","Rept_Date":"2021-02-11 12"},"coordinates":[5355,4913]},{"type":"Point","properties":{"Station_ID":"PA-MN-16","Station_Nam":"MOUNT POCONO 0.7 N, PA","Latitude":"41.13190","Longitude":"-75.35804","Snowdepth":"21.000","Units":"in","Rept_Date":"2021-02-11 12"},"coordinates":[5135,3742]},{"type":"Point","properties":{"Station_ID":"NY-ER-56","Station_Nam":"COLDEN 1.4 NNW, NY","Latitude":"42.64740","Longitude":"-78.71120","Snowdepth":"21.000","Units":"in","Rept_Date":"2021-02-11 12"},"coordinates":[4348,4637]},{"type":"Point","properties":{"Station_ID":"NUNV1","Station_Nam":"NORTH UNDERHILL","Latitude":"44.58760","Longitude":"-72.92150","Snowdepth":"21.000","Units":"in","Rept_Date":"2021-02-11 12"},"coordinates":[5707,5783]},{"type":"Point","properties":{"Station_ID":"NH-CR-26","Station_Nam":"CENTER SANDWICH 4.9 E, NH","Latitude":"43.80976","Longitude":"-71.34150","Snowdepth":"21.000","Units":"in","Rept_Date":"2021-02-11 12"},"coordinates":[6078,5323]},{"type":"Point","properties":{"Station_ID":"LAUP1","Station_Nam":"1.5MI S OF RT 30 ON SMIT (LAUREL RIDGE)","Latitude":"40.05000","Longitude":"-79.22060","Snowdepth":"21.000","Units":"in","Rept_Date":"2021-02-11 12"},"coordinates":[4229,3103]},{"type":"Point","properties":{"Station_ID":"IL-DP-155","Station_Nam":"MEDINAH 1.0 SSW, IL","Latitude":"41.96360","Longitude":"-88.06590","Snowdepth":"21.000","Units":"in","Rept_Date":"2021-02-11 14"},"coordinates":[2153,4233]},{"type":"Point","properties":{"Station_ID":"ESDN3","Station_Nam":"EAST SANDWICH","Latitude":"43.80990","Longitude":"-71.34250","Snowdepth":"21.000","Units":"in","Rept_Date":"2021-02-11 11"},"coordinates":[6078,5323]},{"type":"Point","properties":{"Station_ID":"CODN6","Station_Nam":"COLDEN","Latitude":"42.64720","Longitude":"-78.71110","Snowdepth":"21.000","Units":"in","Rept_Date":"2021-02-11 12"},"coordinates":[4348,4637]},{"type":"Point","properties":{"Station_ID":"QTM","Station_Nam":"QTM","Latitude":"51.05780","Longitude":"-72.57190","Snowdepth":"20.512","Units":"in","Rept_Date":"2021-02-11 12"},"coordinates":[5789,9604]},{"type":"Point","properties":{"Station_ID":"VT-WS-30","Station_Nam":"WOODBURY 3.4 NNW, VT","Latitude":"44.48825","Longitude":"-72.43258","Snowdepth":"20.500","Units":"in","Rept_Date":"2021-02-11 12"},"coordinates":[5822,5724]},{"type":"Point","properties":{"Station_ID":"VT-WS-23","Station_Nam":"CABOT 2.3 E, VT","Latitude":"44.39807","Longitude":"-72.26570","Snowdepth":"20.500","Units":"in","Rept_Date":"2021-02-11 12"},"coordinates":[5861,5671]},{"type":"Point","properties":{"Station_ID":"VT-BN-7","Station_Nam":"MANCHESTER 2.8 ENE, VT","Latitude":"43.17274","Longitude":"-73.01811","Snowdepth":"20.500","Units":"in","Rept_Date":"2021-02-11 12"},"coordinates":[5684,4947]},{"type":"Point","properties":{"Station_ID":"VT-AD-20","Station_Nam":"HANCOCK 0.3 S, VT","Latitude":"43.92166","Longitude":"-72.84042","Snowdepth":"20.500","Units":"in","Rept_Date":"2021-02-11 12"},"coordinates":[5726,5389]},{"type":"Point","properties":{"Station_ID":"NY-OS-15","Station_Nam":"MINETTO 0.1 SE, NY","Latitude":"43.39771","Longitude":"-76.47960","Snowdepth":"20.500","Units":"in","Rept_Date":"2021-02-11 13"},"coordinates":[4872,5080]},{"type":"Point","properties":{"Station_ID":"NY-ES-6","Station_Nam":"OLMSTEDVILLE 4.6 NNE, NY","Latitude":"43.83350","Longitude":"-73.89780","Snowdepth":"20.500","Units":"in","Rept_Date":"2021-02-11 13"},"coordinates":[5478,5337]},{"type":"Point","properties":{"Station_ID":"RDSV1","Station_Nam":"READSBORO SNOCOR","Latitude":"42.79170","Longitude":"-72.91390","Snowdepth":"20.400","Units":"in","Rept_Date":"2021-02-11 12"},"coordinates":[5709,4722]},{"type":"Point","properties":{"Station_ID":"TOPN6","Station_Nam":"TUPPER LAKE SUNMOUNT","Latitude":"44.23070","Longitude":"-74.43820","Snowdepth":"20.000","Units":"in","Rept_Date":"2021-02-11 12"},"coordinates":[5351,5572]},{"type":"Point","properties":{"Station_ID":"PRDM4","Station_Nam":"PARADISE","Latitude":"46.60380","Longitude":"-85.03960","Snowdepth":"20.000","Units":"in","Rept_Date":"2021-02-11 11"},"coordinates":[2863,6973]},{"type":"Point","properties":{"Station_ID":"NY-OS-38","Station_Nam":"MEXICO COOP, NY","Latitude":"43.43830","Longitude":"-76.26570","Snowdepth":"20.000","Units":"in","Rept_Date":"2021-02-11 12"},"coordinates":[4922,5104]},{"type":"Point","properties":{"Station_ID":"NJ-WR-1","Station_Nam":"GREENWICH TWP 1.6 S, NJ","Latitude":"40.65545","Longitude":"-75.11670","Snowdepth":"20.000","Units":"in","Rept_Date":"2021-02-11 12"},"coordinates":[5192,3460]},{"type":"Point","properties":{"Station_ID":"NJ-SS-1","Station_Nam":"ANDOVER TWP 1.7 W, NJ","Latitude":"41.01974","Longitude":"-74.76110","Snowdepth":"20.000","Units":"in","Rept_Date":"2021-02-11 12"},"coordinates":[5275,3676]},{"type":"Point","properties":{"Station_ID":"MXON6","Station_Nam":"MEXICO","Latitude":"43.43830","Longitude":"-76.26560","Snowdepth":"20.000","Units":"in","Rept_Date":"2021-02-11 12"},"coordinates":[4922,5104]},{"type":"Point","properties":{"Station_ID":"MONW3","Station_Nam":"MONROE,WI","Latitude":"42.60000","Longitude":"-89.66670","Snowdepth":"20.000","Units":"in","Rept_Date":"2021-02-11 13"},"coordinates":[1777,4609]},{"type":"Point","properties":{"Station_ID":"MNSM4","Station_Nam":"MUNISING","Latitude":"46.41210","Longitude":"-86.66250","Snowdepth":"20.000","Units":"in","Rept_Date":"2021-02-11 11"},"coordinates":[2482,6860]},{"type":"Point","properties":{"Station_ID":"MI-BG-3","Station_Nam":"THREE LAKES, MI","Latitude":"46.55730","Longitude":"-88.20770","Snowdepth":"20.000","Units":"in","Rept_Date":"2021-02-11 13"},"coordinates":[2119,6946]},{"type":"Point","properties":{"Station_ID":"LOWN6","Station_Nam":"LOWVILLE","Latitude":"43.79280","Longitude":"-75.48290","Snowdepth":"20.000","Units":"in","Rept_Date":"2021-02-11 12"},"coordinates":[5106,5313]},{"type":"Point","properties":{"Station_ID":"JOHV1","Station_Nam":"JOHNSON 2 N","Latitude":"44.65790","Longitude":"-72.67850","Snowdepth":"20.000","Units":"in","Rept_Date":"2021-02-11 12"},"coordinates":[5764,5824]},{"type":"Point","properties":{"Station_ID":"IWOM4","Station_Nam":"IRONWOOD#2","Latitude":"46.46520","Longitude":"-90.13820","Snowdepth":"20.000","Units":"in","Rept_Date":"2021-02-11 13"},"coordinates":[1666,6892]},{"type":"Point","properties":{"Station_ID":"HURW3","Station_Nam":"HURLEY","Latitude":"46.46250","Longitude":"-90.19550","Snowdepth":"20.000","Units":"in","Rept_Date":"2021-02-11 14"},"coordinates":[1653,6890]},{"type":"Point","properties":{"Station_ID":"FARM1","Station_Nam":"FARMINGTON","Latitude":"44.68930","Longitude":"-70.15640","Snowdepth":"20.000","Units":"in","Rept_Date":"2021-02-11 12"},"coordinates":[6356,5843]},{"type":"Point","properties":{"Station_ID":"CAN-NB-11","Station_Nam":"MIRAMICHI 3.3 S, CAN","Latitude":"46.99343","Longitude":"-65.50690","Snowdepth":"20.000","Units":"in","Rept_Date":"2021-02-11 10"},"coordinates":[7447,7204]},{"type":"Point","properties":{"Station_ID":"PA-PK-22","Station_Nam":"MILFORD 8.7 NW, PA","Latitude":"41.42018","Longitude":"-74.90953","Snowdepth":"19.500","Units":"in","Rept_Date":"2021-02-11 12"},"coordinates":[5240,3912]},{"type":"Point","properties":{"Station_ID":"PA-BR-7","Station_Nam":"FLEETWOOD 2.0 ESE, PA","Latitude":"40.44292","Longitude":"-75.78720","Snowdepth":"19.500","Units":"in","Rept_Date":"2021-02-11 13"},"coordinates":[5034,3335]},{"type":"Point","properties":{"Station_ID":"QCO","Station_Nam":"QCO","Latitude":"51.45280","Longitude":"-72.20110","Snowdepth":"19.252","Units":"in","Rept_Date":"2021-02-11 12"},"coordinates":[5876,9837]},{"type":"Point","properties":{"Station_ID":"QFT","Station_Nam":"QFT","Latitude":"50.83280","Longitude":"-74.40390","Snowdepth":"19.055","Units":"in","Rept_Date":"2021-02-11 12"},"coordinates":[5359,9471]},{"type":"Point","properties":{"Station_ID":"WI-VL-9","Station_Nam":"LAND O' LAKES 11.7 W, WI","Latitude":"46.19023","Longitude":"-89.45790","Snowdepth":"19.000","Units":"in","Rept_Date":"2021-02-11 13"},"coordinates":[1826,6729]},{"type":"Point","properties":{"Station_ID":"STOI2","Station_Nam":"STOCKTON 3 NNE","Latitude":"42.40050","Longitude":"-89.99580","Snowdepth":"19.000","Units":"in","Rept_Date":"2021-02-12 03"},"coordinates":[1700,4491]},{"type":"Point","properties":{"Station_ID":"SSMM4","Station_Nam":"SAULT STE MARIE","Latitude":"46.48660","Longitude":"-84.40250","Snowdepth":"19.000","Units":"in","Rept_Date":"2021-02-11 13"},"coordinates":[3013,6904]},{"type":"Point","properties":{"Station_ID":"PA-CB-33","Station_Nam":"LAKE HARMONY 2.4 WNW, PA","Latitude":"41.07333","Longitude":"-75.63317","Snowdepth":"19.000","Units":"in","Rept_Date":"2021-02-11 12"},"coordinates":[5071,3707]},{"type":"Point","properties":{"Station_ID":"NY-ER-65","Station_Nam":"BOSTON 1.5 NE, NY","Latitude":"42.65470","Longitude":"-78.72010","Snowdepth":"19.000","Units":"in","Rept_Date":"2021-02-11 11"},"coordinates":[4346,4641]},{"type":"Point","properties":{"Station_ID":"NY-ER-63","Station_Nam":"GLENWOOD 1.5 SE, NY","Latitude":"42.60195","Longitude":"-78.63910","Snowdepth":"19.000","Units":"in","Rept_Date":"2021-02-11 13"},"coordinates":[4365,4610]},{"type":"Point","properties":{"Station_ID":"NY-ER-195","Station_Nam":"SPRINGVILLE 0.4 NE, NY","Latitude":"42.51351","Longitude":"-78.66492","Snowdepth":"19.000","Units":"in","Rept_Date":"2021-02-12 05"},"coordinates":[4359,4558]},{"type":"Point","properties":{"Station_ID":"NY-ER-166","Station_Nam":"BOSTON 2.5 NE, NY","Latitude":"42.65480","Longitude":"-78.70300","Snowdepth":"19.000","Units":"in","Rept_Date":"2021-02-11 12"},"coordinates":[4350,4641]},{"type":"Point","properties":{"Station_ID":"NJ-MS-94","Station_Nam":"JEFFERSON TWP 4.4 SW, NJ","Latitude":"40.96404","Longitude":"-74.62162","Snowdepth":"19.000","Units":"in","Rept_Date":"2021-02-11 12"},"coordinates":[5308,3643]},{"type":"Point","properties":{"Station_ID":"NH-CS-4","Station_Nam":"PITTSBURG 6.1 NE, NH","Latitude":"45.11060","Longitude":"-71.29760","Snowdepth":"19.000","Units":"in","Rept_Date":"2021-02-11 12"},"coordinates":[6088,6092]},{"type":"Point","properties":{"Station_ID":"NFKC3","Station_Nam":"NORFOLK","Latitude":"41.97250","Longitude":"-73.22080","Snowdepth":"19.000","Units":"in","Rept_Date":"2021-02-11 13"},"coordinates":[5637,4238]},{"type":"Point","properties":{"Station_ID":"MA-MD-125","Station_Nam":"TEWKSBURY 3.6 SSE, MA","Latitude":"42.57083","Longitude":"-71.19813","Snowdepth":"19.000","Units":"in","Rept_Date":"2021-02-11 12"},"coordinates":[6112,4592]},{"type":"Point","properties":{"Station_ID":"LVRM1","Station_Nam":"LIVERMORE FALLS 1 E","Latitude":"44.47160","Longitude":"-70.15940","Snowdepth":"19.000","Units":"in","Rept_Date":"2021-02-11 12"},"coordinates":[6355,5714]},{"type":"Point","properties":{"Station_ID":"LNOW3","Station_Nam":"LAND O LAKES","Latitude":"46.19000","Longitude":"-89.45700","Snowdepth":"19.000","Units":"in","Rept_Date":"2021-02-11 13"},"coordinates":[1826,6729]},{"type":"Point","properties":{"Station_ID":"JCBM4","Station_Nam":"JACOBSVILLE","Latitude":"47.00830","Longitude":"-88.43180","Snowdepth":"19.000","Units":"in","Rept_Date":"2021-02-11 12"},"coordinates":[2067,7212]},{"type":"Point","properties":{"Station_ID":"INDN6","Station_Nam":"INDIAN LAKE","Latitude":"43.75500","Longitude":"-74.27560","Snowdepth":"19.000","Units":"in","Rept_Date":"2021-02-11 13"},"coordinates":[5389,5291]},{"type":"Point","properties":{"Station_ID":"IL-SP-27","Station_Nam":"DAVIS 2.7 N, IL","Latitude":"42.46110","Longitude":"-89.40890","Snowdepth":"19.000","Units":"in","Rept_Date":"2021-02-11 13"},"coordinates":[1838,4527]},{"type":"Point","properties":{"Station_ID":"FVLN6","Station_Nam":"FREEVILLE,NY","Latitude":"42.51670","Longitude":"-76.33330","Snowdepth":"19.000","Units":"in","Rept_Date":"2021-02-11 13"},"coordinates":[4906,4560]},{"type":"Point","properties":{"Station_ID":"CHRM4","Station_Nam":"CHARLEVOIX","Latitude":"45.31720","Longitude":"-85.26720","Snowdepth":"19.000","Units":"in","Rept_Date":"2021-02-11 13"},"coordinates":[2810,6214]},{"type":"Point","properties":{"Station_ID":"CAN-ON-757","Station_Nam":"SAULT STE. MARIE 2.8 ESE - GLFC, CAN","Latitude":"46.50300","Longitude":"-84.30300","Snowdepth":"19.000","Units":"in","Rept_Date":"2021-02-11 13"},"coordinates":[3036,6914]},{"type":"Point","properties":{"Station_ID":"CAN-NS-39","Station_Nam":"ST. ANNS 2.8 NW, CA","Latitude":"46.25082","Longitude":"-60.64340","Snowdepth":"19.000","Units":"in","Rept_Date":"2021-02-11 12"},"coordinates":[8589,6765]},{"type":"Point","properties":{"Station_ID":"BAYW2","Station_Nam":"BAYARD COOP","Latitude":"39.27280","Longitude":"-79.36830","Snowdepth":"19.000","Units":"in","Rept_Date":"2021-02-11 12"},"coordinates":[4194,2644]},{"type":"Point","properties":{"Station_ID":"ANJM4","Station_Nam":"SNOW PAID OBSERVER FOR KANJ","Latitude":"46.48670","Longitude":"-84.40260","Snowdepth":"19.000","Units":"in","Rept_Date":"2021-02-11 18"},"coordinates":[3013,6904]},{"type":"Point","properties":{"Station_ID":"ANJ","Station_Nam":"SAULT STE MARIE","Latitude":"46.46670","Longitude":"-84.36670","Snowdepth":"19.000","Units":"in","Rept_Date":"2021-02-11 12"},"coordinates":[3021,6892]},{"type":"Point","properties":{"Station_ID":"ERDV1","Station_Nam":"EAST RANDOLPH 2 EAST SNOW COURSE","Latitude":"43.93330","Longitude":"-72.51670","Snowdepth":"18.920","Units":"in","Rept_Date":"2021-02-11 12"},"coordinates":[5802,5396]},{"type":"Point","properties":{"Station_ID":"WI-BY-29","Station_Nam":"BAYFIELD 5.1 NNW, WI","Latitude":"46.88063","Longitude":"-90.85854","Snowdepth":"18.500","Units":"in","Rept_Date":"2021-02-11 13"},"coordinates":[1497,7137]},{"type":"Point","properties":{"Station_ID":"VT-WS-10","Station_Nam":"NORTHFIELD 1.5 N, VT","Latitude":"44.16986","Longitude":"-72.65200","Snowdepth":"18.500","Units":"in","Rept_Date":"2021-02-11 12"},"coordinates":[5770,5536]},{"type":"Point","properties":{"Station_ID":"NY-SR-22","Station_Nam":"GREENFIELD CENTER 1.6 W, NY","Latitude":"43.12684","Longitude":"-73.87860","Snowdepth":"18.500","Units":"in","Rept_Date":"2021-02-11 12"},"coordinates":[5482,4920]},{"type":"Point","properties":{"Station_ID":"NY-OR-21","Station_Nam":"PORT JERVIS 2.9 ESE, NY","Latitude":"41.35990","Longitude":"-74.64090","Snowdepth":"18.500","Units":"in","Rept_Date":"2021-02-11 11"},"coordinates":[5304,3876]},{"type":"Point","properties":{"Station_ID":"MI-CX-7","Station_Nam":"EAST JORDAN 2.1 NNW, MI","Latitude":"45.18639","Longitude":"-85.14750","Snowdepth":"18.500","Units":"in","Rept_Date":"2021-02-11 13"},"coordinates":[2838,6136]},{"type":"Point","properties":{"Station_ID":"MA-ES-48","Station_Nam":"ANDOVER 0.6 E, MA","Latitude":"42.65659","Longitude":"-71.13048","Snowdepth":"18.500","Units":"in","Rept_Date":"2021-02-11 10"},"coordinates":[6127,4642]},{"type":"Point","properties":{"Station_ID":"CAN-ON-245","Station_Nam":"PHELPSTON 3.1 ESE, CAN","Latitude":"44.50564","Longitude":"-79.81035","Snowdepth":"18.500","Units":"in","Rept_Date":"2021-02-11 12"},"coordinates":[4090,5734]},{"type":"Point","properties":{"Station_ID":"OGIQ6","Station_Nam":"OGOKI CAMP","Latitude":"50.76680","Longitude":"-87.85820","Snowdepth":"18.430","Units":"in","Rept_Date":"2021-02-12 06"},"coordinates":[2202,9432]},{"type":"Point","properties":{"Station_ID":"SOCQ6","Station_Nam":"SOCKET LAKE","Latitude":"50.77870","Longitude":"-91.79300","Snowdepth":"18.230","Units":"in","Rept_Date":"2021-02-12 06"},"coordinates":[1278,9439]},{"type":"Point","properties":{"Station_ID":"MLZ","Station_Nam":"MLZ","Latitude":"50.66170","Longitude":"-68.82360","Snowdepth":"18.228","Units":"in","Rept_Date":"2021-02-11 12"},"coordinates":[6669,9370]},{"type":"Point","properties":{"Station_ID":"WTNM4","Station_Nam":"WATTON 2WSW","Latitude":"46.52660","Longitude":"-88.64240","Snowdepth":"18.000","Units":"in","Rept_Date":"2021-02-11 13"},"coordinates":[2017,6928]},{"type":"Point","properties":{"Station_ID":"WORV1","Station_Nam":"WORCESTER 2 W","Latitude":"44.37470","Longitude":"-72.58220","Snowdepth":"18.000","Units":"in","Rept_Date":"2021-02-11 12"},"coordinates":[5787,5657]},{"type":"Point","properties":{"Station_ID":"WELM4","Station_Nam":"WELLSTON TIPPY DAM","Latitude":"44.25860","Longitude":"-85.93940","Snowdepth":"18.000","Units":"in","Rept_Date":"2021-02-11 13"},"coordinates":[2652,5588]},{"type":"Point","properties":{"Station_ID":"VT-WR-10","Station_Nam":"WEST WINDSOR 1.7 S, VT","Latitude":"43.46164","Longitude":"-72.49197","Snowdepth":"18.000","Units":"in","Rept_Date":"2021-02-11 12"},"coordinates":[5808,5118]},{"type":"Point","properties":{"Station_ID":"VT-CH-11","Station_Nam":"UNDERHILL 5.1 NNE, VT","Latitude":"44.59811","Longitude":"-72.91880","Snowdepth":"18.000","Units":"in","Rept_Date":"2021-02-11 12"},"coordinates":[5708,5789]},{"type":"Point","properties":{"Station_ID":"RANM1","Station_Nam":"RANGELEY","Latitude":"44.98910","Longitude":"-70.67190","Snowdepth":"18.000","Units":"in","Rept_Date":"2021-02-11 11"},"coordinates":[6235,6020]},{"type":"Point","properties":{"Station_ID":"OSWN6","Station_Nam":"OSWEGO","Latitude":"43.44990","Longitude":"-76.53680","Snowdepth":"18.000","Units":"in","Rept_Date":"2021-02-11 23"},"coordinates":[4859,5111]},{"type":"Point","properties":{"Station_ID":"NY-WC-37","Station_Nam":"YORKTOWN HEIGHTS 1.6 E, NY","Latitude":"41.26961","Longitude":"-73.75164","Snowdepth":"18.000","Units":"in","Rept_Date":"2021-02-11 16"},"coordinates":[5512,3823]},{"type":"Point","properties":{"Station_ID":"NY-TM-45","Station_Nam":"NEWFIELD HAMLET 4.3 S, NY","Latitude":"42.29650","Longitude":"-76.60676","Snowdepth":"18.000","Units":"in","Rept_Date":"2021-02-11 14"},"coordinates":[4842,4430]},{"type":"Point","properties":{"Station_ID":"NY-MD-10","Station_Nam":"CAZENOVIA 2.9 SE, NY","Latitude":"42.90003","Longitude":"-75.81140","Snowdepth":"18.000","Units":"in","Rept_Date":"2021-02-11 12"},"coordinates":[5029,4786]},{"type":"Point","properties":{"Station_ID":"NVLV1","Station_Nam":"NASHVILLE","Latitude":"44.44970","Longitude":"-72.92640","Snowdepth":"18.000","Units":"in","Rept_Date":"2021-02-11 12"},"coordinates":[5706,5701]},{"type":"Point","properties":{"Station_ID":"NJ-SS-7","Station_Nam":"HARDYSTON TWP 3.2 SE, NJ","Latitude":"41.08903","Longitude":"-74.53990","Snowdepth":"18.000","Units":"in","Rept_Date":"2021-02-11 13"},"coordinates":[5327,3716]},{"type":"Point","properties":{"Station_ID":"NJ-SS-60","Station_Nam":"VERNON TWP 2.7 SSE, NJ","Latitude":"41.16332","Longitude":"-74.45938","Snowdepth":"18.000","Units":"in","Rept_Date":"2021-02-11 11"},"coordinates":[5346,3760]},{"type":"Point","properties":{"Station_ID":"NJ-MS-87","Station_Nam":"MOUNT ARLINGTON 0.8 S, NJ","Latitude":"40.90789","Longitude":"-74.64077","Snowdepth":"18.000","Units":"in","Rept_Date":"2021-02-11 13"},"coordinates":[5304,3610]},{"type":"Point","properties":{"Station_ID":"NJ-MS-4","Station_Nam":"ROCKAWAY TWP 0.7 NE, NJ","Latitude":"40.96583","Longitude":"-74.48780","Snowdepth":"18.000","Units":"in","Rept_Date":"2021-02-11 13"},"coordinates":[5339,3644]},{"type":"Point","properties":{"Station_ID":"NH-CR-41","Station_Nam":"ALBANY 2.8 SW, NH","Latitude":"43.92648","Longitude":"-71.21556","Snowdepth":"18.000","Units":"in","Rept_Date":"2021-02-11 13"},"coordinates":[6107,5392]},{"type":"Point","properties":{"Station_ID":"MN-IS-18","Station_Nam":"BRAHAM 0.7 SW, MN","Latitude":"45.71379","Longitude":"-93.18095","Snowdepth":"18.000","Units":"in","Rept_Date":"2021-02-11 14"},"coordinates":[952,6448]},{"type":"Point","properties":{"Station_ID":"MIEM4","Station_Nam":"MICHIGAMME 3WNW","Latitude":"46.54530","Longitude":"-88.18000","Snowdepth":"18.000","Units":"in","Rept_Date":"2021-02-11 13"},"coordinates":[2126,6939]},{"type":"Point","properties":{"Station_ID":"ME-AR-18","Station_Nam":"NEW SWEDEN 4.9 NNW, ME","Latitude":"47.01080","Longitude":"-68.14390","Snowdepth":"18.000","Units":"in","Rept_Date":"2021-02-11 12"},"coordinates":[6828,7214]},{"type":"Point","properties":{"Station_ID":"MA-BE-24","Station_Nam":"HANCOCK 3.6 NNE, MA","Latitude":"42.59130","Longitude":"-73.29530","Snowdepth":"18.000","Units":"in","Rept_Date":"2021-02-11 17"},"coordinates":[5619,4604]},{"type":"Point","properties":{"Station_ID":"IL-JD-8","Station_Nam":"STOCKTON 3.4 NNE, IL","Latitude":"42.39960","Longitude":"-89.99020","Snowdepth":"18.000","Units":"in","Rept_Date":"2021-02-11 13"},"coordinates":[1701,4490]},{"type":"Point","properties":{"Station_ID":"HGHN4","Station_Nam":"HIGHLAND LAKES 1SW","Latitude":"41.16330","Longitude":"-74.45930","Snowdepth":"18.000","Units":"in","Rept_Date":"2021-02-11 11"},"coordinates":[5346,3760]},{"type":"Point","properties":{"Station_ID":"DUBI4","Station_Nam":"DUBUQUE #3","Latitude":"42.40870","Longitude":"-90.73250","Snowdepth":"18.000","Units":"in","Rept_Date":"2021-02-12 06"},"coordinates":[1527,4496]},{"type":"Point","properties":{"Station_ID":"CNDP1","Station_Nam":"CANADENSIS","Latitude":"41.18980","Longitude":"-75.23830","Snowdepth":"18.000","Units":"in","Rept_Date":"2021-02-11 12"},"coordinates":[5163,3776]},{"type":"Point","properties":{"Station_ID":"CLQM5","Station_Nam":"CLOQUET","Latitude":"46.70470","Longitude":"-92.52530","Snowdepth":"18.000","Units":"in","Rept_Date":"2021-02-11 14"},"coordinates":[1106,7033]},{"type":"Point","properties":{"Station_ID":"CAN-ON-5","Station_Nam":"OWEN SOUND 1.5 NW - GSCA, CAN","Latitude":"44.57837","Longitude":"-80.95461","Snowdepth":"18.000","Units":"in","Rept_Date":"2021-02-11 13"},"coordinates":[3822,5777]},{"type":"Point","properties":{"Station_ID":"CAN-NB-18","Station_Nam":"MCLEOD HILL 1.1 ENE, CA","Latitude":"46.02725","Longitude":"-66.67460","Snowdepth":"18.000","Units":"in","Rept_Date":"2021-02-11 12"},"coordinates":[7173,6633]},{"type":"Point","properties":{"Station_ID":"AVLV1","Station_Nam":"AVERILL","Latitude":"45.00570","Longitude":"-71.69030","Snowdepth":"18.000","Units":"in","Rept_Date":"2021-02-11 13"},"coordinates":[5996,6030]},{"type":"Point","properties":{"Station_ID":"KABQ6","Station_Nam":"CAB LAKE","Latitude":"49.59950","Longitude":"-89.17990","Snowdepth":"17.910","Units":"in","Rept_Date":"2021-02-12 06"},"coordinates":[1891,8743]},{"type":"Point","properties":{"Station_ID":"MOSN3","Station_Nam":"MOOSE FALLS","Latitude":"45.18890","Longitude":"-71.18810","Snowdepth":"17.800","Units":"in","Rept_Date":"2021-02-11 12"},"coordinates":[6114,6138]},{"type":"Point","properties":{"Station_ID":"QOU","Station_Nam":"QOU","Latitude":"50.79250","Longitude":"-69.67470","Snowdepth":"17.756","Units":"in","Rept_Date":"2021-02-11 12"},"coordinates":[6469,9447]},{"type":"Point","properties":{"Station_ID":"NJ-WR-42","Station_Nam":"KNOWLTON TWP 1.7 S, NJ","Latitude":"40.90560","Longitude":"-75.05880","Snowdepth":"17.700","Units":"in","Rept_Date":"2021-02-11 12"},"coordinates":[5205,3608]},{"type":"Point","properties":{"Station_ID":"NJ-MS-98","Station_Nam":"HARDING TWP 2.4 W, NJ","Latitude":"40.74165","Longitude":"-74.54592","Snowdepth":"17.600","Units":"in","Rept_Date":"2021-02-11 12"},"coordinates":[5326,3511]},{"type":"Point","properties":{"Station_ID":"WI-BY-14","Station_Nam":"ASHLAND 9.8 W, WI","Latitude":"46.59742","Longitude":"-91.07856","Snowdepth":"17.500","Units":"in","Rept_Date":"2021-02-11 12"},"coordinates":[1446,6970]},{"type":"Point","properties":{"Station_ID":"VT-CH-7","Station_Nam":"HUNTINGTON 1.1 E, VT","Latitude":"44.32488","Longitude":"-72.96570","Snowdepth":"17.500","Units":"in","Rept_Date":"2021-02-11 12"},"coordinates":[5697,5628]},{"type":"Point","properties":{"Station_ID":"PA-MN-7","Station_Nam":"STROUDSBURG 5.1 W, PA","Latitude":"40.98869","Longitude":"-75.29590","Snowdepth":"17.500","Units":"in","Rept_Date":"2021-02-11 13"},"coordinates":[5150,3657]},{"type":"Point","properties":{"Station_ID":"NY-ES-7","Station_Nam":"KEESEVILLE 0.8 SE, NY","Latitude":"44.49504","Longitude":"-73.47109","Snowdepth":"17.500","Units":"in","Rept_Date":"2021-02-11 12"},"coordinates":[5578,5728]},{"type":"Point","properties":{"Station_ID":"NJ-MS-71","Station_Nam":"DENVILLE TWP 1.5 ESE, NJ","Latitude":"40.88053","Longitude":"-74.46310","Snowdepth":"17.500","Units":"in","Rept_Date":"2021-02-11 12"},"coordinates":[5345,3593]},{"type":"Point","properties":{"Station_ID":"MI-OW-2","Station_Nam":"HOLLAND 3.9 NNE, MI","Latitude":"42.82296","Longitude":"-86.06780","Snowdepth":"17.500","Units":"in","Rept_Date":"2021-02-11 11"},"coordinates":[2622,4741]},{"type":"Point","properties":{"Station_ID":"MD-GR-9","Station_Nam":"MOUNTAIN LAKE PARK 0.4 E, MD","Latitude":"39.40407","Longitude":"-79.37220","Snowdepth":"17.500","Units":"in","Rept_Date":"2021-02-11 11"},"coordinates":[4193,2721]},{"type":"Point","properties":{"Station_ID":"CT-NH-72","Station_Nam":"NORTHFORD 0.8 SW, CT","Latitude":"41.38554","Longitude":"-72.80240","Snowdepth":"17.500","Units":"in","Rept_Date":"2021-02-11 12"},"coordinates":[5735,3892]},{"type":"Point","properties":{"Station_ID":"CAN-NB-13","Station_Nam":"BATHURST 3.8 NW, CAN","Latitude":"47.64212","Longitude":"-65.68756","Snowdepth":"17.500","Units":"in","Rept_Date":"2021-02-11 11"},"coordinates":[7405,7587]},{"type":"Point","properties":{"Station_ID":"QWE","Station_Nam":"QWE","Latitude":"47.84610","Longitude":"-73.80670","Snowdepth":"17.244","Units":"in","Rept_Date":"2021-02-11 12"},"coordinates":[5499,7707]},{"type":"Point","properties":{"Station_ID":"SVBQ6","Station_Nam":"SAVANT BASE","Latitude":"50.28730","Longitude":"-90.65670","Snowdepth":"17.130","Units":"in","Rept_Date":"2021-02-12 06"},"coordinates":[1545,9149]},{"type":"Point","properties":{"Station_ID":"CAN-QC-51","Station_Nam":"BELOEIL 0.7 NW, CAN","Latitude":"45.58049","Longitude":"-73.21218","Snowdepth":"17.100","Units":"in","Rept_Date":"2021-02-11 12"},"coordinates":[5639,6369]},{"type":"Point","properties":{"Station_ID":"WTRM4","Station_Nam":"WATERSMEET 12WSW","Latitude":"46.22310","Longitude":"-89.40850","Snowdepth":"17.000","Units":"in","Rept_Date":"2021-02-11 12"},"coordinates":[1838,6749]},{"type":"Point","properties":{"Station_ID":"WRSN6","Station_Nam":"WARSAW 6SW","Latitude":"42.68550","Longitude":"-78.22020","Snowdepth":"17.000","Units":"in","Rept_Date":"2021-02-11 12"},"coordinates":[4463,4659]},{"type":"Point","properties":{"Station_ID":"WI-WB-2","Station_Nam":"STONE LAKE 2.0 NW, WI","Latitude":"45.85960","Longitude":"-91.57710","Snowdepth":"17.000","Units":"in","Rept_Date":"2021-02-11 13"},"coordinates":[1329,6534]},{"type":"Point","properties":{"Station_ID":"WI-ON-4","Station_Nam":"RHINELANDER 0.6 SSW, WI","Latitude":"45.63141","Longitude":"-89.41470","Snowdepth":"17.000","Units":"in","Rept_Date":"2021-02-11 13"},"coordinates":[1836,6399]},{"type":"Point","properties":{"Station_ID":"VT-OL-9","Station_Nam":"GREENSBORO 2.1 NNW, VT","Latitude":"44.60528","Longitude":"-72.30940","Snowdepth":"17.000","Units":"in","Rept_Date":"2021-02-11 12"},"coordinates":[5851,5793]},{"type":"Point","properties":{"Station_ID":"VT-ES-3","Station_Nam":"LUNENBURG 2.3 NNW, VT","Latitude":"44.49324","Longitude":"-71.70446","Snowdepth":"17.000","Units":"in","Rept_Date":"2021-02-11 12"},"coordinates":[5993,5727]},{"type":"Point","properties":{"Station_ID":"SUAW3","Station_Nam":"SUAMICO","Latitude":"44.60190","Longitude":"-88.09780","Snowdepth":"17.000","Units":"in","Rept_Date":"2021-02-11 12"},"coordinates":[2145,5791]},{"type":"Point","properties":{"Station_ID":"SNYI4","Station_Nam":"STANLEY","Latitude":"42.63330","Longitude":"-91.86320","Snowdepth":"17.000","Units":"in","Rept_Date":"2021-02-11 13"},"coordinates":[1262,4629]},{"type":"Point","properties":{"Station_ID":"SLNV1","Station_Nam":"SOUTH LINCOLN","Latitude":"44.07460","Longitude":"-72.97180","Snowdepth":"17.000","Units":"in","Rept_Date":"2021-02-11 12"},"coordinates":[5695,5480]},{"type":"Point","properties":{"Station_ID":"RGNM1","Station_Nam":"RANGELEY 2NW","Latitude":"44.98940","Longitude":"-70.67220","Snowdepth":"17.000","Units":"in","Rept_Date":"2021-02-11 11"},"coordinates":[6235,6020]},{"type":"Point","properties":{"Station_ID":"PDGM4","Station_Nam":"PAULDING","Latitude":"46.39760","Longitude":"-89.17940","Snowdepth":"17.000","Units":"in","Rept_Date":"2021-02-11 12"},"coordinates":[1891,6852]},{"type":"Point","properties":{"Station_ID":"PA-BR-21","Station_Nam":"ALBURTIS 4.7 SW, PA","Latitude":"40.46515","Longitude":"-75.66820","Snowdepth":"17.000","Units":"in","Rept_Date":"2021-02-11 12"},"coordinates":[5062,3348]},{"type":"Point","properties":{"Station_ID":"NY-PT-2","Station_Nam":"BEACON 4.2 ESE, NY","Latitude":"41.48070","Longitude":"-73.89110","Snowdepth":"17.000","Units":"in","Rept_Date":"2021-02-11 12"},"coordinates":[5479,3948]},{"type":"Point","properties":{"Station_ID":"NY-OT-31","Station_Nam":"MARYLAND 1.8 W, NY","Latitude":"42.53310","Longitude":"-74.92090","Snowdepth":"17.000","Units":"in","Rept_Date":"2021-02-11 13"},"coordinates":[5238,4569]},{"type":"Point","properties":{"Station_ID":"NY-CR-1","Station_Nam":"FREETOWN 1.0 NE, NY","Latitude":"42.53299","Longitude":"-76.02111","Snowdepth":"17.000","Units":"in","Rept_Date":"2021-02-11 12"},"coordinates":[4980,4569]},{"type":"Point","properties":{"Station_ID":"NJ-MS-73","Station_Nam":"RANDOLPH TWP 2.2 SW, NJ","Latitude":"40.81729","Longitude":"-74.60490","Snowdepth":"17.000","Units":"in","Rept_Date":"2021-02-11 12"},"coordinates":[5312,3556]},{"type":"Point","properties":{"Station_ID":"NJ-MS-42","Station_Nam":"RANDOLPH TWP 2.0 E, NJ","Latitude":"40.83980","Longitude":"-74.54320","Snowdepth":"17.000","Units":"in","Rept_Date":"2021-02-11 13"},"coordinates":[5326,3569]},{"type":"Point","properties":{"Station_ID":"MQT","Station_Nam":"MARQUETTE, MI","Latitude":"46.53140","Longitude":"-87.54920","Snowdepth":"17.000","Units":"in","Rept_Date":"2021-02-12 06"},"coordinates":[2274,6931]},{"type":"Point","properties":{"Station_ID":"MI-GG-4","Station_Nam":"WATERSMEET 5.0 SE, MI","Latitude":"46.20333","Longitude":"-89.13170","Snowdepth":"17.000","Units":"in","Rept_Date":"2021-02-11 14"},"coordinates":[1903,6737]},{"type":"Point","properties":{"Station_ID":"MHRI4","Station_Nam":"MANCHESTER #2","Latitude":"42.47320","Longitude":"-91.45160","Snowdepth":"17.000","Units":"in","Rept_Date":"2021-02-11 13"},"coordinates":[1358,4534]},{"type":"Point","properties":{"Station_ID":"ME-FR-22","Station_Nam":"FARMINGTON 4.8 NNW, ME","Latitude":"44.73396","Longitude":"-70.18007","Snowdepth":"17.000","Units":"in","Rept_Date":"2021-02-11 14"},"coordinates":[6350,5869]},{"type":"Point","properties":{"Station_ID":"MD-GR-4","Station_Nam":"MC HENRY 4.8 SSE, MD","Latitude":"39.48539","Longitude":"-79.31830","Snowdepth":"17.000","Units":"in","Rept_Date":"2021-02-11 13"},"coordinates":[4206,2769]},{"type":"Point","properties":{"Station_ID":"MAYP1","Station_Nam":"MAHANOY CITY,PA","Latitude":"40.83330","Longitude":"-76.13330","Snowdepth":"17.000","Units":"in","Rept_Date":"2021-02-11 12"},"coordinates":[4953,3565]},{"type":"Point","properties":{"Station_ID":"MAPM4","Station_Nam":"MAPLE CITY 1E","Latitude":"44.85500","Longitude":"-85.83520","Snowdepth":"17.000","Units":"in","Rept_Date":"2021-02-11 22"},"coordinates":[2676,5941]},{"type":"Point","properties":{"Station_ID":"KGTB","Station_Nam":"FORT DRUM / WHEELER-SACK U. S. ARMY AIRFIELD","Latitude":"44.05000","Longitude":"-75.73333","Snowdepth":"17.000","Units":"in","Rept_Date":"2021-02-12 00"},"coordinates":[5047,5465]},{"type":"Point","properties":{"Station_ID":"KABM5","Station_Nam":"KABETOGAMA LAKE VISITOR CTR","Latitude":"48.40880","Longitude":"-93.04840","Snowdepth":"17.000","Units":"in","Rept_Date":"2021-02-11 13"},"coordinates":[983,8039]},{"type":"Point","properties":{"Station_ID":"IL-CK-288","Station_Nam":"ROSELLE 0.8 N, IL","Latitude":"41.99255","Longitude":"-88.08422","Snowdepth":"17.000","Units":"in","Rept_Date":"2021-02-11 13"},"coordinates":[2148,4250]},{"type":"Point","properties":{"Station_ID":"HUBN3","Station_Nam":"HUBBARD BROOK","Latitude":"43.93330","Longitude":"-71.71670","Snowdepth":"17.000","Units":"in","Rept_Date":"2021-02-12 06"},"coordinates":[5990,5396]},{"type":"Point","properties":{"Station_ID":"EAHV1","Station_Nam":"EAST HAVEN","Latitude":"44.64250","Longitude":"-71.89120","Snowdepth":"17.000","Units":"in","Rept_Date":"2021-02-11 12"},"coordinates":[5949,5815]},{"type":"Point","properties":{"Station_ID":"DBQ","Station_Nam":"DUBUQUE REGIONAL AIRPORT","Latitude":"42.40310","Longitude":"-90.70920","Snowdepth":"17.000","Units":"in","Rept_Date":"2021-02-12 00"},"coordinates":[1532,4493]},{"type":"Point","properties":{"Station_ID":"CHAN4","Station_Nam":"CHARLOTTEBURG RESERVOIR","Latitude":"41.02990","Longitude":"-74.42470","Snowdepth":"17.000","Units":"in","Rept_Date":"2021-02-11 13"},"coordinates":[5354,3682]},{"type":"Point","properties":{"Station_ID":"CAN-ON-451","Station_Nam":"OWEN SOUND 1.2 N - GSCA, CAN","Latitude":"44.58092","Longitude":"-80.93025","Snowdepth":"17.000","Units":"in","Rept_Date":"2021-02-11 13"},"coordinates":[3827,5779]},{"type":"Point","properties":{"Station_ID":"CAAW2","Station_Nam":"CANAAN VALLEY","Latitude":"39.05890","Longitude":"-79.44030","Snowdepth":"17.000","Units":"in","Rept_Date":"2021-02-11 14"},"coordinates":[4177,2518]},{"type":"Point","properties":{"Station_ID":"AMAM4","Station_Nam":"AMASA 1W","Latitude":"46.23470","Longitude":"-88.45440","Snowdepth":"17.000","Units":"in","Rept_Date":"2021-02-11 14"},"coordinates":[2062,6755]},{"type":"Point","properties":{"Station_ID":"AGNW3","Station_Nam":"ARGONNE-1.5 NW","Latitude":"45.67360","Longitude":"-88.90380","Snowdepth":"17.000","Units":"in","Rept_Date":"2021-02-11 14"},"coordinates":[1956,6424]},{"type":"Point","properties":{"Station_ID":"NJ-SS-3","Station_Nam":"VERNON TWP 1.7 N, NJ","Latitude":"41.22151","Longitude":"-74.48800","Snowdepth":"16.800","Units":"in","Rept_Date":"2021-02-11 12"},"coordinates":[5339,3795]},{"type":"Point","properties":{"Station_ID":"FNLN3","Station_Nam":"FIRST CONNECTICUT LAKE","Latitude":"45.08500","Longitude":"-71.30670","Snowdepth":"16.800","Units":"in","Rept_Date":"2021-02-11 12"},"coordinates":[6086,6076]},{"type":"Point","properties":{"Station_ID":"NY-TM-42","Station_Nam":"ITHACA 6.4 E, NY","Latitude":"42.43350","Longitude":"-76.37860","Snowdepth":"16.500","Units":"in","Rept_Date":"2021-02-11 12"},"coordinates":[4896,4511]},{"type":"Point","properties":{"Station_ID":"NY-OR-2","Station_Nam":"CORNWALL ON HUDSON 0.6 NNW, NY","Latitude":"41.44687","Longitude":"-74.02140","Snowdepth":"16.500","Units":"in","Rept_Date":"2021-02-11 12"},"coordinates":[5449,3928]},{"type":"Point","properties":{"Station_ID":"NY-DL-28","Station_Nam":"FLEISCHMANNS 5.7 N, NY","Latitude":"42.23779","Longitude":"-74.52335","Snowdepth":"16.500","Units":"in","Rept_Date":"2021-02-11 12"},"coordinates":[5331,4395]},{"type":"Point","properties":{"Station_ID":"NY-DL-23","Station_Nam":"LONG EDDY 6.5 NNE, NY","Latitude":"41.93510","Longitude":"-75.07840","Snowdepth":"16.500","Units":"in","Rept_Date":"2021-02-11 13"},"coordinates":[5201,4216]},{"type":"Point","properties":{"Station_ID":"NJ-SM-56","Station_Nam":"FRANKLIN TWP 5.9 SW, NJ","Latitude":"40.40787","Longitude":"-74.61990","Snowdepth":"16.500","Units":"in","Rept_Date":"2021-02-11 13"},"coordinates":[5308,3314]},{"type":"Point","properties":{"Station_ID":"NJ-PS-14","Station_Nam":"HAWTHORNE 1.0 SSE, NJ","Latitude":"40.94364","Longitude":"-74.15230","Snowdepth":"16.500","Units":"in","Rept_Date":"2021-02-11 12"},"coordinates":[5418,3631]},{"type":"Point","properties":{"Station_ID":"NJ-BG-23","Station_Nam":"OAKLAND 0.9 SSE, NJ","Latitude":"41.01905","Longitude":"-74.23340","Snowdepth":"16.500","Units":"in","Rept_Date":"2021-02-11 13"},"coordinates":[5399,3675]},{"type":"Point","properties":{"Station_ID":"NH-MR-60","Station_Nam":"SOUTH SUTTON 1.3 SE, NH","Latitude":"43.29531","Longitude":"-71.90238","Snowdepth":"16.500","Units":"in","Rept_Date":"2021-02-11 13"},"coordinates":[5946,5019]},{"type":"Point","properties":{"Station_ID":"MI-AG-6","Station_Nam":"MUNISING 11.1 SSW, MI","Latitude":"46.27805","Longitude":"-86.75747","Snowdepth":"16.500","Units":"in","Rept_Date":"2021-02-11 12"},"coordinates":[2460,6781]},{"type":"Point","properties":{"Station_ID":"MA-WR-88","Station_Nam":"LEICESTER 2.5 WSW, MA","Latitude":"42.23742","Longitude":"-71.94612","Snowdepth":"16.500","Units":"in","Rept_Date":"2021-02-11 12"},"coordinates":[5936,4395]},{"type":"Point","properties":{"Station_ID":"IL-LK-69","Station_Nam":"HIGHWOOD 0.9 S, IL","Latitude":"42.19841","Longitude":"-87.81400","Snowdepth":"16.500","Units":"in","Rept_Date":"2021-02-11 13"},"coordinates":[2212,4372]},{"type":"Point","properties":{"Station_ID":"CAN-QC-47","Station_Nam":"SAINTE-FOY 1.8 ENE, CAN","Latitude":"46.76934","Longitude":"-71.27124","Snowdepth":"16.300","Units":"in","Rept_Date":"2021-02-11 12"},"coordinates":[6094,7071]},{"type":"Point","properties":{"Station_ID":"MI-AN-20","Station_Nam":"HOLLAND 5.3 WSW, MI","Latitude":"42.74900","Longitude":"-86.20200","Snowdepth":"16.200","Units":"in","Rept_Date":"2021-02-11 13"},"coordinates":[2590,4697]},{"type":"Point","properties":{"Station_ID":"WSFW3","Station_Nam":"TOWN OF WESTFORD","Latitude":"43.47190","Longitude":"-88.88250","Snowdepth":"16.000","Units":"in","Rept_Date":"2021-02-11 13"},"coordinates":[1961,5124]},{"type":"Point","properties":{"Station_ID":"WI-IR-3","Station_Nam":"PENCE 0.1 E, WI","Latitude":"46.41555","Longitude":"-90.27013","Snowdepth":"16.000","Units":"in","Rept_Date":"2021-02-11 13"},"coordinates":[1635,6862]},{"type":"Point","properties":{"Station_ID":"WI-DD-16","Station_Nam":"BEAVER DAM 2.4 WNW, WI","Latitude":"43.47210","Longitude":"-88.88280","Snowdepth":"16.000","Units":"in","Rept_Date":"2021-02-11 13"},"coordinates":[1961,5124]},{"type":"Point","properties":{"Station_ID":"WI-BY-22","Station_Nam":"MASON 11.5 WNW, WI","Latitude":"46.50198","Longitude":"-91.28339","Snowdepth":"16.000","Units":"in","Rept_Date":"2021-02-11 14"},"coordinates":[1398,6913]},{"type":"Point","properties":{"Station_ID":"VT-LM-1","Station_Nam":"STOWE 0.2 SW, VT","Latitude":"44.46399","Longitude":"-72.69070","Snowdepth":"16.000","Units":"in","Rept_Date":"2021-02-11 12"},"coordinates":[5761,5710]},{"type":"Point","properties":{"Station_ID":"VT-CL-18","Station_Nam":"WHEELOCK 1.6 S, VT","Latitude":"44.56491","Longitude":"-72.08830","Snowdepth":"16.000","Units":"in","Rept_Date":"2021-02-11 12"},"coordinates":[5903,5769]},{"type":"Point","properties":{"Station_ID":"VT-CL-14","Station_Nam":"LYNDONVILLE 1.1 W, VT","Latitude":"44.53582","Longitude":"-72.02867","Snowdepth":"16.000","Units":"in","Rept_Date":"2021-02-11 12"},"coordinates":[5917,5752]},{"type":"Point","properties":{"Station_ID":"TMWN3","Station_Nam":"TAMWORTH 4","Latitude":"43.86390","Longitude":"-71.26610","Snowdepth":"16.000","Units":"in","Rept_Date":"2021-02-11 12"},"coordinates":[6096,5355]},{"type":"Point","properties":{"Station_ID":"SUTV1","Station_Nam":"SUTTON","Latitude":"44.61220","Longitude":"-72.04810","Snowdepth":"16.000","Units":"in","Rept_Date":"2021-02-11 13"},"coordinates":[5912,5797]},{"type":"Point","properties":{"Station_ID":"SPTI4","Station_Nam":"STRAWBERRY POINT","Latitude":"42.68530","Longitude":"-91.53300","Snowdepth":"16.000","Units":"in","Rept_Date":"2021-02-11 13"},"coordinates":[1339,4659]},{"type":"Point","properties":{"Station_ID":"RGLN4","Station_Nam":"REIGELSVILLE","Latitude":"40.59450","Longitude":"-75.18970","Snowdepth":"16.000","Units":"in","Rept_Date":"2021-02-11 12"},"coordinates":[5175,3424]},{"type":"Point","properties":{"Station_ID":"PJRN6","Station_Nam":"PORT JERVIS","Latitude":"41.38910","Longitude":"-74.69050","Snowdepth":"16.000","Units":"in","Rept_Date":"2021-02-11 12"},"coordinates":[5292,3894]},{"type":"Point","properties":{"Station_ID":"PA-NH-8","Station_Nam":"MARTINS CREEK 0.2 E, PA","Latitude":"40.78285","Longitude":"-75.18270","Snowdepth":"16.000","Units":"in","Rept_Date":"2021-02-11 12"},"coordinates":[5176,3536]},{"type":"Point","properties":{"Station_ID":"NY-WC-11","Station_Nam":"PEEKSKILL 0.4 N, NY","Latitude":"41.29442","Longitude":"-73.92290","Snowdepth":"16.000","Units":"in","Rept_Date":"2021-02-11 13"},"coordinates":[5472,3838]},{"type":"Point","properties":{"Station_ID":"NY-ER-194","Station_Nam":"GLENWOOD 1.0 SE, NY","Latitude":"42.60740","Longitude":"-78.64610","Snowdepth":"16.000","Units":"in","Rept_Date":"2021-02-11 12"},"coordinates":[4364,4613]},{"type":"Point","properties":{"Station_ID":"NY-CR-5","Station_Nam":"MARATHON 1.0 NW, NY","Latitude":"42.45161","Longitude":"-76.04370","Snowdepth":"16.000","Units":"in","Rept_Date":"2021-02-11 12"},"coordinates":[4974,4521]},{"type":"Point","properties":{"Station_ID":"NJ-UN-10","Station_Nam":"NEW PROVIDENCE 0.8 ESE, NJ","Latitude":"40.69450","Longitude":"-74.38980","Snowdepth":"16.000","Units":"in","Rept_Date":"2021-02-11 12"},"coordinates":[5362,3483]},{"type":"Point","properties":{"Station_ID":"NJ-SS-39","Station_Nam":"WANTAGE TWP 1.6 SE, NJ","Latitude":"41.22830","Longitude":"-74.60330","Snowdepth":"16.000","Units":"in","Rept_Date":"2021-02-11 12"},"coordinates":[5312,3799]},{"type":"Point","properties":{"Station_ID":"NJ-SM-67","Station_Nam":"FRANKLIN TWP 2.4 ENE, NJ","Latitude":"40.49170","Longitude":"-74.51077","Snowdepth":"16.000","Units":"in","Rept_Date":"2021-02-11 12"},"coordinates":[5334,3364]},{"type":"Point","properties":{"Station_ID":"NJ-SM-12","Station_Nam":"FRANKLIN TWP 3.8 ENE, NJ","Latitude":"40.50058","Longitude":"-74.48752","Snowdepth":"16.000","Units":"in","Rept_Date":"2021-02-11 13"},"coordinates":[5340,3369]},{"type":"Point","properties":{"Station_ID":"NJ-ES-31","Station_Nam":"MONTCLAIR 0.7 N, NJ","Latitude":"40.83534","Longitude":"-74.20896","Snowdepth":"16.000","Units":"in","Rept_Date":"2021-02-11 13"},"coordinates":[5405,3567]},{"type":"Point","properties":{"Station_ID":"NJ-BG-56","Station_Nam":"FAIR LAWN 1.2 SE, NJ","Latitude":"40.92170","Longitude":"-74.10440","Snowdepth":"16.000","Units":"in","Rept_Date":"2021-02-11 12"},"coordinates":[5429,3618]},{"type":"Point","properties":{"Station_ID":"NH-GR-46","Station_Nam":"ASHLAND 2.4 NNW, NH","Latitude":"43.72963","Longitude":"-71.64213","Snowdepth":"16.000","Units":"in","Rept_Date":"2021-02-11 12"},"coordinates":[6007,5276]},{"type":"Point","properties":{"Station_ID":"MSRN3","Station_Nam":"MASCOMA RIVER","Latitude":"43.78330","Longitude":"-72.03330","Snowdepth":"16.000","Units":"in","Rept_Date":"2021-02-12 06"},"coordinates":[5916,5308]},{"type":"Point","properties":{"Station_ID":"MNPV1","Station_Nam":"MONTPELIER 2","Latitude":"44.25530","Longitude":"-72.60060","Snowdepth":"16.000","Units":"in","Rept_Date":"2021-02-11 12"},"coordinates":[5782,5586]},{"type":"Point","properties":{"Station_ID":"MI-CP-14","Station_Nam":"SAULT STE. MARIE 2.2 E, MI","Latitude":"46.48933","Longitude":"-84.31971","Snowdepth":"16.000","Units":"in","Rept_Date":"2021-02-11 13"},"coordinates":[3032,6906]},{"type":"Point","properties":{"Station_ID":"ME-SM-4","Station_Nam":"SOLON 3.9 ESE, ME","Latitude":"44.94705","Longitude":"-69.77790","Snowdepth":"16.000","Units":"in","Rept_Date":"2021-02-11 12"},"coordinates":[6445,5995]},{"type":"Point","properties":{"Station_ID":"ME-FR-4","Station_Nam":"NEW SHARON 2.0 NW, ME","Latitude":"44.66582","Longitude":"-70.02720","Snowdepth":"16.000","Units":"in","Rept_Date":"2021-02-11 12"},"coordinates":[6386,5829]},{"type":"Point","properties":{"Station_ID":"MA-MD-51","Station_Nam":"MAYNARD 0.7 ESE, MA","Latitude":"42.42027","Longitude":"-71.44484","Snowdepth":"16.000","Units":"in","Rept_Date":"2021-02-11 12"},"coordinates":[6054,4503]},{"type":"Point","properties":{"Station_ID":"MA-MD-156","Station_Nam":"MARLBOROUGH 2.8 ENE, MA","Latitude":"42.37021","Longitude":"-71.50011","Snowdepth":"16.000","Units":"in","Rept_Date":"2021-02-11 11"},"coordinates":[6041,4473]},{"type":"Point","properties":{"Station_ID":"MA-FR-17","Station_Nam":"BUCKLAND 1.8 ESE, MA","Latitude":"42.58900","Longitude":"-72.75110","Snowdepth":"16.000","Units":"in","Rept_Date":"2021-02-11 13"},"coordinates":[5747,4602]},{"type":"Point","properties":{"Station_ID":"LODW3","Station_Nam":"LODI","Latitude":"43.32170","Longitude":"-89.53110","Snowdepth":"16.000","Units":"in","Rept_Date":"2021-02-11 13"},"coordinates":[1809,5035]},{"type":"Point","properties":{"Station_ID":"KINM1","Station_Nam":"KINGFIELD","Latitude":"44.95950","Longitude":"-70.17530","Snowdepth":"16.000","Units":"in","Rept_Date":"2021-02-11 12"},"coordinates":[6352,6002]},{"type":"Point","properties":{"Station_ID":"ISLV1","Station_Nam":"ISLAND POND","Latitude":"44.81280","Longitude":"-71.89020","Snowdepth":"16.000","Units":"in","Rept_Date":"2021-02-11 13"},"coordinates":[5949,5916]},{"type":"Point","properties":{"Station_ID":"IRMM4","Station_Nam":"WWTP","Latitude":"46.46670","Longitude":"-90.18330","Snowdepth":"16.000","Units":"in","Rept_Date":"2021-02-11 13"},"coordinates":[1656,6892]},{"type":"Point","properties":{"Station_ID":"IA-ST-1","Station_Nam":"LE CLAIRE 1.8 NNE, IA","Latitude":"41.62355","Longitude":"-90.35140","Snowdepth":"16.000","Units":"in","Rept_Date":"2021-02-11 13"},"coordinates":[1616,4032]},{"type":"Point","properties":{"Station_ID":"EVRW3","Station_Nam":"EAGLE RIVER-4 E","Latitude":"45.91890","Longitude":"-89.15280","Snowdepth":"16.000","Units":"in","Rept_Date":"2021-02-11 13"},"coordinates":[1898,6569]},{"type":"Point","properties":{"Station_ID":"DXNI2","Station_Nam":"DIXON,IL","Latitude":"41.83330","Longitude":"-89.51670","Snowdepth":"16.000","Units":"in","Rept_Date":"2021-02-11 14"},"coordinates":[1812,4156]},{"type":"Point","properties":{"Station_ID":"DEKI2","Station_Nam":"SOUTH BRANCH KISHWAUKEE RIVER AT DEKALB","Latitude":"41.93110","Longitude":"-88.75970","Snowdepth":"16.000","Units":"in","Rept_Date":"2021-02-11 13"},"coordinates":[1990,4214]},{"type":"Point","properties":{"Station_ID":"CT-FR-58","Station_Nam":"RIDGEFIELD 3.6 N, CT","Latitude":"41.32589","Longitude":"-73.48902","Snowdepth":"16.000","Units":"in","Rept_Date":"2021-02-11 11"},"coordinates":[5574,3856]},{"type":"Point","properties":{"Station_ID":"CNRM1","Station_Nam":"CONNOR TWP","Latitude":"46.95830","Longitude":"-68.03330","Snowdepth":"16.000","Units":"in","Rept_Date":"2021-02-11 12"},"coordinates":[6854,7183]},{"type":"Point","properties":{"Station_ID":"CLUI4","Station_Nam":"CLUTIER,IA","Latitude":"42.08330","Longitude":"-92.40000","Snowdepth":"16.000","Units":"in","Rept_Date":"2021-02-11 13"},"coordinates":[1136,4304]},{"type":"Point","properties":{"Station_ID":"CLKM4","Station_Nam":"CLARKSBURG","Latitude":"46.49910","Longitude":"-87.84500","Snowdepth":"16.000","Units":"in","Rept_Date":"2021-02-11 12"},"coordinates":[2205,6912]},{"type":"Point","properties":{"Station_ID":"CCON6","Station_Nam":"CALLICOON CENTER","Latitude":"41.82750","Longitude":"-74.95060","Snowdepth":"16.000","Units":"in","Rept_Date":"2021-02-11 13"},"coordinates":[5231,4153]},{"type":"Point","properties":{"Station_ID":"CAN-NB-64","Station_Nam":"KESWICK RIDGE 4.0 SE, CAN","Latitude":"45.97014","Longitude":"-66.85538","Snowdepth":"16.000","Units":"in","Rept_Date":"2021-02-11 13"},"coordinates":[7131,6599]},{"type":"Point","properties":{"Station_ID":"BRLN3","Station_Nam":"BERLIN","Latitude":"44.45350","Longitude":"-71.18540","Snowdepth":"16.000","Units":"in","Rept_Date":"2021-02-11 12"},"coordinates":[6115,5703]},{"type":"Point","properties":{"Station_ID":"BRKI4","Station_Nam":"BROOKLYN,IA","Latitude":"41.72830","Longitude":"-92.43330","Snowdepth":"16.000","Units":"in","Rept_Date":"2021-02-11 13"},"coordinates":[1128,4094]},{"type":"Point","properties":{"Station_ID":"BLHM3","Station_Nam":"BLUE HILL COOP","Latitude":"42.21230","Longitude":"-71.11370","Snowdepth":"16.000","Units":"in","Rept_Date":"2021-02-11 12"},"coordinates":[6131,4380]},{"type":"Point","properties":{"Station_ID":"BETM1","Station_Nam":"BETHEL 6 SSE","Latitude":"44.32000","Longitude":"-70.75680","Snowdepth":"16.000","Units":"in","Rept_Date":"2021-02-11 13"},"coordinates":[6215,5625]},{"type":"Point","properties":{"Station_ID":"BEAW3","Station_Nam":"BEAVER DAM,WI","Latitude":"43.45000","Longitude":"-88.85000","Snowdepth":"16.000","Units":"in","Rept_Date":"2021-02-11 13"},"coordinates":[1969,5111]},{"type":"Point","properties":{"Station_ID":"BDMW3","Station_Nam":"BEAVER DAM 1 N","Latitude":"43.46860","Longitude":"-88.83970","Snowdepth":"16.000","Units":"in","Rept_Date":"2021-02-11 13"},"coordinates":[1971,5122]},{"type":"Point","properties":{"Station_ID":"BBEM4","Station_Nam":"BIG BAY 9SW","Latitude":"46.74620","Longitude":"-87.88160","Snowdepth":"16.000","Units":"in","Rept_Date":"2021-02-11 13"},"coordinates":[2196,7058]},{"type":"Point","properties":{"Station_ID":"MA-MD-89","Station_Nam":"SUDBURY 3.6 W, MA","Latitude":"42.36394","Longitude":"-71.47012","Snowdepth":"15.800","Units":"in","Rept_Date":"2021-02-11 12"},"coordinates":[6048,4469]},{"type":"Point","properties":{"Station_ID":"IL-CK-50","Station_Nam":"PALOS PARK 1.3 SW, IL","Latitude":"41.65281","Longitude":"-87.86310","Snowdepth":"15.800","Units":"in","Rept_Date":"2021-02-11 13"},"coordinates":[2200,4049]},{"type":"Point","properties":{"Station_ID":"CAN-NB-105","Station_Nam":"SISSON BROOK 3.8 E, CAN","Latitude":"46.98305","Longitude":"-67.32532","Snowdepth":"15.700","Units":"in","Rept_Date":"2021-02-11 12"},"coordinates":[7020,7197]},{"type":"Point","properties":{"Station_ID":"CAN-MB-368","Station_Nam":"WHITESHELL 1.3 NE, CAN","Latitude":"49.74405","Longitude":"-95.19123","Snowdepth":"15.700","Units":"in","Rept_Date":"2021-02-11 14"},"coordinates":[481,8828]},{"type":"Point","properties":{"Station_ID":"QMD","Station_Nam":"QMD","Latitude":"49.29060","Longitude":"-75.84500","Snowdepth":"15.512","Units":"in","Rept_Date":"2021-02-11 12"},"coordinates":[5021,8560]},{"type":"Point","properties":{"Station_ID":"WI-RK-12","Station_Nam":"JANESVILLE 3.1 W, WI","Latitude":"42.67576","Longitude":"-89.07614","Snowdepth":"15.500","Units":"in","Rept_Date":"2021-02-11 13"},"coordinates":[1916,4654]},{"type":"Point","properties":{"Station_ID":"NY-TM-18","Station_Nam":"EAST ITHACA 4.7 E, NY","Latitude":"42.41910","Longitude":"-76.37330","Snowdepth":"15.500","Units":"in","Rept_Date":"2021-02-11 12"},"coordinates":[4897,4502]},{"type":"Point","properties":{"Station_ID":"NY-OT-11","Station_Nam":"HARTWICK, NY","Latitude":"42.65990","Longitude":"-75.05000","Snowdepth":"15.500","Units":"in","Rept_Date":"2021-02-11 13"},"coordinates":[5208,4644]},{"type":"Point","properties":{"Station_ID":"NY-OR-19","Station_Nam":"GREENWOOD LAKE 3.0 SW, NY","Latitude":"41.18900","Longitude":"-74.32650","Snowdepth":"15.500","Units":"in","Rept_Date":"2021-02-11 13"},"coordinates":[5377,3776]},{"type":"Point","properties":{"Station_ID":"NJ-WR-5","Station_Nam":"HACKETTSTOWN 0.8 W, NJ","Latitude":"40.85155","Longitude":"-74.84030","Snowdepth":"15.500","Units":"in","Rept_Date":"2021-02-11 12"},"coordinates":[5257,3576]},{"type":"Point","properties":{"Station_ID":"NJ-SM-11","Station_Nam":"BEDMINSTER TWP 2.9 ESE, NJ","Latitude":"40.65634","Longitude":"-74.63050","Snowdepth":"15.500","Units":"in","Rept_Date":"2021-02-11 11"},"coordinates":[5306,3461]},{"type":"Point","properties":{"Station_ID":"NJ-HN-9","Station_Nam":"FRANKLIN TWP 0.4 W, NJ","Latitude":"40.56633","Longitude":"-74.94430","Snowdepth":"15.500","Units":"in","Rept_Date":"2021-02-11 12"},"coordinates":[5232,3408]},{"type":"Point","properties":{"Station_ID":"NJ-HN-31","Station_Nam":"FRENCHTOWN 0.5 N, NJ","Latitude":"40.53420","Longitude":"-75.05590","Snowdepth":"15.500","Units":"in","Rept_Date":"2021-02-11 12"},"coordinates":[5206,3389]},{"type":"Point","properties":{"Station_ID":"NH-CR-27","Station_Nam":"TAMWORTH 0.4 NNW, NH","Latitude":"43.86449","Longitude":"-71.26610","Snowdepth":"15.500","Units":"in","Rept_Date":"2021-02-11 12"},"coordinates":[6096,5356]},{"type":"Point","properties":{"Station_ID":"NH-CR-11","Station_Nam":"NORTH CONWAY 1.4 SSW, NH","Latitude":"44.03556","Longitude":"-71.14010","Snowdepth":"15.500","Units":"in","Rept_Date":"2021-02-11 12"},"coordinates":[6125,5457]},{"type":"Point","properties":{"Station_ID":"ME-WS-31","Station_Nam":"EASTPORT 1.4 ESE, ME","Latitude":"44.91044","Longitude":"-66.98572","Snowdepth":"15.500","Units":"in","Rept_Date":"2021-02-11 12"},"coordinates":[7100,5973]},{"type":"Point","properties":{"Station_ID":"IL-SP-25","Station_Nam":"FREEPORT 1.7 NW, IL","Latitude":"42.30427","Longitude":"-89.66285","Snowdepth":"15.500","Units":"in","Rept_Date":"2021-02-11 13"},"coordinates":[1778,4434]},{"type":"Point","properties":{"Station_ID":"IL-DP-157","Station_Nam":"WEST CHICAGO 3.5 NNE, IL","Latitude":"41.93718","Longitude":"-88.19884","Snowdepth":"15.500","Units":"in","Rept_Date":"2021-02-11 13"},"coordinates":[2122,4217]},{"type":"Point","properties":{"Station_ID":"IL-DK-28","Station_Nam":"DE KALB 0.7 SW, IL","Latitude":"41.92269","Longitude":"-88.76072","Snowdepth":"15.500","Units":"in","Rept_Date":"2021-02-11 13"},"coordinates":[1990,4209]},{"type":"Point","properties":{"Station_ID":"IL-BN-19","Station_Nam":"BELVIDERE 5.0 NNW, IL","Latitude":"42.32071","Longitude":"-88.88282","Snowdepth":"15.500","Units":"in","Rept_Date":"2021-02-11 13"},"coordinates":[1961,4444]},{"type":"Point","properties":{"Station_ID":"CT-FR-78","Station_Nam":"REDDING 1.4 E, CT","Latitude":"41.30682","Longitude":"-73.36586","Snowdepth":"15.500","Units":"in","Rept_Date":"2021-02-11 12"},"coordinates":[5603,3845]},{"type":"Point","properties":{"Station_ID":"CAN-ON-42","Station_Nam":"VANKLEEK HILL 3.4 S, CA","Latitude":"45.48987","Longitude":"-74.64570","Snowdepth":"15.500","Units":"in","Rept_Date":"2021-02-11 12"},"coordinates":[5302,6316]},{"type":"Point","properties":{"Station_ID":"CAN-ON-804","Station_Nam":"KEMBLE 1.6 S - GSCA, CAN","Latitude":"44.71013","Longitude":"-80.92735","Snowdepth":"15.400","Units":"in","Rept_Date":"2021-02-11 13"},"coordinates":[3828,5855]},{"type":"Point","properties":{"Station_ID":"WI-WW-12","Station_Nam":"ELKHORN 0.4 ESE, WI","Latitude":"42.66970","Longitude":"-88.53170","Snowdepth":"15.300","Units":"in","Rept_Date":"2021-02-11 11"},"coordinates":[2043,4650]},{"type":"Point","properties":{"Station_ID":"QTV","Station_Nam":"QTV","Latitude":"49.66000","Longitude":"-69.35690","Snowdepth":"15.276","Units":"in","Rept_Date":"2021-02-11 12"},"coordinates":[6544,8778]},{"type":"Point","properties":{"Station_ID":"NJ-UN-36","Station_Nam":"CLARK TWP 1.3 ENE, NJ","Latitude":"40.62605","Longitude":"-74.28967","Snowdepth":"15.200","Units":"in","Rept_Date":"2021-02-11 14"},"coordinates":[5386,3443]},{"type":"Point","properties":{"Station_ID":"IL-MCH-80","Station_Nam":"HUNTLEY 0.1 SSE, IL","Latitude":"42.16628","Longitude":"-88.42308","Snowdepth":"15.200","Units":"in","Rept_Date":"2021-02-11 13"},"coordinates":[2069,4353]},{"type":"Point","properties":{"Station_ID":"WRTN4","Station_Nam":"WETSVILLE 4 NE","Latitude":"40.45200","Longitude":"-74.77910","Snowdepth":"15.000","Units":"in","Rept_Date":"2021-02-11 12"},"coordinates":[5271,3340]},{"type":"Point","properties":{"Station_ID":"WILW3","Station_Nam":"RESERVOIR","Latitude":"45.70000","Longitude":"-89.83330","Snowdepth":"15.000","Units":"in","Rept_Date":"2021-02-11 12"},"coordinates":[1738,6440]},{"type":"Point","properties":{"Station_ID":"WI-WK-34","Station_Nam":"MUKWONAGO 5.3 W, WI","Latitude":"42.85380","Longitude":"-88.43550","Snowdepth":"15.000","Units":"in","Rept_Date":"2021-02-11 13"},"coordinates":[2066,4759]},{"type":"Point","properties":{"Station_ID":"WI-VL-14","Station_Nam":"BOULDER JUNCTION 1.4 NE, WI","Latitude":"46.12840","Longitude":"-89.62470","Snowdepth":"15.000","Units":"in","Rept_Date":"2021-02-11 13"},"coordinates":[1787,6693]},{"type":"Point","properties":{"Station_ID":"WI-SR-1","Station_Nam":"HAYWARD 9.2 NNE, WI","Latitude":"46.13255","Longitude":"-91.40500","Snowdepth":"15.000","Units":"in","Rept_Date":"2021-02-11 12"},"coordinates":[1369,6695]},{"type":"Point","properties":{"Station_ID":"WI-PR-6","Station_Nam":"PHILLIPS 1.3 S, WI","Latitude":"45.67677","Longitude":"-90.39543","Snowdepth":"15.000","Units":"in","Rept_Date":"2021-02-11 12"},"coordinates":[1606,6426]},{"type":"Point","properties":{"Station_ID":"WI-IW-3","Station_Nam":"MINERAL POINT 7.3 ENE, WI","Latitude":"42.91400","Longitude":"-90.05700","Snowdepth":"15.000","Units":"in","Rept_Date":"2021-02-11 13"},"coordinates":[1685,4794]},{"type":"Point","properties":{"Station_ID":"WI-DA-99","Station_Nam":"FITCHBURG 1.1 NW, WI","Latitude":"42.99740","Longitude":"-89.44046","Snowdepth":"15.000","Units":"in","Rept_Date":"2021-02-11 13"},"coordinates":[1830,4844]},{"type":"Point","properties":{"Station_ID":"WI-CB-4","Station_Nam":"PORTAGE 5.7 WSW, WI","Latitude":"43.51411","Longitude":"-89.56910","Snowdepth":"15.000","Units":"in","Rept_Date":"2021-02-11 12"},"coordinates":[1800,5149]},{"type":"Point","properties":{"Station_ID":"WI-BY-2","Station_Nam":"MELLEN 18.6 SW, WI","Latitude":"46.16937","Longitude":"-90.98090","Snowdepth":"15.000","Units":"in","Rept_Date":"2021-02-11 13"},"coordinates":[1469,6717]},{"type":"Point","properties":{"Station_ID":"VT-OL-2","Station_Nam":"BARTON 3.0 ENE, VT","Latitude":"44.75863","Longitude":"-72.11680","Snowdepth":"15.000","Units":"in","Rept_Date":"2021-02-11 12"},"coordinates":[5896,5884]},{"type":"Point","properties":{"Station_ID":"VNTI4","Station_Nam":"VINTON","Latitude":"42.17020","Longitude":"-92.00770","Snowdepth":"15.000","Units":"in","Rept_Date":"2021-02-11 13"},"coordinates":[1228,4355]},{"type":"Point","properties":{"Station_ID":"TOPM1","Station_Nam":"TOPSFIELD","Latitude":"45.43470","Longitude":"-67.72020","Snowdepth":"15.000","Units":"in","Rept_Date":"2021-02-11 12"},"coordinates":[6928,6283]},{"type":"Point","properties":{"Station_ID":"STOW3","Station_Nam":"STOUGHTON,WI","Latitude":"42.91670","Longitude":"-89.21670","Snowdepth":"15.000","Units":"in","Rept_Date":"2021-02-11 13"},"coordinates":[1883,4796]},{"type":"Point","properties":{"Station_ID":"STGW3","Station_Nam":"ST GERMAIN","Latitude":"45.91550","Longitude":"-89.48940","Snowdepth":"15.000","Units":"in","Rept_Date":"2021-02-11 12"},"coordinates":[1819,6567]},{"type":"Point","properties":{"Station_ID":"SNOW2","Station_Nam":"SNOWSHOE","Latitude":"38.39900","Longitude":"-79.99490","Snowdepth":"15.000","Units":"in","Rept_Date":"2021-02-11 11"},"coordinates":[4047,2128]},{"type":"Point","properties":{"Station_ID":"RLKW3","Station_Nam":"REST LAKE","Latitude":"46.12220","Longitude":"-89.87720","Snowdepth":"15.000","Units":"in","Rept_Date":"2021-02-11 14"},"coordinates":[1728,6689]},{"type":"Point","properties":{"Station_ID":"RHRW3","Station_Nam":"RHINELANDER WJFW TV-12","Latitude":"45.62220","Longitude":"-89.41000","Snowdepth":"15.000","Units":"in","Rept_Date":"2021-02-12 04"},"coordinates":[1837,6394]},{"type":"Point","properties":{"Station_ID":"RHI","Station_Nam":"RHINELANDER-ONEIDA COUNTY AIRPORT","Latitude":"45.63080","Longitude":"-89.46530","Snowdepth":"15.000","Units":"in","Rept_Date":"2021-02-12 00"},"coordinates":[1824,6399]},{"type":"Point","properties":{"Station_ID":"RCHW3","Station_Nam":"RICHRIELD,WI","Latitude":"43.21080","Longitude":"-88.20940","Snowdepth":"15.000","Units":"in","Rept_Date":"2021-02-11 12"},"coordinates":[2119,4970]},{"type":"Point","properties":{"Station_ID":"PA-NH-15","Station_Nam":"PORTLAND 2.7 WNW, PA","Latitude":"40.93750","Longitude":"-75.14450","Snowdepth":"15.000","Units":"in","Rept_Date":"2021-02-11 12"},"coordinates":[5185,3627]},{"type":"Point","properties":{"Station_ID":"PA-LH-5","Station_Nam":"SCHNECKSVILLE 2.7 SW, PA","Latitude":"40.64739","Longitude":"-75.65050","Snowdepth":"15.000","Units":"in","Rept_Date":"2021-02-11 12"},"coordinates":[5067,3456]},{"type":"Point","properties":{"Station_ID":"OKLM2","Station_Nam":"SINES DEEP CREEK LAKE","Latitude":"39.52270","Longitude":"-79.41310","Snowdepth":"15.000","Units":"in","Rept_Date":"2021-02-11 12"},"coordinates":[4184,2791]},{"type":"Point","properties":{"Station_ID":"NY-TG-15","Station_Nam":"BERKSHIRE 1.9 ENE, NY","Latitude":"42.31910","Longitude":"-76.21940","Snowdepth":"15.000","Units":"in","Rept_Date":"2021-02-11 13"},"coordinates":[4933,4443]},{"type":"Point","properties":{"Station_ID":"NY-OR-18","Station_Nam":"WALDEN 1.3 S, NY","Latitude":"41.54102","Longitude":"-74.18790","Snowdepth":"15.000","Units":"in","Rept_Date":"2021-02-11 12"},"coordinates":[5410,3983]},{"type":"Point","properties":{"Station_ID":"NY-DT-34","Station_Nam":"HOPEWELL JUNCTION 2.8 NE, NY","Latitude":"41.61016","Longitude":"-73.75855","Snowdepth":"15.000","Units":"in","Rept_Date":"2021-02-11 11"},"coordinates":[5511,4024]},{"type":"Point","properties":{"Station_ID":"NY-DL-25","Station_Nam":"HOBART 4.8 ESE, NY","Latitude":"42.35230","Longitude":"-74.57830","Snowdepth":"15.000","Units":"in","Rept_Date":"2021-02-11 12"},"coordinates":[5318,4463]},{"type":"Point","properties":{"Station_ID":"NPTV1","Station_Nam":"NEWPORT","Latitude":"44.94900","Longitude":"-72.19120","Snowdepth":"15.000","Units":"in","Rept_Date":"2021-02-11 12"},"coordinates":[5878,5996]},{"type":"Point","properties":{"Station_ID":"NOHV1","Station_Nam":"NORTH HARTLAND LAKE","Latitude":"43.60270","Longitude":"-72.36210","Snowdepth":"15.000","Units":"in","Rept_Date":"2021-02-11 12"},"coordinates":[5838,5201]},{"type":"Point","properties":{"Station_ID":"NJ-SM-5","Station_Nam":"BRIDGEWATER TWP 3.3 NW, NJ","Latitude":"40.62625","Longitude":"-74.65350","Snowdepth":"15.000","Units":"in","Rept_Date":"2021-02-11 12"},"coordinates":[5301,3443]},{"type":"Point","properties":{"Station_ID":"NJ-SM-4","Station_Nam":"BERNARDS TWP 0.6 NNW, NJ","Latitude":"40.68340","Longitude":"-74.57310","Snowdepth":"15.000","Units":"in","Rept_Date":"2021-02-11 13"},"coordinates":[5319,3477]},{"type":"Point","properties":{"Station_ID":"NJ-HN-12","Station_Nam":"HOLLAND TWP 2.6 NNE, NJ","Latitude":"40.63168","Longitude":"-75.10450","Snowdepth":"15.000","Units":"in","Rept_Date":"2021-02-11 11"},"coordinates":[5195,3446]},{"type":"Point","properties":{"Station_ID":"NCON3","Station_Nam":"NORTH CONWAY","Latitude":"44.05620","Longitude":"-71.12970","Snowdepth":"15.000","Units":"in","Rept_Date":"2021-02-11 13"},"coordinates":[6128,5469]},{"type":"Point","properties":{"Station_ID":"MWOW3","Station_Nam":"MUKWONAGO","Latitude":"42.85380","Longitude":"-88.43550","Snowdepth":"15.000","Units":"in","Rept_Date":"2021-02-11 13"},"coordinates":[2066,4759]},{"type":"Point","properties":{"Station_ID":"MTCI2","Station_Nam":"MOUNT CARROLL","Latitude":"42.09800","Longitude":"-89.98410","Snowdepth":"15.000","Units":"in","Rept_Date":"2021-02-11 14"},"coordinates":[1703,4312]},{"type":"Point","properties":{"Station_ID":"MI-OT-17","Station_Nam":"GAYLORD 4.1 S, MI","Latitude":"44.96388","Longitude":"-84.68467","Snowdepth":"15.000","Units":"in","Rept_Date":"2021-02-11 12"},"coordinates":[2946,6005]},{"type":"Point","properties":{"Station_ID":"MI-BZ-1","Station_Nam":"BENZONIA 5.3 S, MI","Latitude":"44.53976","Longitude":"-86.10650","Snowdepth":"15.000","Units":"in","Rept_Date":"2021-02-11 14"},"coordinates":[2613,5754]},{"type":"Point","properties":{"Station_ID":"MHYI2","Station_Nam":"MCHENRY -WG STRATTON L&D","Latitude":"42.30910","Longitude":"-88.25330","Snowdepth":"15.000","Units":"in","Rept_Date":"2021-02-11 14"},"coordinates":[2109,4437]},{"type":"Point","properties":{"Station_ID":"MA-WR-69","Station_Nam":"NORTHBRIDGE 1.7 WNW, MA","Latitude":"42.16305","Longitude":"-71.67888","Snowdepth":"15.000","Units":"in","Rept_Date":"2021-02-11 12"},"coordinates":[5999,4351]},{"type":"Point","properties":{"Station_ID":"MA-MD-12","Station_Nam":"ACTON 1.3 SW, MA","Latitude":"42.46746","Longitude":"-71.48200","Snowdepth":"15.000","Units":"in","Rept_Date":"2021-02-11 12"},"coordinates":[6045,4531]},{"type":"Point","properties":{"Station_ID":"MA-FR-13","Station_Nam":"CONWAY 2.9 NW, MA","Latitude":"42.54419","Longitude":"-72.72743","Snowdepth":"15.000","Units":"in","Rept_Date":"2021-02-11 12"},"coordinates":[5753,4576]},{"type":"Point","properties":{"Station_ID":"LGHP1","Station_Nam":"LEHIGHTON 1SSW","Latitude":"40.82230","Longitude":"-75.69620","Snowdepth":"15.000","Units":"in","Rept_Date":"2021-02-11 13"},"coordinates":[5056,3559]},{"type":"Point","properties":{"Station_ID":"KTEB","Station_Nam":"TETERBORO AIRPORT","Latitude":"40.86666","Longitude":"-74.05000","Snowdepth":"15.000","Units":"in","Rept_Date":"2021-02-11 13"},"coordinates":[5442,3585]},{"type":"Point","properties":{"Station_ID":"IL-SP-6","Station_Nam":"FREEPORT 2.0 NW, IL","Latitude":"42.30955","Longitude":"-89.66370","Snowdepth":"15.000","Units":"in","Rept_Date":"2021-02-11 13"},"coordinates":[1778,4437]},{"type":"Point","properties":{"Station_ID":"IL-MCH-95","Station_Nam":"CARY 0.5 SSW, IL","Latitude":"42.20235","Longitude":"-88.25224","Snowdepth":"15.000","Units":"in","Rept_Date":"2021-02-11 13"},"coordinates":[2109,4374]},{"type":"Point","properties":{"Station_ID":"IL-MCH-13","Station_Nam":"BULL VALLEY 2.5 WNW, IL","Latitude":"42.32455","Longitude":"-88.39460","Snowdepth":"15.000","Units":"in","Rept_Date":"2021-02-11 14"},"coordinates":[2076,4446]},{"type":"Point","properties":{"Station_ID":"IL-CK-180","Station_Nam":"PARK RIDGE 0.5 SSW, IL","Latitude":"42.00443","Longitude":"-87.84600","Snowdepth":"15.000","Units":"in","Rept_Date":"2021-02-11 13"},"coordinates":[2204,4257]},{"type":"Point","properties":{"Station_ID":"IA-ST-3","Station_Nam":"PARK VIEW 0.2 WSW, IA","Latitude":"41.68855","Longitude":"-90.54380","Snowdepth":"15.000","Units":"in","Rept_Date":"2021-02-11 13"},"coordinates":[1571,4071]},{"type":"Point","properties":{"Station_ID":"IA-JH-14","Station_Nam":"SWISHER 0.4 NNE, IA","Latitude":"41.84830","Longitude":"-91.69210","Snowdepth":"15.000","Units":"in","Rept_Date":"2021-02-11 14"},"coordinates":[1302,4165]},{"type":"Point","properties":{"Station_ID":"GTTI4","Station_Nam":"LOCK & DAM 10","Latitude":"42.78580","Longitude":"-91.09970","Snowdepth":"15.000","Units":"in","Rept_Date":"2021-02-11 14"},"coordinates":[1441,4719]},{"type":"Point","properties":{"Station_ID":"GLEI2","Station_Nam":"GLEN ELLYN 4S","Latitude":"41.82670","Longitude":"-88.05810","Snowdepth":"15.000","Units":"in","Rept_Date":"2021-02-11 13"},"coordinates":[2155,4152]},{"type":"Point","properties":{"Station_ID":"FLNW3","Station_Nam":"FLORENCE","Latitude":"45.93360","Longitude":"-88.25830","Snowdepth":"15.000","Units":"in","Rept_Date":"2021-02-11 13"},"coordinates":[2108,6578]},{"type":"Point","properties":{"Station_ID":"F8114_MADIS","Station_Nam":"FW8114 BRIDGEWATER","Latitude":"40.62650","Longitude":"-74.65470","Snowdepth":"15.000","Units":"in","Rept_Date":"2021-02-11 12"},"coordinates":[5300,3443]},{"type":"Point","properties":{"Station_ID":"ENFV1","Station_Nam":"ENOSBURG FALLS 2","Latitude":"44.90960","Longitude":"-72.81370","Snowdepth":"15.000","Units":"in","Rept_Date":"2021-02-11 09"},"coordinates":[5732,5973]},{"type":"Point","properties":{"Station_ID":"EGRW3","Station_Nam":"EAGLE RIVER-SOUTH","Latitude":"45.91360","Longitude":"-89.24360","Snowdepth":"15.000","Units":"in","Rept_Date":"2021-02-11 13"},"coordinates":[1876,6566]},{"type":"Point","properties":{"Station_ID":"CT-NH-75","Station_Nam":"MERIDEN 2.8 WSW, CT","Latitude":"41.52584","Longitude":"-72.84698","Snowdepth":"15.000","Units":"in","Rept_Date":"2021-02-11 12"},"coordinates":[5725,3974]},{"type":"Point","properties":{"Station_ID":"COVP1","Station_Nam":"COVINGTON 2WSW","Latitude":"41.73330","Longitude":"-77.11670","Snowdepth":"15.000","Units":"in","Rept_Date":"2021-02-11 12"},"coordinates":[4722,4097]},{"type":"Point","properties":{"Station_ID":"CORV1","Station_Nam":"CORINTH","Latitude":"44.00690","Longitude":"-72.31940","Snowdepth":"15.000","Units":"in","Rept_Date":"2021-02-11 12"},"coordinates":[5848,5440]},{"type":"Point","properties":{"Station_ID":"CMKW3","Station_Nam":"CLAM LAKE 4W","Latitude":"46.16940","Longitude":"-90.98080","Snowdepth":"15.000","Units":"in","Rept_Date":"2021-02-11 13"},"coordinates":[1469,6717]},{"type":"Point","properties":{"Station_ID":"CARN6","Station_Nam":"CARMEL 4N","Latitude":"41.47250","Longitude":"-73.65500","Snowdepth":"15.000","Units":"in","Rept_Date":"2021-02-11 13"},"coordinates":[5535,3943]},{"type":"Point","properties":{"Station_ID":"CAN-ON-791","Station_Nam":"METCALFE 4.4 NNW, CAN","Latitude":"45.27286","Longitude":"-75.48952","Snowdepth":"15.000","Units":"in","Rept_Date":"2021-02-11 11"},"coordinates":[5104,6187]},{"type":"Point","properties":{"Station_ID":"CAN-NB-98","Station_Nam":"HOYT 4.2 S, CAN","Latitude":"45.54763","Longitude":"-66.55440","Snowdepth":"15.000","Units":"in","Rept_Date":"2021-02-11 11"},"coordinates":[7201,6350]},{"type":"Point","properties":{"Station_ID":"CAN-MB-32","Station_Nam":"PINAWA 1.0 SW, CA","Latitude":"50.14747","Longitude":"-95.89020","Snowdepth":"15.000","Units":"in","Rept_Date":"2021-02-11 13"},"coordinates":[316,9066]},{"type":"Point","properties":{"Station_ID":"BROW3","Station_Nam":"BRODHEAD,WI","Latitude":"42.61720","Longitude":"-89.38970","Snowdepth":"15.000","Units":"in","Rept_Date":"2021-02-11 13"},"coordinates":[1842,4619]},{"type":"Point","properties":{"Station_ID":"SELN3","Station_Nam":"SECOND CONNECTICUT LAKE","Latitude":"45.13640","Longitude":"-71.20140","Snowdepth":"14.800","Units":"in","Rept_Date":"2021-02-11 12"},"coordinates":[6111,6107]},{"type":"Point","properties":{"Station_ID":"CAN-ON-342","Station_Nam":"LURGAN BEACH 1.4 NNE - LHCC, CAN","Latitude":"44.09777","Longitude":"-81.72765","Snowdepth":"14.600","Units":"in","Rept_Date":"2021-02-11 12"},"coordinates":[3640,5493]},{"type":"Point","properties":{"Station_ID":"WI-RC-3","Station_Nam":"RACINE 2.3 WSW, WI","Latitude":"42.71124","Longitude":"-87.84570","Snowdepth":"14.500","Units":"in","Rept_Date":"2021-02-11 13"},"coordinates":[2204,4675]},{"type":"Point","properties":{"Station_ID":"WI-MW-43","Station_Nam":"BROWN DEER 0.8 NW, WI","Latitude":"43.18438","Longitude":"-87.98401","Snowdepth":"14.500","Units":"in","Rept_Date":"2021-02-11 13"},"coordinates":[2172,4954]},{"type":"Point","properties":{"Station_ID":"VT-OL-25","Station_Nam":"NEWPORT 1.5 WSW, VT","Latitude":"44.93059","Longitude":"-72.23731","Snowdepth":"14.500","Units":"in","Rept_Date":"2021-02-11 12"},"coordinates":[5868,5985]},{"type":"Point","properties":{"Station_ID":"RI-PR-50","Station_Nam":"HARRISVILLE 1.2 SSE, RI","Latitude":"41.95128","Longitude":"-71.67171","Snowdepth":"14.500","Units":"in","Rept_Date":"2021-02-11 12"},"coordinates":[6000,4226]},{"type":"Point","properties":{"Station_ID":"PA-BR-25","Station_Nam":"HAMBURG 0.7 NNW, PA","Latitude":"40.56646","Longitude":"-75.98620","Snowdepth":"14.500","Units":"in","Rept_Date":"2021-02-11 12"},"coordinates":[4988,3408]},{"type":"Point","properties":{"Station_ID":"NY-WC-18","Station_Nam":"ARMONK 0.3 SE, NY","Latitude":"41.12996","Longitude":"-73.70816","Snowdepth":"14.500","Units":"in","Rept_Date":"2021-02-11 13"},"coordinates":[5522,3741]},{"type":"Point","properties":{"Station_ID":"NY-TM-38","Station_Nam":"TRUMANSBURG 0.4 WNW, NY","Latitude":"42.54205","Longitude":"-76.66870","Snowdepth":"14.500","Units":"in","Rept_Date":"2021-02-11 12"},"coordinates":[4828,4575]},{"type":"Point","properties":{"Station_ID":"NY-TG-5","Station_Nam":"BERKSHIRE 2.0 N, NY","Latitude":"42.33463","Longitude":"-76.18990","Snowdepth":"14.500","Units":"in","Rept_Date":"2021-02-11 12"},"coordinates":[4940,4452]},{"type":"Point","properties":{"Station_ID":"NY-RL-8","Station_Nam":"STONY POINT 0.7 NW, NY","Latitude":"41.23490","Longitude":"-74.00790","Snowdepth":"14.500","Units":"in","Rept_Date":"2021-02-11 12"},"coordinates":[5452,3803]},{"type":"Point","properties":{"Station_ID":"NY-BM-14","Station_Nam":"WHITNEY POINT 1.7 SSE, NY","Latitude":"42.30837","Longitude":"-75.95690","Snowdepth":"14.500","Units":"in","Rept_Date":"2021-02-11 12"},"coordinates":[4995,4437]},{"type":"Point","properties":{"Station_ID":"NJ-WR-34","Station_Nam":"BLAIRSTOWN TWP 2.4 E, NJ","Latitude":"40.98140","Longitude":"-74.95230","Snowdepth":"14.500","Units":"in","Rept_Date":"2021-02-11 12"},"coordinates":[5230,3653]},{"type":"Point","properties":{"Station_ID":"NJ-PS-12","Station_Nam":"LITTLE FALLS TWP 0.5 WNW, NJ","Latitude":"40.87963","Longitude":"-74.22700","Snowdepth":"14.500","Units":"in","Rept_Date":"2021-02-11 12"},"coordinates":[5401,3593]},{"type":"Point","properties":{"Station_ID":"MI-MQ-28","Station_Nam":"CARLSHEND, MI","Latitude":"46.31638","Longitude":"-87.19944","Snowdepth":"14.500","Units":"in","Rept_Date":"2021-02-11 13"},"coordinates":[2356,6804]},{"type":"Point","properties":{"Station_ID":"MI-AT-6","Station_Nam":"MANCELONA 0.5 ESE, MI","Latitude":"44.89981","Longitude":"-85.05100","Snowdepth":"14.500","Units":"in","Rept_Date":"2021-02-11 13"},"coordinates":[2860,5967]},{"type":"Point","properties":{"Station_ID":"MA-BE-21","Station_Nam":"CHESHIRE 0.5 NNW, MA","Latitude":"42.56315","Longitude":"-73.15701","Snowdepth":"14.500","Units":"in","Rept_Date":"2021-02-11 12"},"coordinates":[5652,4587]},{"type":"Point","properties":{"Station_ID":"IL-KN-5","Station_Nam":"BATAVIA 0.7 WSW, IL","Latitude":"41.84815","Longitude":"-88.31440","Snowdepth":"14.500","Units":"in","Rept_Date":"2021-02-11 12"},"coordinates":[2094,4165]},{"type":"Point","properties":{"Station_ID":"CT-WN-8","Station_Nam":"MOOSUP 1.7 NE, CT","Latitude":"41.73180","Longitude":"-71.84667","Snowdepth":"14.500","Units":"in","Rept_Date":"2021-02-11 11"},"coordinates":[5959,4096]},{"type":"Point","properties":{"Station_ID":"IL-CK-149","Station_Nam":"OAK LAWN 0.5 SSW, IL","Latitude":"41.70845","Longitude":"-87.75390","Snowdepth":"14.400","Units":"in","Rept_Date":"2021-02-11 14"},"coordinates":[2226,4082]},{"type":"Point","properties":{"Station_ID":"NH-CR-46","Station_Nam":"NORTH CONWAY 1.8 SSE, NH","Latitude":"44.02955","Longitude":"-71.11664","Snowdepth":"14.300","Units":"in","Rept_Date":"2021-02-11 14"},"coordinates":[6131,5453]},{"type":"Point","properties":{"Station_ID":"WI-WW-2","Station_Nam":"LAKE GENEVA 0.6 ENE, WI","Latitude":"42.59169","Longitude":"-88.41770","Snowdepth":"14.200","Units":"in","Rept_Date":"2021-02-11 13"},"coordinates":[2070,4604]},{"type":"Point","properties":{"Station_ID":"CAN-NL-82","Station_Nam":"GANDER 2.7 NW, CAN","Latitude":"48.97737","Longitude":"-54.63396","Snowdepth":"14.200","Units":"in","Rept_Date":"2021-02-11 10"},"coordinates":[9999,8375]},{"type":"Point","properties":{"Station_ID":"WRSM5","Station_Nam":"WRENSHALL","Latitude":"46.61550","Longitude":"-92.38380","Snowdepth":"14.000","Units":"in","Rept_Date":"2021-02-11 14"},"coordinates":[1139,6980]},{"type":"Point","properties":{"Station_ID":"WODI2","Station_Nam":"WOODSTOCK","Latitude":"42.36280","Longitude":"-88.53140","Snowdepth":"14.000","Units":"in","Rept_Date":"2021-02-11 13"},"coordinates":[2044,4469]},{"type":"Point","properties":{"Station_ID":"WI-OZ-12","Station_Nam":"PORT WASHINGTON 0.5 S, WI","Latitude":"43.38610","Longitude":"-87.87900","Snowdepth":"14.000","Units":"in","Rept_Date":"2021-02-11 13"},"coordinates":[2197,5073]},{"type":"Point","properties":{"Station_ID":"WI-ON-6","Station_Nam":"RHINELANDER 5.2 N, WI","Latitude":"45.71388","Longitude":"-89.42150","Snowdepth":"14.000","Units":"in","Rept_Date":"2021-02-11 13"},"coordinates":[1835,6448]},{"type":"Point","properties":{"Station_ID":"WI-DD-4","Station_Nam":"BEAVER DAM 1.4 SSW, WI","Latitude":"43.44719","Longitude":"-88.85260","Snowdepth":"14.000","Units":"in","Rept_Date":"2021-02-11 14"},"coordinates":[1968,5109]},{"type":"Point","properties":{"Station_ID":"WI-DA-87","Station_Nam":"DUNKIRK 0.1 NW, WI","Latitude":"42.88356","Longitude":"-89.21056","Snowdepth":"14.000","Units":"in","Rept_Date":"2021-02-11 12"},"coordinates":[1884,4776]},{"type":"Point","properties":{"Station_ID":"WALN6","Station_Nam":"WALTON 2","Latitude":"42.18470","Longitude":"-75.14550","Snowdepth":"14.000","Units":"in","Rept_Date":"2021-02-11 10"},"coordinates":[5185,4364]},{"type":"Point","properties":{"Station_ID":"VT-RT-24","Station_Nam":"MIDDLETOWN SPRINGS 0.9 WNW, VT","Latitude":"43.49194","Longitude":"-73.13350","Snowdepth":"14.000","Units":"in","Rept_Date":"2021-02-11 12"},"coordinates":[5657,5136]},{"type":"Point","properties":{"Station_ID":"VT-CH-38","Station_Nam":"WILLISTON 0.2 WSW, VT","Latitude":"44.43669","Longitude":"-73.07154","Snowdepth":"14.000","Units":"in","Rept_Date":"2021-02-11 12"},"coordinates":[5672,5694]},{"type":"Point","properties":{"Station_ID":"VQAW3","Station_Nam":"VIROQUA","Latitude":"43.55970","Longitude":"-90.87560","Snowdepth":"14.000","Units":"in","Rept_Date":"2021-02-11 13"},"coordinates":[1493,5176]},{"type":"Point","properties":{"Station_ID":"TURM1","Station_Nam":"TURNER","Latitude":"44.28220","Longitude":"-70.25610","Snowdepth":"14.000","Units":"in","Rept_Date":"2021-02-11 12"},"coordinates":[6333,5602]},{"type":"Point","properties":{"Station_ID":"TAKW3","Station_Nam":"RICE RESERVOIR NO. 2","Latitude":"45.53770","Longitude":"-89.73220","Snowdepth":"14.000","Units":"in","Rept_Date":"2021-02-11 13"},"coordinates":[1762,6344]},{"type":"Point","properties":{"Station_ID":"SHHN6","Station_Nam":"SCHOHARIE VILLAGE","Latitude":"42.66500","Longitude":"-74.30360","Snowdepth":"14.000","Units":"in","Rept_Date":"2021-02-11 12"},"coordinates":[5383,4647]},{"type":"Point","properties":{"Station_ID":"SGVN6","Station_Nam":"SPRINGVILLE","Latitude":"42.54970","Longitude":"-78.57670","Snowdepth":"14.000","Units":"in","Rept_Date":"2021-02-12 01"},"coordinates":[4380,4579]},{"type":"Point","properties":{"Station_ID":"SAUW3","Station_Nam":"WAUSAU WSAW TV","Latitude":"44.94630","Longitude":"-89.62220","Snowdepth":"14.000","Units":"in","Rept_Date":"2021-02-12 06"},"coordinates":[1788,5995]},{"type":"Point","properties":{"Station_ID":"RSTW3","Station_Nam":"ROSHOLT","Latitude":"44.62710","Longitude":"-89.30600","Snowdepth":"14.000","Units":"in","Rept_Date":"2021-02-11 14"},"coordinates":[1862,5806]},{"type":"Point","properties":{"Station_ID":"RHIW3","Station_Nam":"RHINELANDER","Latitude":"45.59860","Longitude":"-89.45080","Snowdepth":"14.000","Units":"in","Rept_Date":"2021-02-11 13"},"coordinates":[1828,6380]},{"type":"Point","properties":{"Station_ID":"PRNW3","Station_Nam":"PRENTICE,WI","Latitude":"45.54780","Longitude":"-90.30000","Snowdepth":"14.000","Units":"in","Rept_Date":"2021-02-11 14"},"coordinates":[1628,6350]},{"type":"Point","properties":{"Station_ID":"PLFV1","Station_Nam":"PLAINFIELD","Latitude":"44.27610","Longitude":"-72.41500","Snowdepth":"14.000","Units":"in","Rept_Date":"2021-02-11 12"},"coordinates":[5826,5599]},{"type":"Point","properties":{"Station_ID":"PA-LH-17","Station_Nam":"SCHNECKSVILLE 1.7 ENE, PA","Latitude":"40.68480","Longitude":"-75.58870","Snowdepth":"14.000","Units":"in","Rept_Date":"2021-02-11 14"},"coordinates":[5081,3478]},{"type":"Point","properties":{"Station_ID":"PA-CB-4","Station_Nam":"PALMERTON 5.8 ENE, PA","Latitude":"40.83902","Longitude":"-75.51850","Snowdepth":"14.000","Units":"in","Rept_Date":"2021-02-11 13"},"coordinates":[5098,3569]},{"type":"Point","properties":{"Station_ID":"PA-CB-12","Station_Nam":"BOWMANSTOWN 3.0 WSW, PA","Latitude":"40.77897","Longitude":"-75.71130","Snowdepth":"14.000","Units":"in","Rept_Date":"2021-02-11 16"},"coordinates":[5052,3533]},{"type":"Point","properties":{"Station_ID":"PA-BR-16","Station_Nam":"MOHNTON 2.8 SSW, PA","Latitude":"40.24693","Longitude":"-75.99810","Snowdepth":"14.000","Units":"in","Rept_Date":"2021-02-11 13"},"coordinates":[4985,3219]},{"type":"Point","properties":{"Station_ID":"NY-UL-31","Station_Nam":"HURLEY 2.2 S, NY","Latitude":"41.88149","Longitude":"-74.05626","Snowdepth":"14.000","Units":"in","Rept_Date":"2021-02-11 12"},"coordinates":[5441,4184]},{"type":"Point","properties":{"Station_ID":"NY-TM-5","Station_Nam":"FREEVILLE 1.5 NE, NY","Latitude":"42.52530","Longitude":"-76.32180","Snowdepth":"14.000","Units":"in","Rept_Date":"2021-02-11 12"},"coordinates":[4909,4565]},{"type":"Point","properties":{"Station_ID":"NY-TM-4","Station_Nam":"GROTON 0.5 NW, NY","Latitude":"42.59127","Longitude":"-76.37200","Snowdepth":"14.000","Units":"in","Rept_Date":"2021-02-11 12"},"coordinates":[4897,4604]},{"type":"Point","properties":{"Station_ID":"NY-SY-11","Station_Nam":"DUNDEE 6.2 E, NY","Latitude":"42.52210","Longitude":"-76.85580","Snowdepth":"14.000","Units":"in","Rept_Date":"2021-02-11 12"},"coordinates":[4784,4563]},{"type":"Point","properties":{"Station_ID":"NY-MD-22","Station_Nam":"ONEIDA 0.4 NW, NY","Latitude":"43.08012","Longitude":"-75.66860","Snowdepth":"14.000","Units":"in","Rept_Date":"2021-02-11 12"},"coordinates":[5062,4892]},{"type":"Point","properties":{"Station_ID":"NY-DL-32","Station_Nam":"DELHI 6.6 WNW, NY","Latitude":"42.32118","Longitude":"-75.02991","Snowdepth":"14.000","Units":"in","Rept_Date":"2021-02-11 12"},"coordinates":[5212,4444]},{"type":"Point","properties":{"Station_ID":"NVLN6","Station_Nam":"NORTHVILLE","Latitude":"43.23330","Longitude":"-74.16670","Snowdepth":"14.000","Units":"in","Rept_Date":"2021-02-11 13"},"coordinates":[5415,4983]},{"type":"Point","properties":{"Station_ID":"NUMN3","Station_Nam":"NORTHUMBERLAND","Latitude":"44.52830","Longitude":"-71.50440","Snowdepth":"14.000","Units":"in","Rept_Date":"2021-02-11 13"},"coordinates":[6040,5748]},{"type":"Point","properties":{"Station_ID":"NOHM5","Station_Nam":"NORTHOME","Latitude":"47.83590","Longitude":"-94.25550","Snowdepth":"14.000","Units":"in","Rept_Date":"2021-02-11 13"},"coordinates":[700,7701]},{"type":"Point","properties":{"Station_ID":"NJ-UN-37","Station_Nam":"ELIZABETH 2.3 W, NJ","Latitude":"40.66234","Longitude":"-74.23562","Snowdepth":"14.000","Units":"in","Rept_Date":"2021-02-11 12"},"coordinates":[5399,3464]},{"type":"Point","properties":{"Station_ID":"NJ-SM-86","Station_Nam":"BRIDGEWATER TWP 3.1 SW, NJ","Latitude":"40.56607","Longitude":"-74.65406","Snowdepth":"14.000","Units":"in","Rept_Date":"2021-02-11 13"},"coordinates":[5300,3408]},