{"type":"Topology","objects":{"snowdepth_geo":{"type":"GeometryCollection","name":"snowdepth","crs":{"type":"name","properties":{"name":"urn:ogc:def:crs:OGC:1.3:CRS84"}},"geometries":[{"type":"Point","properties":{"Station_ID":"PRKM4","Station_Nam":"MUNISING EAST","Latitude":"46.42580","Longitude":"-86.62000","Snowdepth":"76.500","Units":"in","Rept_Date":"2020-04-04 06"},"coordinates":[2492,6701]},{"type":"Point","properties":{"Station_ID":"HTLN3","Station_Nam":"HERMIT LAKE SNOWPLOT","Latitude":"44.26130","Longitude":"-71.28330","Snowdepth":"66.000","Units":"in","Rept_Date":"2020-04-03 09"},"coordinates":[6092,5354]},{"type":"Point","properties":{"Station_ID":"OGIQ6","Station_Nam":"OGOKI CAMP","Latitude":"50.76680","Longitude":"-87.85820","Snowdepth":"61.100","Units":"in","Rept_Date":"2020-04-04 06"},"coordinates":[2202,9402]},{"type":"Point","properties":{"Station_ID":"HVCN3","Station_Nam":"HARVARD CABIN SNOWPLOT","Latitude":"44.26630","Longitude":"-71.27790","Snowdepth":"54.000","Units":"in","Rept_Date":"2020-04-03 10"},"coordinates":[6093,5357]},{"type":"Point","properties":{"Station_ID":"DVLQ6","Station_Nam":"DEVIOUS LAKE","Latitude":"49.19890","Longitude":"-87.76440","Snowdepth":"43.460","Units":"in","Rept_Date":"2020-04-04 06"},"coordinates":[2224,8426]},{"type":"Point","properties":{"Station_ID":"PDLM4","Station_Nam":"PAINESDALE","Latitude":"47.04160","Longitude":"-88.67170","Snowdepth":"35.000","Units":"in","Rept_Date":"2020-04-03 12"},"coordinates":[2011,7084]},{"type":"Point","properties":{"Station_ID":"CAN-NL-82","Station_Nam":"GANDER 2.7 NW, CAN","Latitude":"48.97737","Longitude":"-54.63396","Snowdepth":"27.600","Units":"in","Rept_Date":"2020-04-03 10"},"coordinates":[9999,8288]},{"type":"Point","properties":{"Station_ID":"WLFM5","Station_Nam":"WOLF RIDGE ENVIRON LEARNING CENTER","Latitude":"47.38240","Longitude":"-91.19730","Snowdepth":"26.000","Units":"in","Rept_Date":"2020-04-03 12"},"coordinates":[1418,7296]},{"type":"Point","properties":{"Station_ID":"MNSM4","Station_Nam":"MUNISING","Latitude":"46.41210","Longitude":"-86.66250","Snowdepth":"26.000","Units":"in","Rept_Date":"2020-04-03 10"},"coordinates":[2482,6692]},{"type":"Point","properties":{"Station_ID":"ME-AR-18","Station_Nam":"NEW SWEDEN 4.9 NNW, ME","Latitude":"47.01080","Longitude":"-68.14390","Snowdepth":"25.500","Units":"in","Rept_Date":"2020-04-03 12"},"coordinates":[6828,7065]},{"type":"Point","properties":{"Station_ID":"CAN-NB-13","Station_Nam":"BATHURST 3.8 NW, CAN","Latitude":"47.64212","Longitude":"-65.68756","Snowdepth":"25.000","Units":"in","Rept_Date":"2020-04-03 09"},"coordinates":[7405,7458]},{"type":"Point","properties":{"Station_ID":"CAN-QC-47","Station_Nam":"SAINTE-FOY 1.8 ENE, CAN","Latitude":"46.76934","Longitude":"-71.27124","Snowdepth":"24.000","Units":"in","Rept_Date":"2020-04-03 12"},"coordinates":[6094,6915]},{"type":"Point","properties":{"Station_ID":"QNCM4","Station_Nam":"QUINCY HILL","Latitude":"47.13640","Longitude":"-88.57950","Snowdepth":"23.000","Units":"in","Rept_Date":"2020-04-03 11"},"coordinates":[2032,7143]},{"type":"Point","properties":{"Station_ID":"KSGM4","Station_Nam":"KEARSARGE","Latitude":"47.27520","Longitude":"-88.41700","Snowdepth":"23.000","Units":"in","Rept_Date":"2020-04-03 12"},"coordinates":[2070,7229]},{"type":"Point","properties":{"Station_ID":"CAN-NB-11","Station_Nam":"MIRAMICHI 3.3 S, CAN","Latitude":"46.99343","Longitude":"-65.50690","Snowdepth":"23.000","Units":"in","Rept_Date":"2020-04-03 10"},"coordinates":[7447,7054]},{"type":"Point","properties":{"Station_ID":"HERM4","Station_Nam":"HERMAN,MI","Latitude":"46.65000","Longitude":"-88.33330","Snowdepth":"21.000","Units":"in","Rept_Date":"2020-04-03 12"},"coordinates":[2090,6840]},{"type":"Point","properties":{"Station_ID":"MI-BG-3","Station_Nam":"L'ANSE 17.8 SE, MI","Latitude":"46.55730","Longitude":"-88.20770","Snowdepth":"20.000","Units":"in","Rept_Date":"2020-04-03 13"},"coordinates":[2119,6783]},{"type":"Point","properties":{"Station_ID":"PTLQ6","Station_Nam":"PORTAGE LAKE","Latitude":"49.06950","Longitude":"-86.65940","Snowdepth":"19.570","Units":"in","Rept_Date":"2020-04-04 06"},"coordinates":[2483,8346]},{"type":"Point","properties":{"Station_ID":"TRIQ6","Station_Nam":"TRIO LAKE","Latitude":"49.22880","Longitude":"-87.22920","Snowdepth":"19.060","Units":"in","Rept_Date":"2020-04-04 06"},"coordinates":[2349,8445]},{"type":"Point","properties":{"Station_ID":"MQT","Station_Nam":"MARQUETTE, MI","Latitude":"46.53140","Longitude":"-87.54920","Snowdepth":"19.000","Units":"in","Rept_Date":"2020-04-04 06"},"coordinates":[2274,6767]},{"type":"Point","properties":{"Station_ID":"RGNM1","Station_Nam":"RANGELEY 2NW","Latitude":"44.98940","Longitude":"-70.67220","Snowdepth":"18.000","Units":"in","Rept_Date":"2020-04-03 10"},"coordinates":[6235,5807]},{"type":"Point","properties":{"Station_ID":"ME-FR-2","Station_Nam":"TEMPLE 1.8 W, ME","Latitude":"44.68329","Longitude":"-70.26420","Snowdepth":"18.000","Units":"in","Rept_Date":"2020-04-03 11"},"coordinates":[6331,5617]},{"type":"Point","properties":{"Station_ID":"VANM1","Station_Nam":"VAN BUREN","Latitude":"47.16600","Longitude":"-67.93900","Snowdepth":"17.000","Units":"in","Rept_Date":"2020-04-03 12"},"coordinates":[6876,7161]},{"type":"Point","properties":{"Station_ID":"STEM4","Station_Nam":"STEUBEN","Latitude":"46.18530","Longitude":"-86.46410","Snowdepth":"17.000","Units":"in","Rept_Date":"2020-04-03 13"},"coordinates":[2529,6551]},{"type":"Point","properties":{"Station_ID":"IBLM5","Station_Nam":"ISABELLA 14W","Latitude":"47.59360","Longitude":"-91.65140","Snowdepth":"17.000","Units":"in","Rept_Date":"2020-04-03 14"},"coordinates":[1311,7428]},{"type":"Point","properties":{"Station_ID":"CARM1","Station_Nam":"CARIBOU WFO","Latitude":"46.86810","Longitude":"-68.01250","Snowdepth":"17.000","Units":"in","Rept_Date":"2020-04-03 12"},"coordinates":[6859,6976]},{"type":"Point","properties":{"Station_ID":"CAR","Station_Nam":"CARIBOU, ME","Latitude":"46.86830","Longitude":"-68.01360","Snowdepth":"17.000","Units":"in","Rept_Date":"2020-04-03 12"},"coordinates":[6859,6976]},{"type":"Point","properties":{"Station_ID":"CAN-NB-96","Station_Nam":"SAINT-IGNACE 2.6 NE, CAN","Latitude":"46.71424","Longitude":"-65.05609","Snowdepth":"16.900","Units":"in","Rept_Date":"2020-04-03 11"},"coordinates":[7553,6880]},{"type":"Point","properties":{"Station_ID":"SVBQ6","Station_Nam":"SAVANT BASE","Latitude":"50.28730","Longitude":"-90.65670","Snowdepth":"16.540","Units":"in","Rept_Date":"2020-04-04 06"},"coordinates":[1545,9103]},{"type":"Point","properties":{"Station_ID":"CAN-NB-105","Station_Nam":"SISSON BROOK 3.8 E, CAN","Latitude":"46.98305","Longitude":"-67.32532","Snowdepth":"16.500","Units":"in","Rept_Date":"2020-04-03 12"},"coordinates":[7020,7048]},{"type":"Point","properties":{"Station_ID":"CAN-NS-61","Station_Nam":"ASPY  BAY 0.9 SW, CA","Latitude":"46.91621","Longitude":"-60.49460","Snowdepth":"15.500","Units":"in","Rept_Date":"2020-04-03 11"},"coordinates":[8624,7006]},{"type":"Point","properties":{"Station_ID":"ME-AR-15","Station_Nam":"PRESQUE ISLE 1.3 WSW, ME","Latitude":"46.67960","Longitude":"-68.01270","Snowdepth":"15.000","Units":"in","Rept_Date":"2020-04-03 12"},"coordinates":[6859,6859]},{"type":"Point","properties":{"Station_ID":"GHMN3","Station_Nam":"PINKHAM NOTCH","Latitude":"44.25800","Longitude":"-71.25250","Snowdepth":"15.000","Units":"in","Rept_Date":"2020-04-03 10"},"coordinates":[6099,5352]},{"type":"Point","properties":{"Station_ID":"BRAM1","Station_Nam":"BRASSUA DAM","Latitude":"45.66020","Longitude":"-69.81190","Snowdepth":"15.000","Units":"in","Rept_Date":"2020-04-03 11"},"coordinates":[6437,6225]},{"type":"Point","properties":{"Station_ID":"VT-OL-12","Station_Nam":"GREENSBORO 3.9 NNE, VT","Latitude":"44.63100","Longitude":"-72.28000","Snowdepth":"14.000","Units":"in","Rept_Date":"2020-04-03 13"},"coordinates":[5858,5584]},{"type":"Point","properties":{"Station_ID":"RKWM1","Station_Nam":"MOOSEHEAD LAKE","Latitude":"45.58330","Longitude":"-69.71670","Snowdepth":"14.000","Units":"in","Rept_Date":"2020-04-03 11"},"coordinates":[6459,6177]},{"type":"Point","properties":{"Station_ID":"CAN-NS-60","Station_Nam":"SYDNEY FORKS, CAN","Latitude":"46.05645","Longitude":"-60.31510","Snowdepth":"14.000","Units":"in","Rept_Date":"2020-04-03 13"},"coordinates":[8666,6471]},{"type":"Point","properties":{"Station_ID":"VT-CL-3","Station_Nam":"GROTON 4.4 WSW, VT","Latitude":"44.19440","Longitude":"-72.28240","Snowdepth":"13.500","Units":"in","Rept_Date":"2020-04-03 11"},"coordinates":[5857,5313]},{"type":"Point","properties":{"Station_ID":"MI-HG-6","Station_Nam":"CALUMET 5.8 ENE, MI","Latitude":"47.27200","Longitude":"-88.33400","Snowdepth":"13.500","Units":"in","Rept_Date":"2020-04-03 11"},"coordinates":[2090,7227]},{"type":"Point","properties":{"Station_ID":"PRDM4","Station_Nam":"PARADISE","Latitude":"46.60380","Longitude":"-85.03960","Snowdepth":"13.000","Units":"in","Rept_Date":"2020-04-03 10"},"coordinates":[2863,6812]},{"type":"Point","properties":{"Station_ID":"MI-HG-1","Station_Nam":"HOUGHTON 1.6 ESE, MI","Latitude":"47.10774","Longitude":"-88.52940","Snowdepth":"13.000","Units":"in","Rept_Date":"2020-04-03 13"},"coordinates":[2044,7125]},{"type":"Point","properties":{"Station_ID":"AUDQ6","Station_Nam":"AUDEN","Latitude":"48.52600","Longitude":"-82.57570","Snowdepth":"12.870","Units":"in","Rept_Date":"2020-04-04 06"},"coordinates":[3441,8008]},{"type":"Point","properties":{"Station_ID":"MN-CK-18","Station_Nam":"GRAND MARAIS 4.4 WSW, MN","Latitude":"47.74462","Longitude":"-90.43796","Snowdepth":"12.500","Units":"in","Rept_Date":"2020-04-03 13"},"coordinates":[1596,7521]},{"type":"Point","properties":{"Station_ID":"CAN-MB-32","Station_Nam":"PINAWA 1.0 SW, CA","Latitude":"50.14747","Longitude":"-95.89020","Snowdepth":"12.100","Units":"in","Rept_Date":"2020-04-03 13"},"coordinates":[316,9016]},{"type":"Point","properties":{"Station_ID":"WI-VL-9","Station_Nam":"LAND O' LAKES 11.7 W, WI","Latitude":"46.19023","Longitude":"-89.45790","Snowdepth":"12.000","Units":"in","Rept_Date":"2020-04-03 13"},"coordinates":[1826,6554]},{"type":"Point","properties":{"Station_ID":"MI-MQ-19","Station_Nam":"ISHPEMING 7.2 SW, MI","Latitude":"46.40550","Longitude":"-87.75670","Snowdepth":"12.000","Units":"in","Rept_Date":"2020-04-03 11"},"coordinates":[2225,6688]},{"type":"Point","properties":{"Station_ID":"LVDW3","Station_Nam":"LAC VIEUX DESERT","Latitude":"46.12110","Longitude":"-89.07580","Snowdepth":"12.000","Units":"in","Rept_Date":"2020-04-03 14"},"coordinates":[1916,6511]},{"type":"Point","properties":{"Station_ID":"LNOW3","Station_Nam":"LAND O LAKES","Latitude":"46.19000","Longitude":"-89.45700","Snowdepth":"12.000","Units":"in","Rept_Date":"2020-04-03 12"},"coordinates":[1826,6554]},{"type":"Point","properties":{"Station_ID":"LBRM5","Station_Nam":"LAKE BRONSON DAM","Latitude":"48.72410","Longitude":"-96.62180","Snowdepth":"12.000","Units":"in","Rept_Date":"2020-04-03 13"},"coordinates":[145,8131]},{"type":"Point","properties":{"Station_ID":"DFXM1","Station_Nam":"DOVER-FOXCROFT","Latitude":"45.18720","Longitude":"-69.18350","Snowdepth":"12.000","Units":"in","Rept_Date":"2020-04-03 11"},"coordinates":[6584,5930]},{"type":"Point","properties":{"Station_ID":"WRPW3","Station_Nam":"WATER PURIFICATION PLANT","Latitude":"44.38800","Longitude":"-89.80550","Snowdepth":"11.000","Units":"in","Rept_Date":"2020-04-03 11"},"coordinates":[1744,5433]},{"type":"Point","properties":{"Station_ID":"MWN","Station_Nam":"MOUNT WASHINGTON","Latitude":"44.26670","Longitude":"-71.30000","Snowdepth":"11.000","Units":"in","Rept_Date":"2020-04-04 04"},"coordinates":[6088,5358]},{"type":"Point","properties":{"Station_ID":"KMWN","Station_Nam":"MOUNT WASHINGTON","Latitude":"44.26666","Longitude":"-71.30000","Snowdepth":"11.000","Units":"in","Rept_Date":"2020-04-04 06"},"coordinates":[6088,5358]},{"type":"Point","properties":{"Station_ID":"ME-FR-22","Station_Nam":"FARMINGTON 4.8 NNW, ME","Latitude":"44.73396","Longitude":"-70.18007","Snowdepth":"10.500","Units":"in","Rept_Date":"2020-04-03 14"},"coordinates":[6350,5648]},{"type":"Point","properties":{"Station_ID":"KABQ6","Station_Nam":"CAB LAKE","Latitude":"49.59950","Longitude":"-89.17990","Snowdepth":"10.470","Units":"in","Rept_Date":"2020-04-04 06"},"coordinates":[1891,8675]},{"type":"Point","properties":{"Station_ID":"WI-VL-10","Station_Nam":"LAND O LAKES 4.3 WNW, WI","Latitude":"46.17440","Longitude":"-89.30380","Snowdepth":"10.000","Units":"in","Rept_Date":"2020-04-03 13"},"coordinates":[1862,6545]},{"type":"Point","properties":{"Station_ID":"NH-CS-10","Station_Nam":"RANDOLPH 1.4 NE, NH","Latitude":"44.38824","Longitude":"-71.26950","Snowdepth":"10.000","Units":"in","Rept_Date":"2020-04-03 12"},"coordinates":[6095,5433]},{"type":"Point","properties":{"Station_ID":"GRFN8","Station_Nam":"UNIVERSITY","Latitude":"47.93330","Longitude":"-97.08330","Snowdepth":"10.000","Units":"in","Rept_Date":"2020-04-04 05"},"coordinates":[36,7639]},{"type":"Point","properties":{"Station_ID":"GNLM4","Station_Nam":"GREENLAND 6N","Latitude":"46.87360","Longitude":"-89.10060","Snowdepth":"10.000","Units":"in","Rept_Date":"2020-04-03 12"},"coordinates":[1910,6980]},{"type":"Point","properties":{"Station_ID":"CRVW3","Station_Nam":"CRIVITZ HIGH FALLS","Latitude":"45.35750","Longitude":"-88.19190","Snowdepth":"10.000","Units":"in","Rept_Date":"2020-04-03 12"},"coordinates":[2123,6036]},{"type":"Point","properties":{"Station_ID":"CAN-NB-18","Station_Nam":"MCLEOD HILL 1.1 ENE, CA","Latitude":"46.02725","Longitude":"-66.67460","Snowdepth":"10.000","Units":"in","Rept_Date":"2020-04-03 12"},"coordinates":[7173,6453]},{"type":"Point","properties":{"Station_ID":"SOCQ6","Station_Nam":"SOCKET LAKE","Latitude":"50.77870","Longitude":"-91.79300","Snowdepth":"9.570","Units":"in","Rept_Date":"2020-04-04 06"},"coordinates":[1278,9409]},{"type":"Point","properties":{"Station_ID":"ND-CS-25","Station_Nam":"FARGO 2.1 N, ND","Latitude":"46.90816","Longitude":"-96.77937","Snowdepth":"9.500","Units":"in","Rept_Date":"2020-04-03 14"},"coordinates":[108,7001]},{"type":"Point","properties":{"Station_ID":"WI-IR-3","Station_Nam":"PENCE 0.1 E, WI","Latitude":"46.41555","Longitude":"-90.27013","Snowdepth":"9.000","Units":"in","Rept_Date":"2020-04-03 13"},"coordinates":[1635,6695]},{"type":"Point","properties":{"Station_ID":"NH-CR-15","Station_Nam":"JACKSON 3.7 NW, NH","Latitude":"44.19069","Longitude":"-71.22598","Snowdepth":"8.500","Units":"in","Rept_Date":"2020-04-03 12"},"coordinates":[6105,5310]},{"type":"Point","properties":{"Station_ID":"CAN-NS-103","Station_Nam":"TRAFALGAR 4.9 WSW, CAN","Latitude":"45.26217","Longitude":"-62.72285","Snowdepth":"8.500","Units":"in","Rept_Date":"2020-04-03 11"},"coordinates":[8101,5977]},{"type":"Point","properties":{"Station_ID":"VT-CL-40","Station_Nam":"LYNDONVILLE 4.2 NNW, VT","Latitude":"44.59440","Longitude":"-72.02389","Snowdepth":"8.000","Units":"in","Rept_Date":"2020-04-03 12"},"coordinates":[5918,5562]},{"type":"Point","properties":{"Station_ID":"ND-GF-8","Station_Nam":"GRAND FORKS 2.5 SE, ND","Latitude":"47.89136","Longitude":"-97.03386","Snowdepth":"8.000","Units":"in","Rept_Date":"2020-04-03 11"},"coordinates":[48,7613]},{"type":"Point","properties":{"Station_ID":"ND-GF-13","Station_Nam":"GRAND FORKS 3.7 SSE, ND","Latitude":"47.86533","Longitude":"-97.04935","Snowdepth":"8.000","Units":"in","Rept_Date":"2020-04-03 13"},"coordinates":[44,7597]},{"type":"Point","properties":{"Station_ID":"MN-PK-15","Station_Nam":"MENTOR 2.5 SSW, MN","Latitude":"47.66625","Longitude":"-96.17328","Snowdepth":"8.000","Units":"in","Rept_Date":"2020-04-03 13"},"coordinates":[250,7473]},{"type":"Point","properties":{"Station_ID":"MN-PK-11","Station_Nam":"FERTILE 0.6 E, MN","Latitude":"47.53391","Longitude":"-96.27570","Snowdepth":"8.000","Units":"in","Rept_Date":"2020-04-03 13"},"coordinates":[226,7390]},{"type":"Point","properties":{"Station_ID":"MN-IT-10","Station_Nam":"DEER RIVER 3.7 W, MN","Latitude":"47.33564","Longitude":"-93.87514","Snowdepth":"8.000","Units":"in","Rept_Date":"2020-04-03 14"},"coordinates":[789,7267]},{"type":"Point","properties":{"Station_ID":"MN-CK-6","Station_Nam":"GRAND MARAIS 4.4 W, MN","Latitude":"47.74865","Longitude":"-90.43760","Snowdepth":"8.000","Units":"in","Rept_Date":"2020-04-03 13"},"coordinates":[1596,7524]},{"type":"Point","properties":{"Station_ID":"MIEM4","Station_Nam":"MICHIGAMME 3WNW","Latitude":"46.54530","Longitude":"-88.18000","Snowdepth":"8.000","Units":"in","Rept_Date":"2020-04-03 12"},"coordinates":[2126,6775]},{"type":"Point","properties":{"Station_ID":"JKMM1","Station_Nam":"JACKMAN","Latitude":"45.62600","Longitude":"-70.24600","Snowdepth":"8.000","Units":"in","Rept_Date":"2020-04-03 11"},"coordinates":[6335,6203]},{"type":"Point","properties":{"Station_ID":"FEDM5","Station_Nam":"LEECH LAKE DAM","Latitude":"47.24670","Longitude":"-94.22280","Snowdepth":"8.000","Units":"in","Rept_Date":"2020-04-03 13"},"coordinates":[708,7212]},{"type":"Point","properties":{"Station_ID":"CLKM4","Station_Nam":"CLARKSBURG","Latitude":"46.49910","Longitude":"-87.84500","Snowdepth":"8.000","Units":"in","Rept_Date":"2020-04-03 11"},"coordinates":[2205,6747]},{"type":"Point","properties":{"Station_ID":"CAN-PE-3","Station_Nam":"WELLINGTON 1.6 NE, CA","Latitude":"46.46672","Longitude":"-63.98920","Snowdepth":"8.000","Units":"in","Rept_Date":"2020-04-03 11"},"coordinates":[7803,6726]},{"type":"Point","properties":{"Station_ID":"AVLV1","Station_Nam":"AVERILL","Latitude":"45.00570","Longitude":"-71.69030","Snowdepth":"8.000","Units":"in","Rept_Date":"2020-04-03 12"},"coordinates":[5996,5817]},{"type":"Point","properties":{"Station_ID":"MN-CY-1","Station_Nam":"MOORHEAD 2.0 N, MN","Latitude":"46.88766","Longitude":"-96.74800","Snowdepth":"7.500","Units":"in","Rept_Date":"2020-04-03 13"},"coordinates":[115,6988]},{"type":"Point","properties":{"Station_ID":"CAN-NB-2","Station_Nam":"GRAFTON 2.7 NNE, CA","Latitude":"46.17062","Longitude":"-67.55330","Snowdepth":"7.500","Units":"in","Rept_Date":"2020-04-03 10"},"coordinates":[6967,6542]},{"type":"Point","properties":{"Station_ID":"WNBM5","Station_Nam":"DAM","Latitude":"47.43060","Longitude":"-94.05000","Snowdepth":"7.000","Units":"in","Rept_Date":"2020-04-03 13"},"coordinates":[748,7326]},{"type":"Point","properties":{"Station_ID":"SUTV1","Station_Nam":"SUTTON","Latitude":"44.61220","Longitude":"-72.04810","Snowdepth":"7.000","Units":"in","Rept_Date":"2020-04-03 12"},"coordinates":[5912,5573]},{"type":"Point","properties":{"Station_ID":"SUAW3","Station_Nam":"SUAMICO","Latitude":"44.60190","Longitude":"-88.09780","Snowdepth":"7.000","Units":"in","Rept_Date":"2020-04-03 11"},"coordinates":[2145,5566]},{"type":"Point","properties":{"Station_ID":"STGW3","Station_Nam":"ST GERMAIN","Latitude":"45.91550","Longitude":"-89.48940","Snowdepth":"7.000","Units":"in","Rept_Date":"2020-04-03 11"},"coordinates":[1819,6383]},{"type":"Point","properties":{"Station_ID":"SSMM4","Station_Nam":"SAULT STE MARIE","Latitude":"46.48660","Longitude":"-84.40250","Snowdepth":"7.000","Units":"in","Rept_Date":"2020-04-03 12"},"coordinates":[3013,6739]},{"type":"Point","properties":{"Station_ID":"MN-IT-23","Station_Nam":"BOVEY 13.4 N, MN","Latitude":"47.48855","Longitude":"-93.43497","Snowdepth":"7.000","Units":"in","Rept_Date":"2020-04-03 13"},"coordinates":[893,7362]},{"type":"Point","properties":{"Station_ID":"ME-FR-4","Station_Nam":"NEW SHARON 2.0 NW, ME","Latitude":"44.66582","Longitude":"-70.02720","Snowdepth":"7.000","Units":"in","Rept_Date":"2020-04-03 12"},"coordinates":[6386,5606]},{"type":"Point","properties":{"Station_ID":"KINM1","Station_Nam":"KINGFIELD","Latitude":"44.95950","Longitude":"-70.17530","Snowdepth":"7.000","Units":"in","Rept_Date":"2020-04-03 11"},"coordinates":[6352,5789]},{"type":"Point","properties":{"Station_ID":"KGFK","Station_Nam":"GRAND FORKS INTERNATIONAL","Latitude":"47.95000","Longitude":"-97.18333","Snowdepth":"7.000","Units":"in","Rept_Date":"2020-04-03 18"},"coordinates":[13,7649]},{"type":"Point","properties":{"Station_ID":"GLDM4","Station_Nam":"GLADSTONE NO. 2","Latitude":"45.84330","Longitude":"-87.03910","Snowdepth":"7.000","Units":"in","Rept_Date":"2020-04-03 11"},"coordinates":[2394,6339]},{"type":"Point","properties":{"Station_ID":"GFK","Station_Nam":"GRAND FORKS INTERNATIONAL AIRPORT","Latitude":"47.94920","Longitude":"-97.17610","Snowdepth":"7.000","Units":"in","Rept_Date":"2020-04-04 00"},"coordinates":[15,7649]},{"type":"Point","properties":{"Station_ID":"CRLM5","Station_Nam":"CROSS LAKE DAM","Latitude":"46.66930","Longitude":"-94.11060","Snowdepth":"7.000","Units":"in","Rept_Date":"2020-04-03 13"},"coordinates":[734,6852]},{"type":"Point","properties":{"Station_ID":"COKM5","Station_Nam":"COOK","Latitude":"47.85060","Longitude":"-92.69250","Snowdepth":"7.000","Units":"in","Rept_Date":"2020-04-03 11"},"coordinates":[1067,7587]},{"type":"Point","properties":{"Station_ID":"CAN-PE-7","Station_Nam":"MORELL 1.4 NNW, CA","Latitude":"46.42741","Longitude":"-62.70870","Snowdepth":"7.000","Units":"in","Rept_Date":"2020-04-03 11"},"coordinates":[8104,6702]},{"type":"Point","properties":{"Station_ID":"BRDM1","Station_Nam":"BRIDGEWATER","Latitude":"46.42870","Longitude":"-67.84370","Snowdepth":"7.000","Units":"in","Rept_Date":"2020-04-03 22"},"coordinates":[6899,6703]},{"type":"Point","properties":{"Station_ID":"BNDM5","Station_Nam":"ELY 25E","Latitude":"47.97190","Longitude":"-91.44860","Snowdepth":"7.000","Units":"in","Rept_Date":"2020-04-03 12"},"coordinates":[1359,7663]},{"type":"Point","properties":{"Station_ID":"ND-CS-29","Station_Nam":"HORACE 9.3 SSE, ND","Latitude":"46.63556","Longitude":"-96.82210","Snowdepth":"6.500","Units":"in","Rept_Date":"2020-04-03 13"},"coordinates":[98,6831]},{"type":"Point","properties":{"Station_ID":"CAN-PE-19","Station_Nam":"CHARLOTTETOWN 6.5 NNW, CAN","Latitude":"46.29235","Longitude":"-63.17271","Snowdepth":"6.500","Units":"in","Rept_Date":"2020-04-03 12"},"coordinates":[7995,6618]},{"type":"Point","properties":{"Station_ID":"CAN-NB-64","Station_Nam":"KESWICK RIDGE 4.0 SE, CAN","Latitude":"45.97014","Longitude":"-66.85538","Snowdepth":"6.100","Units":"in","Rept_Date":"2020-04-03 11"},"coordinates":[7131,6417]},{"type":"Point","properties":{"Station_ID":"VT-BN-12","Station_Nam":"STAMFORD 5.0 NNE, VT","Latitude":"42.82000","Longitude":"-73.02000","Snowdepth":"6.000","Units":"in","Rept_Date":"2020-04-03 21"},"coordinates":[5684,4458]},{"type":"Point","properties":{"Station_ID":"SBNM5","Station_Nam":"SABIN","Latitude":"46.77690","Longitude":"-96.65610","Snowdepth":"6.000","Units":"in","Rept_Date":"2020-04-03 13"},"coordinates":[137,6919]},{"type":"Point","properties":{"Station_ID":"RANM1","Station_Nam":"RANGELEY","Latitude":"44.98910","Longitude":"-70.67190","Snowdepth":"6.000","Units":"in","Rept_Date":"2020-04-03 10"},"coordinates":[6235,5807]},{"type":"Point","properties":{"Station_ID":"PTBN3","Station_Nam":"PITTSBURG RESERVOIR","Latitude":"45.04690","Longitude":"-71.38300","Snowdepth":"6.000","Units":"in","Rept_Date":"2020-04-03 12"},"coordinates":[6068,5843]},{"type":"Point","properties":{"Station_ID":"PBAN8","Station_Nam":"SITE 1-3MI.N","Latitude":"48.97420","Longitude":"-97.23860","Snowdepth":"6.000","Units":"in","Rept_Date":"2020-04-03 12"},"coordinates":[0,8286]},{"type":"Point","properties":{"Station_ID":"MN7M8EBJ","Station_Nam":"LUTSEN 15.7 NNW","Latitude":"47.85324","Longitude":"-89.92908","Snowdepth":"6.000","Units":"in","Rept_Date":"2020-04-03 13"},"coordinates":[1715,7589]},{"type":"Point","properties":{"Station_ID":"MN-WK-5","Station_Nam":"WOLVERTON 1.1 ENE, MN","Latitude":"46.56920","Longitude":"-96.71540","Snowdepth":"6.000","Units":"in","Rept_Date":"2020-04-03 13"},"coordinates":[123,6790]},{"type":"Point","properties":{"Station_ID":"MN-SL-15","Station_Nam":"CHISHOLM 0.4 WSW, MN","Latitude":"47.48557","Longitude":"-92.88690","Snowdepth":"6.000","Units":"in","Rept_Date":"2020-04-03 13"},"coordinates":[1021,7360]},{"type":"Point","properties":{"Station_ID":"MN-IT-7","Station_Nam":"GRAND RAPIDS 6.2 SSW, MN","Latitude":"47.13687","Longitude":"-93.56660","Snowdepth":"6.000","Units":"in","Rept_Date":"2020-04-03 12"},"coordinates":[862,7143]},{"type":"Point","properties":{"Station_ID":"MCLN8","Station_Nam":"MC LEOD,ND","Latitude":"46.40250","Longitude":"-97.23810","Snowdepth":"6.000","Units":"in","Rept_Date":"2020-04-03 14"},"coordinates":[0,6686]},{"type":"Point","properties":{"Station_ID":"LILM1","Station_Nam":"LILLE","Latitude":"47.27770","Longitude":"-68.10520","Snowdepth":"6.000","Units":"in","Rept_Date":"2020-04-03 11"},"coordinates":[6837,7231]},{"type":"Point","properties":{"Station_ID":"DLH","Station_Nam":"DULUTH, MN","Latitude":"46.83690","Longitude":"-92.21030","Snowdepth":"6.000","Units":"in","Rept_Date":"2020-04-04 00"},"coordinates":[1180,6957]},{"type":"Point","properties":{"Station_ID":"ANJM4","Station_Nam":"SNOW PAID OBSERVER FOR KANJ","Latitude":"46.48670","Longitude":"-84.40260","Snowdepth":"6.000","Units":"in","Rept_Date":"2020-04-03 18"},"coordinates":[3013,6739]},{"type":"Point","properties":{"Station_ID":"ANJ","Station_Nam":"SAULT STE MARIE","Latitude":"46.46670","Longitude":"-84.36670","Snowdepth":"6.000","Units":"in","Rept_Date":"2020-04-04 00"},"coordinates":[3021,6726]},{"type":"Point","properties":{"Station_ID":"CAN-MB-298","Station_Nam":"GARDENTON 4.2 W - SRRCD, CAN","Latitude":"49.09480","Longitude":"-96.75446","Snowdepth":"5.900","Units":"in","Rept_Date":"2020-04-03 13"},"coordinates":[114,8361]},{"type":"Point","properties":{"Station_ID":"ND-CS-1","Station_Nam":"WEST FARGO 3.8 SSE, ND","Latitude":"46.82750","Longitude":"-96.85280","Snowdepth":"5.500","Units":"in","Rept_Date":"2020-04-03 13"},"coordinates":[91,6951]},{"type":"Point","properties":{"Station_ID":"CAN-NB-97","Station_Nam":"NEW MARYLAND 0.6 NW, CAN","Latitude":"45.90112","Longitude":"-66.68739","Snowdepth":"5.500","Units":"in","Rept_Date":"2020-04-03 11"},"coordinates":[7170,6375]},{"type":"Point","properties":{"Station_ID":"WI-VL-14","Station_Nam":"BOULDER JUNCTION 1.4 NE, WI","Latitude":"46.12840","Longitude":"-89.62470","Snowdepth":"5.000","Units":"in","Rept_Date":"2020-04-03 13"},"coordinates":[1787,6516]},{"type":"Point","properties":{"Station_ID":"WI-ON-8","Station_Nam":"HAZELHURST 2.1 SSE, WI","Latitude":"45.78186","Longitude":"-89.70330","Snowdepth":"5.000","Units":"in","Rept_Date":"2020-04-03 13"},"coordinates":[1768,6300]},{"type":"Point","properties":{"Station_ID":"UPSW3","Station_Nam":"UPSON,WI","Latitude":"46.36780","Longitude":"-90.41220","Snowdepth":"5.000","Units":"in","Rept_Date":"2020-04-03 23"},"coordinates":[1602,6665]},{"type":"Point","properties":{"Station_ID":"TOPM1","Station_Nam":"TOPSFIELD","Latitude":"45.43470","Longitude":"-67.72020","Snowdepth":"5.000","Units":"in","Rept_Date":"2020-04-03 11"},"coordinates":[6928,6084]},{"type":"Point","properties":{"Station_ID":"PHEW3","Station_Nam":"PHELPS","Latitude":"46.06630","Longitude":"-89.07520","Snowdepth":"5.000","Units":"in","Rept_Date":"2020-04-03 12"},"coordinates":[1916,6477]},{"type":"Point","properties":{"Station_ID":"IWOM4","Station_Nam":"IRONWOOD#2","Latitude":"46.46520","Longitude":"-90.13820","Snowdepth":"5.000","Units":"in","Rept_Date":"2020-04-03 12"},"coordinates":[1666,6725]},{"type":"Point","properties":{"Station_ID":"FLNW3","Station_Nam":"FLORENCE","Latitude":"45.93360","Longitude":"-88.25830","Snowdepth":"5.000","Units":"in","Rept_Date":"2020-04-03 12"},"coordinates":[2108,6395]},{"type":"Point","properties":{"Station_ID":"FDRN8","Station_Nam":"FARGO 3S","Latitude":"46.82930","Longitude":"-96.79620","Snowdepth":"5.000","Units":"in","Rept_Date":"2020-04-04 00"},"coordinates":[104,6952]},{"type":"Point","properties":{"Station_ID":"FAR","Station_Nam":"HECTOR INTERNATIONAL ARPT","Latitude":"46.91560","Longitude":"-96.81440","Snowdepth":"5.000","Units":"in","Rept_Date":"2020-04-04 00"},"coordinates":[100,7006]},{"type":"Point","properties":{"Station_ID":"EMBM5","Station_Nam":"EMBARASS,MN","Latitude":"47.65810","Longitude":"-92.19580","Snowdepth":"5.000","Units":"in","Rept_Date":"2020-04-03 11"},"coordinates":[1184,7468]},{"type":"Point","properties":{"Station_ID":"DLHM5","Station_Nam":"DULUTH NWS","Latitude":"46.83680","Longitude":"-92.21080","Snowdepth":"5.000","Units":"in","Rept_Date":"2020-04-03 18"},"coordinates":[1180,6957]},{"type":"Point","properties":{"Station_ID":"BGBM4","Station_Nam":"BIG BAY 1NW","Latitude":"46.83250","Longitude":"-87.75040","Snowdepth":"5.000","Units":"in","Rept_Date":"2020-04-03 12"},"coordinates":[2227,6954]},{"type":"Point","properties":{"Station_ID":"BABM5","Station_Nam":"BABBITT","Latitude":"47.71210","Longitude":"-91.95330","Snowdepth":"5.000","Units":"in","Rept_Date":"2020-04-03 12"},"coordinates":[1240,7501]},{"type":"Point","properties":{"Station_ID":"CAN-NS-94","Station_Nam":"MARGAREE FORKS 2.6 SSE CBN, CAN","Latitude":"46.30937","Longitude":"-61.07603","Snowdepth":"4.700","Units":"in","Rept_Date":"2020-04-03 13"},"coordinates":[8487,6629]},{"type":"Point","properties":{"Station_ID":"WTNM4","Station_Nam":"WATTON 2WSW","Latitude":"46.52660","Longitude":"-88.64240","Snowdepth":"4.000","Units":"in","Rept_Date":"2020-04-03 12"},"coordinates":[2017,6764]},{"type":"Point","properties":{"Station_ID":"WRSM5","Station_Nam":"WRENSHALL","Latitude":"46.61550","Longitude":"-92.38380","Snowdepth":"4.000","Units":"in","Rept_Date":"2020-04-03 13"},"coordinates":[1139,6819]},{"type":"Point","properties":{"Station_ID":"WI-BY-14","Station_Nam":"ASHLAND 9.8 W, WI","Latitude":"46.59742","Longitude":"-91.07856","Snowdepth":"4.000","Units":"in","Rept_Date":"2020-04-03 13"},"coordinates":[1446,6808]},{"type":"Point","properties":{"Station_ID":"WI-BY-1","Station_Nam":"BAYFIELD 8.8 N, WI","Latitude":"46.93855","Longitude":"-90.83490","Snowdepth":"4.000","Units":"in","Rept_Date":"2020-04-03 13"},"coordinates":[1503,7020]},{"type":"Point","properties":{"Station_ID":"VT-OL-9","Station_Nam":"GREENSBORO 2.1 NNW, VT","Latitude":"44.60528","Longitude":"-72.30940","Snowdepth":"4.000","Units":"in","Rept_Date":"2020-04-03 12"},"coordinates":[5851,5568]},{"type":"Point","properties":{"Station_ID":"VT-ES-3","Station_Nam":"LUNENBURG 2.3 NNW, VT","Latitude":"44.49324","Longitude":"-71.70446","Snowdepth":"4.000","Units":"in","Rept_Date":"2020-04-03 12"},"coordinates":[5993,5499]},{"type":"Point","properties":{"Station_ID":"VT-BN-3","Station_Nam":"LANDGROVE 1.1 NNE, VT","Latitude":"43.29092","Longitude":"-72.83260","Snowdepth":"4.000","Units":"in","Rept_Date":"2020-04-03 12"},"coordinates":[5728,4751]},{"type":"Point","properties":{"Station_ID":"TAKW3","Station_Nam":"RICE RESERVOIR NO. 2","Latitude":"45.53770","Longitude":"-89.73220","Snowdepth":"4.000","Units":"in","Rept_Date":"2020-04-03 12"},"coordinates":[1762,6148]},{"type":"Point","properties":{"Station_ID":"RLWM5","Station_Nam":"CAMP NORRIS DNR","Latitude":"48.61000","Longitude":"-95.18170","Snowdepth":"4.000","Units":"in","Rept_Date":"2020-04-03 13"},"coordinates":[483,8060]},{"type":"Point","properties":{"Station_ID":"NH-CS-4","Station_Nam":"PITTSBURG 6.1 NE, NH","Latitude":"45.11060","Longitude":"-71.29760","Snowdepth":"4.000","Units":"in","Rept_Date":"2020-04-03 12"},"coordinates":[6088,5883]},{"type":"Point","properties":{"Station_ID":"MN-IT-17","Station_Nam":"GRAND RAPIDS 6.1 N, MN","Latitude":"47.31165","Longitude":"-93.55036","Snowdepth":"4.000","Units":"in","Rept_Date":"2020-04-03 13"},"coordinates":[866,7252]},{"type":"Point","properties":{"Station_ID":"MN-CY-19","Station_Nam":"GLYNDON 6.9 ENE, MN","Latitude":"46.91908","Longitude":"-96.45112","Snowdepth":"4.000","Units":"in","Rept_Date":"2020-04-03 13"},"coordinates":[185,7008]},{"type":"Point","properties":{"Station_ID":"LGRN8","Station_Nam":"LIDGERWOOD,ND","Latitude":"46.06670","Longitude":"-97.16670","Snowdepth":"4.000","Units":"in","Rept_Date":"2020-04-03 12"},"coordinates":[17,6478]},{"type":"Point","properties":{"Station_ID":"LEIM5","Station_Nam":"ORR 3E","Latitude":"48.05810","Longitude":"-92.75220","Snowdepth":"4.000","Units":"in","Rept_Date":"2020-04-03 11"},"coordinates":[1053,7716]},{"type":"Point","properties":{"Station_ID":"LBKV1","Station_Nam":"LYE BROOK","Latitude":"43.05000","Longitude":"-73.03330","Snowdepth":"4.000","Units":"in","Rept_Date":"2020-04-04 05"},"coordinates":[5681,4601]},{"type":"Point","properties":{"Station_ID":"HRVM4","Station_Nam":"HARVEY","Latitude":"46.49080","Longitude":"-87.35470","Snowdepth":"4.000","Units":"in","Rept_Date":"2020-04-03 12"},"coordinates":[2320,6741]},{"type":"Point","properties":{"Station_ID":"GRBM5","Station_Nam":"GRAND RAPIDS 12N","Latitude":"47.39800","Longitude":"-93.51330","Snowdepth":"4.000","Units":"in","Rept_Date":"2020-04-03 11"},"coordinates":[874,7306]},{"type":"Point","properties":{"Station_ID":"GGRM4","Station_Nam":"GREEN GARDEN NO.2","Latitude":"46.45330","Longitude":"-87.30380","Snowdepth":"4.000","Units":"in","Rept_Date":"2020-04-03 11"},"coordinates":[2332,6718]},{"type":"Point","properties":{"Station_ID":"EAHV1","Station_Nam":"EAST HAVEN","Latitude":"44.64250","Longitude":"-71.89120","Snowdepth":"4.000","Units":"in","Rept_Date":"2020-04-03 11"},"coordinates":[5949,5592]},{"type":"Point","properties":{"Station_ID":"CAN-NS-163","Station_Nam":"SYDNEY MINES 2.2 WNW, CAN","Latitude":"46.24851","Longitude":"-60.25161","Snowdepth":"3.900","Units":"in","Rept_Date":"2020-04-03 12"},"coordinates":[8681,6591]},{"type":"Point","properties":{"Station_ID":"WI-IR-2","Station_Nam":"MERCER 2.0 SE, WI","Latitude":"46.14749","Longitude":"-90.03097","Snowdepth":"3.200","Units":"in","Rept_Date":"2020-04-03 13"},"coordinates":[1692,6528]},{"type":"Point","properties":{"Station_ID":"MWTM1","Station_Nam":"MILLINOCKET WWTP","Latitude":"45.64030","Longitude":"-68.67480","Snowdepth":"3.000","Units":"in","Rept_Date":"2020-04-03 10"},"coordinates":[6704,6212]},{"type":"Point","properties":{"Station_ID":"ME-OX-2","Station_Nam":"HARTFORD 1.4 N, ME","Latitude":"44.39318","Longitude":"-70.34760","Snowdepth":"3.000","Units":"in","Rept_Date":"2020-04-03 13"},"coordinates":[6311,5436]},{"type":"Point","properties":{"Station_ID":"INL","Station_Nam":"FALLS INTERNATIONAL ARPT","Latitude":"48.56640","Longitude":"-93.40310","Snowdepth":"3.000","Units":"in","Rept_Date":"2020-04-04 00"},"coordinates":[900,8033]},{"type":"Point","properties":{"Station_ID":"IFSM5","Station_Nam":"INTERNATIONAL FALLS SNOW","Latitude":"48.57780","Longitude":"-93.39640","Snowdepth":"3.000","Units":"in","Rept_Date":"2020-04-04 06"},"coordinates":[902,8040]},{"type":"Point","properties":{"Station_ID":"ELYM5","Station_Nam":"ELY","Latitude":"47.90560","Longitude":"-91.82830","Snowdepth":"3.000","Units":"in","Rept_Date":"2020-04-03 13"},"coordinates":[1270,7622]},{"type":"Point","properties":{"Station_ID":"BTLN3","Station_Nam":"BARTLETT","Latitude":"44.08380","Longitude":"-71.29340","Snowdepth":"3.000","Units":"in","Rept_Date":"2020-04-03 11"},"coordinates":[6089,5244]},{"type":"Point","properties":{"Station_ID":"CATQ6","Station_Nam":"CAT LAKE","Latitude":"51.72690","Longitude":"-91.82210","Snowdepth":"2.870","Units":"in","Rept_Date":"2020-04-04 05"},"coordinates":[1271,9999]},{"type":"Point","properties":{"Station_ID":"MI-CP-14","Station_Nam":"SAULT STE. MARIE 2.2 E, MI","Latitude":"46.48933","Longitude":"-84.31971","Snowdepth":"2.500","Units":"in","Rept_Date":"2020-04-03 12"},"coordinates":[3032,6740]},{"type":"Point","properties":{"Station_ID":"VT-OL-2","Station_Nam":"BARTON 3.0 ENE, VT","Latitude":"44.75863","Longitude":"-72.11680","Snowdepth":"2.000","Units":"in","Rept_Date":"2020-04-03 12"},"coordinates":[5896,5664]},{"type":"Point","properties":{"Station_ID":"SSSS2","Station_Nam":"MILBANK-36MI.NW","Latitude":"45.66670","Longitude":"-97.00000","Snowdepth":"2.000","Units":"in","Rept_Date":"2020-04-04 03"},"coordinates":[56,6229]},{"type":"Point","properties":{"Station_ID":"SIWS2","Station_Nam":"SISSETON 3W","Latitude":"45.65870","Longitude":"-97.12450","Snowdepth":"2.000","Units":"in","Rept_Date":"2020-04-03 12"},"coordinates":[27,6224]},{"type":"Point","properties":{"Station_ID":"PKGM5","Station_Nam":"POKEGANA LK DAM","Latitude":"47.25080","Longitude":"-93.58610","Snowdepth":"2.000","Units":"in","Rept_Date":"2020-04-03 13"},"coordinates":[857,7214]},{"type":"Point","properties":{"Station_ID":"ORAN3","Station_Nam":"ORANGE","Latitude":"43.66880","Longitude":"-71.94830","Snowdepth":"2.000","Units":"in","Rept_Date":"2020-04-03 11"},"coordinates":[5935,4986]},{"type":"Point","properties":{"Station_ID":"NUMN3","Station_Nam":"NORTHUMBERLAND","Latitude":"44.52830","Longitude":"-71.50440","Snowdepth":"2.000","Units":"in","Rept_Date":"2020-04-03 12"},"coordinates":[6040,5520]},{"type":"Point","properties":{"Station_ID":"NH-CR-26","Station_Nam":"CENTER SANDWICH 4.9 E, NH","Latitude":"43.80976","Longitude":"-71.34150","Snowdepth":"2.000","Units":"in","Rept_Date":"2020-04-03 11"},"coordinates":[6078,5073]},{"type":"Point","properties":{"Station_ID":"MTLT1","Station_Nam":"GATLINBURG,TN","Latitude":"35.65500","Longitude":"-83.44110","Snowdepth":"2.000","Units":"in","Rept_Date":"2020-04-03 12"},"coordinates":[3238,0]},{"type":"Point","properties":{"Station_ID":"LPLN6","Station_Nam":"LAKE PLACID 2 S","Latitude":"44.30420","Longitude":"-73.98390","Snowdepth":"2.000","Units":"in","Rept_Date":"2020-04-03 12"},"coordinates":[5458,5381]},{"type":"Point","properties":{"Station_ID":"LNCM1","Station_Nam":"LINCOLN WATER DISTRICT","Latitude":"45.32410","Longitude":"-68.58300","Snowdepth":"2.000","Units":"in","Rept_Date":"2020-04-03 12"},"coordinates":[6725,6016]},{"type":"Point","properties":{"Station_ID":"KABM5","Station_Nam":"KABETOGAMA LAKE VISITOR CTR","Latitude":"48.40880","Longitude":"-93.04840","Snowdepth":"2.000","Units":"in","Rept_Date":"2020-04-03 12"},"coordinates":[983,7935]},{"type":"Point","properties":{"Station_ID":"JEFN3","Station_Nam":"JEFFERSON","Latitude":"44.41690","Longitude":"-71.50080","Snowdepth":"2.000","Units":"in","Rept_Date":"2020-04-03 11"},"coordinates":[6040,5451]},{"type":"Point","properties":{"Station_ID":"JCBM4","Station_Nam":"JACOBSVILLE","Latitude":"47.00830","Longitude":"-88.43180","Snowdepth":"2.000","Units":"in","Rept_Date":"2020-04-03 11"},"coordinates":[2067,7063]},{"type":"Point","properties":{"Station_ID":"IRMM4","Station_Nam":"WWTP","Latitude":"46.46670","Longitude":"-90.18330","Snowdepth":"2.000","Units":"in","Rept_Date":"2020-04-03 12"},"coordinates":[1656,6726]},{"type":"Point","properties":{"Station_ID":"IMNM4","Station_Nam":"IRON MOUTAIN 5N","Latitude":"45.87580","Longitude":"-88.04030","Snowdepth":"2.000","Units":"in","Rept_Date":"2020-04-03 12"},"coordinates":[2159,6359]},{"type":"Point","properties":{"Station_ID":"ESDN3","Station_Nam":"EAST SANDWICH","Latitude":"43.80990","Longitude":"-71.34250","Snowdepth":"2.000","Units":"in","Rept_Date":"2020-04-03 10"},"coordinates":[6078,5074]},{"type":"Point","properties":{"Station_ID":"COVM4","Station_Nam":"COVINGTON","Latitude":"46.55880","Longitude":"-88.54190","Snowdepth":"2.000","Units":"in","Rept_Date":"2020-04-03 12"},"coordinates":[2041,6784]},{"type":"Point","properties":{"Station_ID":"CORV1","Station_Nam":"CORINTH","Latitude":"44.00690","Longitude":"-72.31940","Snowdepth":"2.000","Units":"in","Rept_Date":"2020-04-03 11"},"coordinates":[5848,5196]},{"type":"Point","properties":{"Station_ID":"CAN-PE-10","Station_Nam":"NEW LONDON 1.6 ENE, CA","Latitude":"46.46985","Longitude":"-63.49200","Snowdepth":"2.000","Units":"in","Rept_Date":"2020-04-03 12"},"coordinates":[7920,6728]},{"type":"Point","properties":{"Station_ID":"VT-WS-30","Station_Nam":"WOODBURY 3.4 NNW, VT","Latitude":"44.48825","Longitude":"-72.43258","Snowdepth":"1.500","Units":"in","Rept_Date":"2020-04-03 12"},"coordinates":[5822,5496]},{"type":"Point","properties":{"Station_ID":"NH-GR-49","Station_Nam":"PLYMOUTH 3.7 N, NH","Latitude":"43.79048","Longitude":"-71.68413","Snowdepth":"1.500","Units":"in","Rept_Date":"2020-04-03 12"},"coordinates":[5997,5061]},{"type":"Point","properties":{"Station_ID":"MN-BK-6","Station_Nam":"LAKE PARK 6.0 S, MN","Latitude":"46.79850","Longitude":"-96.12180","Snowdepth":"1.500","Units":"in","Rept_Date":"2020-04-03 13"},"coordinates":[262,6933]},{"type":"Point","properties":{"Station_ID":"CAN-NB-1","Station_Nam":"FREDERICTON 4.0 SSE, CA","Latitude":"45.92897","Longitude":"-66.62830","Snowdepth":"1.200","Units":"in","Rept_Date":"2020-04-03 12"},"coordinates":[7184,6392]},{"type":"Point","properties":{"Station_ID":"WRUM5","Station_Nam":"WARROAD 4W","Latitude":"48.89600","Longitude":"-95.40700","Snowdepth":"1.000","Units":"in","Rept_Date":"2020-04-04 03"},"coordinates":[430,8238]},{"type":"Point","properties":{"Station_ID":"WRTS2","Station_Nam":"WATERTOWN,SD","Latitude":"44.90280","Longitude":"-97.11360","Snowdepth":"1.000","Units":"in","Rept_Date":"2020-04-03 14"},"coordinates":[29,5753]},{"type":"Point","properties":{"Station_ID":"WHTM5","Station_Nam":"WHEATON,MN","Latitude":"45.80000","Longitude":"-96.48330","Snowdepth":"1.000","Units":"in","Rept_Date":"2020-04-03 13"},"coordinates":[177,6312]},{"type":"Point","properties":{"Station_ID":"VT-OL-1","Station_Nam":"WESTFIELD 0.7 WNW, VT","Latitude":"44.89160","Longitude":"-72.44350","Snowdepth":"1.000","Units":"in","Rept_Date":"2020-04-03 12"},"coordinates":[5819,5746]},{"type":"Point","properties":{"Station_ID":"RALS2","Station_Nam":"RAUVILLE 2W","Latitude":"44.97580","Longitude":"-97.13670","Snowdepth":"1.000","Units":"in","Rept_Date":"2020-04-03 13"},"coordinates":[24,5799]},{"type":"Point","properties":{"Station_ID":"PERV1","Station_Nam":"PERU","Latitude":"43.26670","Longitude":"-72.90000","Snowdepth":"1.000","Units":"in","Rept_Date":"2020-04-03 11"},"coordinates":[5712,4736]},{"type":"Point","properties":{"Station_ID":"MTQM4","Station_Nam":"MANISTIQUE WWTP","Latitude":"45.95120","Longitude":"-86.25130","Snowdepth":"1.000","Units":"in","Rept_Date":"2020-04-03 11"},"coordinates":[2579,6406]},{"type":"Point","properties":{"Station_ID":"MN-SL-108","Station_Nam":"IRON JUNCTION 3.4 NNW, MN","Latitude":"47.46150","Longitude":"-92.63130","Snowdepth":"1.000","Units":"in","Rept_Date":"2020-04-03 13"},"coordinates":[1081,7345]},{"type":"Point","properties":{"Station_ID":"MN-BM-15","Station_Nam":"BEMIDJI 7.8 ENE, MN","Latitude":"47.52043","Longitude":"-94.72121","Snowdepth":"1.000","Units":"in","Rept_Date":"2020-04-03 13"},"coordinates":[591,7382]},{"type":"Point","properties":{"Station_ID":"MLBS2","Station_Nam":"MILBANK","Latitude":"45.22040","Longitude":"-96.62530","Snowdepth":"1.000","Units":"in","Rept_Date":"2020-04-03 12"},"coordinates":[144,5951]},{"type":"Point","properties":{"Station_ID":"MI-OT-17","Station_Nam":"GAYLORD 4.1 S, MI","Latitude":"44.96388","Longitude":"-84.68467","Snowdepth":"1.000","Units":"in","Rept_Date":"2020-04-03 12"},"coordinates":[2946,5791]},{"type":"Point","properties":{"Station_ID":"LSNW3","Station_Nam":"LA CROSSE SNOW","Latitude":"43.86220","Longitude":"-91.26660","Snowdepth":"1.000","Units":"in","Rept_Date":"2020-04-04 05"},"coordinates":[1402,5106]},{"type":"Point","properties":{"Station_ID":"JEFV1","Station_Nam":"JEFFERSONVILLE","Latitude":"44.58430","Longitude":"-72.78700","Snowdepth":"1.000","Units":"in","Rept_Date":"2020-04-03 11"},"coordinates":[5739,5555]},{"type":"Point","properties":{"Station_ID":"ISLV1","Station_Nam":"ISLAND POND","Latitude":"44.81280","Longitude":"-71.89020","Snowdepth":"1.000","Units":"in","Rept_Date":"2020-04-03 14"},"coordinates":[5949,5697]},{"type":"Point","properties":{"Station_ID":"HYTS2","Station_Nam":"HAYTI 1W","Latitude":"44.66330","Longitude":"-97.22670","Snowdepth":"1.000","Units":"in","Rept_Date":"2020-04-03 13"},"coordinates":[3,5604]},{"type":"Point","properties":{"Station_ID":"GMRM5","Station_Nam":"GRAND MARIAS WATER TREATMENT PLANT","Latitude":"47.75180","Longitude":"-90.32820","Snowdepth":"1.000","Units":"in","Rept_Date":"2020-04-03 13"},"coordinates":[1622,7526]},{"type":"Point","properties":{"Station_ID":"FCYN1","Station_Nam":"FALLS CITY 4NE","Latitude":"40.08330","Longitude":"-95.55720","Snowdepth":"1.000","Units":"in","Rept_Date":"2020-04-03 14"},"coordinates":[395,2755]},{"type":"Point","properties":{"Station_ID":"CSLM5","Station_Nam":"CASS LAKE,MN","Latitude":"47.38470","Longitude":"-94.61470","Snowdepth":"1.000","Units":"in","Rept_Date":"2020-04-03 13"},"coordinates":[616,7298]},{"type":"Point","properties":{"Station_ID":"COTM5","Station_Nam":"COTTON","Latitude":"47.16870","Longitude":"-92.46290","Snowdepth":"1.000","Units":"in","Rept_Date":"2020-04-03 12"},"coordinates":[1121,7163]},{"type":"Point","properties":{"Station_ID":"CAN-NB-16","Station_Nam":"DORCHESTER 1.0 SSE, CAN","Latitude":"45.89160","Longitude":"-64.51269","Snowdepth":"1.000","Units":"in","Rept_Date":"2020-04-03 12"},"coordinates":[7681,6369]},{"type":"Point","properties":{"Station_ID":"BKEM5","Station_Nam":"BRECKENRIDGE 4NE","Latitude":"46.30470","Longitude":"-96.52170","Snowdepth":"1.000","Units":"in","Rept_Date":"2020-04-03 12"},"coordinates":[168,6626]},{"type":"Point","properties":{"Station_ID":"AVTW3","Station_Nam":"ARBOR VITAE-JOHNSON LAKE","Latitude":"45.89940","Longitude":"-89.72670","Snowdepth":"1.000","Units":"in","Rept_Date":"2020-04-03 11"},"coordinates":[1763,6373]},{"type":"Point","properties":{"Station_ID":"ARX","Station_Nam":"LA CROSSE, WI","Latitude":"43.82280","Longitude":"-91.19190","Snowdepth":"1.000","Units":"in","Rept_Date":"2020-04-04 05"},"coordinates":[1419,5082]},{"type":"Point","properties":{"Station_ID":"AGNW3","Station_Nam":"ARGONNE-1.5 NW","Latitude":"45.67360","Longitude":"-88.90380","Snowdepth":"1.000","Units":"in","Rept_Date":"2020-04-03 12"},"coordinates":[1956,6233]}]}},"arcs":[],"transform":{"scale":[0.004260890089008902,0.0016073507350735073],"translate":[-97.2386,35.655]}}