{"type":"Topology","objects":{"snowdepth_geo":{"type":"GeometryCollection","name":"snowdepth","crs":{"type":"name","properties":{"name":"urn:ogc:def:crs:OGC:1.3:CRS84"}},"geometries":[{"type":"Point","properties":{"Station_ID":"PRKM4","Station_Nam":"MUNISING EAST","Latitude":"46.42580","Longitude":"-86.62000","Snowdepth":"76.500","Units":"in","Rept_Date":"2020-12-07 06"},"coordinates":[3306,6701]},{"type":"Point","properties":{"Station_ID":"QOU","Station_Nam":"QOU","Latitude":"50.79250","Longitude":"-69.67470","Snowdepth":"17.638","Units":"in","Rept_Date":"2020-12-06 12"},"coordinates":[8678,9418]},{"type":"Point","properties":{"Station_ID":"HTLN3","Station_Nam":"HERMIT LAKE SNOWPLOT","Latitude":"44.26130","Longitude":"-71.28330","Snowdepth":"16.000","Units":"in","Rept_Date":"2020-12-06 11"},"coordinates":[8168,5354]},{"type":"Point","properties":{"Station_ID":"NH-CS-10","Station_Nam":"RANDOLPH 1.4 NE, NH","Latitude":"44.38824","Longitude":"-71.26950","Snowdepth":"14.500","Units":"in","Rept_Date":"2020-12-06 12"},"coordinates":[8172,5433]},{"type":"Point","properties":{"Station_ID":"QCO","Station_Nam":"QCO","Latitude":"51.45280","Longitude":"-72.20110","Snowdepth":"12.087","Units":"in","Rept_Date":"2020-12-06 12"},"coordinates":[7877,9828]},{"type":"Point","properties":{"Station_ID":"ME-SM-45","Station_Nam":"BRIGHTON PLANTATION 2.1 N, ME","Latitude":"45.07098","Longitude":"-69.69860","Snowdepth":"12.000","Units":"in","Rept_Date":"2020-12-06 12"},"coordinates":[8670,5858]},{"type":"Point","properties":{"Station_ID":"KMWN","Station_Nam":"MOUNT WASHINGTON","Latitude":"44.26666","Longitude":"-71.30000","Snowdepth":"12.000","Units":"in","Rept_Date":"2020-12-07 06"},"coordinates":[8162,5358]},{"type":"Point","properties":{"Station_ID":"GHMN3","Station_Nam":"PINKHAM NOTCH","Latitude":"44.25800","Longitude":"-71.25250","Snowdepth":"12.000","Units":"in","Rept_Date":"2020-12-06 10"},"coordinates":[8178,5352]},{"type":"Point","properties":{"Station_ID":"NH-CS-19","Station_Nam":"CARROLL 4.6 NE, NH","Latitude":"44.33765","Longitude":"-71.46461","Snowdepth":"11.900","Units":"in","Rept_Date":"2020-12-06 12"},"coordinates":[8110,5402]},{"type":"Point","properties":{"Station_ID":"ME-FR-2","Station_Nam":"TEMPLE 1.8 W, ME","Latitude":"44.68329","Longitude":"-70.26420","Snowdepth":"11.500","Units":"in","Rept_Date":"2020-12-06 12"},"coordinates":[8491,5617]},{"type":"Point","properties":{"Station_ID":"NH-MR-65","Station_Nam":"EPSOM 3.2 SSW, NH","Latitude":"43.18162","Longitude":"-71.36560","Snowdepth":"11.000","Units":"in","Rept_Date":"2020-12-06 12"},"coordinates":[8142,4683]},{"type":"Point","properties":{"Station_ID":"NH-MR-15","Station_Nam":"DUNBARTON 0.3 N, NH","Latitude":"43.10698","Longitude":"-71.61710","Snowdepth":"11.000","Units":"in","Rept_Date":"2020-12-06 12"},"coordinates":[8062,4636]},{"type":"Point","properties":{"Station_ID":"MWN","Station_Nam":"MOUNT WASHINGTON","Latitude":"44.26670","Longitude":"-71.30000","Snowdepth":"11.000","Units":"in","Rept_Date":"2020-12-06 12"},"coordinates":[8162,5358]},{"type":"Point","properties":{"Station_ID":"QCX","Station_Nam":"QCX","Latitude":"51.32830","Longitude":"-70.08060","Snowdepth":"10.118","Units":"in","Rept_Date":"2020-12-06 12"},"coordinates":[8549,9751]},{"type":"Point","properties":{"Station_ID":"ME-AR-15","Station_Nam":"PRESQUE ISLE 1.3 WSW, ME","Latitude":"46.67960","Longitude":"-68.01270","Snowdepth":"10.000","Units":"in","Rept_Date":"2020-12-06 15"},"coordinates":[9205,6859]},{"type":"Point","properties":{"Station_ID":"QLB","Station_Nam":"QLB","Latitude":"50.72360","Longitude":"-75.10000","Snowdepth":"9.606","Units":"in","Rept_Date":"2020-12-06 12"},"coordinates":[6958,9375]},{"type":"Point","properties":{"Station_ID":"TRIQ6","Station_Nam":"TRIO LAKE","Latitude":"49.22880","Longitude":"-87.22920","Snowdepth":"9.570","Units":"in","Rept_Date":"2020-12-07 06"},"coordinates":[3113,8445]},{"type":"Point","properties":{"Station_ID":"MLZ","Station_Nam":"MLZ","Latitude":"50.66170","Longitude":"-68.82360","Snowdepth":"9.409","Units":"in","Rept_Date":"2020-12-06 12"},"coordinates":[8948,9336]},{"type":"Point","properties":{"Station_ID":"NH-RC-48","Station_Nam":"NORTHWOOD 2.9 WSW, NH","Latitude":"43.20114","Longitude":"-71.25750","Snowdepth":"9.000","Units":"in","Rept_Date":"2020-12-06 12"},"coordinates":[8176,4695]},{"type":"Point","properties":{"Station_ID":"NH-HL-48","Station_Nam":"GREENVILLE 1.1 ENE, NH","Latitude":"42.77674","Longitude":"-71.77990","Snowdepth":"9.000","Units":"in","Rept_Date":"2020-12-06 13"},"coordinates":[8010,4431]},{"type":"Point","properties":{"Station_ID":"NH-GR-56","Station_Nam":"EASTON 0.6 ESE, NH","Latitude":"44.14790","Longitude":"-71.78950","Snowdepth":"8.800","Units":"in","Rept_Date":"2020-12-06 13"},"coordinates":[8007,5284]},{"type":"Point","properties":{"Station_ID":"QTM","Station_Nam":"QTM","Latitude":"51.05780","Longitude":"-72.57190","Snowdepth":"8.504","Units":"in","Rept_Date":"2020-12-06 12"},"coordinates":[7759,9583]},{"type":"Point","properties":{"Station_ID":"CAN-ON-452","Station_Nam":"CHATSWORTH 1.8 ENE - GSCA, CAN","Latitude":"44.46118","Longitude":"-80.87506","Snowdepth":"8.300","Units":"in","Rept_Date":"2020-12-06 12"},"coordinates":[5127,5479]},{"type":"Point","properties":{"Station_ID":"QGO","Station_Nam":"QGO","Latitude":"48.85500","Longitude":"-74.20640","Snowdepth":"8.150","Units":"in","Rept_Date":"2020-12-06 12"},"coordinates":[7241,8212]},{"type":"Point","properties":{"Station_ID":"MFU","Station_Nam":"MFU","Latitude":"51.52170","Longitude":"-66.91110","Snowdepth":"8.031","Units":"in","Rept_Date":"2020-12-06 12"},"coordinates":[9554,9871]},{"type":"Point","properties":{"Station_ID":"PTLQ6","Station_Nam":"PORTAGE LAKE","Latitude":"49.06950","Longitude":"-86.65940","Snowdepth":"8.030","Units":"in","Rept_Date":"2020-12-07 06"},"coordinates":[3293,8346]},{"type":"Point","properties":{"Station_ID":"POLM1","Station_Nam":"POLAND","Latitude":"44.00700","Longitude":"-70.36140","Snowdepth":"8.000","Units":"in","Rept_Date":"2020-12-06 12"},"coordinates":[8460,5196]},{"type":"Point","properties":{"Station_ID":"NH-CH-20","Station_Nam":"RINDGE 3.2 ESE, NH","Latitude":"42.73100","Longitude":"-71.95200","Snowdepth":"8.000","Units":"in","Rept_Date":"2020-12-06 12"},"coordinates":[7956,4402]},{"type":"Point","properties":{"Station_ID":"ME-AN-40","Station_Nam":"MECHANIC FALLS 2.7 S, ME","Latitude":"44.07342","Longitude":"-70.40151","Snowdepth":"8.000","Units":"in","Rept_Date":"2020-12-06 22"},"coordinates":[8447,5237]},{"type":"Point","properties":{"Station_ID":"HRTM1","Station_Nam":"HARTFORD","Latitude":"44.37440","Longitude":"-70.31620","Snowdepth":"8.000","Units":"in","Rept_Date":"2020-12-06 12"},"coordinates":[8474,5425]},{"type":"Point","properties":{"Station_ID":"CARM1","Station_Nam":"CARIBOU WFO","Latitude":"46.86810","Longitude":"-68.01250","Snowdepth":"8.000","Units":"in","Rept_Date":"2020-12-07 05"},"coordinates":[9205,6976]},{"type":"Point","properties":{"Station_ID":"BRAM1","Station_Nam":"BRASSUA DAM","Latitude":"45.66020","Longitude":"-69.81190","Snowdepth":"8.000","Units":"in","Rept_Date":"2020-12-06 12"},"coordinates":[8634,6225]},{"type":"Point","properties":{"Station_ID":"AVLV1","Station_Nam":"AVERILL","Latitude":"45.00570","Longitude":"-71.69030","Snowdepth":"8.000","Units":"in","Rept_Date":"2020-12-06 13"},"coordinates":[8039,5817]},{"type":"Point","properties":{"Station_ID":"QMD","Station_Nam":"QMD","Latitude":"49.29060","Longitude":"-75.84500","Snowdepth":"7.992","Units":"in","Rept_Date":"2020-12-06 12"},"coordinates":[6722,8483]},{"type":"Point","properties":{"Station_ID":"QGD","Station_Nam":"QGD","Latitude":"51.11140","Longitude":"-67.13940","Snowdepth":"7.992","Units":"in","Rept_Date":"2020-12-06 12"},"coordinates":[9481,9616]},{"type":"Point","properties":{"Station_ID":"QMA","Station_Nam":"QMA","Latitude":"50.10330","Longitude":"-70.47190","Snowdepth":"7.913","Units":"in","Rept_Date":"2020-12-06 12"},"coordinates":[8425,8989]},{"type":"Point","properties":{"Station_ID":"ME-KB-53","Station_Nam":"READFIELD 2.0 NNE, ME","Latitude":"44.41620","Longitude":"-69.95190","Snowdepth":"7.500","Units":"in","Rept_Date":"2020-12-06 13"},"coordinates":[8590,5451]},{"type":"Point","properties":{"Station_ID":"AUDQ6","Station_Nam":"AUDEN","Latitude":"48.52600","Longitude":"-82.57570","Snowdepth":"7.480","Units":"in","Rept_Date":"2020-12-07 06"},"coordinates":[4588,8008]},{"type":"Point","properties":{"Station_ID":"DVLQ6","Station_Nam":"DEVIOUS LAKE","Latitude":"49.19890","Longitude":"-87.76440","Snowdepth":"7.440","Units":"in","Rept_Date":"2020-12-07 06"},"coordinates":[2943,8426]},{"type":"Point","properties":{"Station_ID":"RKWM1","Station_Nam":"MOOSEHEAD LAKE","Latitude":"45.58330","Longitude":"-69.71670","Snowdepth":"7.000","Units":"in","Rept_Date":"2020-12-06 12"},"coordinates":[8664,6177]},{"type":"Point","properties":{"Station_ID":"NH-CS-4","Station_Nam":"PITTSBURG 6.1 NE, NH","Latitude":"45.11060","Longitude":"-71.29760","Snowdepth":"7.000","Units":"in","Rept_Date":"2020-12-06 12"},"coordinates":[8163,5883]},{"type":"Point","properties":{"Station_ID":"ME-OX-26","Station_Nam":"OXFORD 5.3 SW, ME","Latitude":"44.09787","Longitude":"-70.59612","Snowdepth":"7.000","Units":"in","Rept_Date":"2020-12-06 12"},"coordinates":[8386,5253]},{"type":"Point","properties":{"Station_ID":"ME-CM-125","Station_Nam":"GRAY 2.9 SSE, ME","Latitude":"43.84640","Longitude":"-70.31340","Snowdepth":"7.000","Units":"in","Rept_Date":"2020-12-06 12"},"coordinates":[8475,5096]},{"type":"Point","properties":{"Station_ID":"ME-AN-32","Station_Nam":"WINTHROP 9.4 W, ME","Latitude":"44.30476","Longitude":"-70.15835","Snowdepth":"7.000","Units":"in","Rept_Date":"2020-12-06 12"},"coordinates":[8524,5381]},{"type":"Point","properties":{"Station_ID":"FISM1","Station_Nam":"FORT KENT COOP","Latitude":"47.23850","Longitude":"-68.61240","Snowdepth":"7.000","Units":"in","Rept_Date":"2020-12-06 12"},"coordinates":[9015,7207]},{"type":"Point","properties":{"Station_ID":"MA-WR-80","Station_Nam":"WINCHENDON 3.2 S, MA","Latitude":"42.63615","Longitude":"-72.03609","Snowdepth":"6.800","Units":"in","Rept_Date":"2020-12-06 12"},"coordinates":[7929,4343]},{"type":"Point","properties":{"Station_ID":"MA-WR-75","Station_Nam":"WARREN 2.4 WSW, MA","Latitude":"42.20400","Longitude":"-72.23540","Snowdepth":"6.800","Units":"in","Rept_Date":"2020-12-06 12"},"coordinates":[7866,4074]},{"type":"Point","properties":{"Station_ID":"CAN-NB-50","Station_Nam":"DOYLEVILLE 2.4 WNW, CAN","Latitude":"47.90803","Longitude":"-66.13279","Snowdepth":"6.800","Units":"in","Rept_Date":"2020-12-06 13"},"coordinates":[9801,7623]},{"type":"Point","properties":{"Station_ID":"ME-SM-3","Station_Nam":"PALMYRA 3.5 NW, ME","Latitude":"44.87180","Longitude":"-69.41952","Snowdepth":"6.700","Units":"in","Rept_Date":"2020-12-06 12"},"coordinates":[8759,5734]},{"type":"Point","properties":{"Station_ID":"NH-CR-34","Station_Nam":"WAKEFIELD 6.0 NNW, NH","Latitude":"43.63917","Longitude":"-71.05210","Snowdepth":"6.500","Units":"in","Rept_Date":"2020-12-06 12"},"coordinates":[8241,4967]},{"type":"Point","properties":{"Station_ID":"NH-CR-16","Station_Nam":"WOLFEBORO 0.6 SW, NH","Latitude":"43.58464","Longitude":"-71.21760","Snowdepth":"6.500","Units":"in","Rept_Date":"2020-12-06 12"},"coordinates":[8189,4933]},{"type":"Point","properties":{"Station_ID":"ME-KB-6","Station_Nam":"WINSLOW 1.2 SSE, ME","Latitude":"44.53579","Longitude":"-69.60290","Snowdepth":"6.500","Units":"in","Rept_Date":"2020-12-06 12"},"coordinates":[8700,5525]},{"type":"Point","properties":{"Station_ID":"ME-FR-23","Station_Nam":"FARMINGTON 4.2 NW, ME","Latitude":"44.71690","Longitude":"-70.19670","Snowdepth":"6.500","Units":"in","Rept_Date":"2020-12-06 12"},"coordinates":[8512,5638]},{"type":"Point","properties":{"Station_ID":"MA-WR-89","Station_Nam":"HOLDEN 0.9 SSE, MA","Latitude":"42.33809","Longitude":"-71.85686","Snowdepth":"6.500","Units":"in","Rept_Date":"2020-12-06 12"},"coordinates":[7986,4158]},{"type":"Point","properties":{"Station_ID":"CAN-ON-491","Station_Nam":"MILVERTON 1.1 ESE- CANWARN, CAN","Latitude":"43.56074","Longitude":"-80.90887","Snowdepth":"6.200","Units":"in","Rept_Date":"2020-12-06 11"},"coordinates":[5116,4918]},{"type":"Point","properties":{"Station_ID":"CAN-NB-38","Station_Nam":"GRAND FALLS 2.2 NE, CA","Latitude":"47.05701","Longitude":"-67.72630","Snowdepth":"6.100","Units":"in","Rept_Date":"2020-12-06 11"},"coordinates":[9295,7094]},{"type":"Point","properties":{"Station_ID":"WVLM1","Station_Nam":"WATERVILLE TREATMENT PLT","Latitude":"44.52720","Longitude":"-69.65440","Snowdepth":"6.000","Units":"in","Rept_Date":"2020-12-06 11"},"coordinates":[8684,5520]},{"type":"Point","properties":{"Station_ID":"NWSM1","Station_Nam":"NEW SHARON","Latitude":"44.63520","Longitude":"-70.00020","Snowdepth":"6.000","Units":"in","Rept_Date":"2020-12-06 12"},"coordinates":[8575,5587]},{"type":"Point","properties":{"Station_ID":"NH-MR-47","Station_Nam":"DUNBARTON 3.8 SE, NH","Latitude":"43.08532","Longitude":"-71.54419","Snowdepth":"6.000","Units":"in","Rept_Date":"2020-12-06 11"},"coordinates":[8085,4623]},{"type":"Point","properties":{"Station_ID":"NH-BK-2","Station_Nam":"BELMONT 1.7 SW, NH","Latitude":"43.43556","Longitude":"-71.50690","Snowdepth":"6.000","Units":"in","Rept_Date":"2020-12-06 12"},"coordinates":[8097,4841]},{"type":"Point","properties":{"Station_ID":"MWTM1","Station_Nam":"MILLINOCKET WWTP","Latitude":"45.64030","Longitude":"-68.67480","Snowdepth":"6.000","Units":"in","Rept_Date":"2020-12-06 12"},"coordinates":[8995,6212]},{"type":"Point","properties":{"Station_ID":"MTLT1","Station_Nam":"GATLINBURG,TN","Latitude":"35.65500","Longitude":"-83.44110","Snowdepth":"6.000","Units":"in","Rept_Date":"2020-12-06 13"},"coordinates":[4314,0]},{"type":"Point","properties":{"Station_ID":"ME-OX-34","Station_Nam":"ANDOVER 3.8 W, ME","Latitude":"44.64156","Longitude":"-70.82782","Snowdepth":"6.000","Units":"in","Rept_Date":"2020-12-06 12"},"coordinates":[8312,5591]},{"type":"Point","properties":{"Station_ID":"MA-WR-55","Station_Nam":"HARVARD 2.1 S, MA","Latitude":"42.46891","Longitude":"-71.58360","Snowdepth":"6.000","Units":"in","Rept_Date":"2020-12-06 12"},"coordinates":[8073,4239]},{"type":"Point","properties":{"Station_ID":"JAPN3","Station_Nam":"JAFFREY SILVER RANCH AIRPARK","Latitude":"42.80880","Longitude":"-72.00530","Snowdepth":"6.000","Units":"in","Rept_Date":"2020-12-06 12"},"coordinates":[7939,4451]},{"type":"Point","properties":{"Station_ID":"GREN3","Station_Nam":"GREENVILLE 1 NNE","Latitude":"42.78270","Longitude":"-71.79850","Snowdepth":"6.000","Units":"in","Rept_Date":"2020-12-06 12"},"coordinates":[8004,4434]},{"type":"Point","properties":{"Station_ID":"CAN-ON-5","Station_Nam":"OWEN SOUND 1.5 NW - GSCA, CAN","Latitude":"44.57837","Longitude":"-80.95461","Snowdepth":"6.000","Units":"in","Rept_Date":"2020-12-06 13"},"coordinates":[5102,5552]},{"type":"Point","properties":{"Station_ID":"CAN-ON-245","Station_Nam":"PHELPSTON 3.1 ESE, CAN","Latitude":"44.50564","Longitude":"-79.81035","Snowdepth":"6.000","Units":"in","Rept_Date":"2020-12-06 13"},"coordinates":[5465,5506]},{"type":"Point","properties":{"Station_ID":"ASBM3","Station_Nam":"ASHBURNHAM","Latitude":"42.61780","Longitude":"-71.91590","Snowdepth":"6.000","Units":"in","Rept_Date":"2020-12-06 12"},"coordinates":[7967,4332]},{"type":"Point","properties":{"Station_ID":"MA-WR-88","Station_Nam":"LEICESTER 2.5 WSW, MA","Latitude":"42.23742","Longitude":"-71.94612","Snowdepth":"5.800","Units":"in","Rept_Date":"2020-12-06 12"},"coordinates":[7958,4095]},{"type":"Point","properties":{"Station_ID":"MRL","Station_Nam":"MRL","Latitude":"51.28330","Longitude":"-68.84060","Snowdepth":"5.787","Units":"in","Rept_Date":"2020-12-06 12"},"coordinates":[8942,9723]},{"type":"Point","properties":{"Station_ID":"OGIQ6","Station_Nam":"OGOKI CAMP","Latitude":"50.76680","Longitude":"-87.85820","Snowdepth":"5.670","Units":"in","Rept_Date":"2020-12-07 06"},"coordinates":[2913,9402]},{"type":"Point","properties":{"Station_ID":"FTHQ6","Station_Nam":"FORT HOPE","Latitude":"51.55820","Longitude":"-87.90510","Snowdepth":"5.670","Units":"in","Rept_Date":"2020-12-07 06"},"coordinates":[2898,9894]},{"type":"Point","properties":{"Station_ID":"OH-CY-58","Station_Nam":"SOUTH EUCLID 0.2 ESE, OH","Latitude":"41.52358","Longitude":"-81.52191","Snowdepth":"5.600","Units":"in","Rept_Date":"2020-12-06 13"},"coordinates":[4922,3651]},{"type":"Point","properties":{"Station_ID":"41.5236_081.5219","Station_Nam":"South Euclid  Trained Spotter (CLE1186)","Latitude":"41.52356","Longitude":"-81.52192","Snowdepth":"5.600","Units":"in","Rept_Date":"2020-12-06 13"},"coordinates":[4922,3651]},{"type":"Point","properties":{"Station_ID":"NH-RC-72","Station_Nam":"DERRY 5.7 N, NH","Latitude":"42.97653","Longitude":"-71.27139","Snowdepth":"5.500","Units":"in","Rept_Date":"2020-12-06 12"},"coordinates":[8172,4555]},{"type":"Point","properties":{"Station_ID":"MA-WR-58","Station_Nam":"LUNENBURG 0.6 NE, MA","Latitude":"42.60180","Longitude":"-71.71653","Snowdepth":"5.500","Units":"in","Rept_Date":"2020-12-06 13"},"coordinates":[8030,4322]},{"type":"Point","properties":{"Station_ID":"CAN-ON-620","Station_Nam":"GOODERHAM 3.4 SSW, CAN","Latitude":"44.87690","Longitude":"-78.39265","Snowdepth":"5.500","Units":"in","Rept_Date":"2020-12-06 12"},"coordinates":[5914,5737]},{"type":"Point","properties":{"Station_ID":"KABQ6","Station_Nam":"CAB LAKE","Latitude":"49.59950","Longitude":"-89.17990","Snowdepth":"5.390","Units":"in","Rept_Date":"2020-12-07 06"},"coordinates":[2494,8675]},{"type":"Point","properties":{"Station_ID":"VANM1","Station_Nam":"VAN BUREN","Latitude":"47.16600","Longitude":"-67.93900","Snowdepth":"5.000","Units":"in","Rept_Date":"2020-12-06 12"},"coordinates":[9228,7161]},{"type":"Point","properties":{"Station_ID":"TURM1","Station_Nam":"TURNER","Latitude":"44.28220","Longitude":"-70.25610","Snowdepth":"5.000","Units":"in","Rept_Date":"2020-12-06 12"},"coordinates":[8493,5367]},{"type":"Point","properties":{"Station_ID":"SFVC3","Station_Nam":"STAFFORDVILLE","Latitude":"41.99840","Longitude":"-72.26060","Snowdepth":"5.000","Units":"in","Rept_Date":"2020-12-06 10"},"coordinates":[7858,3946]},{"type":"Point","properties":{"Station_ID":"PTBN3","Station_Nam":"PITTSBURG RESERVOIR","Latitude":"45.04690","Longitude":"-71.38300","Snowdepth":"5.000","Units":"in","Rept_Date":"2020-12-06 12"},"coordinates":[8136,5843]},{"type":"Point","properties":{"Station_ID":"NH-ST-40","Station_Nam":"BARRINGTON 3.2 E, NH","Latitude":"43.21353","Longitude":"-70.98472","Snowdepth":"5.000","Units":"in","Rept_Date":"2020-12-06 12"},"coordinates":[8262,4702]},{"type":"Point","properties":{"Station_ID":"NH-MR-25","Station_Nam":"CHICHESTER 2.7 SSW, NH","Latitude":"43.21150","Longitude":"-71.41430","Snowdepth":"5.000","Units":"in","Rept_Date":"2020-12-06 12"},"coordinates":[8126,4701]},{"type":"Point","properties":{"Station_ID":"NH-CR-15","Station_Nam":"JACKSON 3.7 NW, NH","Latitude":"44.19069","Longitude":"-71.22598","Snowdepth":"5.000","Units":"in","Rept_Date":"2020-12-06 12"},"coordinates":[8186,5310]},{"type":"Point","properties":{"Station_ID":"ME-YK-3","Station_Nam":"HOLLIS CENTER 5.4 NW, ME","Latitude":"43.64750","Longitude":"-70.67510","Snowdepth":"5.000","Units":"in","Rept_Date":"2020-12-06 12"},"coordinates":[8361,4972]},{"type":"Point","properties":{"Station_ID":"ME-SM-17","Station_Nam":"HARMONY 3.0 SSE, ME","Latitude":"44.93256","Longitude":"-69.56080","Snowdepth":"5.000","Units":"in","Rept_Date":"2020-12-06 12"},"coordinates":[8714,5772]},{"type":"Point","properties":{"Station_ID":"ME-CM-137","Station_Nam":"GRAY 1.5 NE, ME","Latitude":"43.90034","Longitude":"-70.30883","Snowdepth":"5.000","Units":"in","Rept_Date":"2020-12-06 12"},"coordinates":[8477,5130]},{"type":"Point","properties":{"Station_ID":"MA-WR-28","Station_Nam":"BERLIN 1.3 WSW, MA","Latitude":"42.37750","Longitude":"-71.65830","Snowdepth":"5.000","Units":"in","Rept_Date":"2020-12-06 12"},"coordinates":[8049,4182]},{"type":"Point","properties":{"Station_ID":"MA-WR-22","Station_Nam":"FITCHBURG 2.0 NNE, MA","Latitude":"42.61671","Longitude":"-71.80100","Snowdepth":"5.000","Units":"in","Rept_Date":"2020-12-06 13"},"coordinates":[8004,4331]},{"type":"Point","properties":{"Station_ID":"LNCM1","Station_Nam":"LINCOLN WATER DISTRICT","Latitude":"45.32410","Longitude":"-68.58300","Snowdepth":"5.000","Units":"in","Rept_Date":"2020-12-06 14"},"coordinates":[9024,6016]},{"type":"Point","properties":{"Station_ID":"KINM1","Station_Nam":"KINGFIELD","Latitude":"44.95950","Longitude":"-70.17530","Snowdepth":"5.000","Units":"in","Rept_Date":"2020-12-06 13"},"coordinates":[8519,5789]},{"type":"Point","properties":{"Station_ID":"JEFN3","Station_Nam":"JEFFERSON","Latitude":"44.41690","Longitude":"-71.50080","Snowdepth":"5.000","Units":"in","Rept_Date":"2020-12-06 12"},"coordinates":[8099,5451]},{"type":"Point","properties":{"Station_ID":"HOLM1","Station_Nam":"HOLLIS","Latitude":"43.64750","Longitude":"-70.67490","Snowdepth":"5.000","Units":"in","Rept_Date":"2020-12-06 12"},"coordinates":[8361,4972]},{"type":"Point","properties":{"Station_ID":"GYX","Station_Nam":"PORTLAND, ME","Latitude":"43.89250","Longitude":"-70.25500","Snowdepth":"5.000","Units":"in","Rept_Date":"2020-12-06 12"},"coordinates":[8494,5125]},{"type":"Point","properties":{"Station_ID":"FCHM3","Station_Nam":"FITCHBURG COOP","Latitude":"42.61680","Longitude":"-71.80170","Snowdepth":"5.000","Units":"in","Rept_Date":"2020-12-06 13"},"coordinates":[8003,4331]},{"type":"Point","properties":{"Station_ID":"EHYM3","Station_Nam":"EAST HAWLEY","Latitude":"42.57410","Longitude":"-72.86790","Snowdepth":"5.000","Units":"in","Rept_Date":"2020-12-06 14"},"coordinates":[7665,4305]},{"type":"Point","properties":{"Station_ID":"DURM1","Station_Nam":"DURHAM","Latitude":"43.99960","Longitude":"-70.09630","Snowdepth":"5.000","Units":"in","Rept_Date":"2020-12-06 12"},"coordinates":[8544,5192]},{"type":"Point","properties":{"Station_ID":"CT-TL-2","Station_Nam":"STAFFORDVILLE 0.4 NNW, CT","Latitude":"41.99874","Longitude":"-72.26100","Snowdepth":"5.000","Units":"in","Rept_Date":"2020-12-06 11"},"coordinates":[7858,3947]},{"type":"Point","properties":{"Station_ID":"NH-BK-7","Station_Nam":"LACONIA 7.9 E, NH","Latitude":"43.55415","Longitude":"-71.32310","Snowdepth":"4.900","Units":"in","Rept_Date":"2020-12-06 12"},"coordinates":[8155,4914]},{"type":"Point","properties":{"Station_ID":"CATQ6","Station_Nam":"CAT LAKE","Latitude":"51.72690","Longitude":"-91.82210","Snowdepth":"4.840","Units":"in","Rept_Date":"2020-12-07 06"},"coordinates":[1657,9999]},{"type":"Point","properties":{"Station_ID":"SOCQ6","Station_Nam":"SOCKET LAKE","Latitude":"50.77870","Longitude":"-91.79300","Snowdepth":"4.800","Units":"in","Rept_Date":"2020-12-07 06"},"coordinates":[1666,9409]},{"type":"Point","properties":{"Station_ID":"NH-RC-79","Station_Nam":"NOTTINGHAM 1.2 S, NH","Latitude":"43.09778","Longitude":"-71.10256","Snowdepth":"4.800","Units":"in","Rept_Date":"2020-12-06 13"},"coordinates":[8225,4630]},{"type":"Point","properties":{"Station_ID":"NH-HL-49","Station_Nam":"MONT VERNON 1.3 SSW, NH","Latitude":"42.87616","Longitude":"-71.68280","Snowdepth":"4.800","Units":"in","Rept_Date":"2020-12-06 13"},"coordinates":[8041,4493]},{"type":"Point","properties":{"Station_ID":"ME-OX-29","Station_Nam":"SUMNER 1.1 N, ME","Latitude":"44.40840","Longitude":"-70.44010","Snowdepth":"4.600","Units":"in","Rept_Date":"2020-12-06 14"},"coordinates":[8435,5446]},{"type":"Point","properties":{"Station_ID":"QWG","Station_Nam":"QWG","Latitude":"48.48890","Longitude":"-73.45940","Snowdepth":"4.567","Units":"in","Rept_Date":"2020-12-06 12"},"coordinates":[7478,7985]},{"type":"Point","properties":{"Station_ID":"QLI","Station_Nam":"QLI","Latitude":"50.27080","Longitude":"-73.92280","Snowdepth":"4.567","Units":"in","Rept_Date":"2020-12-06 12"},"coordinates":[7331,9093]},{"type":"Point","properties":{"Station_ID":"NH-MR-4","Station_Nam":"BOW 1.6 NW, NH","Latitude":"43.14994","Longitude":"-71.55650","Snowdepth":"4.500","Units":"in","Rept_Date":"2020-12-06 13"},"coordinates":[8081,4663]},{"type":"Point","properties":{"Station_ID":"MA-WR-8","Station_Nam":"FITCHBURG 1.6 SSW, MA","Latitude":"42.56674","Longitude":"-71.82170","Snowdepth":"4.500","Units":"in","Rept_Date":"2020-12-06 13"},"coordinates":[7997,4300]},{"type":"Point","properties":{"Station_ID":"MA-WR-56","Station_Nam":"STERLING 4.3 NW, MA","Latitude":"42.47540","Longitude":"-71.81140","Snowdepth":"4.500","Units":"in","Rept_Date":"2020-12-06 12"},"coordinates":[8000,4243]},{"type":"Point","properties":{"Station_ID":"MA-WR-54","Station_Nam":"BARRE 1.4 NNE, MA","Latitude":"42.44082","Longitude":"-72.09591","Snowdepth":"4.500","Units":"in","Rept_Date":"2020-12-06 12"},"coordinates":[7910,4222]},{"type":"Point","properties":{"Station_ID":"CT-TL-33","Station_Nam":"TOLLAND 3.6 NNE, CT","Latitude":"41.91859","Longitude":"-72.33910","Snowdepth":"4.500","Units":"in","Rept_Date":"2020-12-06 12"},"coordinates":[7833,3897]},{"type":"Point","properties":{"Station_ID":"QTV","Station_Nam":"QTV","Latitude":"49.66000","Longitude":"-69.35690","Snowdepth":"4.370","Units":"in","Rept_Date":"2020-12-06 12"},"coordinates":[8778,8713]},{"type":"Point","properties":{"Station_ID":"MI-BG-3","Station_Nam":"THREE LAKES, MI","Latitude":"46.55730","Longitude":"-88.20770","Snowdepth":"4.200","Units":"in","Rept_Date":"2020-12-06 13"},"coordinates":[2802,6783]},{"type":"Point","properties":{"Station_ID":"ME-WL-12","Station_Nam":"SEARSMONT 3.5 WNW, ME","Latitude":"44.37680","Longitude":"-69.26160","Snowdepth":"4.200","Units":"in","Rept_Date":"2020-12-06 12"},"coordinates":[8809,5426]},{"type":"Point","properties":{"Station_ID":"SVBQ6","Station_Nam":"SAVANT BASE","Latitude":"50.28730","Longitude":"-90.65670","Snowdepth":"4.170","Units":"in","Rept_Date":"2020-12-07 06"},"coordinates":[2026,9103]},{"type":"Point","properties":{"Station_ID":"ZBWN3","Station_Nam":"NASHUA CWSU","Latitude":"42.73440","Longitude":"-71.48030","Snowdepth":"4.000","Units":"in","Rept_Date":"2020-12-06 13"},"coordinates":[8105,4404]},{"type":"Point","properties":{"Station_ID":"WOLN3","Station_Nam":"WOLFEBORO","Latitude":"43.59020","Longitude":"-71.20190","Snowdepth":"4.000","Units":"in","Rept_Date":"2020-12-06 12"},"coordinates":[8194,4937]},{"type":"Point","properties":{"Station_ID":"WLFM5","Station_Nam":"WOLF RIDGE ENVIRON LEARNING CENTER","Latitude":"47.38240","Longitude":"-91.19730","Snowdepth":"4.000","Units":"in","Rept_Date":"2020-12-06 13"},"coordinates":[1855,7296]},{"type":"Point","properties":{"Station_ID":"WENN3","Station_Nam":"P.O. BOX 197 WENTWORTH, NH","Latitude":"43.95190","Longitude":"-71.91560","Snowdepth":"4.000","Units":"in","Rept_Date":"2020-12-06 12"},"coordinates":[7967,5162]},{"type":"Point","properties":{"Station_ID":"SBRM3","Station_Nam":"SOUTHBRIDGE","Latitude":"42.05830","Longitude":"-72.07210","Snowdepth":"4.000","Units":"in","Rept_Date":"2020-12-06 12"},"coordinates":[7918,3984]},{"type":"Point","properties":{"Station_ID":"PDLM4","Station_Nam":"PAINESDALE","Latitude":"47.04160","Longitude":"-88.67170","Snowdepth":"4.000","Units":"in","Rept_Date":"2020-12-06 13"},"coordinates":[2655,7084]},{"type":"Point","properties":{"Station_ID":"PA-CW-18","Station_Nam":"CONNEAUT LAKE 1.3 WNW, PA","Latitude":"41.60816","Longitude":"-80.33371","Snowdepth":"4.000","Units":"in","Rept_Date":"2020-12-06 12"},"coordinates":[5299,3704]},{"type":"Point","properties":{"Station_ID":"OH-ER-5","Station_Nam":"WAKEMAN 4.6 NNE, OH","Latitude":"41.31902","Longitude":"-82.37730","Snowdepth":"4.000","Units":"in","Rept_Date":"2020-12-06 13"},"coordinates":[4651,3524]},{"type":"Point","properties":{"Station_ID":"OH-CY-54","Station_Nam":"SEVEN HILLS 0.6 NNE, OH","Latitude":"41.38811","Longitude":"-81.67098","Snowdepth":"4.000","Units":"in","Rept_Date":"2020-12-06 12"},"coordinates":[4875,3567]},{"type":"Point","properties":{"Station_ID":"OH-CY-42","Station_Nam":"STRONGSVILLE 1.3 SE, OH","Latitude":"41.29815","Longitude":"-81.81507","Snowdepth":"4.000","Units":"in","Rept_Date":"2020-12-06 13"},"coordinates":[4829,3511]},{"type":"Point","properties":{"Station_ID":"NUMN3","Station_Nam":"NORTHUMBERLAND","Latitude":"44.52830","Longitude":"-71.50440","Snowdepth":"4.000","Units":"in","Rept_Date":"2020-12-06 13"},"coordinates":[8098,5520]},{"type":"Point","properties":{"Station_ID":"NH-MR-41","Station_Nam":"NEWBURY 1.6 NW, NH","Latitude":"43.33667","Longitude":"-72.06060","Snowdepth":"4.000","Units":"in","Rept_Date":"2020-12-06 12"},"coordinates":[7921,4779]},{"type":"Point","properties":{"Station_ID":"NH-MR-26","Station_Nam":"PITTSFIELD 0.2 SSW, NH","Latitude":"43.29880","Longitude":"-71.33450","Snowdepth":"4.000","Units":"in","Rept_Date":"2020-12-06 13"},"coordinates":[8152,4756]},{"type":"Point","properties":{"Station_ID":"MN-CN-36","Station_Nam":"CLOQUET 3.4 ENE, MN","Latitude":"46.74146","Longitude":"-92.42698","Snowdepth":"4.000","Units":"in","Rept_Date":"2020-12-06 13"},"coordinates":[1465,6897]},{"type":"Point","properties":{"Station_ID":"MMNV1","Station_Nam":"MT. MANSFIELD","Latitude":"44.52480","Longitude":"-72.81540","Snowdepth":"4.000","Units":"in","Rept_Date":"2020-12-06 21"},"coordinates":[7682,5518]},{"type":"Point","properties":{"Station_ID":"MHT","Station_Nam":"MANCHESTER AIRPORT GRENIER INDSTRL ARPK","Latitude":"42.93440","Longitude":"-71.43690","Snowdepth":"4.000","Units":"in","Rept_Date":"2020-12-06 12"},"coordinates":[8119,4529]},{"type":"Point","properties":{"Station_ID":"ME-YK-68","Station_Nam":"BERWICK 0.5 N, ME","Latitude":"43.27435","Longitude":"-70.86503","Snowdepth":"4.000","Units":"in","Rept_Date":"2020-12-06 12"},"coordinates":[8300,4740]},{"type":"Point","properties":{"Station_ID":"ME-OX-2","Station_Nam":"HARTFORD 1.4 N, ME","Latitude":"44.39318","Longitude":"-70.34760","Snowdepth":"4.000","Units":"in","Rept_Date":"2020-12-06 13"},"coordinates":[8464,5436]},{"type":"Point","properties":{"Station_ID":"ME-FR-4","Station_Nam":"NEW SHARON 2.0 NW, ME","Latitude":"44.66582","Longitude":"-70.02720","Snowdepth":"4.000","Units":"in","Rept_Date":"2020-12-06 12"},"coordinates":[8566,5606]},{"type":"Point","properties":{"Station_ID":"ME-CM-91","Station_Nam":"WESTBROOK 3.1 N, ME","Latitude":"43.73880","Longitude":"-70.36100","Snowdepth":"4.000","Units":"in","Rept_Date":"2020-12-06 12"},"coordinates":[8460,5029]},{"type":"Point","properties":{"Station_ID":"ME-AN-43","Station_Nam":"LISBON 0.6 S, ME","Latitude":"44.02320","Longitude":"-70.10550","Snowdepth":"4.000","Units":"in","Rept_Date":"2020-12-06 12"},"coordinates":[8541,5206]},{"type":"Point","properties":{"Station_ID":"MA-WR-41","Station_Nam":"AUBURN 2.6 SW, MA","Latitude":"42.17336","Longitude":"-71.86869","Snowdepth":"4.000","Units":"in","Rept_Date":"2020-12-06 13"},"coordinates":[7982,4055]},{"type":"Point","properties":{"Station_ID":"MA-MD-115","Station_Nam":"HUDSON 1.4 NW, MA","Latitude":"42.40372","Longitude":"-71.58680","Snowdepth":"4.000","Units":"in","Rept_Date":"2020-12-06 12"},"coordinates":[8072,4199]},{"type":"Point","properties":{"Station_ID":"MA-MD-104","Station_Nam":"LITTLETON 2.8 NNW, MA","Latitude":"42.57170","Longitude":"-71.49910","Snowdepth":"4.000","Units":"in","Rept_Date":"2020-12-06 12"},"coordinates":[8099,4303]},{"type":"Point","properties":{"Station_ID":"LVRM1","Station_Nam":"LIVERMORE FALLS 1 E","Latitude":"44.47160","Longitude":"-70.15940","Snowdepth":"4.000","Units":"in","Rept_Date":"2020-12-06 12"},"coordinates":[8524,5485]},{"type":"Point","properties":{"Station_ID":"HVJP1","Station_Nam":"HIDDEN VALLEY COOP","Latitude":"40.04200","Longitude":"-79.25660","Snowdepth":"4.000","Units":"in","Rept_Date":"2020-12-06 13"},"coordinates":[5640,2729]},{"type":"Point","properties":{"Station_ID":"HUDN3","Station_Nam":"HUDSON 1 SSE","Latitude":"42.78300","Longitude":"-71.41480","Snowdepth":"4.000","Units":"in","Rept_Date":"2020-12-06 12"},"coordinates":[8126,4435]},{"type":"Point","properties":{"Station_ID":"HGHN6","Station_Nam":"HIGHMARKET","Latitude":"43.60510","Longitude":"-75.55430","Snowdepth":"4.000","Units":"in","Rept_Date":"2020-12-06 11"},"coordinates":[6814,4946]},{"type":"Point","properties":{"Station_ID":"FARM1","Station_Nam":"FARMINGTON","Latitude":"44.68930","Longitude":"-70.15640","Snowdepth":"4.000","Units":"in","Rept_Date":"2020-12-06 12"},"coordinates":[8525,5621]},{"type":"Point","properties":{"Station_ID":"DHMM1","Station_Nam":"DEDHAM","Latitude":"44.67880","Longitude":"-68.63560","Snowdepth":"4.000","Units":"in","Rept_Date":"2020-12-06 13"},"coordinates":[9007,5614]},{"type":"Point","properties":{"Station_ID":"CORM1","Station_Nam":"CORINNA","Latitude":"44.91980","Longitude":"-69.24180","Snowdepth":"4.000","Units":"in","Rept_Date":"2020-12-06 14"},"coordinates":[8815,5764]},{"type":"Point","properties":{"Station_ID":"CON","Station_Nam":"CONCORD MUNI ARPT","Latitude":"43.20280","Longitude":"-71.50220","Snowdepth":"4.000","Units":"in","Rept_Date":"2020-12-06 12"},"coordinates":[8098,4696]},{"type":"Point","properties":{"Station_ID":"CAN-ON-451","Station_Nam":"OWEN SOUND 1.2 N - GSCA, CAN","Latitude":"44.58092","Longitude":"-80.93025","Snowdepth":"4.000","Units":"in","Rept_Date":"2020-12-06 13"},"coordinates":[5109,5553]},{"type":"Point","properties":{"Station_ID":"BETM1","Station_Nam":"BETHEL 6 SSE","Latitude":"44.32000","Longitude":"-70.75680","Snowdepth":"4.000","Units":"in","Rept_Date":"2020-12-06 13"},"coordinates":[8335,5391]},{"type":"Point","properties":{"Station_ID":"41.3881_081.6710","Station_Nam":"1 NNE Seven Hills  CoCoRaHS (OH-CY-54)","Latitude":"41.38810","Longitude":"-81.67100","Snowdepth":"4.000","Units":"in","Rept_Date":"2020-12-06 12"},"coordinates":[4875,3567]},{"type":"Point","properties":{"Station_ID":"41.2982_081.8151","Station_Nam":"1 SE Strongsville  Trained Spotter (CLE1180)","Latitude":"41.29818","Longitude":"-81.81507","Snowdepth":"4.000","Units":"in","Rept_Date":"2020-12-06 13"},"coordinates":[4829,3511]},{"type":"Point","properties":{"Station_ID":"CAN-ON-829","Station_Nam":"THORNBURY 0.8 WSW - GSCA, CAN","Latitude":"44.55716","Longitude":"-80.46427","Snowdepth":"3.900","Units":"in","Rept_Date":"2020-12-06 13"},"coordinates":[5257,5538]},{"type":"Point","properties":{"Station_ID":"CAN-ON-804","Station_Nam":"KEMBLE 1.6 S - GSCA, CAN","Latitude":"44.71013","Longitude":"-80.92735","Snowdepth":"3.900","Units":"in","Rept_Date":"2020-12-06 13"},"coordinates":[5110,5634]},{"type":"Point","properties":{"Station_ID":"CAN-NB-105","Station_Nam":"SISSON BROOK 3.8 E, CAN","Latitude":"46.98305","Longitude":"-67.32532","Snowdepth":"3.900","Units":"in","Rept_Date":"2020-12-06 12"},"coordinates":[9423,7048]},{"type":"Point","properties":{"Station_ID":"VT-ES-1","Station_Nam":"GRANBY 1.4 NW, VT","Latitude":"44.58330","Longitude":"-71.77870","Snowdepth":"3.800","Units":"in","Rept_Date":"2020-12-06 14"},"coordinates":[8011,5555]},{"type":"Point","properties":{"Station_ID":"NH-HL-77","Station_Nam":"WEARE 4.3 S, NH","Latitude":"43.03222","Longitude":"-71.73669","Snowdepth":"3.800","Units":"in","Rept_Date":"2020-12-06 13"},"coordinates":[8024,4590]},{"type":"Point","properties":{"Station_ID":"NH-HL-96","Station_Nam":"MANCHESTER 0.6 S, NH","Latitude":"42.97444","Longitude":"-71.44472","Snowdepth":"3.700","Units":"in","Rept_Date":"2020-12-06 12"},"coordinates":[8117,4554]},{"type":"Point","properties":{"Station_ID":"WV-PR-10","Station_Nam":"TERRA ALTA 4.9 NNE, WV","Latitude":"39.51024","Longitude":"-79.51024","Snowdepth":"3.600","Units":"in","Rept_Date":"2020-12-06 13"},"coordinates":[5560,2399]},{"type":"Point","properties":{"Station_ID":"QWE","Station_Nam":"QWE","Latitude":"47.84610","Longitude":"-73.80670","Snowdepth":"3.504","Units":"in","Rept_Date":"2020-12-06 12"},"coordinates":[7368,7585]},{"type":"Point","properties":{"Station_ID":"VT-CL-3","Station_Nam":"GROTON 4.4 WSW, VT","Latitude":"44.19440","Longitude":"-72.28240","Snowdepth":"3.500","Units":"in","Rept_Date":"2020-12-06 09"},"coordinates":[7851,5313]},{"type":"Point","properties":{"Station_ID":"OH-LR-8","Station_Nam":"ELYRIA 0.4 SE, OH","Latitude":"41.37628","Longitude":"-82.09920","Snowdepth":"3.500","Units":"in","Rept_Date":"2020-12-06 13"},"coordinates":[4739,3559]},{"type":"Point","properties":{"Station_ID":"OH-GG-11","Station_Nam":"MADISON 4.2 S, OH","Latitude":"41.71238","Longitude":"-81.03871","Snowdepth":"3.500","Units":"in","Rept_Date":"2020-12-06 12"},"coordinates":[5075,3769]},{"type":"Point","properties":{"Station_ID":"ME-YK-65","Station_Nam":"NORTH BERWICK 5.3 W, ME","Latitude":"43.29801","Longitude":"-70.83956","Snowdepth":"3.500","Units":"in","Rept_Date":"2020-12-06 14"},"coordinates":[8308,4755]},{"type":"Point","properties":{"Station_ID":"ME-YK-46","Station_Nam":"PARSONSFIELD 3.9 NE, ME","Latitude":"43.76517","Longitude":"-70.86860","Snowdepth":"3.500","Units":"in","Rept_Date":"2020-12-06 14"},"coordinates":[8299,5046]},{"type":"Point","properties":{"Station_ID":"ME-KX-12","Station_Nam":"UNION 3.0 W, ME","Latitude":"44.21320","Longitude":"-69.34160","Snowdepth":"3.500","Units":"in","Rept_Date":"2020-12-06 12"},"coordinates":[8783,5324]},{"type":"Point","properties":{"Station_ID":"ME-CM-15","Station_Nam":"FREEPORT 2.6 WNW, ME","Latitude":"43.86683","Longitude":"-70.15070","Snowdepth":"3.500","Units":"in","Rept_Date":"2020-12-06 12"},"coordinates":[8527,5109]},{"type":"Point","properties":{"Station_ID":"MA-MD-105","Station_Nam":"LITTLETON 0.9 WSW, MA","Latitude":"42.53090","Longitude":"-71.48830","Snowdepth":"3.500","Units":"in","Rept_Date":"2020-12-06 12"},"coordinates":[8103,4278]},{"type":"Point","properties":{"Station_ID":"CT-WN-12","Station_Nam":"EASTFORD 2.0 W, CT","Latitude":"41.89906","Longitude":"-72.12071","Snowdepth":"3.500","Units":"in","Rept_Date":"2020-12-06 11"},"coordinates":[7902,3885]},{"type":"Point","properties":{"Station_ID":"CAN-MB-32","Station_Nam":"PINAWA 1.0 SW, CA","Latitude":"50.14747","Longitude":"-95.89020","Snowdepth":"3.500","Units":"in","Rept_Date":"2020-12-06 13"},"coordinates":[367,9016]},{"type":"Point","properties":{"Station_ID":"41.7124_081.0387","Station_Nam":"4 S Madison  CoCoRaHS (OH-GG-11)","Latitude":"41.71240","Longitude":"-81.03870","Snowdepth":"3.500","Units":"in","Rept_Date":"2020-12-06 12"},"coordinates":[5075,3769]},{"type":"Point","properties":{"Station_ID":"41.3763_082.0992","Station_Nam":"Elyria  Trained Spotter (CLE1010)","Latitude":"41.37628","Longitude":"-82.09918","Snowdepth":"3.500","Units":"in","Rept_Date":"2020-12-06 13"},"coordinates":[4739,3559]},{"type":"Point","properties":{"Station_ID":"MA-WR-69","Station_Nam":"NORTHBRIDGE 1.7 WNW, MA","Latitude":"42.16305","Longitude":"-71.67888","Snowdepth":"3.300","Units":"in","Rept_Date":"2020-12-06 12"},"coordinates":[8042,4049]},{"type":"Point","properties":{"Station_ID":"CAN-MB-368","Station_Nam":"WHITESHELL 1.3 NE, CAN","Latitude":"49.74405","Longitude":"-95.19123","Snowdepth":"3.300","Units":"in","Rept_Date":"2020-12-06 14"},"coordinates":[588,8765]},{"type":"Point","properties":{"Station_ID":"VT-OL-25","Station_Nam":"NEWPORT 1.5 WSW, VT","Latitude":"44.93059","Longitude":"-72.23731","Snowdepth":"3.100","Units":"in","Rept_Date":"2020-12-06 12"},"coordinates":[7865,5771]},{"type":"Point","properties":{"Station_ID":"VT-WS-23","Station_Nam":"CABOT 2.3 E, VT","Latitude":"44.39807","Longitude":"-72.26570","Snowdepth":"3.000","Units":"in","Rept_Date":"2020-12-06 13"},"coordinates":[7856,5439]},{"type":"Point","properties":{"Station_ID":"VT-WH-30","Station_Nam":"MARLBORO 2.0 NNE, VT","Latitude":"42.88484","Longitude":"-72.70935","Snowdepth":"3.000","Units":"in","Rept_Date":"2020-12-06 13"},"coordinates":[7716,4498]},{"type":"Point","properties":{"Station_ID":"VT-OL-9","Station_Nam":"GREENSBORO 2.1 NNW, VT","Latitude":"44.60528","Longitude":"-72.30940","Snowdepth":"3.000","Units":"in","Rept_Date":"2020-12-06 12"},"coordinates":[7842,5568]},{"type":"Point","properties":{"Station_ID":"VT-OL-24","Station_Nam":"DERBY LINE 1.9 W, VT","Latitude":"45.00454","Longitude":"-72.14170","Snowdepth":"3.000","Units":"in","Rept_Date":"2020-12-06 12"},"coordinates":[7896,5817]},{"type":"Point","properties":{"Station_ID":"VT-OL-2","Station_Nam":"BARTON 3.0 ENE, VT","Latitude":"44.75863","Longitude":"-72.11680","Snowdepth":"3.000","Units":"in","Rept_Date":"2020-12-06 12"},"coordinates":[7904,5664]},{"type":"Point","properties":{"Station_ID":"VT-OL-12","Station_Nam":"GREENSBORO 3.9 NNE, VT","Latitude":"44.63100","Longitude":"-72.28000","Snowdepth":"3.000","Units":"in","Rept_Date":"2020-12-06 14"},"coordinates":[7852,5584]},{"type":"Point","properties":{"Station_ID":"VT-BN-12","Station_Nam":"STAMFORD 5.0 NNE, VT","Latitude":"42.82000","Longitude":"-73.02000","Snowdepth":"3.000","Units":"in","Rept_Date":"2020-12-06 18"},"coordinates":[7617,4458]},{"type":"Point","properties":{"Station_ID":"SBOP1","Station_Nam":"SPRINGBORO","Latitude":"41.81660","Longitude":"-80.43330","Snowdepth":"3.000","Units":"in","Rept_Date":"2020-12-06 12"},"coordinates":[5267,3833]},{"type":"Point","properties":{"Station_ID":"PA-CW-8","Station_Nam":"SPRINGBORO 3.0 WNW, PA","Latitude":"41.81654","Longitude":"-80.42540","Snowdepth":"3.000","Units":"in","Rept_Date":"2020-12-06 12"},"coordinates":[5270,3833]},{"type":"Point","properties":{"Station_ID":"OH-CY-39","Station_Nam":"WESTLAKE 0.5 SSW, OH","Latitude":"41.44795","Longitude":"-81.93260","Snowdepth":"3.000","Units":"in","Rept_Date":"2020-12-06 13"},"coordinates":[4792,3604]},{"type":"Point","properties":{"Station_ID":"NPTV1","Station_Nam":"NEWPORT","Latitude":"44.94900","Longitude":"-72.19120","Snowdepth":"3.000","Units":"in","Rept_Date":"2020-12-06 14"},"coordinates":[7880,5782]},{"type":"Point","properties":{"Station_ID":"NH-HL-25","Station_Nam":"AMHERST 3.7 NNE, NH","Latitude":"42.91409","Longitude":"-71.61020","Snowdepth":"3.000","Units":"in","Rept_Date":"2020-12-06 13"},"coordinates":[8064,4516]},{"type":"Point","properties":{"Station_ID":"NH-BK-1","Station_Nam":"TILTON NORTHFIELD 3.3 NE, NH","Latitude":"43.48000","Longitude":"-71.55000","Snowdepth":"3.000","Units":"in","Rept_Date":"2020-12-06 12"},"coordinates":[8083,4868]},{"type":"Point","properties":{"Station_ID":"MRLV1","Station_Nam":"MARLBORO","Latitude":"42.86000","Longitude":"-72.72000","Snowdepth":"3.000","Units":"in","Rept_Date":"2020-12-06 13"},"coordinates":[7712,4483]},{"type":"Point","properties":{"Station_ID":"MILM3","Station_Nam":"MILFORD","Latitude":"42.16330","Longitude":"-71.51190","Snowdepth":"3.000","Units":"in","Rept_Date":"2020-12-06 12"},"coordinates":[8095,4049]},{"type":"Point","properties":{"Station_ID":"MI-HG-20","Station_Nam":"CALUMET 1.1 SSW, MI","Latitude":"47.23165","Longitude":"-88.45823","Snowdepth":"3.000","Units":"in","Rept_Date":"2020-12-06 11"},"coordinates":[2723,7202]},{"type":"Point","properties":{"Station_ID":"ME-YK-67","Station_Nam":"CORNISH 5.6 ESE, ME","Latitude":"43.78308","Longitude":"-70.69539","Snowdepth":"3.000","Units":"in","Rept_Date":"2020-12-06 12"},"coordinates":[8354,5057]},{"type":"Point","properties":{"Station_ID":"ME-FR-24","Station_Nam":"CHESTERVILLE 0.0 NNE, ME","Latitude":"44.55157","Longitude":"-70.08591","Snowdepth":"3.000","Units":"in","Rept_Date":"2020-12-06 14"},"coordinates":[8547,5535]},{"type":"Point","properties":{"Station_ID":"ME-CM-86","Station_Nam":"POWNAL 4.1 S, ME","Latitude":"43.85370","Longitude":"-70.17210","Snowdepth":"3.000","Units":"in","Rept_Date":"2020-12-06 12"},"coordinates":[8520,5101]},{"type":"Point","properties":{"Station_ID":"ME-CM-3","Station_Nam":"NEW GLOUCESTER 3.0 SE, ME","Latitude":"43.92372","Longitude":"-70.25790","Snowdepth":"3.000","Units":"in","Rept_Date":"2020-12-06 12"},"coordinates":[8493,5144]},{"type":"Point","properties":{"Station_ID":"ME-CM-18","Station_Nam":"PORTLAND 5.5 WNW, ME","Latitude":"43.70288","Longitude":"-70.30550","Snowdepth":"3.000","Units":"in","Rept_Date":"2020-12-06 12"},"coordinates":[8478,5007]},{"type":"Point","properties":{"Station_ID":"MA-WR-81","Station_Nam":"WORCESTER 1.6 SE, MA","Latitude":"42.25354","Longitude":"-71.78530","Snowdepth":"3.000","Units":"in","Rept_Date":"2020-12-06 12"},"coordinates":[8009,4105]},{"type":"Point","properties":{"Station_ID":"MA-WR-42","Station_Nam":"NORTHBOROUGH 2.3 N, MA","Latitude":"42.34535","Longitude":"-71.64390","Snowdepth":"3.000","Units":"in","Rept_Date":"2020-12-06 13"},"coordinates":[8053,4162]},{"type":"Point","properties":{"Station_ID":"MA-WR-18","Station_Nam":"NORTHBOROUGH 0.6 SSE, MA","Latitude":"42.30367","Longitude":"-71.64620","Snowdepth":"3.000","Units":"in","Rept_Date":"2020-12-06 14"},"coordinates":[8053,4136]},{"type":"Point","properties":{"Station_ID":"MA-MD-12","Station_Nam":"ACTON 1.3 SW, MA","Latitude":"42.46746","Longitude":"-71.48200","Snowdepth":"3.000","Units":"in","Rept_Date":"2020-12-06 12"},"coordinates":[8105,4238]},{"type":"Point","properties":{"Station_ID":"LILM1","Station_Nam":"LILLE","Latitude":"47.27770","Longitude":"-68.10520","Snowdepth":"3.000","Units":"in","Rept_Date":"2020-12-06 12"},"coordinates":[9175,7231]},{"type":"Point","properties":{"Station_ID":"LEIM5","Station_Nam":"ORR 3E","Latitude":"48.05810","Longitude":"-92.75220","Snowdepth":"3.000","Units":"in","Rept_Date":"2020-12-06 12"},"coordinates":[1362,7716]},{"type":"Point","properties":{"Station_ID":"LAUP1","Station_Nam":"1.5MI S OF RT 30 ON SMIT (LAUREL RIDGE)","Latitude":"40.05000","Longitude":"-79.22060","Snowdepth":"3.000","Units":"in","Rept_Date":"2020-12-06 12"},"coordinates":[5651,2734]},{"type":"Point","properties":{"Station_ID":"HUBN3","Station_Nam":"HUBBARD BROOK","Latitude":"43.93330","Longitude":"-71.71670","Snowdepth":"3.000","Units":"in","Rept_Date":"2020-12-07 06"},"coordinates":[8030,5150]},{"type":"Point","properties":{"Station_ID":"HMPN3","Station_Nam":"WEST HAMPSTEAD","Latitude":"42.91080","Longitude":"-71.20200","Snowdepth":"3.000","Units":"in","Rept_Date":"2020-12-06 13"},"coordinates":[8194,4514]},{"type":"Point","properties":{"Station_ID":"HERM4","Station_Nam":"HERMAN,MI","Latitude":"46.65000","Longitude":"-88.33330","Snowdepth":"3.000","Units":"in","Rept_Date":"2020-12-06 13"},"coordinates":[2763,6840]},{"type":"Point","properties":{"Station_ID":"DLHM5","Station_Nam":"DULUTH NWS","Latitude":"46.83680","Longitude":"-92.21080","Snowdepth":"3.000","Units":"in","Rept_Date":"2020-12-07 06"},"coordinates":[1533,6957]},{"type":"Point","properties":{"Station_ID":"DLH","Station_Nam":"DULUTH, MN","Latitude":"46.83690","Longitude":"-92.21030","Snowdepth":"3.000","Units":"in","Rept_Date":"2020-12-07 00"},"coordinates":[1533,6957]},{"type":"Point","properties":{"Station_ID":"CT-TL-41","Station_Nam":"SOMERS 0.3 S, CT","Latitude":"41.98137","Longitude":"-72.44703","Snowdepth":"3.000","Units":"in","Rept_Date":"2020-12-06 11"},"coordinates":[7799,3936]},{"type":"Point","properties":{"Station_ID":"CT-TL-15","Station_Nam":"CENTRAL SOMERS 0.3 N, CT","Latitude":"41.99553","Longitude":"-72.44127","Snowdepth":"3.000","Units":"in","Rept_Date":"2020-12-06 11"},"coordinates":[7801,3945]},{"type":"Point","properties":{"Station_ID":"COKM5","Station_Nam":"COOK","Latitude":"47.85060","Longitude":"-92.69250","Snowdepth":"3.000","Units":"in","Rept_Date":"2020-12-06 12"},"coordinates":[1381,7587]},{"type":"Point","properties":{"Station_ID":"BNDM5","Station_Nam":"ELY 25E","Latitude":"47.97190","Longitude":"-91.44860","Snowdepth":"3.000","Units":"in","Rept_Date":"2020-12-06 13"},"coordinates":[1775,7663]},{"type":"Point","properties":{"Station_ID":"BKBW2","Station_Nam":"DAVIS.","Latitude":"39.09830","Longitude":"-79.43190","Snowdepth":"3.000","Units":"in","Rept_Date":"2020-12-06 12"},"coordinates":[5585,2142]},{"type":"Point","properties":{"Station_ID":"BABM5","Station_Nam":"BABBITT","Latitude":"47.71210","Longitude":"-91.95330","Snowdepth":"3.000","Units":"in","Rept_Date":"2020-12-06 13"},"coordinates":[1615,7501]},{"type":"Point","properties":{"Station_ID":"41.8166_080.4333","Station_Nam":"3 WNW Springboro  Co-Op Observer (SBOP1)","Latitude":"41.81660","Longitude":"-80.43330","Snowdepth":"3.000","Units":"in","Rept_Date":"2020-12-06 12"},"coordinates":[5267,3833]},{"type":"Point","properties":{"Station_ID":"41.8165_080.4254","Station_Nam":"3 WNW Springboro  CoCoRaHS (PA-CW-8)","Latitude":"41.81650","Longitude":"-80.42540","Snowdepth":"3.000","Units":"in","Rept_Date":"2020-12-06 12"},"coordinates":[5270,3833]},{"type":"Point","properties":{"Station_ID":"41.4480_081.9326","Station_Nam":"1 SSW Westlake  CoCoRaHS (OH-CY-39)","Latitude":"41.44800","Longitude":"-81.93260","Snowdepth":"3.000","Units":"in","Rept_Date":"2020-12-06 13"},"coordinates":[4792,3604]},{"type":"Point","properties":{"Station_ID":"QLP","Station_Nam":"QLP","Latitude":"48.13920","Longitude":"-72.63830","Snowdepth":"2.992","Units":"in","Rept_Date":"2020-12-06 12"},"coordinates":[7738,7767]},{"type":"Point","properties":{"Station_ID":"MA-ES-48","Station_Nam":"ANDOVER 0.6 E, MA","Latitude":"42.65659","Longitude":"-71.13048","Snowdepth":"2.900","Units":"in","Rept_Date":"2020-12-06 10"},"coordinates":[8216,4356]},{"type":"Point","properties":{"Station_ID":"NH-MR-55","Station_Nam":"CANTERBURY 2.5 SSW, NH","Latitude":"43.30277","Longitude":"-71.57893","Snowdepth":"2.800","Units":"in","Rept_Date":"2020-12-06 14"},"coordinates":[8074,4758]},{"type":"Point","properties":{"Station_ID":"CAN-ON-784","Station_Nam":"KOMOKA 3.1 W, CAN","Latitude":"42.96000","Longitude":"-81.43805","Snowdepth":"2.800","Units":"in","Rept_Date":"2020-12-06 13"},"coordinates":[4949,4545]},{"type":"Point","properties":{"Station_ID":"CAN-ON-771","Station_Nam":"KENORA 8.7 NNE - CANWARN, CAN","Latitude":"49.84171","Longitude":"-94.44386","Snowdepth":"2.700","Units":"in","Rept_Date":"2020-12-06 13"},"coordinates":[825,8826]},{"type":"Point","properties":{"Station_ID":"QLM","Station_Nam":"QLM","Latitude":"48.92030","Longitude":"-70.25280","Snowdepth":"2.677","Units":"in","Rept_Date":"2020-12-06 12"},"coordinates":[8494,8253]},{"type":"Point","properties":{"Station_ID":"CT-TL-27","Station_Nam":"WILLINGTON 2.7 SE, CT","Latitude":"41.83890","Longitude":"-72.22430","Snowdepth":"2.600","Units":"in","Rept_Date":"2020-12-06 12"},"coordinates":[7869,3847]},{"type":"Point","properties":{"Station_ID":"VT-WR-17","Station_Nam":"ROCHESTER 2.3 NE, VT","Latitude":"43.89418","Longitude":"-72.76992","Snowdepth":"2.500","Units":"in","Rept_Date":"2020-12-06 12"},"coordinates":[7696,5126]},{"type":"Point","properties":{"Station_ID":"OH-MD-2","Station_Nam":"BRUNSWICK 0.5 NE, OH","Latitude":"41.24980","Longitude":"-81.81330","Snowdepth":"2.500","Units":"in","Rept_Date":"2020-12-06 12"},"coordinates":[4830,3481]},{"type":"Point","properties":{"Station_ID":"OH-LR-25","Station_Nam":"NORTH RIDGEVILLE 2.5 NE, OH","Latitude":"41.41550","Longitude":"-81.98440","Snowdepth":"2.500","Units":"in","Rept_Date":"2020-12-06 12"},"coordinates":[4775,3584]},{"type":"Point","properties":{"Station_ID":"OH-CY-24","Station_Nam":"PARMA 1.9 NNW, OH","Latitude":"41.40881","Longitude":"-81.74480","Snowdepth":"2.500","Units":"in","Rept_Date":"2020-12-06 13"},"coordinates":[4851,3580]},{"type":"Point","properties":{"Station_ID":"ME-YK-5","Station_Nam":"KENNEBUNK 1.8 WNW, ME","Latitude":"43.39320","Longitude":"-70.58060","Snowdepth":"2.500","Units":"in","Rept_Date":"2020-12-06 12"},"coordinates":[8391,4814]},{"type":"Point","properties":{"Station_ID":"ME-CM-138","Station_Nam":"FREEPORT 3.0 ENE, ME","Latitude":"43.87733","Longitude":"-70.04650","Snowdepth":"2.500","Units":"in","Rept_Date":"2020-12-06 12"},"coordinates":[8560,5115]},{"type":"Point","properties":{"Station_ID":"MA-MD-42","Station_Nam":"HOLLISTON 0.8 S, MA","Latitude":"42.18820","Longitude":"-71.43390","Snowdepth":"2.500","Units":"in","Rept_Date":"2020-12-06 12"},"coordinates":[8120,4065]},{"type":"Point","properties":{"Station_ID":"MA-MD-160","Station_Nam":"READING 1.2 N, MA","Latitude":"42.55319","Longitude":"-71.10330","Snowdepth":"2.500","Units":"in","Rept_Date":"2020-12-06 11"},"coordinates":[8225,4292]},{"type":"Point","properties":{"Station_ID":"MA-MD-106","Station_Nam":"HOLLISTON 2.4 W, MA","Latitude":"42.20069","Longitude":"-71.47981","Snowdepth":"2.500","Units":"in","Rept_Date":"2020-12-06 12"},"coordinates":[8105,4072]},{"type":"Point","properties":{"Station_ID":"41.4155_081.9844","Station_Nam":"3 NE North Ridgeville  CoCoRaHS (OH-LR-25)","Latitude":"41.41550","Longitude":"-81.98440","Snowdepth":"2.500","Units":"in","Rept_Date":"2020-12-06 12"},"coordinates":[4775,3584]},{"type":"Point","properties":{"Station_ID":"41.4088_081.7448","Station_Nam":"2 NNW Parma  CoCoRaHS (OH-CY-24)","Latitude":"41.40880","Longitude":"-81.74480","Snowdepth":"2.500","Units":"in","Rept_Date":"2020-12-06 13"},"coordinates":[4851,3580]},{"type":"Point","properties":{"Station_ID":"NH-MR-6","Station_Nam":"DANBURY 2.2 ESE, NH","Latitude":"43.52000","Longitude":"-71.81900","Snowdepth":"2.400","Units":"in","Rept_Date":"2020-12-06 13"},"coordinates":[7998,4893]},{"type":"Point","properties":{"Station_ID":"ME-LN-13","Station_Nam":"WALDOBORO 1.5 NNE, ME","Latitude":"44.11481","Longitude":"-69.36644","Snowdepth":"2.400","Units":"in","Rept_Date":"2020-12-06 13"},"coordinates":[8775,5263]},{"type":"Point","properties":{"Station_ID":"MA-MD-25","Station_Nam":"AYER 0.1 SW, MA","Latitude":"42.56114","Longitude":"-71.58690","Snowdepth":"2.300","Units":"in","Rept_Date":"2020-12-06 12"},"coordinates":[8072,4297]},{"type":"Point","properties":{"Station_ID":"NH-GR-47","Station_Nam":"LITTLETON 7.3 W, NH","Latitude":"44.31847","Longitude":"-71.91086","Snowdepth":"2.200","Units":"in","Rept_Date":"2020-12-06 13"},"coordinates":[7969,5390]},{"type":"Point","properties":{"Station_ID":"ME-YK-18","Station_Nam":"WELLS 3.5 SW, ME","Latitude":"43.30140","Longitude":"-70.64470","Snowdepth":"2.200","Units":"in","Rept_Date":"2020-12-06 12"},"coordinates":[8370,4757]},{"type":"Point","properties":{"Station_ID":"MA-MD-55","Station_Nam":"HOLLISTON 0.7 W, MA","Latitude":"42.19946","Longitude":"-71.44789","Snowdepth":"2.200","Units":"in","Rept_Date":"2020-12-06 13"},"coordinates":[8116,4072]},{"type":"Point","properties":{"Station_ID":"MA-MD-156","Station_Nam":"MARLBOROUGH 2.8 ENE, MA","Latitude":"42.37021","Longitude":"-71.50011","Snowdepth":"2.100","Units":"in","Rept_Date":"2020-12-06 11"},"coordinates":[8099,4178]},{"type":"Point","properties":{"Station_ID":"WRSM5","Station_Nam":"WRENSHALL","Latitude":"46.61550","Longitude":"-92.38380","Snowdepth":"2.000","Units":"in","Rept_Date":"2020-12-06 14"},"coordinates":[1478,6819]},{"type":"Point","properties":{"Station_ID":"WI-VL-9","Station_Nam":"LAND O' LAKES 11.7 W, WI","Latitude":"46.19023","Longitude":"-89.45790","Snowdepth":"2.000","Units":"in","Rept_Date":"2020-12-06 13"},"coordinates":[2406,6554]},{"type":"Point","properties":{"Station_ID":"VT-OG-14","Station_Nam":"BRADFORD 2.2 NNW, VT","Latitude":"44.02268","Longitude":"-72.14756","Snowdepth":"2.000","Units":"in","Rept_Date":"2020-12-06 13"},"coordinates":[7894,5206]},{"type":"Point","properties":{"Station_ID":"VT-CL-18","Station_Nam":"WHEELOCK 1.6 S, VT","Latitude":"44.56491","Longitude":"-72.08830","Snowdepth":"2.000","Units":"in","Rept_Date":"2020-12-06 12"},"coordinates":[7913,5543]},{"type":"Point","properties":{"Station_ID":"VT-CL-14","Station_Nam":"LYNDONVILLE 1.1 W, VT","Latitude":"44.53582","Longitude":"-72.02867","Snowdepth":"2.000","Units":"in","Rept_Date":"2020-12-06 12"},"coordinates":[7931,5525]},{"type":"Point","properties":{"Station_ID":"VT-BN-3","Station_Nam":"LANDGROVE 1.1 NNE, VT","Latitude":"43.29092","Longitude":"-72.83260","Snowdepth":"2.000","Units":"in","Rept_Date":"2020-12-06 12"},"coordinates":[7677,4751]},{"type":"Point","properties":{"Station_ID":"SUTV1","Station_Nam":"SUTTON","Latitude":"44.61220","Longitude":"-72.04810","Snowdepth":"2.000","Units":"in","Rept_Date":"2020-12-06 13"},"coordinates":[7925,5573]},{"type":"Point","properties":{"Station_ID":"SNOW2","Station_Nam":"SNOWSHOE","Latitude":"38.39900","Longitude":"-79.99490","Snowdepth":"2.000","Units":"in","Rept_Date":"2020-12-06 11"},"coordinates":[5406,1707]},{"type":"Point","properties":{"Station_ID":"RI-PR-55","Station_Nam":"CUMBERLAND HILL 3.6 NNE, RI","Latitude":"42.01656","Longitude":"-71.42238","Snowdepth":"2.000","Units":"in","Rept_Date":"2020-12-06 12"},"coordinates":[8124,3958]},{"type":"Point","properties":{"Station_ID":"RI-PR-51","Station_Nam":"NORTH SMITHFIELD 0.6 S, RI","Latitude":"41.95440","Longitude":"-71.54944","Snowdepth":"2.000","Units":"in","Rept_Date":"2020-12-06 11"},"coordinates":[8083,3919]},{"type":"Point","properties":{"Station_ID":"RI-PR-50","Station_Nam":"HARRISVILLE 1.2 SSE, RI","Latitude":"41.95128","Longitude":"-71.67171","Snowdepth":"2.000","Units":"in","Rept_Date":"2020-12-06 12"},"coordinates":[8045,3917]},{"type":"Point","properties":{"Station_ID":"RI-PR-33","Station_Nam":"GREENVILLE 0.7 NNW, RI","Latitude":"41.88890","Longitude":"-71.56030","Snowdepth":"2.000","Units":"in","Rept_Date":"2020-12-06 12"},"coordinates":[8080,3878]},{"type":"Point","properties":{"Station_ID":"RI-PR-28","Station_Nam":"NORTH SMITHFIELD 0.7 SE, RI","Latitude":"41.95910","Longitude":"-71.54201","Snowdepth":"2.000","Units":"in","Rept_Date":"2020-12-06 12"},"coordinates":[8086,3922]},{"type":"Point","properties":{"Station_ID":"PWM","Station_Nam":"RESIDUAL OFFICE TO PORTLAND WSFO (GYX)","Latitude":"43.64610","Longitude":"-70.30920","Snowdepth":"2.000","Units":"in","Rept_Date":"2020-12-06 12"},"coordinates":[8477,4972]},{"type":"Point","properties":{"Station_ID":"PSM","Station_Nam":"PEASE INTL TRADEPORT AP","Latitude":"43.07810","Longitude":"-70.82330","Snowdepth":"2.000","Units":"in","Rept_Date":"2020-12-06 12"},"coordinates":[8314,4618]},{"type":"Point","properties":{"Station_ID":"PA-VN-22","Station_Nam":"FRANKLIN 1.4 SSW, PA","Latitude":"41.37283","Longitude":"-79.85013","Snowdepth":"2.000","Units":"in","Rept_Date":"2020-12-06 11"},"coordinates":[5452,3557]},{"type":"Point","properties":{"Station_ID":"OH-PT-9","Station_Nam":"HIRAM 0.4 N, OH","Latitude":"41.31595","Longitude":"-81.14340","Snowdepth":"2.000","Units":"in","Rept_Date":"2020-12-06 12"},"coordinates":[5042,3522]},{"type":"Point","properties":{"Station_ID":"OH-GG-7","Station_Nam":"MIDDLEFIELD 0.6 NE, OH","Latitude":"41.46438","Longitude":"-81.06520","Snowdepth":"2.000","Units":"in","Rept_Date":"2020-12-06 13"},"coordinates":[5067,3614]},{"type":"Point","properties":{"Station_ID":"OBEO1","Station_Nam":"OBERLIN,OH","Latitude":"41.26670","Longitude":"-82.21670","Snowdepth":"2.000","Units":"in","Rept_Date":"2020-12-06 13"},"coordinates":[4702,3491]},{"type":"Point","properties":{"Station_ID":"NTHM3","Station_Nam":"NORTHBRIDGE 2","Latitude":"42.11500","Longitude":"-71.67600","Snowdepth":"2.000","Units":"in","Rept_Date":"2020-12-06 14"},"coordinates":[8043,4019]},{"type":"Point","properties":{"Station_ID":"NH-RC-49","Station_Nam":"KINGSTON 2.3 NE, NH","Latitude":"42.95670","Longitude":"-71.01990","Snowdepth":"2.000","Units":"in","Rept_Date":"2020-12-06 13"},"coordinates":[8251,4543]},{"type":"Point","properties":{"Station_ID":"NH-CS-7","Station_Nam":"LANCASTER 0.5 N, NH","Latitude":"44.49611","Longitude":"-71.57640","Snowdepth":"2.000","Units":"in","Rept_Date":"2020-12-06 12"},"coordinates":[8075,5500]},{"type":"Point","properties":{"Station_ID":"NFKC3","Station_Nam":"NORFOLK","Latitude":"41.97250","Longitude":"-73.22080","Snowdepth":"2.000","Units":"in","Rept_Date":"2020-12-06 13"},"coordinates":[7554,3930]},{"type":"Point","properties":{"Station_ID":"MIEM4","Station_Nam":"MICHIGAMME 3WNW","Latitude":"46.54530","Longitude":"-88.18000","Snowdepth":"2.000","Units":"in","Rept_Date":"2020-12-06 13"},"coordinates":[2811,6775]},{"type":"Point","properties":{"Station_ID":"MIDM3","Station_Nam":"MIDDLETON","Latitude":"42.59340","Longitude":"-71.01870","Snowdepth":"2.000","Units":"in","Rept_Date":"2020-12-06 12"},"coordinates":[8252,4317]},{"type":"Point","properties":{"Station_ID":"ME-PN-55","Station_Nam":"ORONO 1.1 SSW, ME","Latitude":"44.87005","Longitude":"-68.69446","Snowdepth":"2.000","Units":"in","Rept_Date":"2020-12-06 12"},"coordinates":[8988,5733]},{"type":"Point","properties":{"Station_ID":"ME-LN-1","Station_Nam":"NEWCASTLE 2.1 SW, ME","Latitude":"44.02767","Longitude":"-69.56860","Snowdepth":"2.000","Units":"in","Rept_Date":"2020-12-06 12"},"coordinates":[8711,5209]},{"type":"Point","properties":{"Station_ID":"ME-KX-6","Station_Nam":"UNION 3.0 NW, ME","Latitude":"44.24435","Longitude":"-69.31540","Snowdepth":"2.000","Units":"in","Rept_Date":"2020-12-06 12"},"coordinates":[8792,5344]},{"type":"Point","properties":{"Station_ID":"ME-CM-143","Station_Nam":"PORTLAND 5.4 NW, ME","Latitude":"43.72010","Longitude":"-70.28710","Snowdepth":"2.000","Units":"in","Rept_Date":"2020-12-06 12"},"coordinates":[8484,5018]},{"type":"Point","properties":{"Station_ID":"MA-WR-77","Station_Nam":"BERLIN 2.0 S, MA","Latitude":"42.35494","Longitude":"-71.62850","Snowdepth":"2.000","Units":"in","Rept_Date":"2020-12-06 13"},"coordinates":[8058,4168]},{"type":"Point","properties":{"Station_ID":"MA-MD-89","Station_Nam":"SUDBURY 3.6 W, MA","Latitude":"42.36394","Longitude":"-71.47012","Snowdepth":"2.000","Units":"in","Rept_Date":"2020-12-06 12"},"coordinates":[8109,4174]},{"type":"Point","properties":{"Station_ID":"MA-MD-85","Station_Nam":"WILMINGTON 2.2 WNW, MA","Latitude":"42.56871","Longitude":"-71.20764","Snowdepth":"2.000","Units":"in","Rept_Date":"2020-12-06 12"},"coordinates":[8192,4301]},{"type":"Point","properties":{"Station_ID":"MA-MD-51","Station_Nam":"MAYNARD 0.7 ESE, MA","Latitude":"42.42027","Longitude":"-71.44484","Snowdepth":"2.000","Units":"in","Rept_Date":"2020-12-06 12"},"coordinates":[8117,4209]},{"type":"Point","properties":{"Station_ID":"MA-MD-47","Station_Nam":"WEST TOWNSEND 0.5 W, MA","Latitude":"42.67623","Longitude":"-71.74983","Snowdepth":"2.000","Units":"in","Rept_Date":"2020-12-06 11"},"coordinates":[8020,4368]},{"type":"Point","properties":{"Station_ID":"MA-MD-158","Station_Nam":"SHERBORN 1.1 NW, MA","Latitude":"42.24460","Longitude":"-71.38130","Snowdepth":"2.000","Units":"in","Rept_Date":"2020-12-06 11"},"coordinates":[8137,4100]},{"type":"Point","properties":{"Station_ID":"MA-MD-125","Station_Nam":"TEWKSBURY 3.6 SSE, MA","Latitude":"42.57083","Longitude":"-71.19813","Snowdepth":"2.000","Units":"in","Rept_Date":"2020-12-06 12"},"coordinates":[8195,4303]},{"type":"Point","properties":{"Station_ID":"MA-MD-120","Station_Nam":"NATICK 1.9 NNE, MA","Latitude":"42.30872","Longitude":"-71.33579","Snowdepth":"2.000","Units":"in","Rept_Date":"2020-12-06 13"},"coordinates":[8151,4140]},{"type":"Point","properties":{"Station_ID":"MA-MD-107","Station_Nam":"FRAMINGHAM 1.7 E, MA","Latitude":"42.30516","Longitude":"-71.40471","Snowdepth":"2.000","Units":"in","Rept_Date":"2020-12-06 12"},"coordinates":[8129,4137]},{"type":"Point","properties":{"Station_ID":"MA-ES-68","Station_Nam":"NEWBURYPORT 1.3 WNW, MA","Latitude":"42.82380","Longitude":"-70.91140","Snowdepth":"2.000","Units":"in","Rept_Date":"2020-12-06 12"},"coordinates":[8286,4460]},{"type":"Point","properties":{"Station_ID":"LNOW3","Station_Nam":"LAND O LAKES","Latitude":"46.19000","Longitude":"-89.45700","Snowdepth":"2.000","Units":"in","Rept_Date":"2020-12-06 13"},"coordinates":[2406,6554]},{"type":"Point","properties":{"Station_ID":"LLLM3","Station_Nam":"LOWELL","Latitude":"42.64090","Longitude":"-71.36370","Snowdepth":"2.000","Units":"in","Rept_Date":"2020-12-06 11"},"coordinates":[8142,4346]},{"type":"Point","properties":{"Station_ID":"LBKV1","Station_Nam":"LYE BROOK","Latitude":"43.05000","Longitude":"-73.03330","Snowdepth":"2.000","Units":"in","Rept_Date":"2020-12-07 06"},"coordinates":[7613,4601]},{"type":"Point","properties":{"Station_ID":"ISLV1","Station_Nam":"ISLAND POND","Latitude":"44.81280","Longitude":"-71.89020","Snowdepth":"2.000","Units":"in","Rept_Date":"2020-12-06 14"},"coordinates":[7975,5697]},{"type":"Point","properties":{"Station_ID":"INL","Station_Nam":"FALLS INTERNATIONAL ARPT","Latitude":"48.56640","Longitude":"-93.40310","Snowdepth":"2.000","Units":"in","Rept_Date":"2020-12-07 00"},"coordinates":[1155,8033]},{"type":"Point","properties":{"Station_ID":"IFSM5","Station_Nam":"INTERNATIONAL FALLS SNOW","Latitude":"48.57780","Longitude":"-93.39640","Snowdepth":"2.000","Units":"in","Rept_Date":"2020-12-06 12"},"coordinates":[1157,8040]},{"type":"Point","properties":{"Station_ID":"HRKM3","Station_Nam":"HARDWICK 2 ESE","Latitude":"42.34570","Longitude":"-72.15410","Snowdepth":"2.000","Units":"in","Rept_Date":"2020-12-06 13"},"coordinates":[7892,4163]},{"type":"Point","properties":{"Station_ID":"FLDM5","Station_Nam":"FLOODWOOD,MN","Latitude":"47.00000","Longitude":"-92.91670","Snowdepth":"2.000","Units":"in","Rept_Date":"2020-12-06 14"},"coordinates":[1310,7058]},{"type":"Point","properties":{"Station_ID":"EMLN3","Station_Nam":"EAST MILFORD","Latitude":"42.82660","Longitude":"-71.62600","Snowdepth":"2.000","Units":"in","Rept_Date":"2020-12-06 12"},"coordinates":[8059,4462]},{"type":"Point","properties":{"Station_ID":"EMBM5","Station_Nam":"EMBARASS,MN","Latitude":"47.65810","Longitude":"-92.19580","Snowdepth":"2.000","Units":"in","Rept_Date":"2020-12-06 14"},"coordinates":[1538,7468]},{"type":"Point","properties":{"Station_ID":"CVWP1","Station_Nam":"CHANDLER VALLEY 1SE","Latitude":"41.93010","Longitude":"-79.29700","Snowdepth":"2.000","Units":"in","Rept_Date":"2020-12-06 12"},"coordinates":[5627,3904]},{"type":"Point","properties":{"Station_ID":"CTYR1","Station_Nam":"COVENTRY 2","Latitude":"41.66840","Longitude":"-71.55710","Snowdepth":"2.000","Units":"in","Rept_Date":"2020-12-06 12"},"coordinates":[8081,3741]},{"type":"Point","properties":{"Station_ID":"CT-NL-5","Station_Nam":"OAKDALE 2.6 WNW, CT","Latitude":"41.47524","Longitude":"-72.20550","Snowdepth":"2.000","Units":"in","Rept_Date":"2020-12-06 12"},"coordinates":[7875,3621]},{"type":"Point","properties":{"Station_ID":"CT-LT-5","Station_Nam":"WINSTED 2.6 NNW, CT","Latitude":"41.96102","Longitude":"-73.09000","Snowdepth":"2.000","Units":"in","Rept_Date":"2020-12-06 12"},"coordinates":[7595,3923]},{"type":"Point","properties":{"Station_ID":"CT-LT-29","Station_Nam":"GOSHEN 0.5 NW, CT","Latitude":"41.83707","Longitude":"-73.23003","Snowdepth":"2.000","Units":"in","Rept_Date":"2020-12-06 11"},"coordinates":[7551,3846]},{"type":"Point","properties":{"Station_ID":"CT-HR-31","Station_Nam":"BRISTOL 2.7 WNW, CT","Latitude":"41.70138","Longitude":"-72.98527","Snowdepth":"2.000","Units":"in","Rept_Date":"2020-12-06 12"},"coordinates":[7628,3762]},{"type":"Point","properties":{"Station_ID":"COTM5","Station_Nam":"COTTON","Latitude":"47.16870","Longitude":"-92.46290","Snowdepth":"2.000","Units":"in","Rept_Date":"2020-12-06 13"},"coordinates":[1453,7163]},{"type":"Point","properties":{"Station_ID":"CORV1","Station_Nam":"CORINTH","Latitude":"44.00690","Longitude":"-72.31940","Snowdepth":"2.000","Units":"in","Rept_Date":"2020-12-06 12"},"coordinates":[7839,5196]},{"type":"Point","properties":{"Station_ID":"CAN-ON-86","Station_Nam":"GUELPH 5.1 S - CANWARN, CAN","Latitude":"43.49691","Longitude":"-80.24385","Snowdepth":"2.000","Units":"in","Rept_Date":"2020-12-06 12"},"coordinates":[5327,4879]},{"type":"Point","properties":{"Station_ID":"CAN-ON-220","Station_Nam":"DEEP RIVER 1.5 SE - MNRF, CAN","Latitude":"46.09592","Longitude":"-77.47853","Snowdepth":"2.000","Units":"in","Rept_Date":"2020-12-06 13"},"coordinates":[6204,6496]},{"type":"Point","properties":{"Station_ID":"BLHM3","Station_Nam":"BLUE HILL COOP","Latitude":"42.21230","Longitude":"-71.11370","Snowdepth":"2.000","Units":"in","Rept_Date":"2020-12-06 12"},"coordinates":[8222,4080]},{"type":"Point","properties":{"Station_ID":"41.3160_081.1434","Station_Nam":"N Hiram  CoCoRaHS (OH-PT-9)","Latitude":"41.31600","Longitude":"-81.14340","Snowdepth":"2.000","Units":"in","Rept_Date":"2020-12-06 12"},"coordinates":[5042,3522]},{"type":"Point","properties":{"Station_ID":"41.2667_082.2167","Station_Nam":"1 S OBERLIN  CO-OP OBSERVER (OBEO1)","Latitude":"41.26670","Longitude":"-82.21670","Snowdepth":"2.000","Units":"in","Rept_Date":"2020-12-06 13"},"coordinates":[4702,3491]},{"type":"Point","properties":{"Station_ID":"RI-PR-45","Station_Nam":"MANVILLE 0.4 WSW, RI","Latitude":"41.96757","Longitude":"-71.48103","Snowdepth":"1.800","Units":"in","Rept_Date":"2020-12-06 12"},"coordinates":[8105,3927]},{"type":"Point","properties":{"Station_ID":"MA-ES-61","Station_Nam":"AMESBURY 2.6 WSW, MA","Latitude":"42.84016","Longitude":"-70.97477","Snowdepth":"1.800","Units":"in","Rept_Date":"2020-12-06 13"},"coordinates":[8266,4470]},{"type":"Point","properties":{"Station_ID":"QGA","Station_Nam":"QGA","Latitude":"47.25640","Longitude":"-73.73810","Snowdepth":"1.772","Units":"in","Rept_Date":"2020-12-06 12"},"coordinates":[7390,7218]},{"type":"Point","properties":{"Station_ID":"ME-KX-10","Station_Nam":"UNION 2.1 NNE, ME","Latitude":"44.23693","Longitude":"-69.27170","Snowdepth":"1.700","Units":"in","Rept_Date":"2020-12-06 12"},"coordinates":[8805,5339]},{"type":"Point","properties":{"Station_ID":"WI-SR-1","Station_Nam":"HAYWARD 9.2 NNE, WI","Latitude":"46.13255","Longitude":"-91.40500","Snowdepth":"1.600","Units":"in","Rept_Date":"2020-12-06 12"},"coordinates":[1789,6519]},{"type":"Point","properties":{"Station_ID":"WI-BY-29","Station_Nam":"BAYFIELD 5.1 NNW, WI","Latitude":"46.88063","Longitude":"-90.85854","Snowdepth":"1.600","Units":"in","Rept_Date":"2020-12-06 13"},"coordinates":[1962,6984]},{"type":"Point","properties":{"Station_ID":"VT-CL-35","Station_Nam":"LYNDONVILLE 1.8 N, VT","Latitude":"44.56031","Longitude":"-72.00844","Snowdepth":"1.600","Units":"in","Rept_Date":"2020-12-06 13"},"coordinates":[7938,5540]},{"type":"Point","properties":{"Station_ID":"ME-CM-114","Station_Nam":"YARMOUTH 1.8 E, ME","Latitude":"43.80072","Longitude":"-70.16546","Snowdepth":"1.600","Units":"in","Rept_Date":"2020-12-06 13"},"coordinates":[8522,5068]},{"type":"Point","properties":{"Station_ID":"VT-WR-2","Station_Nam":"POMFRET 2.6 N, VT","Latitude":"43.74230","Longitude":"-72.52550","Snowdepth":"1.500","Units":"in","Rept_Date":"2020-12-06 12"},"coordinates":[7774,5031]},{"type":"Point","properties":{"Station_ID":"VT-ES-3","Station_Nam":"LUNENBURG 2.3 NNW, VT","Latitude":"44.49324","Longitude":"-71.70446","Snowdepth":"1.500","Units":"in","Rept_Date":"2020-12-06 11"},"coordinates":[8034,5499]},{"type":"Point","properties":{"Station_ID":"VT-BN-7","Station_Nam":"MANCHESTER 2.8 ENE, VT","Latitude":"43.17274","Longitude":"-73.01811","Snowdepth":"1.500","Units":"in","Rept_Date":"2020-12-06 12"},"coordinates":[7618,4677]},{"type":"Point","properties":{"Station_ID":"RI-KN-14","Station_Nam":"GREENE 1.4 E, RI","Latitude":"41.69155","Longitude":"-71.72380","Snowdepth":"1.500","Units":"in","Rept_Date":"2020-12-06 12"},"coordinates":[8028,3756]},{"type":"Point","properties":{"Station_ID":"NY-ER-166","Station_Nam":"BOSTON 2.5 NE, NY","Latitude":"42.65480","Longitude":"-78.70300","Snowdepth":"1.500","Units":"in","Rept_Date":"2020-12-06 12"},"coordinates":[5816,4355]},{"type":"Point","properties":{"Station_ID":"NY-CY-31","Station_Nam":"SCIPIO CENTER 3.0 S, NY","Latitude":"42.74002","Longitude":"-76.55682","Snowdepth":"1.500","Units":"in","Rept_Date":"2020-12-06 11"},"coordinates":[6496,4408]},{"type":"Point","properties":{"Station_ID":"NH-HL-100","Station_Nam":"BROOKLINE 2.3 SW, NH","Latitude":"42.71190","Longitude":"-71.69080","Snowdepth":"1.500","Units":"in","Rept_Date":"2020-12-06 13"},"coordinates":[8039,4390]},{"type":"Point","properties":{"Station_ID":"MN-SL-15","Station_Nam":"CHISHOLM 0.4 WSW, MN","Latitude":"47.48557","Longitude":"-92.88690","Snowdepth":"1.500","Units":"in","Rept_Date":"2020-12-06 13"},"coordinates":[1319,7360]},{"type":"Point","properties":{"Station_ID":"MN-CK-6","Station_Nam":"GRAND MARAIS 4.4 W, MN","Latitude":"47.74865","Longitude":"-90.43760","Snowdepth":"1.500","Units":"in","Rept_Date":"2020-12-06 13"},"coordinates":[2095,7524]},{"type":"Point","properties":{"Station_ID":"MN-CK-3","Station_Nam":"TOFTE 4.9 NE, MN","Latitude":"47.62394","Longitude":"-90.76100","Snowdepth":"1.500","Units":"in","Rept_Date":"2020-12-06 13"},"coordinates":[1993,7446]},{"type":"Point","properties":{"Station_ID":"ME-PN-59","Station_Nam":"GLENBURN 1.5 ENE, ME","Latitude":"44.92420","Longitude":"-68.81758","Snowdepth":"1.500","Units":"in","Rept_Date":"2020-12-06 12"},"coordinates":[8949,5767]},{"type":"Point","properties":{"Station_ID":"ME-CM-128","Station_Nam":"SOUTH PORTLAND 1.6 S, ME","Latitude":"43.60900","Longitude":"-70.28600","Snowdepth":"1.500","Units":"in","Rept_Date":"2020-12-06 12"},"coordinates":[8484,4949]},{"type":"Point","properties":{"Station_ID":"MA-WR-6","Station_Nam":"SOUTHBRIDGE 0.6 E, MA","Latitude":"42.08422","Longitude":"-72.02250","Snowdepth":"1.500","Units":"in","Rept_Date":"2020-12-06 12"},"coordinates":[7933,4000]},{"type":"Point","properties":{"Station_ID":"MA-NF-11","Station_Nam":"MILLIS 2.0 SW, MA","Latitude":"42.14602","Longitude":"-71.37940","Snowdepth":"1.500","Units":"in","Rept_Date":"2020-12-06 14"},"coordinates":[8137,4038]},{"type":"Point","properties":{"Station_ID":"MA-MD-81","Station_Nam":"WAKEFIELD 0.5 NNW, MA","Latitude":"42.51171","Longitude":"-71.07007","Snowdepth":"1.500","Units":"in","Rept_Date":"2020-12-06 12"},"coordinates":[8235,4266]},{"type":"Point","properties":{"Station_ID":"MA-MD-44","Station_Nam":"MEDFORD 1.2 W, MA","Latitude":"42.42276","Longitude":"-71.13180","Snowdepth":"1.500","Units":"in","Rept_Date":"2020-12-06 10"},"coordinates":[8216,4211]},{"type":"Point","properties":{"Station_ID":"MA-HS-14","Station_Nam":"PLAINFIELD 2.4 ESE, MA","Latitude":"42.49792","Longitude":"-72.87769","Snowdepth":"1.500","Units":"in","Rept_Date":"2020-12-06 12"},"coordinates":[7662,4257]},{"type":"Point","properties":{"Station_ID":"MA-HD-30","Station_Nam":"HAMPDEN 2.0 NW, MA","Latitude":"42.08370","Longitude":"-72.44895","Snowdepth":"1.500","Units":"in","Rept_Date":"2020-12-06 13"},"coordinates":[7798,4000]},{"type":"Point","properties":{"Station_ID":"MA-ES-58","Station_Nam":"MIDDLETON 1.4 SSW, MA","Latitude":"42.58133","Longitude":"-71.02707","Snowdepth":"1.500","Units":"in","Rept_Date":"2020-12-06 13"},"coordinates":[8249,4309]},{"type":"Point","properties":{"Station_ID":"CAN-NB-13","Station_Nam":"BATHURST 3.8 NW, CAN","Latitude":"47.64212","Longitude":"-65.68756","Snowdepth":"1.500","Units":"in","Rept_Date":"2020-12-06 11"},"coordinates":[9942,7458]},{"type":"Point","properties":{"Station_ID":"CAN-MB-56","Station_Nam":"WINNIPEG 7.6 ENE, CAN","Latitude":"49.93264","Longitude":"-97.04752","Snowdepth":"1.500","Units":"in","Rept_Date":"2020-12-06 14"},"coordinates":[0,8883]},{"type":"Point","properties":{"Station_ID":"MA-NF-58","Station_Nam":"PLAINVILLE 0.6 NNW, MA","Latitude":"42.00830","Longitude":"-71.33850","Snowdepth":"1.300","Units":"in","Rept_Date":"2020-12-06 12"},"coordinates":[8150,3953]},{"type":"Point","properties":{"Station_ID":"WYON6","Station_Nam":"WYOMING 3W","Latitude":"42.82020","Longitude":"-78.14780","Snowdepth":"1.000","Units":"in","Rept_Date":"2020-12-06 12"},"coordinates":[5992,4458]},{"type":"Point","properties":{"Station_ID":"WTNM4","Station_Nam":"WATTON 2WSW","Latitude":"46.52660","Longitude":"-88.64240","Snowdepth":"1.000","Units":"in","Rept_Date":"2020-12-06 13"},"coordinates":[2665,6764]},{"type":"Point","properties":{"Station_ID":"WRUM5","Station_Nam":"WARROAD 4W","Latitude":"48.89600","Longitude":"-95.40700","Snowdepth":"1.000","Units":"in","Rept_Date":"2020-12-07 04"},"coordinates":[520,8238]},{"type":"Point","properties":{"Station_ID":"WORV1","Station_Nam":"WORCESTER 2 W","Latitude":"44.37470","Longitude":"-72.58220","Snowdepth":"1.000","Units":"in","Rept_Date":"2020-12-06 12"},"coordinates":[7756,5425]},{"type":"Point","properties":{"Station_ID":"WNSR1","Station_Nam":"WOONSOCKET","Latitude":"41.98440","Longitude":"-71.49070","Snowdepth":"1.000","Units":"in","Rept_Date":"2020-12-06 13"},"coordinates":[8102,3938]},{"type":"Point","properties":{"Station_ID":"WNDP1","Station_Nam":"WINDBER COUNTY CLUB","Latitude":"40.28780","Longitude":"-78.77530","Snowdepth":"1.000","Units":"in","Rept_Date":"2020-12-06 12"},"coordinates":[5793,2882]},{"type":"Point","properties":{"Station_ID":"WI-IR-3","Station_Nam":"PENCE 0.1 E, WI","Latitude":"46.41555","Longitude":"-90.27013","Snowdepth":"1.000","Units":"in","Rept_Date":"2020-12-06 13"},"coordinates":[2149,6695]},{"type":"Point","properties":{"Station_ID":"WALM3","Station_Nam":"WALPOLE 2","Latitude":"42.16090","Longitude":"-71.24610","Snowdepth":"1.000","Units":"in","Rept_Date":"2020-12-06 12"},"coordinates":[8180,4048]},{"type":"Point","properties":{"Station_ID":"VT-WS-30","Station_Nam":"WOODBURY 3.4 NNW, VT","Latitude":"44.48825","Longitude":"-72.43258","Snowdepth":"1.000","Units":"in","Rept_Date":"2020-12-06 12"},"coordinates":[7803,5496]},{"type":"Point","properties":{"Station_ID":"VT-WR-19","Station_Nam":"HARTLAND 1.4 SW, VT","Latitude":"43.52591","Longitude":"-72.41903","Snowdepth":"1.000","Units":"in","Rept_Date":"2020-12-06 12"},"coordinates":[7808,4897]},{"type":"Point","properties":{"Station_ID":"VT-WH-19","Station_Nam":"EAST DOVER 1.8 N, VT","Latitude":"42.97658","Longitude":"-72.77637","Snowdepth":"1.000","Units":"in","Rept_Date":"2020-12-06 13"},"coordinates":[7694,4555]},{"type":"Point","properties":{"Station_ID":"VT-OL-1","Station_Nam":"WESTFIELD 0.7 WNW, VT","Latitude":"44.89160","Longitude":"-72.44350","Snowdepth":"1.000","Units":"in","Rept_Date":"2020-12-06 12"},"coordinates":[7800,5746]},{"type":"Point","properties":{"Station_ID":"VT-CL-27","Station_Nam":"DANVILLE 0.4 N, VT","Latitude":"44.41769","Longitude":"-72.13936","Snowdepth":"1.000","Units":"in","Rept_Date":"2020-12-06 12"},"coordinates":[7896,5452]},{"type":"Point","properties":{"Station_ID":"TSVP1","Station_Nam":"TITUSVILLE,PA","Latitude":"41.63330","Longitude":"-79.70000","Snowdepth":"1.000","Units":"in","Rept_Date":"2020-12-06 12"},"coordinates":[5500,3719]},{"type":"Point","properties":{"Station_ID":"TOPM1","Station_Nam":"TOPSFIELD","Latitude":"45.43470","Longitude":"-67.72020","Snowdepth":"1.000","Units":"in","Rept_Date":"2020-12-06 10"},"coordinates":[9297,6084]},{"type":"Point","properties":{"Station_ID":"TOGM5","Station_Nam":"CELINA 2E","Latitude":"47.86630","Longitude":"-93.02660","Snowdepth":"1.000","Units":"in","Rept_Date":"2020-12-06 15"},"coordinates":[1275,7597]},{"type":"Point","properties":{"Station_ID":"TMWN3","Station_Nam":"TAMWORTH 4","Latitude":"43.86390","Longitude":"-71.26610","Snowdepth":"1.000","Units":"in","Rept_Date":"2020-12-06 12"},"coordinates":[8173,5107]},{"type":"Point","properties":{"Station_ID":"SJBV1","Station_Nam":"SAINT JOHNSBURY","Latitude":"44.42000","Longitude":"-72.01940","Snowdepth":"1.000","Units":"in","Rept_Date":"2020-12-06 21"},"coordinates":[7934,5453]},{"type":"Point","properties":{"Station_ID":"ROWM3","Station_Nam":"ROWE 3NE","Latitude":"42.73500","Longitude":"-72.86920","Snowdepth":"1.000","Units":"in","Rept_Date":"2020-12-06 14"},"coordinates":[7665,4405]},{"type":"Point","properties":{"Station_ID":"RI-WS-58","Station_Nam":"KINGSTON 0.3 SW, RI","Latitude":"41.46926","Longitude":"-71.52769","Snowdepth":"1.000","Units":"in","Rept_Date":"2020-12-06 12"},"coordinates":[8090,3617]},{"type":"Point","properties":{"Station_ID":"RI-KN-21","Station_Nam":"COVENTRY 1.9 NE, RI","Latitude":"41.71140","Longitude":"-71.54779","Snowdepth":"1.000","Units":"in","Rept_Date":"2020-12-06 12"},"coordinates":[8084,3768]},{"type":"Point","properties":{"Station_ID":"PLFV1","Station_Nam":"PLAINFIELD","Latitude":"44.27610","Longitude":"-72.41500","Snowdepth":"1.000","Units":"in","Rept_Date":"2020-12-06 12"},"coordinates":[7809,5364]},{"type":"Point","properties":{"Station_ID":"PHEW3","Station_Nam":"PHELPS","Latitude":"46.06630","Longitude":"-89.07520","Snowdepth":"1.000","Units":"in","Rept_Date":"2020-12-06 13"},"coordinates":[2527,6477]},{"type":"Point","properties":{"Station_ID":"PERV1","Station_Nam":"PERU","Latitude":"43.26670","Longitude":"-72.90000","Snowdepth":"1.000","Units":"in","Rept_Date":"2020-12-06 12"},"coordinates":[7655,4736]},{"type":"Point","properties":{"Station_ID":"PDGM4","Station_Nam":"PAULDING","Latitude":"46.39760","Longitude":"-89.17940","Snowdepth":"1.000","Units":"in","Rept_Date":"2020-12-06 13"},"coordinates":[2494,6683]},{"type":"Point","properties":{"Station_ID":"PA-FR-2","Station_Nam":"MARIENVILLE 5.3 W, PA","Latitude":"41.45710","Longitude":"-79.18150","Snowdepth":"1.000","Units":"in","Rept_Date":"2020-12-06 11"},"coordinates":[5664,3610]},{"type":"Point","properties":{"Station_ID":"PA-FR-1","Station_Nam":"TIONESTA 7.3 SSE, PA","Latitude":"41.39404","Longitude":"-79.41310","Snowdepth":"1.000","Units":"in","Rept_Date":"2020-12-06 12"},"coordinates":[5590,3571]},{"type":"Point","properties":{"Station_ID":"NY-WY-10","Station_Nam":"WYOMING COOP, NY","Latitude":"42.82060","Longitude":"-78.14810","Snowdepth":"1.000","Units":"in","Rept_Date":"2020-12-06 12"},"coordinates":[5991,4458]},{"type":"Point","properties":{"Station_ID":"NY-WN-6","Station_Nam":"PALMYRA 1.6 NW, NY","Latitude":"43.07950","Longitude":"-77.25260","Snowdepth":"1.000","Units":"in","Rept_Date":"2020-12-06 13"},"coordinates":[6275,4619]},{"type":"Point","properties":{"Station_ID":"NY-WN-18","Station_Nam":"MACEDON 2.6 ESE, NY","Latitude":"43.05200","Longitude":"-77.25700","Snowdepth":"1.000","Units":"in","Rept_Date":"2020-12-06 12"},"coordinates":[6274,4602]},{"type":"Point","properties":{"Station_ID":"NY-TM-27","Station_Nam":"GROTON 3.2 SSW, NY","Latitude":"42.54725","Longitude":"-76.39960","Snowdepth":"1.000","Units":"in","Rept_Date":"2020-12-06 14"},"coordinates":[6546,4288]},{"type":"Point","properties":{"Station_ID":"NY-SY-1","Station_Nam":"SMITH VALLEY 1.9 SE, NY","Latitude":"42.39072","Longitude":"-76.71760","Snowdepth":"1.000","Units":"in","Rept_Date":"2020-12-06 12"},"coordinates":[6445,4191]},{"type":"Point","properties":{"Station_ID":"NY-LV-5","Station_Nam":"DANSVILLE 1.0 ENE, NY","Latitude":"42.56802","Longitude":"-77.67900","Snowdepth":"1.000","Units":"in","Rept_Date":"2020-12-06 12"},"coordinates":[6140,4301]},{"type":"Point","properties":{"Station_ID":"NY-FK-7","Station_Nam":"SARANAC LAKE 6.2 N, NY","Latitude":"44.41359","Longitude":"-74.15211","Snowdepth":"1.000","Units":"in","Rept_Date":"2020-12-06 12"},"coordinates":[7258,5449]},{"type":"Point","properties":{"Station_ID":"NY-DL-28","Station_Nam":"FLEISCHMANNS 5.7 N, NY","Latitude":"42.23779","Longitude":"-74.52335","Snowdepth":"1.000","Units":"in","Rept_Date":"2020-12-06 12"},"coordinates":[7141,4095]},{"type":"Point","properties":{"Station_ID":"NY-CQ-34","Station_Nam":"KENNEDY 2.6 SE, NY","Latitude":"42.12567","Longitude":"-79.07235","Snowdepth":"1.000","Units":"in","Rept_Date":"2020-12-06 13"},"coordinates":[5698,4026]},{"type":"Point","properties":{"Station_ID":"NY-CM-24","Station_Nam":"CHEMUNG 5.7 N, NY","Latitude":"42.09130","Longitude":"-76.62810","Snowdepth":"1.000","Units":"in","Rept_Date":"2020-12-06 14"},"coordinates":[6473,4004]},{"type":"Point","properties":{"Station_ID":"NH-ST-19","Station_Nam":"DOVER 0.8 E, NH","Latitude":"43.18762","Longitude":"-70.86850","Snowdepth":"1.000","Units":"in","Rept_Date":"2020-12-06 12"},"coordinates":[8299,4686]},{"type":"Point","properties":{"Station_ID":"NH-SL-3","Station_Nam":"WEST UNITY 0.7 WSW, NH","Latitude":"43.28652","Longitude":"-72.32970","Snowdepth":"1.000","Units":"in","Rept_Date":"2020-12-06 12"},"coordinates":[7836,4748]},{"type":"Point","properties":{"Station_ID":"NH-MR-63","Station_Nam":"SUTTON MILLS 0.1 ENE, NH","Latitude":"43.33522","Longitude":"-71.95126","Snowdepth":"1.000","Units":"in","Rept_Date":"2020-12-06 12"},"coordinates":[7956,4778]},{"type":"Point","properties":{"Station_ID":"NH-MR-60","Station_Nam":"SOUTH SUTTON 1.3 SE, NH","Latitude":"43.29531","Longitude":"-71.90238","Snowdepth":"1.000","Units":"in","Rept_Date":"2020-12-06 13"},"coordinates":[7972,4753]},{"type":"Point","properties":{"Station_ID":"NH-GR-55","Station_Nam":"BRISTOL 3.7 E, NH","Latitude":"43.60517","Longitude":"-71.67158","Snowdepth":"1.000","Units":"in","Rept_Date":"2020-12-06 12"},"coordinates":[8045,4946]},{"type":"Point","properties":{"Station_ID":"NH-CR-26","Station_Nam":"CENTER SANDWICH 4.9 E, NH","Latitude":"43.80976","Longitude":"-71.34150","Snowdepth":"1.000","Units":"in","Rept_Date":"2020-12-06 12"},"coordinates":[8149,5073]},{"type":"Point","properties":{"Station_ID":"NH-BK-9","Station_Nam":"MEREDITH 2.9 SSW, NH","Latitude":"43.62245","Longitude":"-71.53510","Snowdepth":"1.000","Units":"in","Rept_Date":"2020-12-06 12"},"coordinates":[8088,4957]},{"type":"Point","properties":{"Station_ID":"NH-BK-29","Station_Nam":"SANBORNTON 2.3 WNW, NH","Latitude":"43.49730","Longitude":"-71.62800","Snowdepth":"1.000","Units":"in","Rept_Date":"2020-12-06 12"},"coordinates":[8058,4879]},{"type":"Point","properties":{"Station_ID":"NH-BK-18","Station_Nam":"NEW HAMPTON 4.1 N, NH","Latitude":"43.66397","Longitude":"-71.64270","Snowdepth":"1.000","Units":"in","Rept_Date":"2020-12-06 12"},"coordinates":[8054,4983]},{"type":"Point","properties":{"Station_ID":"MQT","Station_Nam":"MARQUETTE, MI","Latitude":"46.53140","Longitude":"-87.54920","Snowdepth":"1.000","Units":"in","Rept_Date":"2020-12-07 06"},"coordinates":[3011,6767]},{"type":"Point","properties":{"Station_ID":"MN-SL-108","Station_Nam":"IRON JUNCTION 3.4 NNW, MN","Latitude":"47.46150","Longitude":"-92.63130","Snowdepth":"1.000","Units":"in","Rept_Date":"2020-12-06 13"},"coordinates":[1400,7345]},{"type":"Point","properties":{"Station_ID":"MMTN7","Station_Nam":"MOUNT MITCHELL STATE PARK","Latitude":"35.75940","Longitude":"-82.27110","Snowdepth":"1.000","Units":"in","Rept_Date":"2020-12-06 15"},"coordinates":[4684,65]},{"type":"Point","properties":{"Station_ID":"MECN6","Station_Nam":"MECKLENBURG 4 SW","Latitude":"42.44220","Longitude":"-76.75740","Snowdepth":"1.000","Units":"in","Rept_Date":"2020-12-06 12"},"coordinates":[6432,4223]},{"type":"Point","properties":{"Station_ID":"ME-YK-28","Station_Nam":"BIDDEFORD 1.5 NNE, ME","Latitude":"43.48679","Longitude":"-70.43470","Snowdepth":"1.000","Units":"in","Rept_Date":"2020-12-06 12"},"coordinates":[8437,4872]},{"type":"Point","properties":{"Station_ID":"ME-WL-8","Station_Nam":"WINTERPORT 2.9 N, ME","Latitude":"44.69369","Longitude":"-68.84800","Snowdepth":"1.000","Units":"in","Rept_Date":"2020-12-06 12"},"coordinates":[8940,5623]},{"type":"Point","properties":{"Station_ID":"ME-SG-16","Station_Nam":"TOPSHAM 3.7 NE, ME","Latitude":"43.96548","Longitude":"-69.88555","Snowdepth":"1.000","Units":"in","Rept_Date":"2020-12-06 12"},"coordinates":[8611,5170]},{"type":"Point","properties":{"Station_ID":"ME-HN-2","Station_Nam":"EAST SURRY, ME","Latitude":"44.49367","Longitude":"-68.45775","Snowdepth":"1.000","Units":"in","Rept_Date":"2020-12-06 13"},"coordinates":[9064,5499]},{"type":"Point","properties":{"Station_ID":"ME-CM-98","Station_Nam":"SEBAGO 2.4 ESE, ME","Latitude":"43.88000","Longitude":"-70.63000","Snowdepth":"1.000","Units":"in","Rept_Date":"2020-12-06 17"},"coordinates":[8375,5117]},{"type":"Point","properties":{"Station_ID":"MBGM7","Station_Nam":"MISSOURI BOTANICAL GARDENS","Latitude":"38.61280","Longitude":"-90.26080","Snowdepth":"1.000","Units":"in","Rept_Date":"2020-12-07 06"},"coordinates":[2152,1840]},{"type":"Point","properties":{"Station_ID":"MA-MD-96","Station_Nam":"LEXINGTON 0.3 NE, MA","Latitude":"42.44944","Longitude":"-71.22791","Snowdepth":"1.000","Units":"in","Rept_Date":"2020-12-06 12"},"coordinates":[8185,4227]},{"type":"Point","properties":{"Station_ID":"MA-MD-52","Station_Nam":"LEXINGTON 0.6 SW, MA","Latitude":"42.43983","Longitude":"-71.24047","Snowdepth":"1.000","Units":"in","Rept_Date":"2020-12-06 12"},"coordinates":[8181,4221]},{"type":"Point","properties":{"Station_ID":"MA-MD-119","Station_Nam":"WATERTOWN 1.1 W, MA","Latitude":"42.37109","Longitude":"-71.19949","Snowdepth":"1.000","Units":"in","Rept_Date":"2020-12-06 12"},"coordinates":[8194,4178]},{"type":"Point","properties":{"Station_ID":"MA-HS-7","Station_Nam":"PLAINFIELD 2.2 SW, MA","Latitude":"42.49272","Longitude":"-72.94540","Snowdepth":"1.000","Units":"in","Rept_Date":"2020-12-06 13"},"coordinates":[7641,4254]},{"type":"Point","properties":{"Station_ID":"MA-ES-66","Station_Nam":"NORTH ANDOVER 0.3 NW, MA","Latitude":"42.70375","Longitude":"-71.12029","Snowdepth":"1.000","Units":"in","Rept_Date":"2020-12-06 13"},"coordinates":[8219,4385]},{"type":"Point","properties":{"Station_ID":"MA-BE-21","Station_Nam":"CHESHIRE 0.5 NNW, MA","Latitude":"42.56315","Longitude":"-73.15701","Snowdepth":"1.000","Units":"in","Rept_Date":"2020-12-06 12"},"coordinates":[7574,4298]},{"type":"Point","properties":{"Station_ID":"LVDW3","Station_Nam":"LAC VIEUX DESERT","Latitude":"46.12110","Longitude":"-89.07580","Snowdepth":"1.000","Units":"in","Rept_Date":"2020-12-06 14"},"coordinates":[2527,6511]},{"type":"Point","properties":{"Station_ID":"LPLN6","Station_Nam":"LAKE PLACID 2 S","Latitude":"44.30420","Longitude":"-73.98390","Snowdepth":"1.000","Units":"in","Rept_Date":"2020-12-06 14"},"coordinates":[7312,5381]},{"type":"Point","properties":{"Station_ID":"LBRM5","Station_Nam":"LAKE BRONSON DAM","Latitude":"48.72410","Longitude":"-96.62180","Snowdepth":"1.000","Units":"in","Rept_Date":"2020-12-06 14"},"coordinates":[135,8131]},{"type":"Point","properties":{"Station_ID":"KPSM","Station_Nam":"PEASE AIR FORCE BASE / PORTSMOUTH","Latitude":"43.08333","Longitude":"-70.81666","Snowdepth":"1.000","Units":"in","Rept_Date":"2020-12-07 06"},"coordinates":[8316,4621]},{"type":"Point","properties":{"Station_ID":"KCLE","Station_Nam":"CLEVELAND-HOPKINS INTERNATIONAL","Latitude":"41.40000","Longitude":"-81.85000","Snowdepth":"1.000","Units":"in","Rept_Date":"2020-12-07 06"},"coordinates":[4818,3574]},{"type":"Point","properties":{"Station_ID":"KBGR","Station_Nam":"BANGOR INTL AIRPORT","Latitude":"44.80000","Longitude":"-68.81666","Snowdepth":"1.000","Units":"in","Rept_Date":"2020-12-07 06"},"coordinates":[8950,5689]},{"type":"Point","properties":{"Station_ID":"KABM5","Station_Nam":"KABETOGAMA LAKE VISITOR CTR","Latitude":"48.40880","Longitude":"-93.04840","Snowdepth":"1.000","Units":"in","Rept_Date":"2020-12-06 13"},"coordinates":[1268,7935]},{"type":"Point","properties":{"Station_ID":"JOHV1","Station_Nam":"JOHNSON 2 N","Latitude":"44.65790","Longitude":"-72.67850","Snowdepth":"1.000","Units":"in","Rept_Date":"2020-12-06 12"},"coordinates":[7725,5601]},{"type":"Point","properties":{"Station_ID":"JEFV1","Station_Nam":"JEFFERSONVILLE","Latitude":"44.58430","Longitude":"-72.78700","Snowdepth":"1.000","Units":"in","Rept_Date":"2020-12-06 12"},"coordinates":[7691,5555]},{"type":"Point","properties":{"Station_ID":"IWOM4","Station_Nam":"IRONWOOD#2","Latitude":"46.46520","Longitude":"-90.13820","Snowdepth":"1.000","Units":"in","Rept_Date":"2020-12-06 13"},"coordinates":[2190,6725]},{"type":"Point","properties":{"Station_ID":"ESDN3","Station_Nam":"EAST SANDWICH","Latitude":"43.80990","Longitude":"-71.34250","Snowdepth":"1.000","Units":"in","Rept_Date":"2020-12-06 11"},"coordinates":[8149,5074]},{"type":"Point","properties":{"Station_ID":"EPPN3","Station_Nam":"EPPING","Latitude":"43.03020","Longitude":"-71.08380","Snowdepth":"1.000","Units":"in","Rept_Date":"2020-12-06 12"},"coordinates":[8231,4588]},{"type":"Point","properties":{"Station_ID":"ELYM5","Station_Nam":"ELY","Latitude":"47.90560","Longitude":"-91.82830","Snowdepth":"1.000","Units":"in","Rept_Date":"2020-12-06 14"},"coordinates":[1655,7622]},{"type":"Point","properties":{"Station_ID":"CT-WN-4","Station_Nam":"EAST KILLINGLY 1.3 SW, CT","Latitude":"41.83813","Longitude":"-71.83910","Snowdepth":"1.000","Units":"in","Rept_Date":"2020-12-06 10"},"coordinates":[7992,3847]},{"type":"Point","properties":{"Station_ID":"CT-TL-35","Station_Nam":"SOMERSVILLE 0.2 ENE, CT","Latitude":"41.98391","Longitude":"-72.48394","Snowdepth":"1.000","Units":"in","Rept_Date":"2020-12-06 12"},"coordinates":[7787,3937]},{"type":"Point","properties":{"Station_ID":"CT-LT-9","Station_Nam":"NEW HARTFORD CENTER 3.2 SW, CT","Latitude":"41.84170","Longitude":"-73.00920","Snowdepth":"1.000","Units":"in","Rept_Date":"2020-12-06 12"},"coordinates":[7621,3849]},{"type":"Point","properties":{"Station_ID":"CT-LT-33","Station_Nam":"TORRINGTON 1.1 SSE, CT","Latitude":"41.82100","Longitude":"-73.12012","Snowdepth":"1.000","Units":"in","Rept_Date":"2020-12-06 12"},"coordinates":[7585,3836]},{"type":"Point","properties":{"Station_ID":"CT-HR-22","Station_Nam":"EAST HARTFORD 1.3 E, CT","Latitude":"41.75716","Longitude":"-72.59160","Snowdepth":"1.000","Units":"in","Rept_Date":"2020-12-06 14"},"coordinates":[7753,3796]},{"type":"Point","properties":{"Station_ID":"CT-HR-15","Station_Nam":"SOUTHINGTON 3.0 E, CT","Latitude":"41.60798","Longitude":"-72.82220","Snowdepth":"1.000","Units":"in","Rept_Date":"2020-12-06 12"},"coordinates":[7680,3704]},{"type":"Point","properties":{"Station_ID":"COLN3","Station_Nam":"COLEBROOK 3SW","Latitude":"44.86100","Longitude":"-71.53920","Snowdepth":"1.000","Units":"in","Rept_Date":"2020-12-06 11"},"coordinates":[8087,5727]},{"type":"Point","properties":{"Station_ID":"CLKM4","Station_Nam":"CLARKSBURG","Latitude":"46.49910","Longitude":"-87.84500","Snowdepth":"1.000","Units":"in","Rept_Date":"2020-12-06 12"},"coordinates":[2917,6747]},{"type":"Point","properties":{"Station_ID":"CLE","Station_Nam":"CLEVELAND, OH","Latitude":"41.41170","Longitude":"-81.84970","Snowdepth":"1.000","Units":"in","Rept_Date":"2020-12-07 00"},"coordinates":[4818,3581]},{"type":"Point","properties":{"Station_ID":"CAN-NB-11","Station_Nam":"MIRAMICHI 3.3 S, CAN","Latitude":"46.99343","Longitude":"-65.50690","Snowdepth":"1.000","Units":"in","Rept_Date":"2020-12-06 13"},"coordinates":[9999,7054]},{"type":"Point","properties":{"Station_ID":"CAAW2","Station_Nam":"CANAAN VALLEY","Latitude":"39.05890","Longitude":"-79.44030","Snowdepth":"1.000","Units":"in","Rept_Date":"2020-12-06 14"},"coordinates":[5582,2118]},{"type":"Point","properties":{"Station_ID":"BTHM1","Station_Nam":"BATH","Latitude":"43.93160","Longitude":"-69.85640","Snowdepth":"1.000","Units":"in","Rept_Date":"2020-12-06 12"},"coordinates":[8620,5149]},{"type":"Point","properties":{"Station_ID":"BGRM1","Station_Nam":"BANGOR FSS","Latitude":"44.80440","Longitude":"-68.81330","Snowdepth":"1.000","Units":"in","Rept_Date":"2020-12-07 06"},"coordinates":[8951,5692]},{"type":"Point","properties":{"Station_ID":"BEVM3","Station_Nam":"BEVERLY","Latitude":"42.58800","Longitude":"-70.83710","Snowdepth":"1.000","Units":"in","Rept_Date":"2020-12-06 13"},"coordinates":[8309,4313]},{"type":"Point","properties":{"Station_ID":"BCHN7","Station_Nam":"BEECH MOUNTAIN","Latitude":"36.18780","Longitude":"-81.87360","Snowdepth":"1.000","Units":"in","Rept_Date":"2020-12-06 12"},"coordinates":[4810,331]},{"type":"Point","properties":{"Station_ID":"BAKC3","Station_Nam":"BAKERSVILLE","Latitude":"41.84180","Longitude":"-73.00850","Snowdepth":"1.000","Units":"in","Rept_Date":"2020-12-06 12"},"coordinates":[7621,3849]},{"type":"Point","properties":{"Station_ID":"AURN6","Station_Nam":"AURORA RESEARCH FARM","Latitude":"42.73380","Longitude":"-76.65910","Snowdepth":"1.000","Units":"in","Rept_Date":"2020-12-06 12"},"coordinates":[6464,4404]},{"type":"Point","properties":{"Station_ID":"41.3476_082.0754","Station_Nam":"3 SE Elyria  Trained Spotter (X4130821)","Latitude":"41.34759","Longitude":"-82.07538","Snowdepth":"1.000","Units":"in","Rept_Date":"2020-12-06 15"},"coordinates":[4746,3542]}]}},"arcs":[],"transform":{"scale":[0.0031543774377437747,0.0016073507350735073],"translate":[-97.04752,35.655]}}