{"type":"Topology","objects":{"snowdepth_geo":{"type":"GeometryCollection","name":"snowdepth","crs":{"type":"name","properties":{"name":"urn:ogc:def:crs:OGC:1.3:CRS84"}},"geometries":[{"type":"Point","properties":{"Station_ID":"PRKM4","Station_Nam":"MUNISING EAST","Latitude":"46.42580","Longitude":"-86.62000","Snowdepth":"76.500","Units":"in","Rept_Date":"2021-03-03 06"},"coordinates":[2553,5957]},{"type":"Point","properties":{"Station_ID":"MMNV1","Station_Nam":"MT. MANSFIELD","Latitude":"44.52480","Longitude":"-72.81540","Snowdepth":"55.000","Units":"in","Rept_Date":"2021-03-02 21"},"coordinates":[5872,4508]},{"type":"Point","properties":{"Station_ID":"HTLN3","Station_Nam":"HERMIT LAKE SNOWPLOT","Latitude":"44.26130","Longitude":"-71.28330","Snowdepth":"51.000","Units":"in","Rept_Date":"2021-03-02 10"},"coordinates":[6241,4307]},{"type":"Point","properties":{"Station_ID":"HLSN3","Station_Nam":"HERMIT LAKE SNOTEL","Latitude":"44.26130","Longitude":"-71.28320","Snowdepth":"47.280","Units":"in","Rept_Date":"2021-03-03 06"},"coordinates":[6241,4307]},{"type":"Point","properties":{"Station_ID":"CAN-NB-11","Station_Nam":"MIRAMICHI 3.3 S, CAN","Latitude":"46.99343","Longitude":"-65.50690","Snowdepth":"47.000","Units":"in","Rept_Date":"2021-03-02 11"},"coordinates":[7630,6390]},{"type":"Point","properties":{"Station_ID":"GKBN3","Station_Nam":"GRAY KNOB","Latitude":"44.33260","Longitude":"-71.30930","Snowdepth":"43.000","Units":"in","Rept_Date":"2021-03-02 10"},"coordinates":[6235,4361]},{"type":"Point","properties":{"Station_ID":"PDLM4","Station_Nam":"PAINESDALE","Latitude":"47.04160","Longitude":"-88.67170","Snowdepth":"42.000","Units":"in","Rept_Date":"2021-03-02 13"},"coordinates":[2060,6427]},{"type":"Point","properties":{"Station_ID":"HGHN6","Station_Nam":"HIGHMARKET","Latitude":"43.60510","Longitude":"-75.55430","Snowdepth":"34.000","Units":"in","Rept_Date":"2021-03-02 11"},"coordinates":[5214,3806]},{"type":"Point","properties":{"Station_ID":"PTLQ6","Station_Nam":"PORTAGE LAKE","Latitude":"49.06950","Longitude":"-86.65940","Snowdepth":"33.460","Units":"in","Rept_Date":"2021-03-03 06"},"coordinates":[2544,7973]},{"type":"Point","properties":{"Station_ID":"KSGM4","Station_Nam":"KEARSARGE","Latitude":"47.27520","Longitude":"-88.41700","Snowdepth":"33.000","Units":"in","Rept_Date":"2021-03-02 13"},"coordinates":[2121,6605]},{"type":"Point","properties":{"Station_ID":"QNCM4","Station_Nam":"QUINCY HILL","Latitude":"47.13640","Longitude":"-88.57950","Snowdepth":"32.000","Units":"in","Rept_Date":"2021-03-02 12"},"coordinates":[2082,6499]},{"type":"Point","properties":{"Station_ID":"LVDW3","Station_Nam":"LAC VIEUX DESERT","Latitude":"46.12110","Longitude":"-89.07580","Snowdepth":"32.000","Units":"in","Rept_Date":"2021-03-02 14"},"coordinates":[1963,5725]},{"type":"Point","properties":{"Station_ID":"CAN-NB-13","Station_Nam":"BATHURST 3.8 NW, CAN","Latitude":"47.64212","Longitude":"-65.68756","Snowdepth":"32.000","Units":"in","Rept_Date":"2021-03-02 11"},"coordinates":[7586,6885]},{"type":"Point","properties":{"Station_ID":"CAN-NB-105","Station_Nam":"SISSON BROOK 3.8 E, CAN","Latitude":"46.98305","Longitude":"-67.32532","Snowdepth":"31.900","Units":"in","Rept_Date":"2021-03-02 12"},"coordinates":[7193,6382]},{"type":"Point","properties":{"Station_ID":"TRIQ6","Station_Nam":"TRIO LAKE","Latitude":"49.22880","Longitude":"-87.22920","Snowdepth":"31.540","Units":"in","Rept_Date":"2021-03-03 06"},"coordinates":[2407,8094]},{"type":"Point","properties":{"Station_ID":"HERM4","Station_Nam":"HERMAN,MI","Latitude":"46.65000","Longitude":"-88.33330","Snowdepth":"31.000","Units":"in","Rept_Date":"2021-03-02 13"},"coordinates":[2141,6128]},{"type":"Point","properties":{"Station_ID":"CAN-NS-39","Station_Nam":"ST. ANNS 2.8 NW, CA","Latitude":"46.25082","Longitude":"-60.64340","Snowdepth":"31.000","Units":"in","Rept_Date":"2021-03-02 12"},"coordinates":[8799,5824]},{"type":"Point","properties":{"Station_ID":"CAN-NB-96","Station_Nam":"SAINT-IGNACE 2.6 NE, CAN","Latitude":"46.71424","Longitude":"-65.05609","Snowdepth":"30.300","Units":"in","Rept_Date":"2021-03-02 11"},"coordinates":[7738,6177]},{"type":"Point","properties":{"Station_ID":"VT-BN-12","Station_Nam":"STAMFORD 5.0 NNE, VT","Latitude":"42.82000","Longitude":"-73.02000","Snowdepth":"29.000","Units":"in","Rept_Date":"2021-03-02 21"},"coordinates":[5823,3208]},{"type":"Point","properties":{"Station_ID":"LBKV1","Station_Nam":"LYE BROOK","Latitude":"43.05000","Longitude":"-73.03330","Snowdepth":"29.000","Units":"in","Rept_Date":"2021-03-03 05"},"coordinates":[5820,3383]},{"type":"Point","properties":{"Station_ID":"HOKN6","Station_Nam":"HOOKER 12 NNW","Latitude":"43.85240","Longitude":"-75.71580","Snowdepth":"29.000","Units":"in","Rept_Date":"2021-03-02 11"},"coordinates":[5175,3995]},{"type":"Point","properties":{"Station_ID":"AUDQ6","Station_Nam":"AUDEN","Latitude":"48.52600","Longitude":"-82.57570","Snowdepth":"28.860","Units":"in","Rept_Date":"2021-03-03 06"},"coordinates":[3526,7558]},{"type":"Point","properties":{"Station_ID":"DVLQ6","Station_Nam":"DEVIOUS LAKE","Latitude":"49.19890","Longitude":"-87.76440","Snowdepth":"28.820","Units":"in","Rept_Date":"2021-03-03 06"},"coordinates":[2278,8072]},{"type":"Point","properties":{"Station_ID":"MI-HG-20","Station_Nam":"CALUMET 1.1 SSW, MI","Latitude":"47.23165","Longitude":"-88.45823","Snowdepth":"28.500","Units":"in","Rept_Date":"2021-03-02 11"},"coordinates":[2111,6572]},{"type":"Point","properties":{"Station_ID":"NY-HR-18","Station_Nam":"SALISBURY CENTER 1.8 NW, NY","Latitude":"43.16260","Longitude":"-74.80880","Snowdepth":"28.000","Units":"in","Rept_Date":"2021-03-02 11"},"coordinates":[5393,3469]},{"type":"Point","properties":{"Station_ID":"VT-BN-3","Station_Nam":"LANDGROVE 1.1 NNE, VT","Latitude":"43.29092","Longitude":"-72.83260","Snowdepth":"27.000","Units":"in","Rept_Date":"2021-03-02 12"},"coordinates":[5868,3567]},{"type":"Point","properties":{"Station_ID":"PERV1","Station_Nam":"PERU","Latitude":"43.26670","Longitude":"-72.90000","Snowdepth":"27.000","Units":"in","Rept_Date":"2021-03-02 12"},"coordinates":[5852,3548]},{"type":"Point","properties":{"Station_ID":"NH-CS-10","Station_Nam":"RANDOLPH 1.4 NE, NH","Latitude":"44.38824","Longitude":"-71.26950","Snowdepth":"27.000","Units":"in","Rept_Date":"2021-03-02 12"},"coordinates":[6244,4404]},{"type":"Point","properties":{"Station_ID":"ME-SM-45","Station_Nam":"BRIGHTON PLANTATION 2.1 N, ME","Latitude":"45.07098","Longitude":"-69.69860","Snowdepth":"27.000","Units":"in","Rept_Date":"2021-03-02 12"},"coordinates":[6622,4924]},{"type":"Point","properties":{"Station_ID":"GNLM4","Station_Nam":"GREENLAND 6N","Latitude":"46.87360","Longitude":"-89.10060","Snowdepth":"27.000","Units":"in","Rept_Date":"2021-03-02 13"},"coordinates":[1957,6299]},{"type":"Point","properties":{"Station_ID":"VT-OL-12","Station_Nam":"GREENSBORO 3.9 NNE, VT","Latitude":"44.63100","Longitude":"-72.28000","Snowdepth":"26.000","Units":"in","Rept_Date":"2021-03-02 13"},"coordinates":[6001,4589]},{"type":"Point","properties":{"Station_ID":"MNSM4","Station_Nam":"MUNISING","Latitude":"46.41210","Longitude":"-86.66250","Snowdepth":"26.000","Units":"in","Rept_Date":"2021-03-02 11"},"coordinates":[2543,5947]},{"type":"Point","properties":{"Station_ID":"GHMN3","Station_Nam":"PINKHAM NOTCH","Latitude":"44.25800","Longitude":"-71.25250","Snowdepth":"26.000","Units":"in","Rept_Date":"2021-03-02 10"},"coordinates":[6248,4304]},{"type":"Point","properties":{"Station_ID":"CARM1","Station_Nam":"CARIBOU WFO","Latitude":"46.86810","Longitude":"-68.01250","Snowdepth":"26.000","Units":"in","Rept_Date":"2021-03-03 05"},"coordinates":[7027,6294]},{"type":"Point","properties":{"Station_ID":"CAR","Station_Nam":"CARIBOU, ME","Latitude":"46.86830","Longitude":"-68.01360","Snowdepth":"26.000","Units":"in","Rept_Date":"2021-03-02 12"},"coordinates":[7027,6295]},{"type":"Point","properties":{"Station_ID":"BOON6","Station_Nam":"BOONVILLE 4 SSW","Latitude":"43.43610","Longitude":"-75.36970","Snowdepth":"26.000","Units":"in","Rept_Date":"2021-03-02 12"},"coordinates":[5258,3678]},{"type":"Point","properties":{"Station_ID":"ME-FR-2","Station_Nam":"TEMPLE 1.8 W, ME","Latitude":"44.68329","Longitude":"-70.26420","Snowdepth":"25.500","Units":"in","Rept_Date":"2021-03-02 12"},"coordinates":[6486,4629]},{"type":"Point","properties":{"Station_ID":"WTNM4","Station_Nam":"WATTON 2WSW","Latitude":"46.52660","Longitude":"-88.64240","Snowdepth":"25.000","Units":"in","Rept_Date":"2021-03-02 13"},"coordinates":[2067,6034]},{"type":"Point","properties":{"Station_ID":"TUPN6","Station_Nam":"TUPPER LAKE SNOW COURSE","Latitude":"44.10560","Longitude":"-74.53440","Snowdepth":"25.000","Units":"in","Rept_Date":"2021-03-02 17"},"coordinates":[5459,4188]},{"type":"Point","properties":{"Station_ID":"TOPN6","Station_Nam":"TUPPER LAKE SUNMOUNT","Latitude":"44.23070","Longitude":"-74.43820","Snowdepth":"25.000","Units":"in","Rept_Date":"2021-03-02 12"},"coordinates":[5482,4283]},{"type":"Point","properties":{"Station_ID":"RQLN6","Station_Nam":"RAQUETTE LAKE","Latitude":"43.80000","Longitude":"-74.66670","Snowdepth":"25.000","Units":"in","Rept_Date":"2021-03-02 17"},"coordinates":[5427,3955]},{"type":"Point","properties":{"Station_ID":"ME-AR-15","Station_Nam":"PRESQUE ISLE 1.3 WSW, ME","Latitude":"46.67960","Longitude":"-68.01270","Snowdepth":"25.000","Units":"in","Rept_Date":"2021-03-02 12"},"coordinates":[7027,6151]},{"type":"Point","properties":{"Station_ID":"LTPN6","Station_Nam":"LITTLE TUPPER LAKE","Latitude":"44.06670","Longitude":"-74.63330","Snowdepth":"25.000","Units":"in","Rept_Date":"2021-03-02 17"},"coordinates":[5435,4158]},{"type":"Point","properties":{"Station_ID":"LPLN6","Station_Nam":"LAKE PLACID 2 S","Latitude":"44.30420","Longitude":"-73.98390","Snowdepth":"25.000","Units":"in","Rept_Date":"2021-03-02 13"},"coordinates":[5591,4339]},{"type":"Point","properties":{"Station_ID":"LLKN6","Station_Nam":"LONG LAKE","Latitude":"43.98330","Longitude":"-74.45000","Snowdepth":"25.000","Units":"in","Rept_Date":"2021-03-02 17"},"coordinates":[5479,4095]},{"type":"Point","properties":{"Station_ID":"FISM1","Station_Nam":"FORT KENT COOP","Latitude":"47.23850","Longitude":"-68.61240","Snowdepth":"25.000","Units":"in","Rept_Date":"2021-03-02 12"},"coordinates":[6883,6577]},{"type":"Point","properties":{"Station_ID":"ERG36","Station_Nam":"NMPS TUPPER LAKE","Latitude":"44.12000","Longitude":"-74.55000","Snowdepth":"25.000","Units":"in","Rept_Date":"2021-03-02 17"},"coordinates":[5455,4199]},{"type":"Point","properties":{"Station_ID":"ERG29","Station_Nam":"NMPS RAQUETTE LAKE","Latitude":"44.23000","Longitude":"-74.75000","Snowdepth":"25.000","Units":"in","Rept_Date":"2021-03-02 17"},"coordinates":[5407,4283]},{"type":"Point","properties":{"Station_ID":"ERG20","Station_Nam":"NMPS LONG LAKE","Latitude":"43.98000","Longitude":"-74.45000","Snowdepth":"25.000","Units":"in","Rept_Date":"2021-03-02 17"},"coordinates":[5479,4092]},{"type":"Point","properties":{"Station_ID":"ERG19","Station_Nam":"NMPS LITTLE TUPPER LAKE","Latitude":"44.07000","Longitude":"-74.63000","Snowdepth":"25.000","Units":"in","Rept_Date":"2021-03-02 17"},"coordinates":[5436,4161]},{"type":"Point","properties":{"Station_ID":"COVM4","Station_Nam":"COVINGTON","Latitude":"46.55880","Longitude":"-88.54190","Snowdepth":"25.000","Units":"in","Rept_Date":"2021-03-02 13"},"coordinates":[2091,6059]},{"type":"Point","properties":{"Station_ID":"VT-OG-10","Station_Nam":"BRAINTREE 2.8 SW, VT","Latitude":"43.93570","Longitude":"-72.74830","Snowdepth":"24.500","Units":"in","Rept_Date":"2021-03-02 12"},"coordinates":[5889,4059]},{"type":"Point","properties":{"Station_ID":"WI-VL-9","Station_Nam":"LAND O' LAKES 11.7 W, WI","Latitude":"46.19023","Longitude":"-89.45790","Snowdepth":"24.000","Units":"in","Rept_Date":"2021-03-02 13"},"coordinates":[1871,5778]},{"type":"Point","properties":{"Station_ID":"MI-HG-1","Station_Nam":"HOUGHTON 1.6 ESE, MI","Latitude":"47.10774","Longitude":"-88.52940","Snowdepth":"24.000","Units":"in","Rept_Date":"2021-03-02 13"},"coordinates":[2094,6477]},{"type":"Point","properties":{"Station_ID":"LNOW3","Station_Nam":"LAND O LAKES","Latitude":"46.19000","Longitude":"-89.45700","Snowdepth":"24.000","Units":"in","Rept_Date":"2021-03-02 13"},"coordinates":[1871,5777]},{"type":"Point","properties":{"Station_ID":"HRSN6","Station_Nam":"HORSESHOE LAKE SNOW COURSE","Latitude":"44.13920","Longitude":"-74.57000","Snowdepth":"24.000","Units":"in","Rept_Date":"2021-03-02 17"},"coordinates":[5451,4214]},{"type":"Point","properties":{"Station_ID":"GMSM4","Station_Nam":"GRAND MARAIS 10S","Latitude":"46.50940","Longitude":"-85.96310","Snowdepth":"24.000","Units":"in","Rept_Date":"2021-03-02 12"},"coordinates":[2711,6021]},{"type":"Point","properties":{"Station_ID":"ERG18","Station_Nam":"NMPS HORSESHOE LAKE","Latitude":"44.15000","Longitude":"-74.60000","Snowdepth":"24.000","Units":"in","Rept_Date":"2021-03-02 17"},"coordinates":[5443,4222]},{"type":"Point","properties":{"Station_ID":"CAN-QC-47","Station_Nam":"SAINTE-FOY 1.8 ENE, CAN","Latitude":"46.76934","Longitude":"-71.27124","Snowdepth":"24.000","Units":"in","Rept_Date":"2021-03-02 12"},"coordinates":[6244,6219]},{"type":"Point","properties":{"Station_ID":"CAN-NB-97","Station_Nam":"NEW MARYLAND 0.6 NW, CAN","Latitude":"45.90112","Longitude":"-66.68739","Snowdepth":"24.000","Units":"in","Rept_Date":"2021-03-02 12"},"coordinates":[7346,5557]},{"type":"Point","properties":{"Station_ID":"CAN-NB-64","Station_Nam":"KESWICK RIDGE 4.0 SE, CAN","Latitude":"45.97014","Longitude":"-66.85538","Snowdepth":"24.000","Units":"in","Rept_Date":"2021-03-02 12"},"coordinates":[7306,5610]},{"type":"Point","properties":{"Station_ID":"AVLV1","Station_Nam":"AVERILL","Latitude":"45.00570","Longitude":"-71.69030","Snowdepth":"24.000","Units":"in","Rept_Date":"2021-03-02 13"},"coordinates":[6143,4874]},{"type":"Point","properties":{"Station_ID":"OGIQ6","Station_Nam":"OGOKI CAMP","Latitude":"50.76680","Longitude":"-87.85820","Snowdepth":"23.820","Units":"in","Rept_Date":"2021-03-03 06"},"coordinates":[2255,9267]},{"type":"Point","properties":{"Station_ID":"NY-HM-10","Station_Nam":"LAKE PLEASANT 2.3 WSW, NY","Latitude":"43.45490","Longitude":"-74.45287","Snowdepth":"23.500","Units":"in","Rept_Date":"2021-03-02 12"},"coordinates":[5479,3692]},{"type":"Point","properties":{"Station_ID":"NY-HM-1","Station_Nam":"SPECULATOR 10.0 SSW, NY","Latitude":"43.45133","Longitude":"-74.47120","Snowdepth":"23.500","Units":"in","Rept_Date":"2021-03-02 12"},"coordinates":[5474,3689]},{"type":"Point","properties":{"Station_ID":"RLKW3","Station_Nam":"REST LAKE","Latitude":"46.12220","Longitude":"-89.87720","Snowdepth":"23.000","Units":"in","Rept_Date":"2021-03-02 17"},"coordinates":[1770,5726]},{"type":"Point","properties":{"Station_ID":"PTBN3","Station_Nam":"PITTSBURG RESERVOIR","Latitude":"45.04690","Longitude":"-71.38300","Snowdepth":"23.000","Units":"in","Rept_Date":"2021-03-02 12"},"coordinates":[6217,4906]},{"type":"Point","properties":{"Station_ID":"MIEM4","Station_Nam":"MICHIGAMME 3WNW","Latitude":"46.54530","Longitude":"-88.18000","Snowdepth":"23.000","Units":"in","Rept_Date":"2021-03-02 13"},"coordinates":[2178,6048]},{"type":"Point","properties":{"Station_ID":"GFDN6","Station_Nam":"CHASES LAKE","Latitude":"43.75920","Longitude":"-75.29980","Snowdepth":"23.000","Units":"in","Rept_Date":"2021-03-02 11"},"coordinates":[5275,3924]},{"type":"Point","properties":{"Station_ID":"NY-LW-12","Station_Nam":"CHASES LAKE COOP, NY","Latitude":"43.75924","Longitude":"-75.29982","Snowdepth":"22.500","Units":"in","Rept_Date":"2021-03-02 11"},"coordinates":[5275,3924]},{"type":"Point","properties":{"Station_ID":"WTRM4","Station_Nam":"WATERSMEET 12WSW","Latitude":"46.22310","Longitude":"-89.40850","Snowdepth":"22.000","Units":"in","Rept_Date":"2021-03-02 12"},"coordinates":[1883,5803]},{"type":"Point","properties":{"Station_ID":"WI-PR-2","Station_Nam":"BUTTERNUT 5.9 SW, WI","Latitude":"45.96501","Longitude":"-90.59750","Snowdepth":"22.000","Units":"in","Rept_Date":"2021-03-02 12"},"coordinates":[1597,5606]},{"type":"Point","properties":{"Station_ID":"WI-IR-2","Station_Nam":"MERCER 2.0 SE, WI","Latitude":"46.14749","Longitude":"-90.03097","Snowdepth":"22.000","Units":"in","Rept_Date":"2021-03-02 13"},"coordinates":[1733,5745]},{"type":"Point","properties":{"Station_ID":"WHFN6","Station_Nam":"WILMINGTON 2W","Latitude":"44.39310","Longitude":"-73.85890","Snowdepth":"22.000","Units":"in","Rept_Date":"2021-03-02 13"},"coordinates":[5622,4407]},{"type":"Point","properties":{"Station_ID":"VT-WR-2","Station_Nam":"POMFRET 2.6 N, VT","Latitude":"43.74230","Longitude":"-72.52550","Snowdepth":"22.000","Units":"in","Rept_Date":"2021-03-02 12"},"coordinates":[5942,3911]},{"type":"Point","properties":{"Station_ID":"SSMM4","Station_Nam":"SAULT STE MARIE","Latitude":"46.48660","Longitude":"-84.40250","Snowdepth":"22.000","Units":"in","Rept_Date":"2021-03-02 13"},"coordinates":[3086,6003]},{"type":"Point","properties":{"Station_ID":"ROWM3","Station_Nam":"ROWE 3NE","Latitude":"42.73500","Longitude":"-72.86920","Snowdepth":"22.000","Units":"in","Rept_Date":"2021-03-02 12"},"coordinates":[5860,3143]},{"type":"Point","properties":{"Station_ID":"PDGM4","Station_Nam":"PAULDING","Latitude":"46.39760","Longitude":"-89.17940","Snowdepth":"22.000","Units":"in","Rept_Date":"2021-03-02 13"},"coordinates":[1938,5936]},{"type":"Point","properties":{"Station_ID":"IWOM4","Station_Nam":"IRONWOOD#2","Latitude":"46.46520","Longitude":"-90.13820","Snowdepth":"22.000","Units":"in","Rept_Date":"2021-03-02 13"},"coordinates":[1707,5987]},{"type":"Point","properties":{"Station_ID":"CLKM4","Station_Nam":"CLARKSBURG","Latitude":"46.49910","Longitude":"-87.84500","Snowdepth":"22.000","Units":"in","Rept_Date":"2021-03-02 12"},"coordinates":[2259,6013]},{"type":"Point","properties":{"Station_ID":"WAWN6","Station_Nam":"WAWBEEK","Latitude":"44.24440","Longitude":"-74.36060","Snowdepth":"21.000","Units":"in","Rept_Date":"2021-03-02 17"},"coordinates":[5501,4294]},{"type":"Point","properties":{"Station_ID":"RFDM1","Station_Nam":"RUMFORD 7SW","Latitude":"44.49470","Longitude":"-70.65640","Snowdepth":"21.000","Units":"in","Rept_Date":"2021-03-02 17"},"coordinates":[6392,4485]},{"type":"Point","properties":{"Station_ID":"NY-FK-9","Station_Nam":"GABRIELS 1.3 SE, NY","Latitude":"44.41934","Longitude":"-74.16194","Snowdepth":"21.000","Units":"in","Rept_Date":"2021-03-02 12"},"coordinates":[5549,4427]},{"type":"Point","properties":{"Station_ID":"NH-CS-4","Station_Nam":"PITTSBURG 6.1 NE, NH","Latitude":"45.11060","Longitude":"-71.29760","Snowdepth":"21.000","Units":"in","Rept_Date":"2021-03-02 12"},"coordinates":[6237,4954]},{"type":"Point","properties":{"Station_ID":"NH-CR-26","Station_Nam":"CENTER SANDWICH 4.9 E, NH","Latitude":"43.80976","Longitude":"-71.34150","Snowdepth":"21.000","Units":"in","Rept_Date":"2021-03-02 12"},"coordinates":[6227,3962]},{"type":"Point","properties":{"Station_ID":"MQT","Station_Nam":"MARQUETTE, MI","Latitude":"46.53140","Longitude":"-87.54920","Snowdepth":"21.000","Units":"in","Rept_Date":"2021-03-03 06"},"coordinates":[2330,6038]},{"type":"Point","properties":{"Station_ID":"JCBM4","Station_Nam":"JACOBSVILLE","Latitude":"47.00830","Longitude":"-88.43180","Snowdepth":"21.000","Units":"in","Rept_Date":"2021-03-02 12"},"coordinates":[2118,6401]},{"type":"Point","properties":{"Station_ID":"HURW3","Station_Nam":"HURLEY","Latitude":"46.46250","Longitude":"-90.19550","Snowdepth":"21.000","Units":"in","Rept_Date":"2021-03-02 14"},"coordinates":[1693,5985]},{"type":"Point","properties":{"Station_ID":"HUBN3","Station_Nam":"HUBBARD BROOK","Latitude":"43.93330","Longitude":"-71.71670","Snowdepth":"21.000","Units":"in","Rept_Date":"2021-03-03 06"},"coordinates":[6137,4057]},{"type":"Point","properties":{"Station_ID":"ESDN3","Station_Nam":"EAST SANDWICH","Latitude":"43.80990","Longitude":"-71.34250","Snowdepth":"21.000","Units":"in","Rept_Date":"2021-03-02 11"},"coordinates":[6227,3963]},{"type":"Point","properties":{"Station_ID":"ERH20","Station_Nam":"NMPS WAWBEEK","Latitude":"44.25000","Longitude":"-74.33000","Snowdepth":"21.000","Units":"in","Rept_Date":"2021-03-02 17"},"coordinates":[5508,4298]},{"type":"Point","properties":{"Station_ID":"CAN-ON-42","Station_Nam":"VANKLEEK HILL 3.4 S, CA","Latitude":"45.48987","Longitude":"-74.64570","Snowdepth":"21.000","Units":"in","Rept_Date":"2021-03-02 12"},"coordinates":[5432,5244]},{"type":"Point","properties":{"Station_ID":"CAN-NL-65","Station_Nam":"KIPPENS 0.7 NE, CA","Latitude":"48.55436","Longitude":"-58.61850","Snowdepth":"21.000","Units":"in","Rept_Date":"2021-03-02 12"},"coordinates":[9286,7580]},{"type":"Point","properties":{"Station_ID":"ANJM4","Station_Nam":"SNOW PAID OBSERVER FOR KANJ","Latitude":"46.48670","Longitude":"-84.40260","Snowdepth":"21.000","Units":"in","Rept_Date":"2021-03-02 18"},"coordinates":[3086,6004]},{"type":"Point","properties":{"Station_ID":"ANJ","Station_Nam":"SAULT STE MARIE","Latitude":"46.46670","Longitude":"-84.36670","Snowdepth":"21.000","Units":"in","Rept_Date":"2021-03-03 00"},"coordinates":[3095,5988]},{"type":"Point","properties":{"Station_ID":"VT-WS-23","Station_Nam":"CABOT 2.3 E, VT","Latitude":"44.39807","Longitude":"-72.26570","Snowdepth":"20.500","Units":"in","Rept_Date":"2021-03-02 13"},"coordinates":[6005,4411]},{"type":"Point","properties":{"Station_ID":"CAN-ON-791","Station_Nam":"METCALFE 4.4 NNW, CAN","Latitude":"45.27286","Longitude":"-75.48952","Snowdepth":"20.100","Units":"in","Rept_Date":"2021-03-02 11"},"coordinates":[5229,5078]},{"type":"Point","properties":{"Station_ID":"WPFN6","Station_Nam":"MARIPOSA 1NNW SNOW","Latitude":"42.73330","Longitude":"-75.81670","Snowdepth":"20.000","Units":"in","Rept_Date":"2021-03-02 14"},"coordinates":[5151,3142]},{"type":"Point","properties":{"Station_ID":"WI-WB-2","Station_Nam":"STONE LAKE 2.0 NW, WI","Latitude":"45.85960","Longitude":"-91.57710","Snowdepth":"20.000","Units":"in","Rept_Date":"2021-03-02 13"},"coordinates":[1361,5525]},{"type":"Point","properties":{"Station_ID":"WI-IR-3","Station_Nam":"PENCE 0.1 E, WI","Latitude":"46.41555","Longitude":"-90.27013","Snowdepth":"20.000","Units":"in","Rept_Date":"2021-03-02 13"},"coordinates":[1676,5949]},{"type":"Point","properties":{"Station_ID":"VT-WS-33","Station_Nam":"WAITSFIELD 3.5 WNW, VT","Latitude":"44.20052","Longitude":"-72.89421","Snowdepth":"20.000","Units":"in","Rept_Date":"2021-03-02 13"},"coordinates":[5854,4260]},{"type":"Point","properties":{"Station_ID":"VT-OL-1","Station_Nam":"WESTFIELD 0.7 WNW, VT","Latitude":"44.89160","Longitude":"-72.44350","Snowdepth":"20.000","Units":"in","Rept_Date":"2021-03-02 12"},"coordinates":[5962,4787]},{"type":"Point","properties":{"Station_ID":"PEKN6","Station_Nam":"PECK LAKE","Latitude":"43.11500","Longitude":"-74.42360","Snowdepth":"20.000","Units":"in","Rept_Date":"2021-03-02 12"},"coordinates":[5486,3433]},{"type":"Point","properties":{"Station_ID":"NY-FK-7","Station_Nam":"SARANAC LAKE 6.2 N, NY","Latitude":"44.41359","Longitude":"-74.15211","Snowdepth":"20.000","Units":"in","Rept_Date":"2021-03-02 11"},"coordinates":[5551,4423]},{"type":"Point","properties":{"Station_ID":"NY-ES-11","Station_Nam":"VERMONTVILLE 2.8 S, NY","Latitude":"44.41205","Longitude":"-74.06760","Snowdepth":"20.000","Units":"in","Rept_Date":"2021-03-02 12"},"coordinates":[5571,4422]},{"type":"Point","properties":{"Station_ID":"MI-GG-4","Station_Nam":"WATERSMEET 5.0 SE, MI","Latitude":"46.20333","Longitude":"-89.13170","Snowdepth":"20.000","Units":"in","Rept_Date":"2021-03-02 14"},"coordinates":[1949,5787]},{"type":"Point","properties":{"Station_ID":"JEFV1","Station_Nam":"JEFFERSONVILLE","Latitude":"44.58430","Longitude":"-72.78700","Snowdepth":"20.000","Units":"in","Rept_Date":"2021-03-02 12"},"coordinates":[5879,4553]},{"type":"Point","properties":{"Station_ID":"ISLV1","Station_Nam":"ISLAND POND","Latitude":"44.81280","Longitude":"-71.89020","Snowdepth":"20.000","Units":"in","Rept_Date":"2021-03-02 14"},"coordinates":[6095,4727]},{"type":"Point","properties":{"Station_ID":"CAN-ON-245","Station_Nam":"PHELPSTON 3.1 ESE, CAN","Latitude":"44.50564","Longitude":"-79.81035","Snowdepth":"20.000","Units":"in","Rept_Date":"2021-03-02 13"},"coordinates":[4191,4493]},{"type":"Point","properties":{"Station_ID":"AMAM4","Station_Nam":"AMASA 1W","Latitude":"46.23470","Longitude":"-88.45440","Snowdepth":"20.000","Units":"in","Rept_Date":"2021-03-02 14"},"coordinates":[2112,5811]},{"type":"Point","properties":{"Station_ID":"CAN-NL-81","Station_Nam":"GRAND FALLS-WINDSOR 1.2 S, CAN","Latitude":"48.93123","Longitude":"-55.65333","Snowdepth":"19.700","Units":"in","Rept_Date":"2021-03-02 10"},"coordinates":[9999,7867]},{"type":"Point","properties":{"Station_ID":"SOCQ6","Station_Nam":"SOCKET LAKE","Latitude":"50.77870","Longitude":"-91.79300","Snowdepth":"19.530","Units":"in","Rept_Date":"2021-03-03 06"},"coordinates":[1309,9276]},{"type":"Point","properties":{"Station_ID":"WI-BY-2","Station_Nam":"MELLEN 18.6 SW, WI","Latitude":"46.16937","Longitude":"-90.98090","Snowdepth":"19.000","Units":"in","Rept_Date":"2021-03-02 12"},"coordinates":[1505,5762]},{"type":"Point","properties":{"Station_ID":"VT-WH-30","Station_Nam":"MARLBORO 2.0 NNE, VT","Latitude":"42.88484","Longitude":"-72.70935","Snowdepth":"19.000","Units":"in","Rept_Date":"2021-03-02 13"},"coordinates":[5898,3257]},{"type":"Point","properties":{"Station_ID":"OCON6","Station_Nam":"OSCEOLA","Latitude":"43.50370","Longitude":"-75.72170","Snowdepth":"19.000","Units":"in","Rept_Date":"2021-03-02 13"},"coordinates":[5174,3729]},{"type":"Point","properties":{"Station_ID":"MWTM1","Station_Nam":"MILLINOCKET WWTP","Latitude":"45.64030","Longitude":"-68.67480","Snowdepth":"19.000","Units":"in","Rept_Date":"2021-03-02 11"},"coordinates":[6868,5358]},{"type":"Point","properties":{"Station_ID":"MRLV1","Station_Nam":"MARLBORO","Latitude":"42.86000","Longitude":"-72.72000","Snowdepth":"19.000","Units":"in","Rept_Date":"2021-03-02 13"},"coordinates":[5895,3238]},{"type":"Point","properties":{"Station_ID":"MI-SH-1","Station_Nam":"MANISTIQUE 2.7 NW, MI","Latitude":"45.99042","Longitude":"-86.28266","Snowdepth":"19.000","Units":"in","Rept_Date":"2021-03-02 11"},"coordinates":[2634,5625]},{"type":"Point","properties":{"Station_ID":"MI-CP-14","Station_Nam":"SAULT STE. MARIE 2.2 E, MI","Latitude":"46.48933","Longitude":"-84.31971","Snowdepth":"19.000","Units":"in","Rept_Date":"2021-03-02 13"},"coordinates":[3106,6006]},{"type":"Point","properties":{"Station_ID":"ME-FR-4","Station_Nam":"NEW SHARON 2.0 NW, ME","Latitude":"44.66582","Longitude":"-70.02720","Snowdepth":"19.000","Units":"in","Rept_Date":"2021-03-02 12"},"coordinates":[6543,4615]},{"type":"Point","properties":{"Station_ID":"JKMM1","Station_Nam":"JACKMAN","Latitude":"45.62600","Longitude":"-70.24600","Snowdepth":"19.000","Units":"in","Rept_Date":"2021-03-02 12"},"coordinates":[6490,5347]},{"type":"Point","properties":{"Station_ID":"IRMM4","Station_Nam":"WWTP","Latitude":"46.46670","Longitude":"-90.18330","Snowdepth":"19.000","Units":"in","Rept_Date":"2021-03-02 13"},"coordinates":[1696,5988]},{"type":"Point","properties":{"Station_ID":"EHYM3","Station_Nam":"EAST HAWLEY","Latitude":"42.57410","Longitude":"-72.86790","Snowdepth":"19.000","Units":"in","Rept_Date":"2021-03-02 13"},"coordinates":[5860,3020]},{"type":"Point","properties":{"Station_ID":"CMKW3","Station_Nam":"CLAM LAKE 4W","Latitude":"46.16940","Longitude":"-90.98080","Snowdepth":"19.000","Units":"in","Rept_Date":"2021-03-02 12"},"coordinates":[1505,5762]},{"type":"Point","properties":{"Station_ID":"CLQM5","Station_Nam":"CLOQUET","Latitude":"46.70470","Longitude":"-92.52530","Snowdepth":"19.000","Units":"in","Rept_Date":"2021-03-02 14"},"coordinates":[1133,6170]},{"type":"Point","properties":{"Station_ID":"CAN-QC-56","Station_Nam":"SUTTON 2.6 N, CAN","Latitude":"45.13119","Longitude":"-72.61218","Snowdepth":"19.000","Units":"in","Rept_Date":"2021-03-02 12"},"coordinates":[5921,4970]},{"type":"Point","properties":{"Station_ID":"CAN-ON-208","Station_Nam":"PAKENHAM 7.8 NNW, CAN","Latitude":"45.39166","Longitude":"-76.34111","Snowdepth":"19.000","Units":"in","Rept_Date":"2021-03-02 12"},"coordinates":[5025,5169]},{"type":"Point","properties":{"Station_ID":"CAN-NB-98","Station_Nam":"HOYT 4.2 S, CAN","Latitude":"45.54763","Longitude":"-66.55440","Snowdepth":"18.900","Units":"in","Rept_Date":"2021-03-02 11"},"coordinates":[7378,5288]},{"type":"Point","properties":{"Station_ID":"WI-PR-8","Station_Nam":"PHILLIPS 0.4 SSW, WI","Latitude":"45.69086","Longitude":"-90.40200","Snowdepth":"18.500","Units":"in","Rept_Date":"2021-03-02 13"},"coordinates":[1644,5397]},{"type":"Point","properties":{"Station_ID":"NY-ER-166","Station_Nam":"BOSTON 2.5 NE, NY","Latitude":"42.65480","Longitude":"-78.70300","Snowdepth":"18.500","Units":"in","Rept_Date":"2021-03-02 12"},"coordinates":[4457,3082]},{"type":"Point","properties":{"Station_ID":"CAN-ON-757","Station_Nam":"SAULT STE. MARIE 2.8 ESE - GLFC, CAN","Latitude":"46.50300","Longitude":"-84.30300","Snowdepth":"18.300","Units":"in","Rept_Date":"2021-03-02 13"},"coordinates":[3110,6016]},{"type":"Point","properties":{"Station_ID":"CAN-PE-20","Station_Nam":"BONSHAW 6.6 NNE, CAN","Latitude":"46.25082","Longitude":"-63.33409","Snowdepth":"18.100","Units":"in","Rept_Date":"2021-03-02 12"},"coordinates":[8152,5824]},{"type":"Point","properties":{"Station_ID":"CAN-NB-1","Station_Nam":"FREDERICTON 4.0 SSE, CA","Latitude":"45.92897","Longitude":"-66.62830","Snowdepth":"18.100","Units":"in","Rept_Date":"2021-03-02 12"},"coordinates":[7360,5578]},{"type":"Point","properties":{"Station_ID":"WPHN6","Station_Nam":"GEORGETOWN SNOW","Latitude":"42.76670","Longitude":"-75.70000","Snowdepth":"18.000","Units":"in","Rept_Date":"2021-03-02 14"},"coordinates":[5179,3167]},{"type":"Point","properties":{"Station_ID":"WORV1","Station_Nam":"WORCESTER 2 W","Latitude":"44.37470","Longitude":"-72.58220","Snowdepth":"18.000","Units":"in","Rept_Date":"2021-03-02 12"},"coordinates":[5929,4393]},{"type":"Point","properties":{"Station_ID":"WLFM5","Station_Nam":"WOLF RIDGE ENVIRON LEARNING CENTER","Latitude":"47.38240","Longitude":"-91.19730","Snowdepth":"18.000","Units":"in","Rept_Date":"2021-03-02 13"},"coordinates":[1453,6686]},{"type":"Point","properties":{"Station_ID":"WI-PR-6","Station_Nam":"PHILLIPS 1.3 S, WI","Latitude":"45.67677","Longitude":"-90.39543","Snowdepth":"18.000","Units":"in","Rept_Date":"2021-03-02 12"},"coordinates":[1645,5386]},{"type":"Point","properties":{"Station_ID":"WAIV1","Station_Nam":"WAITSFIELD","Latitude":"44.17560","Longitude":"-72.79610","Snowdepth":"18.000","Units":"in","Rept_Date":"2021-03-02 12"},"coordinates":[5877,4241]},{"type":"Point","properties":{"Station_ID":"VT-WS-11","Station_Nam":"WAITSFIELD 1.8 SE, VT","Latitude":"44.17551","Longitude":"-72.79540","Snowdepth":"18.000","Units":"in","Rept_Date":"2021-03-02 12"},"coordinates":[5877,4241]},{"type":"Point","properties":{"Station_ID":"VT-WR-17","Station_Nam":"ROCHESTER 2.3 NE, VT","Latitude":"43.89418","Longitude":"-72.76992","Snowdepth":"18.000","Units":"in","Rept_Date":"2021-03-02 12"},"coordinates":[5883,4027]},{"type":"Point","properties":{"Station_ID":"VT-ES-3","Station_Nam":"LUNENBURG 2.3 NNW, VT","Latitude":"44.49324","Longitude":"-71.70446","Snowdepth":"18.000","Units":"in","Rept_Date":"2021-03-02 12"},"coordinates":[6140,4484]},{"type":"Point","properties":{"Station_ID":"TMWN3","Station_Nam":"TAMWORTH 4","Latitude":"43.86390","Longitude":"-71.26610","Snowdepth":"18.000","Units":"in","Rept_Date":"2021-03-02 12"},"coordinates":[6245,4004]},{"type":"Point","properties":{"Station_ID":"SUTV1","Station_Nam":"SUTTON","Latitude":"44.61220","Longitude":"-72.04810","Snowdepth":"18.000","Units":"in","Rept_Date":"2021-03-02 12"},"coordinates":[6057,4574]},{"type":"Point","properties":{"Station_ID":"NH-MR-41","Station_Nam":"NEWBURY 1.6 NW, NH","Latitude":"43.33667","Longitude":"-72.06060","Snowdepth":"18.000","Units":"in","Rept_Date":"2021-03-02 12"},"coordinates":[6054,3602]},{"type":"Point","properties":{"Station_ID":"NH-CR-27","Station_Nam":"TAMWORTH 0.4 NNW, NH","Latitude":"43.86449","Longitude":"-71.26610","Snowdepth":"18.000","Units":"in","Rept_Date":"2021-03-02 12"},"coordinates":[6245,4004]},{"type":"Point","properties":{"Station_ID":"NH-CR-11","Station_Nam":"NORTH CONWAY 1.4 SSW, NH","Latitude":"44.03556","Longitude":"-71.14010","Snowdepth":"18.000","Units":"in","Rept_Date":"2021-03-02 12"},"coordinates":[6275,4135]},{"type":"Point","properties":{"Station_ID":"MI-EM-8","Station_Nam":"PETOSKEY 1.7 SSW, MI","Latitude":"45.34209","Longitude":"-84.96530","Snowdepth":"18.000","Units":"in","Rept_Date":"2021-03-02 10"},"coordinates":[2951,5131]},{"type":"Point","properties":{"Station_ID":"MA-HS-7","Station_Nam":"PLAINFIELD 2.2 SW, MA","Latitude":"42.49272","Longitude":"-72.94540","Snowdepth":"18.000","Units":"in","Rept_Date":"2021-03-02 13"},"coordinates":[5841,2958]},{"type":"Point","properties":{"Station_ID":"LNCM1","Station_Nam":"LINCOLN WATER DISTRICT","Latitude":"45.32410","Longitude":"-68.58300","Snowdepth":"18.000","Units":"in","Rept_Date":"2021-03-02 13"},"coordinates":[6890,5117]},{"type":"Point","properties":{"Station_ID":"KINM1","Station_Nam":"KINGFIELD","Latitude":"44.95950","Longitude":"-70.17530","Snowdepth":"18.000","Units":"in","Rept_Date":"2021-03-02 12"},"coordinates":[6507,4839]},{"type":"Point","properties":{"Station_ID":"INDN6","Station_Nam":"INDIAN LAKE","Latitude":"43.75500","Longitude":"-74.27560","Snowdepth":"18.000","Units":"in","Rept_Date":"2021-03-02 13"},"coordinates":[5521,3921]},{"type":"Point","properties":{"Station_ID":"HRTM1","Station_Nam":"HARTFORD","Latitude":"44.37440","Longitude":"-70.31620","Snowdepth":"18.000","Units":"in","Rept_Date":"2021-03-02 12"},"coordinates":[6473,4393]},{"type":"Point","properties":{"Station_ID":"FARM1","Station_Nam":"FARMINGTON","Latitude":"44.68930","Longitude":"-70.15640","Snowdepth":"18.000","Units":"in","Rept_Date":"2021-03-02 12"},"coordinates":[6512,4633]},{"type":"Point","properties":{"Station_ID":"EGRW3","Station_Nam":"EAGLE RIVER-SOUTH","Latitude":"45.91360","Longitude":"-89.24360","Snowdepth":"18.000","Units":"in","Rept_Date":"2021-03-02 13"},"coordinates":[1922,5567]},{"type":"Point","properties":{"Station_ID":"SVBQ6","Station_Nam":"SAVANT BASE","Latitude":"50.28730","Longitude":"-90.65670","Snowdepth":"17.720","Units":"in","Rept_Date":"2021-03-03 06"},"coordinates":[1583,8901]},{"type":"Point","properties":{"Station_ID":"CATQ6","Station_Nam":"CAT LAKE","Latitude":"51.72690","Longitude":"-91.82210","Snowdepth":"17.640","Units":"in","Rept_Date":"2021-03-03 06"},"coordinates":[1302,9999]},{"type":"Point","properties":{"Station_ID":"WI-BY-29","Station_Nam":"BAYFIELD 5.1 NNW, WI","Latitude":"46.88063","Longitude":"-90.85854","Snowdepth":"17.500","Units":"in","Rept_Date":"2021-03-02 13"},"coordinates":[1534,6304]},{"type":"Point","properties":{"Station_ID":"VT-WS-7","Station_Nam":"MIDDLESEX 3.1 ENE, VT","Latitude":"44.31799","Longitude":"-72.62650","Snowdepth":"17.500","Units":"in","Rept_Date":"2021-03-02 14"},"coordinates":[5918,4350]},{"type":"Point","properties":{"Station_ID":"VT-WS-30","Station_Nam":"WOODBURY 3.4 NNW, VT","Latitude":"44.48825","Longitude":"-72.43258","Snowdepth":"17.500","Units":"in","Rept_Date":"2021-03-02 12"},"coordinates":[5965,4480]},{"type":"Point","properties":{"Station_ID":"VT-WR-10","Station_Nam":"WEST WINDSOR 1.7 S, VT","Latitude":"43.46164","Longitude":"-72.49197","Snowdepth":"17.500","Units":"in","Rept_Date":"2021-03-02 12"},"coordinates":[5950,3697]},{"type":"Point","properties":{"Station_ID":"VT-BN-7","Station_Nam":"MANCHESTER 2.8 ENE, VT","Latitude":"43.17274","Longitude":"-73.01811","Snowdepth":"17.500","Units":"in","Rept_Date":"2021-03-02 12"},"coordinates":[5824,3477]},{"type":"Point","properties":{"Station_ID":"NH-CR-41","Station_Nam":"ALBANY 2.8 SW, NH","Latitude":"43.92648","Longitude":"-71.21556","Snowdepth":"17.500","Units":"in","Rept_Date":"2021-03-02 13"},"coordinates":[6257,4051]},{"type":"Point","properties":{"Station_ID":"MI-AG-6","Station_Nam":"MUNISING 11.1 SSW, MI","Latitude":"46.27805","Longitude":"-86.75747","Snowdepth":"17.500","Units":"in","Rept_Date":"2021-03-02 12"},"coordinates":[2520,5844]},{"type":"Point","properties":{"Station_ID":"WPDN6","Station_Nam":"CINCINNATUS 2NW SNOW","Latitude":"42.55000","Longitude":"-75.93330","Snowdepth":"17.000","Units":"in","Rept_Date":"2021-03-02 14"},"coordinates":[5123,3002]},{"type":"Point","properties":{"Station_ID":"WI-BY-14","Station_Nam":"ASHLAND 9.8 W, WI","Latitude":"46.59742","Longitude":"-91.07856","Snowdepth":"17.000","Units":"in","Rept_Date":"2021-03-02 12"},"coordinates":[1481,6088]},{"type":"Point","properties":{"Station_ID":"VT-WS-10","Station_Nam":"NORTHFIELD 1.5 N, VT","Latitude":"44.16986","Longitude":"-72.65200","Snowdepth":"17.000","Units":"in","Rept_Date":"2021-03-02 12"},"coordinates":[5912,4237]},{"type":"Point","properties":{"Station_ID":"VT-OL-9","Station_Nam":"GREENSBORO 2.1 NNW, VT","Latitude":"44.60528","Longitude":"-72.30940","Snowdepth":"17.000","Units":"in","Rept_Date":"2021-03-02 12"},"coordinates":[5994,4569]},{"type":"Point","properties":{"Station_ID":"VANM1","Station_Nam":"VAN BUREN","Latitude":"47.16600","Longitude":"-67.93900","Snowdepth":"17.000","Units":"in","Rept_Date":"2021-03-02 12"},"coordinates":[7045,6521]},{"type":"Point","properties":{"Station_ID":"TOPM1","Station_Nam":"TOPSFIELD","Latitude":"45.43470","Longitude":"-67.72020","Snowdepth":"17.000","Units":"in","Rept_Date":"2021-03-02 12"},"coordinates":[7098,5201]},{"type":"Point","properties":{"Station_ID":"THEP1","Station_Nam":"MORRIS RUN SNOW","Latitude":"41.68330","Longitude":"-76.93330","Snowdepth":"17.000","Units":"in","Rept_Date":"2021-03-02 16"},"coordinates":[4882,2341]},{"type":"Point","properties":{"Station_ID":"STMM4","Station_Nam":"STAMBAUGH 2SSE","Latitude":"46.05550","Longitude":"-88.62780","Snowdepth":"17.000","Units":"in","Rept_Date":"2021-03-02 13"},"coordinates":[2070,5675]},{"type":"Point","properties":{"Station_ID":"RKHN6","Station_Nam":"ROCK HILL 3 SW","Latitude":"41.59170","Longitude":"-74.61410","Snowdepth":"17.000","Units":"in","Rept_Date":"2021-03-02 12"},"coordinates":[5440,2271]},{"type":"Point","properties":{"Station_ID":"RGNM1","Station_Nam":"RANGELEY 2NW","Latitude":"44.98940","Longitude":"-70.67220","Snowdepth":"17.000","Units":"in","Rept_Date":"2021-03-02 11"},"coordinates":[6388,4862]},{"type":"Point","properties":{"Station_ID":"RANM1","Station_Nam":"RANGELEY","Latitude":"44.98910","Longitude":"-70.67190","Snowdepth":"17.000","Units":"in","Rept_Date":"2021-03-02 11"},"coordinates":[6388,4862]},{"type":"Point","properties":{"Station_ID":"OTFM1","Station_Nam":"OTISFIELD","Latitude":"44.09790","Longitude":"-70.59760","Snowdepth":"17.000","Units":"in","Rept_Date":"2021-03-02 12"},"coordinates":[6406,4182]},{"type":"Point","properties":{"Station_ID":"NY-OT-29","Station_Nam":"NEW BERLIN 1.5 NE, NY","Latitude":"42.63689","Longitude":"-75.31090","Snowdepth":"17.000","Units":"in","Rept_Date":"2021-03-02 13"},"coordinates":[5272,3068]},{"type":"Point","properties":{"Station_ID":"NWSM1","Station_Nam":"NEW SHARON","Latitude":"44.63520","Longitude":"-70.00020","Snowdepth":"17.000","Units":"in","Rept_Date":"2021-03-02 12"},"coordinates":[6549,4592]},{"type":"Point","properties":{"Station_ID":"NH-MR-60","Station_Nam":"SOUTH SUTTON 1.3 SE, NH","Latitude":"43.29531","Longitude":"-71.90238","Snowdepth":"17.000","Units":"in","Rept_Date":"2021-03-02 12"},"coordinates":[6092,3570]},{"type":"Point","properties":{"Station_ID":"NH-CS-19","Station_Nam":"CARROLL 4.6 NE, NH","Latitude":"44.33765","Longitude":"-71.46461","Snowdepth":"17.000","Units":"in","Rept_Date":"2021-03-02 12"},"coordinates":[6197,4365]},{"type":"Point","properties":{"Station_ID":"MSRN3","Station_Nam":"MASCOMA RIVER","Latitude":"43.78330","Longitude":"-72.03330","Snowdepth":"17.000","Units":"in","Rept_Date":"2021-03-03 06"},"coordinates":[6061,3942]},{"type":"Point","properties":{"Station_ID":"EVRW3","Station_Nam":"EAGLE RIVER-4 E","Latitude":"45.91890","Longitude":"-89.15280","Snowdepth":"17.000","Units":"in","Rept_Date":"2021-03-02 12"},"coordinates":[1944,5571]},{"type":"Point","properties":{"Station_ID":"ESGM1","Station_Nam":"EAST SANGERVILLE","Latitude":"45.13690","Longitude":"-69.28060","Snowdepth":"17.000","Units":"in","Rept_Date":"2021-03-02 12"},"coordinates":[6722,4974]},{"type":"Point","properties":{"Station_ID":"AVTW3","Station_Nam":"ARBOR VITAE-JOHNSON LAKE","Latitude":"45.89940","Longitude":"-89.72670","Snowdepth":"17.000","Units":"in","Rept_Date":"2021-03-02 12"},"coordinates":[1806,5556]},{"type":"Point","properties":{"Station_ID":"CAN-PE-47","Station_Nam":"LONG CREEK 0.3 NNW, CAN","Latitude":"46.17420","Longitude":"-63.27320","Snowdepth":"16.900","Units":"in","Rept_Date":"2021-03-02 12"},"coordinates":[8167,5765]},{"type":"Point","properties":{"Station_ID":"CAN-PE-19","Station_Nam":"CHARLOTTETOWN 6.5 NNW, CAN","Latitude":"46.29235","Longitude":"-63.17271","Snowdepth":"16.900","Units":"in","Rept_Date":"2021-03-02 12"},"coordinates":[8191,5855]},{"type":"Point","properties":{"Station_ID":"VT-WS-19","Station_Nam":"WATERBURY 3.0 NW, VT","Latitude":"44.36060","Longitude":"-72.80770","Snowdepth":"16.500","Units":"in","Rept_Date":"2021-03-02 11"},"coordinates":[5874,4382]},{"type":"Point","properties":{"Station_ID":"NH-GR-49","Station_Nam":"PLYMOUTH 3.7 N, NH","Latitude":"43.79048","Longitude":"-71.68413","Snowdepth":"16.500","Units":"in","Rept_Date":"2021-03-02 12"},"coordinates":[6144,3948]},{"type":"Point","properties":{"Station_ID":"CAN-PE-7","Station_Nam":"MORELL 1.4 NNW, CA","Latitude":"46.42741","Longitude":"-62.70870","Snowdepth":"16.500","Units":"in","Rept_Date":"2021-03-02 12"},"coordinates":[8303,5958]},{"type":"Point","properties":{"Station_ID":"KABQ6","Station_Nam":"CAB LAKE","Latitude":"49.59950","Longitude":"-89.17990","Snowdepth":"16.380","Units":"in","Rept_Date":"2021-03-03 06"},"coordinates":[1938,8377]},{"type":"Point","properties":{"Station_ID":"CAN-ON-92","Station_Nam":"DUNROBIN 1.9 W - MVCA, CAN","Latitude":"45.42318","Longitude":"-76.04525","Snowdepth":"16.100","Units":"in","Rept_Date":"2021-03-02 12"},"coordinates":[5096,5193]},{"type":"Point","properties":{"Station_ID":"VT-OL-25","Station_Nam":"NEWPORT 1.5 WSW, VT","Latitude":"44.93059","Longitude":"-72.23731","Snowdepth":"16.000","Units":"in","Rept_Date":"2021-03-02 12"},"coordinates":[6011,4817]},{"type":"Point","properties":{"Station_ID":"TURM1","Station_Nam":"TURNER","Latitude":"44.28220","Longitude":"-70.25610","Snowdepth":"16.000","Units":"in","Rept_Date":"2021-03-02 12"},"coordinates":[6488,4323]},{"type":"Point","properties":{"Station_ID":"STGW3","Station_Nam":"ST GERMAIN","Latitude":"45.91550","Longitude":"-89.48940","Snowdepth":"16.000","Units":"in","Rept_Date":"2021-03-02 12"},"coordinates":[1863,5568]},{"type":"Point","properties":{"Station_ID":"STEM4","Station_Nam":"STEUBEN","Latitude":"46.18530","Longitude":"-86.46410","Snowdepth":"16.000","Units":"in","Rept_Date":"2021-03-02 14"},"coordinates":[2591,5774]},{"type":"Point","properties":{"Station_ID":"PRDM4","Station_Nam":"PARADISE","Latitude":"46.60380","Longitude":"-85.03960","Snowdepth":"16.000","Units":"in","Rept_Date":"2021-03-02 11"},"coordinates":[2933,6093]},{"type":"Point","properties":{"Station_ID":"NY-DL-23","Station_Nam":"LONG EDDY 6.5 NNE, NY","Latitude":"41.93510","Longitude":"-75.07840","Snowdepth":"16.000","Units":"in","Rept_Date":"2021-03-02 13"},"coordinates":[5328,2533]},{"type":"Point","properties":{"Station_ID":"MQRW3","Station_Nam":"MINOCQUA","Latitude":"45.88630","Longitude":"-89.73220","Snowdepth":"16.000","Units":"in","Rept_Date":"2021-03-02 12"},"coordinates":[1805,5546]},{"type":"Point","properties":{"Station_ID":"ME-OX-26","Station_Nam":"OXFORD 5.3 SW, ME","Latitude":"44.09787","Longitude":"-70.59612","Snowdepth":"16.000","Units":"in","Rept_Date":"2021-03-02 12"},"coordinates":[6406,4182]},{"type":"Point","properties":{"Station_ID":"MALN6","Station_Nam":"MALONE","Latitude":"44.84180","Longitude":"-74.30600","Snowdepth":"16.000","Units":"in","Rept_Date":"2021-03-02 12"},"coordinates":[5514,4749]},{"type":"Point","properties":{"Station_ID":"KISM4","Station_Nam":"K.I. SAWYER WWTP","Latitude":"46.33410","Longitude":"-87.37790","Snowdepth":"16.000","Units":"in","Rept_Date":"2021-03-02 13"},"coordinates":[2371,5887]},{"type":"Point","properties":{"Station_ID":"DTVM4","Station_Nam":"DETOUR VILLAGE","Latitude":"45.99830","Longitude":"-83.90130","Snowdepth":"16.000","Units":"in","Rept_Date":"2021-03-02 13"},"coordinates":[3207,5631]},{"type":"Point","properties":{"Station_ID":"CORV1","Station_Nam":"CORINTH","Latitude":"44.00690","Longitude":"-72.31940","Snowdepth":"16.000","Units":"in","Rept_Date":"2021-03-02 12"},"coordinates":[5992,4113]},{"type":"Point","properties":{"Station_ID":"CAN-ON-526","Station_Nam":"HILTON BEACH 0.7 SW - MNRF, CAN","Latitude":"46.25357","Longitude":"-83.90014","Snowdepth":"15.700","Units":"in","Rept_Date":"2021-03-02 12"},"coordinates":[3207,5826]},{"type":"Point","properties":{"Station_ID":"VT-CL-14","Station_Nam":"LYNDONVILLE 1.1 W, VT","Latitude":"44.53582","Longitude":"-72.02867","Snowdepth":"15.500","Units":"in","Rept_Date":"2021-03-02 12"},"coordinates":[6062,4516]},{"type":"Point","properties":{"Station_ID":"WPCN6","Station_Nam":"WILLET 2WNW SNOW","Latitude":"42.48330","Longitude":"-75.93330","Snowdepth":"15.000","Units":"in","Rept_Date":"2021-03-02 14"},"coordinates":[5123,2951]},{"type":"Point","properties":{"Station_ID":"WI-ON-6","Station_Nam":"RHINELANDER 5.2 N, WI","Latitude":"45.71388","Longitude":"-89.42150","Snowdepth":"15.000","Units":"in","Rept_Date":"2021-03-02 14"},"coordinates":[1880,5414]},{"type":"Point","properties":{"Station_ID":"VT-OG-13","Station_Nam":"WEST FAIRLEE 1.8 ENE, VT","Latitude":"43.92138","Longitude":"-72.23051","Snowdepth":"15.000","Units":"in","Rept_Date":"2021-03-02 12"},"coordinates":[6013,4048]},{"type":"Point","properties":{"Station_ID":"THJP1","Station_Nam":"OSGOOD HOLLOWN SNOW","Latitude":"41.86670","Longitude":"-77.31670","Snowdepth":"15.000","Units":"in","Rept_Date":"2021-03-02 16"},"coordinates":[4790,2481]},{"type":"Point","properties":{"Station_ID":"SLNV1","Station_Nam":"SOUTH LINCOLN","Latitude":"44.07460","Longitude":"-72.97180","Snowdepth":"15.000","Units":"in","Rept_Date":"2021-03-02 12"},"coordinates":[5835,4164]},{"type":"Point","properties":{"Station_ID":"RHIW3","Station_Nam":"RHINELANDER","Latitude":"45.59860","Longitude":"-89.45080","Snowdepth":"15.000","Units":"in","Rept_Date":"2021-03-02 13"},"coordinates":[1873,5326]},{"type":"Point","properties":{"Station_ID":"PLEP1","Station_Nam":"PLEASANT MOUNT 1 W","Latitude":"41.73940","Longitude":"-75.44650","Snowdepth":"15.000","Units":"in","Rept_Date":"2021-03-02 13"},"coordinates":[5240,2384]},{"type":"Point","properties":{"Station_ID":"PA-MN-16","Station_Nam":"MOUNT POCONO 0.7 N, PA","Latitude":"41.13190","Longitude":"-75.35804","Snowdepth":"15.000","Units":"in","Rept_Date":"2021-03-02 12"},"coordinates":[5261,1921]},{"type":"Point","properties":{"Station_ID":"NY-ER-56","Station_Nam":"COLDEN 1.4 NNW, NY","Latitude":"42.64740","Longitude":"-78.71120","Snowdepth":"15.000","Units":"in","Rept_Date":"2021-03-02 12"},"coordinates":[4455,3076]},{"type":"Point","properties":{"Station_ID":"NUNV1","Station_Nam":"NORTH UNDERHILL","Latitude":"44.58760","Longitude":"-72.92150","Snowdepth":"15.000","Units":"in","Rept_Date":"2021-03-02 12"},"coordinates":[5847,4556]},{"type":"Point","properties":{"Station_ID":"NFKC3","Station_Nam":"NORFOLK","Latitude":"41.97250","Longitude":"-73.22080","Snowdepth":"15.000","Units":"in","Rept_Date":"2021-03-02 13"},"coordinates":[5775,2562]},{"type":"Point","properties":{"Station_ID":"NCON3","Station_Nam":"NORTH CONWAY","Latitude":"44.05620","Longitude":"-71.12970","Snowdepth":"15.000","Units":"in","Rept_Date":"2021-03-02 13"},"coordinates":[6278,4150]},{"type":"Point","properties":{"Station_ID":"MI-MQ-19","Station_Nam":"ISHPEMING 7.2 SW, MI","Latitude":"46.40550","Longitude":"-87.75670","Snowdepth":"15.000","Units":"in","Rept_Date":"2021-03-02 11"},"coordinates":[2280,5942]},{"type":"Point","properties":{"Station_ID":"LILM1","Station_Nam":"LILLE","Latitude":"47.27770","Longitude":"-68.10520","Snowdepth":"15.000","Units":"in","Rept_Date":"2021-03-02 12"},"coordinates":[7005,6607]},{"type":"Point","properties":{"Station_ID":"FMEM1","Station_Nam":"FRYEBURG MESA SN","Latitude":"44.02230","Longitude":"-70.96480","Snowdepth":"15.000","Units":"in","Rept_Date":"2021-03-02 18"},"coordinates":[6317,4125]},{"type":"Point","properties":{"Station_ID":"EAHV1","Station_Nam":"EAST HAVEN","Latitude":"44.64250","Longitude":"-71.89120","Snowdepth":"15.000","Units":"in","Rept_Date":"2021-03-02 12"},"coordinates":[6095,4597]},{"type":"Point","properties":{"Station_ID":"DFXM1","Station_Nam":"DOVER-FOXCROFT","Latitude":"45.18720","Longitude":"-69.18350","Snowdepth":"15.000","Units":"in","Rept_Date":"2021-03-02 12"},"coordinates":[6746,5013]},{"type":"Point","properties":{"Station_ID":"COUW3","Station_Nam":"COUDERAY,WI","Latitude":"45.86670","Longitude":"-91.45000","Snowdepth":"15.000","Units":"in","Rept_Date":"2021-03-02 22"},"coordinates":[1392,5531]},{"type":"Point","properties":{"Station_ID":"CODN6","Station_Nam":"COLDEN","Latitude":"42.64720","Longitude":"-78.71110","Snowdepth":"15.000","Units":"in","Rept_Date":"2021-03-02 12"},"coordinates":[4455,3076]},{"type":"Point","properties":{"Station_ID":"CAN-PE-3","Station_Nam":"WELLINGTON 1.6 NE, CA","Latitude":"46.46672","Longitude":"-63.98920","Snowdepth":"15.000","Units":"in","Rept_Date":"2021-03-02 11"},"coordinates":[7995,5988]},{"type":"Point","properties":{"Station_ID":"BETM1","Station_Nam":"BETHEL 6 SSE","Latitude":"44.32000","Longitude":"-70.75680","Snowdepth":"15.000","Units":"in","Rept_Date":"2021-03-02 13"},"coordinates":[6367,4352]},{"type":"Point","properties":{"Station_ID":"AGNW3","Station_Nam":"ARGONNE-1.5 NW","Latitude":"45.67360","Longitude":"-88.90380","Snowdepth":"15.000","Units":"in","Rept_Date":"2021-03-02 13"},"coordinates":[2004,5384]},{"type":"Point","properties":{"Station_ID":"WI-TY-3","Station_Nam":"MEDFORD 0.8 ENE, WI","Latitude":"45.14421","Longitude":"-90.33349","Snowdepth":"14.500","Units":"in","Rept_Date":"2021-03-02 13"},"coordinates":[1660,4980]},{"type":"Point","properties":{"Station_ID":"NY-ER-65","Station_Nam":"BOSTON 1.5 NE, NY","Latitude":"42.65470","Longitude":"-78.72010","Snowdepth":"14.500","Units":"in","Rept_Date":"2021-03-02 12"},"coordinates":[4453,3082]},{"type":"Point","properties":{"Station_ID":"MN-SL-18","Station_Nam":"DULUTH 1.4 NNW, MN","Latitude":"46.80321","Longitude":"-92.11240","Snowdepth":"14.500","Units":"in","Rept_Date":"2021-03-02 14"},"coordinates":[1233,6245]},{"type":"Point","properties":{"Station_ID":"WI-DG-20","Station_Nam":"SOLON SPRINGS 1.2 W, WI","Latitude":"46.35217","Longitude":"-91.84405","Snowdepth":"14.000","Units":"in","Rept_Date":"2021-03-02 13"},"coordinates":[1297,5901]},{"type":"Point","properties":{"Station_ID":"VT-CH-4","Station_Nam":"UNDERHILL 4.4 NNE, VT","Latitude":"44.58774","Longitude":"-72.92250","Snowdepth":"14.000","Units":"in","Rept_Date":"2021-03-02 12"},"coordinates":[5847,4556]},{"type":"Point","properties":{"Station_ID":"THFP1","Station_Nam":"FALL BROOK SNOW","Latitude":"41.70000","Longitude":"-76.86670","Snowdepth":"14.000","Units":"in","Rept_Date":"2021-03-02 16"},"coordinates":[4898,2354]},{"type":"Point","properties":{"Station_ID":"TAKW3","Station_Nam":"RICE RESERVOIR NO. 2","Latitude":"45.53770","Longitude":"-89.73220","Snowdepth":"14.000","Units":"in","Rept_Date":"2021-03-02 13"},"coordinates":[1805,5280]},{"type":"Point","properties":{"Station_ID":"RHLW3","Station_Nam":"RHINELANDER 4NE","Latitude":"45.65270","Longitude":"-89.30740","Snowdepth":"14.000","Units":"in","Rept_Date":"2021-03-02 12"},"coordinates":[1907,5368]},{"type":"Point","properties":{"Station_ID":"RHI","Station_Nam":"RHINELANDER-ONEIDA COUNTY AIRPORT","Latitude":"45.63080","Longitude":"-89.46530","Snowdepth":"14.000","Units":"in","Rept_Date":"2021-03-02 12"},"coordinates":[1869,5351]},{"type":"Point","properties":{"Station_ID":"NY-CR-5","Station_Nam":"MARATHON 1.0 NW, NY","Latitude":"42.45161","Longitude":"-76.04370","Snowdepth":"14.000","Units":"in","Rept_Date":"2021-03-02 12"},"coordinates":[5096,2927]},{"type":"Point","properties":{"Station_ID":"NOHV1","Station_Nam":"NORTH HARTLAND LAKE","Latitude":"43.60270","Longitude":"-72.36210","Snowdepth":"14.000","Units":"in","Rept_Date":"2021-03-02 12"},"coordinates":[5981,3805]},{"type":"Point","properties":{"Station_ID":"MWN","Station_Nam":"MOUNT WASHINGTON","Latitude":"44.26670","Longitude":"-71.30000","Snowdepth":"14.000","Units":"in","Rept_Date":"2021-03-02 12"},"coordinates":[6237,4311]},{"type":"Point","properties":{"Station_ID":"MN-IS-18","Station_Nam":"BRAHAM 0.7 SW, MN","Latitude":"45.71379","Longitude":"-93.18095","Snowdepth":"14.000","Units":"in","Rept_Date":"2021-03-02 14"},"coordinates":[976,5414]},{"type":"Point","properties":{"Station_ID":"MI-OG-6","Station_Nam":"WEST BRANCH 2.1 SSW, MI","Latitude":"44.24814","Longitude":"-84.25089","Snowdepth":"14.000","Units":"in","Rept_Date":"2021-03-02 12"},"coordinates":[3123,4297]},{"type":"Point","properties":{"Station_ID":"LUCW3","Station_Nam":"LUCK","Latitude":"45.57330","Longitude":"-92.48520","Snowdepth":"14.000","Units":"in","Rept_Date":"2021-03-02 19"},"coordinates":[1143,5307]},{"type":"Point","properties":{"Station_ID":"HWLM4","Station_Nam":"HALFWAY LAKE","Latitude":"46.47480","Longitude":"-85.59250","Snowdepth":"14.000","Units":"in","Rept_Date":"2021-03-02 14"},"coordinates":[2800,5994]},{"type":"Point","properties":{"Station_ID":"HRVM4","Station_Nam":"HARVEY","Latitude":"46.49080","Longitude":"-87.35470","Snowdepth":"14.000","Units":"in","Rept_Date":"2021-03-02 12"},"coordinates":[2377,6007]},{"type":"Point","properties":{"Station_ID":"EJNM4","Station_Nam":"EAST JORDAN 2NW","Latitude":"45.18630","Longitude":"-85.14770","Snowdepth":"14.000","Units":"in","Rept_Date":"2021-03-02 13"},"coordinates":[2907,5012]},{"type":"Point","properties":{"Station_ID":"CAN-NB-16","Station_Nam":"DORCHESTER 1.0 SSE, CAN","Latitude":"45.89160","Longitude":"-64.51269","Snowdepth":"14.000","Units":"in","Rept_Date":"2021-03-02 11"},"coordinates":[7869,5550]},{"type":"Point","properties":{"Station_ID":"ATAN6","Station_Nam":"ATTICA 7 SW","Latitude":"42.81070","Longitude":"-78.39790","Snowdepth":"14.000","Units":"in","Rept_Date":"2021-03-02 11"},"coordinates":[4530,3201]},{"type":"Point","properties":{"Station_ID":"CAN-NB-29","Station_Nam":"SUSSEX 1.0 WNW - KWRC, CAN","Latitude":"45.72670","Longitude":"-65.52858","Snowdepth":"13.600","Units":"in","Rept_Date":"2021-03-02 12"},"coordinates":[7625,5424]},{"type":"Point","properties":{"Station_ID":"NY-ER-63","Station_Nam":"GLENWOOD 1.5 SE, NY","Latitude":"42.60195","Longitude":"-78.63910","Snowdepth":"13.500","Units":"in","Rept_Date":"2021-03-02 13"},"coordinates":[4472,3042]},{"type":"Point","properties":{"Station_ID":"NJ-SS-54","Station_Nam":"SPARTA TWP 3.6 SSW, NJ","Latitude":"41.00503","Longitude":"-74.66358","Snowdepth":"13.500","Units":"in","Rept_Date":"2021-03-02 12"},"coordinates":[5428,1824]},{"type":"Point","properties":{"Station_ID":"CAN-NS-103","Station_Nam":"TRAFALGAR 4.9 WSW, CAN","Latitude":"45.26217","Longitude":"-62.72285","Snowdepth":"13.500","Units":"in","Rept_Date":"2021-03-02 12"},"coordinates":[8299,5070]},{"type":"Point","properties":{"Station_ID":"WRSN6","Station_Nam":"WARSAW 6SW","Latitude":"42.68550","Longitude":"-78.22020","Snowdepth":"13.000","Units":"in","Rept_Date":"2021-03-02 12"},"coordinates":[4573,3105]},{"type":"Point","properties":{"Station_ID":"WPGN6","Station_Nam":"GEORGETOWN 2SE SNOW","Latitude":"42.75000","Longitude":"-75.70000","Snowdepth":"13.000","Units":"in","Rept_Date":"2021-03-02 14"},"coordinates":[5179,3154]},{"type":"Point","properties":{"Station_ID":"WNDP1","Station_Nam":"WINDBER COUNTY CLUB","Latitude":"40.28780","Longitude":"-78.77530","Snowdepth":"13.000","Units":"in","Rept_Date":"2021-03-02 12"},"coordinates":[4439,1277]},{"type":"Point","properties":{"Station_ID":"WI-RC-3","Station_Nam":"RACINE 2.3 WSW, WI","Latitude":"42.71124","Longitude":"-87.84570","Snowdepth":"13.000","Units":"in","Rept_Date":"2021-03-02 13"},"coordinates":[2258,3125]},{"type":"Point","properties":{"Station_ID":"VT-WH-19","Station_Nam":"EAST DOVER 1.8 N, VT","Latitude":"42.97658","Longitude":"-72.77637","Snowdepth":"13.000","Units":"in","Rept_Date":"2021-03-02 12"},"coordinates":[5882,3327]},{"type":"Point","properties":{"Station_ID":"VT-OL-24","Station_Nam":"DERBY LINE 1.9 W, VT","Latitude":"45.00454","Longitude":"-72.14170","Snowdepth":"13.000","Units":"in","Rept_Date":"2021-03-02 12"},"coordinates":[6034,4873]},{"type":"Point","properties":{"Station_ID":"VT-FR-21","Station_Nam":"FAIRFAX 4.9 WNW, VT","Latitude":"44.68880","Longitude":"-73.10340","Snowdepth":"13.000","Units":"in","Rept_Date":"2021-03-02 14"},"coordinates":[5803,4633]},{"type":"Point","properties":{"Station_ID":"THIP1","Station_Nam":"SAND ROAD SNOW","Latitude":"41.81670","Longitude":"-77.30000","Snowdepth":"13.000","Units":"in","Rept_Date":"2021-03-02 16"},"coordinates":[4794,2443]},{"type":"Point","properties":{"Station_ID":"SPRP1","Station_Nam":"SPRINGTOWN 1 NNE","Latitude":"40.57110","Longitude":"-75.27810","Snowdepth":"13.000","Units":"in","Rept_Date":"2021-03-02 12"},"coordinates":[5280,1493]},{"type":"Point","properties":{"Station_ID":"PLMN6","Station_Nam":"PALERMO 2SSE","Latitude":"43.33140","Longitude":"-76.26930","Snowdepth":"13.000","Units":"in","Rept_Date":"2021-03-02 11"},"coordinates":[5042,3598]},{"type":"Point","properties":{"Station_ID":"PA-PK-22","Station_Nam":"MILFORD 8.7 NW, PA","Latitude":"41.42018","Longitude":"-74.90953","Snowdepth":"13.000","Units":"in","Rept_Date":"2021-03-02 12"},"coordinates":[5369,2141]},{"type":"Point","properties":{"Station_ID":"NUMN3","Station_Nam":"NORTHUMBERLAND","Latitude":"44.52830","Longitude":"-71.50440","Snowdepth":"13.000","Units":"in","Rept_Date":"2021-03-02 13"},"coordinates":[6188,4510]},{"type":"Point","properties":{"Station_ID":"NOWM1","Station_Nam":"NORRIDGEWOCK","Latitude":"44.68080","Longitude":"-69.80280","Snowdepth":"13.000","Units":"in","Rept_Date":"2021-03-02 12"},"coordinates":[6597,4627]},{"type":"Point","properties":{"Station_ID":"NJ-SS-7","Station_Nam":"HARDYSTON TWP 3.2 SE, NJ","Latitude":"41.08903","Longitude":"-74.53990","Snowdepth":"13.000","Units":"in","Rept_Date":"2021-03-02 12"},"coordinates":[5458,1888]},{"type":"Point","properties":{"Station_ID":"NJ-SS-1","Station_Nam":"ANDOVER TWP 1.7 W, NJ","Latitude":"41.01974","Longitude":"-74.76110","Snowdepth":"13.000","Units":"in","Rept_Date":"2021-03-02 12"},"coordinates":[5405,1835]},{"type":"Point","properties":{"Station_ID":"NH-MR-4","Station_Nam":"BOW 1.6 NW, NH","Latitude":"43.14994","Longitude":"-71.55650","Snowdepth":"13.000","Units":"in","Rept_Date":"2021-03-02 12"},"coordinates":[6175,3459]},{"type":"Point","properties":{"Station_ID":"NH-GR-55","Station_Nam":"BRISTOL 3.7 E, NH","Latitude":"43.60517","Longitude":"-71.67158","Snowdepth":"13.000","Units":"in","Rept_Date":"2021-03-02 11"},"coordinates":[6147,3806]},{"type":"Point","properties":{"Station_ID":"NH-GR-47","Station_Nam":"LITTLETON 7.3 W, NH","Latitude":"44.31847","Longitude":"-71.91086","Snowdepth":"13.000","Units":"in","Rept_Date":"2021-03-02 13"},"coordinates":[6090,4350]},{"type":"Point","properties":{"Station_ID":"NCKN6","Station_Nam":"NORTH CREEK 5 SE","Latitude":"43.66110","Longitude":"-73.89690","Snowdepth":"13.000","Units":"in","Rept_Date":"2021-03-02 12"},"coordinates":[5612,3849]},{"type":"Point","properties":{"Station_ID":"MN-SL-105","Station_Nam":"DULUTH 11.8 NNE, MN","Latitude":"46.94680","Longitude":"-92.03925","Snowdepth":"13.000","Units":"in","Rept_Date":"2021-03-02 14"},"coordinates":[1250,6354]},{"type":"Point","properties":{"Station_ID":"MI-OT-17","Station_Nam":"GAYLORD 4.1 S, MI","Latitude":"44.96388","Longitude":"-84.68467","Snowdepth":"13.000","Units":"in","Rept_Date":"2021-03-02 12"},"coordinates":[3019,4842]},{"type":"Point","properties":{"Station_ID":"LOWN6","Station_Nam":"LOWVILLE","Latitude":"43.79280","Longitude":"-75.48290","Snowdepth":"13.000","Units":"in","Rept_Date":"2021-03-02 12"},"coordinates":[5231,3950]},{"type":"Point","properties":{"Station_ID":"KMWN","Station_Nam":"MOUNT WASHINGTON","Latitude":"44.26666","Longitude":"-71.30000","Snowdepth":"13.000","Units":"in","Rept_Date":"2021-03-03 06"},"coordinates":[6237,4311]},{"type":"Point","properties":{"Station_ID":"INL","Station_Nam":"FALLS INTERNATIONAL ARPT","Latitude":"48.56640","Longitude":"-93.40310","Snowdepth":"13.000","Units":"in","Rept_Date":"2021-03-02 13"},"coordinates":[922,7589]},{"type":"Point","properties":{"Station_ID":"FLNW3","Station_Nam":"FLORENCE","Latitude":"45.93360","Longitude":"-88.25830","Snowdepth":"13.000","Units":"in","Rept_Date":"2021-03-02 13"},"coordinates":[2159,5582]},{"type":"Point","properties":{"Station_ID":"CORM1","Station_Nam":"CORINNA","Latitude":"44.91980","Longitude":"-69.24180","Snowdepth":"13.000","Units":"in","Rept_Date":"2021-03-02 16"},"coordinates":[6732,4809]},{"type":"Point","properties":{"Station_ID":"COLN3","Station_Nam":"COLEBROOK 3SW","Latitude":"44.86100","Longitude":"-71.53920","Snowdepth":"13.000","Units":"in","Rept_Date":"2021-03-02 12"},"coordinates":[6179,4764]},{"type":"Point","properties":{"Station_ID":"CNKN6","Station_Nam":"CONKLINGVILLE DAM","Latitude":"43.32030","Longitude":"-73.92560","Snowdepth":"13.000","Units":"in","Rept_Date":"2021-03-02 13"},"coordinates":[5606,3589]},{"type":"Point","properties":{"Station_ID":"CAN-ON-5","Station_Nam":"OWEN SOUND 1.5 NW - GSCA, CAN","Latitude":"44.57837","Longitude":"-80.95461","Snowdepth":"13.000","Units":"in","Rept_Date":"2021-03-02 13"},"coordinates":[3915,4549]},{"type":"Point","properties":{"Station_ID":"ADEN6","Station_Nam":"WEST ALMOND 1E SNOW","Latitude":"42.30000","Longitude":"-77.86670","Snowdepth":"13.000","Units":"in","Rept_Date":"2021-03-02 13"},"coordinates":[4658,2811]},{"type":"Point","properties":{"Station_ID":"ADCN6","Station_Nam":"ALFRED 1NW SNOW","Latitude":"42.26670","Longitude":"-77.80000","Snowdepth":"13.000","Units":"in","Rept_Date":"2021-03-02 13"},"coordinates":[4674,2786]},{"type":"Point","properties":{"Station_ID":"VT-CL-23","Station_Nam":"RYEGATE 1.5 N, VT","Latitude":"44.23024","Longitude":"-72.10523","Snowdepth":"12.500","Units":"in","Rept_Date":"2021-03-02 12"},"coordinates":[6043,4283]},{"type":"Point","properties":{"Station_ID":"NH-SL-3","Station_Nam":"WEST UNITY 0.7 WSW, NH","Latitude":"43.28652","Longitude":"-72.32970","Snowdepth":"12.500","Units":"in","Rept_Date":"2021-03-02 12"},"coordinates":[5989,3564]},{"type":"Point","properties":{"Station_ID":"NH-MR-45","Station_Nam":"NORTHFIELD 2.8 E, NH","Latitude":"43.43945","Longitude":"-71.53730","Snowdepth":"12.500","Units":"in","Rept_Date":"2021-03-02 12"},"coordinates":[6180,3680]},{"type":"Point","properties":{"Station_ID":"WYON6","Station_Nam":"WYOMING 3W","Latitude":"42.82020","Longitude":"-78.14780","Snowdepth":"12.000","Units":"in","Rept_Date":"2021-03-02 12"},"coordinates":[4590,3208]},{"type":"Point","properties":{"Station_ID":"WSFW3","Station_Nam":"TOWN OF WESTFORD","Latitude":"43.47190","Longitude":"-88.88250","Snowdepth":"12.000","Units":"in","Rept_Date":"2021-03-02 13"},"coordinates":[2009,3705]},{"type":"Point","properties":{"Station_ID":"WRSM5","Station_Nam":"WRENSHALL","Latitude":"46.61550","Longitude":"-92.38380","Snowdepth":"12.000","Units":"in","Rept_Date":"2021-03-02 14"},"coordinates":[1167,6102]},{"type":"Point","properties":{"Station_ID":"WILW3","Station_Nam":"RESERVOIR","Latitude":"45.70000","Longitude":"-89.83330","Snowdepth":"12.000","Units":"in","Rept_Date":"2021-03-02 12"},"coordinates":[1781,5404]},{"type":"Point","properties":{"Station_ID":"WI-DD-16","Station_Nam":"BEAVER DAM 2.4 WNW, WI","Latitude":"43.47210","Longitude":"-88.88280","Snowdepth":"12.000","Units":"in","Rept_Date":"2021-03-02 13"},"coordinates":[2009,3705]},{"type":"Point","properties":{"Station_ID":"WELM4","Station_Nam":"WELLSTON TIPPY DAM","Latitude":"44.25860","Longitude":"-85.93940","Snowdepth":"12.000","Units":"in","Rept_Date":"2021-03-02 13"},"coordinates":[2717,4305]},{"type":"Point","properties":{"Station_ID":"WDSV1","Station_Nam":"WOODSTOCK","Latitude":"43.63030","Longitude":"-72.50720","Snowdepth":"12.000","Units":"in","Rept_Date":"2021-03-02 13"},"coordinates":[5947,3826]},{"type":"Point","properties":{"Station_ID":"VT-OL-2","Station_Nam":"BARTON 3.0 ENE, VT","Latitude":"44.75863","Longitude":"-72.11680","Snowdepth":"12.000","Units":"in","Rept_Date":"2021-03-02 12"},"coordinates":[6040,4686]},{"type":"Point","properties":{"Station_ID":"VT-OG-14","Station_Nam":"BRADFORD 2.2 NNW, VT","Latitude":"44.02268","Longitude":"-72.14756","Snowdepth":"12.000","Units":"in","Rept_Date":"2021-03-02 13"},"coordinates":[6033,4125]},{"type":"Point","properties":{"Station_ID":"VT-LM-1","Station_Nam":"STOWE 0.2 SW, VT","Latitude":"44.46399","Longitude":"-72.69070","Snowdepth":"12.000","Units":"in","Rept_Date":"2021-03-02 12"},"coordinates":[5902,4461]},{"type":"Point","properties":{"Station_ID":"VT-CH-7","Station_Nam":"HUNTINGTON 1.1 E, VT","Latitude":"44.32488","Longitude":"-72.96570","Snowdepth":"12.000","Units":"in","Rept_Date":"2021-03-02 12"},"coordinates":[5836,4355]},{"type":"Point","properties":{"Station_ID":"TQFM4","Station_Nam":"TAHQUAMENON FALLS STATE PARK","Latitude":"46.60110","Longitude":"-85.22410","Snowdepth":"12.000","Units":"in","Rept_Date":"2021-03-02 13"},"coordinates":[2889,6091]},{"type":"Point","properties":{"Station_ID":"THGP1","Station_Nam":"CHARLESTON SNOW","Latitude":"41.80000","Longitude":"-77.23330","Snowdepth":"12.000","Units":"in","Rept_Date":"2021-03-02 16"},"coordinates":[4810,2430]},{"type":"Point","properties":{"Station_ID":"THDP1","Station_Nam":"HILLSIDE GUN CLUB SNOW","Latitude":"41.66670","Longitude":"-77.03330","Snowdepth":"12.000","Units":"in","Rept_Date":"2021-03-02 16"},"coordinates":[4858,2328]},{"type":"Point","properties":{"Station_ID":"SPOW3","Station_Nam":"SPOONER,WI","Latitude":"45.82360","Longitude":"-91.70000","Snowdepth":"12.000","Units":"in","Rept_Date":"2021-03-02 14"},"coordinates":[1332,5498]},{"type":"Point","properties":{"Station_ID":"RHRW3","Station_Nam":"RHINELANDER WJFW TV-12","Latitude":"45.62220","Longitude":"-89.41000","Snowdepth":"12.000","Units":"in","Rept_Date":"2021-03-03 04"},"coordinates":[1882,5344]},{"type":"Point","properties":{"Station_ID":"POLM1","Station_Nam":"POLAND","Latitude":"44.00700","Longitude":"-70.36140","Snowdepth":"12.000","Units":"in","Rept_Date":"2021-03-02 12"},"coordinates":[6463,4113]},{"type":"Point","properties":{"Station_ID":"PLFV1","Station_Nam":"PLAINFIELD","Latitude":"44.27610","Longitude":"-72.41500","Snowdepth":"12.000","Units":"in","Rept_Date":"2021-03-02 12"},"coordinates":[5969,4318]},{"type":"Point","properties":{"Station_ID":"PA-BR-7","Station_Nam":"FLEETWOOD 2.0 ESE, PA","Latitude":"40.44292","Longitude":"-75.78720","Snowdepth":"12.000","Units":"in","Rept_Date":"2021-03-02 12"},"coordinates":[5158,1395]},{"type":"Point","properties":{"Station_ID":"NY-SL-6","Station_Nam":"HANNAWA FALLS 0.1 SW, NY","Latitude":"44.61154","Longitude":"-74.97190","Snowdepth":"12.000","Units":"in","Rept_Date":"2021-03-02 12"},"coordinates":[5354,4574]},{"type":"Point","properties":{"Station_ID":"NY-MD-10","Station_Nam":"CAZENOVIA 2.9 SE, NY","Latitude":"42.90003","Longitude":"-75.81140","Snowdepth":"12.000","Units":"in","Rept_Date":"2021-03-02 12"},"coordinates":[5152,3269]},{"type":"Point","properties":{"Station_ID":"NVLV1","Station_Nam":"NASHVILLE","Latitude":"44.44970","Longitude":"-72.92640","Snowdepth":"12.000","Units":"in","Rept_Date":"2021-03-02 12"},"coordinates":[5846,4450]},{"type":"Point","properties":{"Station_ID":"NVLN6","Station_Nam":"NORTHVILLE","Latitude":"43.23330","Longitude":"-74.16670","Snowdepth":"12.000","Units":"in","Rept_Date":"2021-03-02 13"},"coordinates":[5548,3523]},{"type":"Point","properties":{"Station_ID":"NJ-SS-60","Station_Nam":"VERNON TWP 2.7 SSE, NJ","Latitude":"41.16332","Longitude":"-74.45938","Snowdepth":"12.000","Units":"in","Rept_Date":"2021-03-02 11"},"coordinates":[5477,1945]},{"type":"Point","properties":{"Station_ID":"NJ-MS-4","Station_Nam":"ROCKAWAY TWP 0.7 NE, NJ","Latitude":"40.96583","Longitude":"-74.48780","Snowdepth":"12.000","Units":"in","Rept_Date":"2021-03-02 13"},"coordinates":[5470,1794]},{"type":"Point","properties":{"Station_ID":"NH-BK-9","Station_Nam":"MEREDITH 2.9 SSW, NH","Latitude":"43.62245","Longitude":"-71.53510","Snowdepth":"12.000","Units":"in","Rept_Date":"2021-03-02 12"},"coordinates":[6180,3820]},{"type":"Point","properties":{"Station_ID":"MI-OT-16","Station_Nam":"GAYLORD 2.2 SSE, MI","Latitude":"44.99441","Longitude":"-84.65820","Snowdepth":"12.000","Units":"in","Rept_Date":"2021-03-02 12"},"coordinates":[3025,4866]},{"type":"Point","properties":{"Station_ID":"MI-DL-1","Station_Nam":"GARDEN CORNERS 0.8 NW, MI","Latitude":"45.89815","Longitude":"-86.54850","Snowdepth":"12.000","Units":"in","Rept_Date":"2021-03-02 13"},"coordinates":[2570,5555]},{"type":"Point","properties":{"Station_ID":"ME-YK-3","Station_Nam":"HOLLIS CENTER 5.4 NW, ME","Latitude":"43.64750","Longitude":"-70.67510","Snowdepth":"12.000","Units":"in","Rept_Date":"2021-03-02 12"},"coordinates":[6387,3839]},{"type":"Point","properties":{"Station_ID":"ME-PN-55","Station_Nam":"ORONO 1.1 SSW, ME","Latitude":"44.87005","Longitude":"-68.69446","Snowdepth":"12.000","Units":"in","Rept_Date":"2021-03-02 12"},"coordinates":[6863,4771]},{"type":"Point","properties":{"Station_ID":"KGTB","Station_Nam":"FORT DRUM / WHEELER-SACK U. S. ARMY AIRFIELD","Latitude":"44.05000","Longitude":"-75.73333","Snowdepth":"12.000","Units":"in","Rept_Date":"2021-03-03 06"},"coordinates":[5171,4146]},{"type":"Point","properties":{"Station_ID":"KABM5","Station_Nam":"KABETOGAMA LAKE VISITOR CTR","Latitude":"48.40880","Longitude":"-93.04840","Snowdepth":"12.000","Units":"in","Rept_Date":"2021-03-02 13"},"coordinates":[1008,7469]},{"type":"Point","properties":{"Station_ID":"JOHV1","Station_Nam":"JOHNSON 2 N","Latitude":"44.65790","Longitude":"-72.67850","Snowdepth":"12.000","Units":"in","Rept_Date":"2021-03-02 12"},"coordinates":[5905,4609]},{"type":"Point","properties":{"Station_ID":"JEFN3","Station_Nam":"JEFFERSON","Latitude":"44.41690","Longitude":"-71.50080","Snowdepth":"12.000","Units":"in","Rept_Date":"2021-03-02 12"},"coordinates":[6189,4425]},{"type":"Point","properties":{"Station_ID":"IL-CK-88","Station_Nam":"COUNTRYSIDE 0.8 ENE, IL","Latitude":"41.78231","Longitude":"-87.86220","Snowdepth":"12.000","Units":"in","Rept_Date":"2021-03-02 11"},"coordinates":[2255,2417]},{"type":"Point","properties":{"Station_ID":"HOLM1","Station_Nam":"HOLLIS","Latitude":"43.64750","Longitude":"-70.67490","Snowdepth":"12.000","Units":"in","Rept_Date":"2021-03-02 12"},"coordinates":[6387,3839]},{"type":"Point","properties":{"Station_ID":"HGHN4","Station_Nam":"HIGHLAND LAKES 1SW","Latitude":"41.16330","Longitude":"-74.45930","Snowdepth":"12.000","Units":"in","Rept_Date":"2021-03-02 11"},"coordinates":[5477,1945]},{"type":"Point","properties":{"Station_ID":"GDCM4","Station_Nam":"GARDEN CORNERS","Latitude":"45.89830","Longitude":"-86.54850","Snowdepth":"12.000","Units":"in","Rept_Date":"2021-03-02 13"},"coordinates":[2570,5555]},{"type":"Point","properties":{"Station_ID":"FORM5","Station_Nam":"FOREST LAKE 5NE","Latitude":"45.33170","Longitude":"-92.89820","Snowdepth":"12.000","Units":"in","Rept_Date":"2021-03-02 13"},"coordinates":[1044,5123]},{"type":"Point","properties":{"Station_ID":"ELYM5","Station_Nam":"ELY","Latitude":"47.90560","Longitude":"-91.82830","Snowdepth":"12.000","Units":"in","Rept_Date":"2021-03-02 14"},"coordinates":[1301,7085]},{"type":"Point","properties":{"Station_ID":"ELKM5","Station_Nam":"ELK RIVER","Latitude":"45.30470","Longitude":"-93.58420","Snowdepth":"12.000","Units":"in","Rept_Date":"2021-03-02 13"},"coordinates":[879,5102]},{"type":"Point","properties":{"Station_ID":"DLHM5","Station_Nam":"DULUTH NWS","Latitude":"46.83680","Longitude":"-92.21080","Snowdepth":"12.000","Units":"in","Rept_Date":"2021-03-03 06"},"coordinates":[1209,6270]},{"type":"Point","properties":{"Station_ID":"CRVW3","Station_Nam":"CRIVITZ HIGH FALLS","Latitude":"45.35750","Longitude":"-88.19190","Snowdepth":"12.000","Units":"in","Rept_Date":"2021-03-02 13"},"coordinates":[2175,5143]},{"type":"Point","properties":{"Station_ID":"CEFM4","Station_Nam":"EXPERIMENT FARM #2","Latitude":"46.33330","Longitude":"-86.91670","Snowdepth":"12.000","Units":"in","Rept_Date":"2021-03-02 13"},"coordinates":[2482,5887]},{"type":"Point","properties":{"Station_ID":"CAN-ON-118","Station_Nam":"DURHAM 1.4 S, CAN","Latitude":"44.16525","Longitude":"-80.82064","Snowdepth":"12.000","Units":"in","Rept_Date":"2021-03-02 12"},"coordinates":[3948,4234]},{"type":"Point","properties":{"Station_ID":"BRLN3","Station_Nam":"BERLIN","Latitude":"44.45350","Longitude":"-71.18540","Snowdepth":"12.000","Units":"in","Rept_Date":"2021-03-02 12"},"coordinates":[6264,4453]},{"type":"Point","properties":{"Station_ID":"BFHW3","Station_Nam":"BAYFIELD FISH HATCHERY","Latitude":"46.78670","Longitude":"-90.86420","Snowdepth":"12.000","Units":"in","Rept_Date":"2021-03-02 14"},"coordinates":[1533,6232]},{"type":"Point","properties":{"Station_ID":"PA-CR-1","Station_Nam":"EMPORIUM 2.6 S, PA","Latitude":"41.47342","Longitude":"-78.24330","Snowdepth":"11.800","Units":"in","Rept_Date":"2021-03-02 12"},"coordinates":[4567,2181]},{"type":"Point","properties":{"Station_ID":"NY-WY-10","Station_Nam":"WYOMING COOP, NY","Latitude":"42.82060","Longitude":"-78.14810","Snowdepth":"11.600","Units":"in","Rept_Date":"2021-03-02 12"},"coordinates":[4590,3208]},{"type":"Point","properties":{"Station_ID":"WI-BT-14","Station_Nam":"OAKLAND 9.0 ENE, WI","Latitude":"45.95184","Longitude":"-92.21653","Snowdepth":"11.500","Units":"in","Rept_Date":"2021-03-02 13"},"coordinates":[1208,5596]},{"type":"Point","properties":{"Station_ID":"PA-CB-33","Station_Nam":"LAKE HARMONY 2.4 WNW, PA","Latitude":"41.07333","Longitude":"-75.63317","Snowdepth":"11.500","Units":"in","Rept_Date":"2021-03-02 12"},"coordinates":[5195,1876]},{"type":"Point","properties":{"Station_ID":"NH-MR-63","Station_Nam":"SUTTON MILLS 0.1 ENE, NH","Latitude":"43.33522","Longitude":"-71.95126","Snowdepth":"11.500","Units":"in","Rept_Date":"2021-03-02 12"},"coordinates":[6080,3601]},{"type":"Point","properties":{"Station_ID":"MI-CP-7","Station_Nam":"DRUMMOND 2.9 NE, MI","Latitude":"46.05329","Longitude":"-83.69060","Snowdepth":"11.500","Units":"in","Rept_Date":"2021-03-02 14"},"coordinates":[3258,5673]},{"type":"Point","properties":{"Station_ID":"MI-BZ-1","Station_Nam":"BENZONIA 5.3 S, MI","Latitude":"44.53976","Longitude":"-86.10650","Snowdepth":"11.500","Units":"in","Rept_Date":"2021-03-02 14"},"coordinates":[2677,4519]},{"type":"Point","properties":{"Station_ID":"MA-BE-24","Station_Nam":"HANCOCK 3.6 NNE, MA","Latitude":"42.59130","Longitude":"-73.29530","Snowdepth":"11.500","Units":"in","Rept_Date":"2021-03-02 17"},"coordinates":[5757,3033]},{"type":"Point","properties":{"Station_ID":"CAN-MB-368","Station_Nam":"WHITESHELL 1.3 NE, CAN","Latitude":"49.74405","Longitude":"-95.19123","Snowdepth":"11.200","Units":"in","Rept_Date":"2021-03-02 14"},"coordinates":[492,8487]},{"type":"Point","properties":{"Station_ID":"WLDM5","Station_Nam":"WILD RIVER STATE PARK","Latitude":"45.52310","Longitude":"-92.74890","Snowdepth":"11.000","Units":"in","Rept_Date":"2021-03-02 14"},"coordinates":[1080,5269]},{"type":"Point","properties":{"Station_ID":"UVDV1","Station_Nam":"NERON SITE AT UNION VILLAGE DAM","Latitude":"43.79140","Longitude":"-72.25720","Snowdepth":"11.000","Units":"in","Rept_Date":"2021-03-02 12"},"coordinates":[6007,3948]},{"type":"Point","properties":{"Station_ID":"THBP1","Station_Nam":"CANOE CREEK SNOW","Latitude":"41.83330","Longitude":"-77.03330","Snowdepth":"11.000","Units":"in","Rept_Date":"2021-03-02 16"},"coordinates":[4858,2456]},{"type":"Point","properties":{"Station_ID":"STIM4","Station_Nam":"ST IGNACE","Latitude":"45.86080","Longitude":"-84.71960","Snowdepth":"11.000","Units":"in","Rept_Date":"2021-03-02 12"},"coordinates":[3010,5526]},{"type":"Point","properties":{"Station_ID":"NY-WR-10","Station_Nam":"WARRENSBURG 2.1 WNW, NY","Latitude":"43.51784","Longitude":"-73.81069","Snowdepth":"11.000","Units":"in","Rept_Date":"2021-03-02 13"},"coordinates":[5633,3740]},{"type":"Point","properties":{"Station_ID":"NY-TM-45","Station_Nam":"NEWFIELD HAMLET 4.3 S, NY","Latitude":"42.29650","Longitude":"-76.60676","Snowdepth":"11.000","Units":"in","Rept_Date":"2021-03-02 14"},"coordinates":[4961,2809]},{"type":"Point","properties":{"Station_ID":"NY-CL-12","Station_Nam":"SARANAC 0.8 SSE, NY","Latitude":"44.63980","Longitude":"-73.73848","Snowdepth":"11.000","Units":"in","Rept_Date":"2021-03-02 12"},"coordinates":[5651,4595]},{"type":"Point","properties":{"Station_ID":"NH-GR-1","Station_Nam":"BRISTOL 0.4 SSE, NH","Latitude":"43.59490","Longitude":"-71.74140","Snowdepth":"11.000","Units":"in","Rept_Date":"2021-03-02 12"},"coordinates":[6131,3799]},{"type":"Point","properties":{"Station_ID":"MONW3","Station_Nam":"MONROE,WI","Latitude":"42.60000","Longitude":"-89.66670","Snowdepth":"11.000","Units":"in","Rept_Date":"2021-03-02 13"},"coordinates":[1821,3040]},{"type":"Point","properties":{"Station_ID":"MN-SR-48","Station_Nam":"SAINT AUGUSTA 2.1 S, MN","Latitude":"45.41950","Longitude":"-94.19737","Snowdepth":"11.000","Units":"in","Rept_Date":"2021-03-02 13"},"coordinates":[731,5190]},{"type":"Point","properties":{"Station_ID":"MN-MC-16","Station_Nam":"HUTCHINSON 0.1 ENE, MN","Latitude":"44.88633","Longitude":"-94.37503","Snowdepth":"11.000","Units":"in","Rept_Date":"2021-03-02 14"},"coordinates":[689,4783]},{"type":"Point","properties":{"Station_ID":"MN-HN-30","Station_Nam":"PLYMOUTH 2.4 ENE, MN","Latitude":"45.04063","Longitude":"-93.41950","Snowdepth":"11.000","Units":"in","Rept_Date":"2021-03-02 13"},"coordinates":[918,4901]},{"type":"Point","properties":{"Station_ID":"MI-OT-4","Station_Nam":"GAYLORD 1.7 WNW, MI","Latitude":"45.03280","Longitude":"-84.71090","Snowdepth":"11.000","Units":"in","Rept_Date":"2021-03-02 13"},"coordinates":[3012,4895]},{"type":"Point","properties":{"Station_ID":"MI-MC-4","Station_Nam":"ST. IGNACE 0.5SE, MI","Latitude":"45.86057","Longitude":"-84.71980","Snowdepth":"11.000","Units":"in","Rept_Date":"2021-03-02 12"},"coordinates":[3010,5526]},{"type":"Point","properties":{"Station_ID":"MECN6","Station_Nam":"MECKLENBURG 4 SW","Latitude":"42.44220","Longitude":"-76.75740","Snowdepth":"11.000","Units":"in","Rept_Date":"2021-03-02 12"},"coordinates":[4925,2920]},{"type":"Point","properties":{"Station_ID":"LGEW3","Station_Nam":"LAKE GENEVA, WI","Latitude":"42.60000","Longitude":"-88.43440","Snowdepth":"11.000","Units":"in","Rept_Date":"2021-03-02 13"},"coordinates":[2117,3040]},{"type":"Point","properties":{"Station_ID":"LEIM5","Station_Nam":"ORR 3E","Latitude":"48.05810","Longitude":"-92.75220","Snowdepth":"11.000","Units":"in","Rept_Date":"2021-03-02 12"},"coordinates":[1079,7202]},{"type":"Point","properties":{"Station_ID":"IL-MCH-13","Station_Nam":"BULL VALLEY 2.5 WNW, IL","Latitude":"42.32455","Longitude":"-88.39460","Snowdepth":"11.000","Units":"in","Rept_Date":"2021-03-02 14"},"coordinates":[2127,2830]},{"type":"Point","properties":{"Station_ID":"HTLM4","Station_Nam":"SNOW PAID OBSERVER FOR KHTL","Latitude":"44.34470","Longitude":"-84.67730","Snowdepth":"11.000","Units":"in","Rept_Date":"2021-03-02 18"},"coordinates":[3020,4370]},{"type":"Point","properties":{"Station_ID":"HTL","Station_Nam":"ROSCOMMON COUNTY AIRPORT","Latitude":"44.35000","Longitude":"-84.66670","Snowdepth":"11.000","Units":"in","Rept_Date":"2021-03-03 00"},"coordinates":[3023,4374]},{"type":"Point","properties":{"Station_ID":"GOVN6","Station_Nam":"GOUVERNEUR 3 NW","Latitude":"44.35400","Longitude":"-75.51230","Snowdepth":"11.000","Units":"in","Rept_Date":"2021-03-02 12"},"coordinates":[5224,4377]},{"type":"Point","properties":{"Station_ID":"GLDM4","Station_Nam":"GLADSTONE NO. 2","Latitude":"45.84330","Longitude":"-87.03910","Snowdepth":"11.000","Units":"in","Rept_Date":"2021-03-02 12"},"coordinates":[2452,5513]},{"type":"Point","properties":{"Station_ID":"GAYM4","Station_Nam":"GAYLORD","Latitude":"45.03320","Longitude":"-84.71130","Snowdepth":"11.000","Units":"in","Rept_Date":"2021-03-02 13"},"coordinates":[3012,4895]},{"type":"Point","properties":{"Station_ID":"DLH","Station_Nam":"DULUTH, MN","Latitude":"46.83690","Longitude":"-92.21030","Snowdepth":"11.000","Units":"in","Rept_Date":"2021-03-03 00"},"coordinates":[1209,6271]},{"type":"Point","properties":{"Station_ID":"CLJP1","Station_Nam":"HARRISON VALLEY SNOW","Latitude":"41.96670","Longitude":"-77.63330","Snowdepth":"11.000","Units":"in","Rept_Date":"2021-03-02 14"},"coordinates":[4714,2557]},{"type":"Point","properties":{"Station_ID":"BABM5","Station_Nam":"BABBITT","Latitude":"47.71210","Longitude":"-91.95330","Snowdepth":"11.000","Units":"in","Rept_Date":"2021-03-02 13"},"coordinates":[1271,6938]},{"type":"Point","properties":{"Station_ID":"AROM4","Station_Nam":"ARNOLD,MI","Latitude":"46.06670","Longitude":"-87.48330","Snowdepth":"11.000","Units":"in","Rept_Date":"2021-03-02 13"},"coordinates":[2346,5683]},{"type":"Point","properties":{"Station_ID":"VT-CH-11","Station_Nam":"UNDERHILL 5.1 NNE, VT","Latitude":"44.59811","Longitude":"-72.91880","Snowdepth":"10.500","Units":"in","Rept_Date":"2021-03-02 13"},"coordinates":[5848,4564]},{"type":"Point","properties":{"Station_ID":"NY-CR-1","Station_Nam":"FREETOWN 1.0 NE, NY","Latitude":"42.53299","Longitude":"-76.02111","Snowdepth":"10.500","Units":"in","Rept_Date":"2021-03-02 12"},"coordinates":[5102,2989]},{"type":"Point","properties":{"Station_ID":"NH-BK-26","Station_Nam":"MEREDITH 3.3 NNE, NH","Latitude":"43.69844","Longitude":"-71.46930","Snowdepth":"10.500","Units":"in","Rept_Date":"2021-03-02 13"},"coordinates":[6196,3878]},{"type":"Point","properties":{"Station_ID":"MN-SL-108","Station_Nam":"IRON JUNCTION 3.4 NNW, MN","Latitude":"47.46150","Longitude":"-92.63130","Snowdepth":"10.500","Units":"in","Rept_Date":"2021-03-02 09"},"coordinates":[1108,6747]},{"type":"Point","properties":{"Station_ID":"VT-WR-22","Station_Nam":"ROCHESTER 0.3 NE, VT","Latitude":"43.87816","Longitude":"-72.80459","Snowdepth":"10.400","Units":"in","Rept_Date":"2021-03-02 12"},"coordinates":[5875,4015]},{"type":"Point","properties":{"Station_ID":"MN-IT-7","Station_Nam":"GRAND RAPIDS 6.2 SSW, MN","Latitude":"47.13687","Longitude":"-93.56660","Snowdepth":"10.400","Units":"in","Rept_Date":"2021-03-02 12"},"coordinates":[883,6499]},{"type":"Point","properties":{"Station_ID":"CAN-ON-452","Station_Nam":"CHATSWORTH 1.8 ENE - GSCA, CAN","Latitude":"44.46118","Longitude":"-80.87506","Snowdepth":"10.400","Units":"in","Rept_Date":"2021-03-02 12"},"coordinates":[3935,4459]},{"type":"Point","properties":{"Station_ID":"WBUM1","Station_Nam":"HOLLIS/NWS","Latitude":"43.64500","Longitude":"-70.67690","Snowdepth":"10.300","Units":"in","Rept_Date":"2021-03-02 18"},"coordinates":[6387,3837]},{"type":"Point","properties":{"Station_ID":"CAN-NS-60","Station_Nam":"SYDNEY FORKS, CAN","Latitude":"46.05645","Longitude":"-60.31510","Snowdepth":"10.300","Units":"in","Rept_Date":"2021-03-02 13"},"coordinates":[8878,5676]},{"type":"Point","properties":{"Station_ID":"WTHM1","Station_Nam":"WINTHROP","Latitude":"44.30650","Longitude":"-69.97010","Snowdepth":"10.000","Units":"in","Rept_Date":"2021-03-02 13"},"coordinates":[6557,4341]},{"type":"Point","properties":{"Station_ID":"WPAN6","Station_Nam":"WHITNEY POINT DAM SNOW","Latitude":"42.35000","Longitude":"-75.96670","Snowdepth":"10.000","Units":"in","Rept_Date":"2021-03-02 14"},"coordinates":[5115,2849]},{"type":"Point","properties":{"Station_ID":"WLKW3","Station_Nam":"WHITE LAKE 1 SE","Latitude":"45.14520","Longitude":"-88.74160","Snowdepth":"10.000","Units":"in","Rept_Date":"2021-03-02 14"},"coordinates":[2043,4981]},{"type":"Point","properties":{"Station_ID":"WI-RS-3","Station_Nam":"BRUCE 1.9 E, WI","Latitude":"45.45415","Longitude":"-91.23510","Snowdepth":"10.000","Units":"in","Rept_Date":"2021-03-02 13"},"coordinates":[1444,5216]},{"type":"Point","properties":{"Station_ID":"WI-MN-9","Station_Nam":"WARRENS 4.7 WSW, WI","Latitude":"44.10386","Longitude":"-90.58884","Snowdepth":"10.000","Units":"in","Rept_Date":"2021-03-02 13"},"coordinates":[1599,4187]},{"type":"Point","properties":{"Station_ID":"WENN3","Station_Nam":"P.O. BOX 197 WENTWORTH, NH","Latitude":"43.95190","Longitude":"-71.91560","Snowdepth":"10.000","Units":"in","Rept_Date":"2021-03-02 12"},"coordinates":[6089,4071]},{"type":"Point","properties":{"Station_ID":"VT-RT-24","Station_Nam":"MIDDLETOWN SPRINGS 0.9 WNW, VT","Latitude":"43.49194","Longitude":"-73.13350","Snowdepth":"10.000","Units":"in","Rept_Date":"2021-03-02 12"},"coordinates":[5796,3720]},{"type":"Point","properties":{"Station_ID":"VT-FR-19","Station_Nam":"SWANTON 0.5 NNE, VT","Latitude":"44.92590","Longitude":"-73.12145","Snowdepth":"10.000","Units":"in","Rept_Date":"2021-03-02 12"},"coordinates":[5799,4814]},{"type":"Point","properties":{"Station_ID":"VRGV1","Station_Nam":"VERGENNES","Latitude":"44.17190","Longitude":"-73.24720","Snowdepth":"10.000","Units":"in","Rept_Date":"2021-03-02 10"},"coordinates":[5769,4239]},{"type":"Point","properties":{"Station_ID":"STOW3","Station_Nam":"STOUGHTON,WI","Latitude":"42.91670","Longitude":"-89.21670","Snowdepth":"10.000","Units":"in","Rept_Date":"2021-03-02 13"},"coordinates":[1929,3282]},{"type":"Point","properties":{"Station_ID":"SPGM5","Station_Nam":"SPRING VALLEY","Latitude":"43.69330","Longitude":"-92.39260","Snowdepth":"10.000","Units":"in","Rept_Date":"2021-03-02 13"},"coordinates":[1165,3874]},{"type":"Point","properties":{"Station_ID":"SGVN6","Station_Nam":"SPRINGVILLE","Latitude":"42.54970","Longitude":"-78.57670","Snowdepth":"10.000","Units":"in","Rept_Date":"2021-03-03 00"},"coordinates":[4487,3002]},{"type":"Point","properties":{"Station_ID":"ROBM1","Station_Nam":"ROBBINSTON","Latitude":"45.08520","Longitude":"-67.12050","Snowdepth":"10.000","Units":"in","Rept_Date":"2021-03-03 05"},"coordinates":[7242,4935]},{"type":"Point","properties":{"Station_ID":"PROP1","Station_Nam":"PROMPTON DAM","Latitude":"41.58900","Longitude":"-75.33030","Snowdepth":"10.000","Units":"in","Rept_Date":"2021-03-02 12"},"coordinates":[5268,2269]},{"type":"Point","properties":{"Station_ID":"PHON6","Station_Nam":"PHOENICIA 2SW","Latitude":"42.06420","Longitude":"-74.34080","Snowdepth":"10.000","Units":"in","Rept_Date":"2021-03-02 12"},"coordinates":[5506,2632]},{"type":"Point","properties":{"Station_ID":"OILM4","Station_Nam":"OIL CITY 3E","Latitude":"43.61140","Longitude":"-84.52810","Snowdepth":"10.000","Units":"in","Rept_Date":"2021-03-02 12"},"coordinates":[3056,3811]},{"type":"Point","properties":{"Station_ID":"NY-TG-15","Station_Nam":"BERKSHIRE 1.9 ENE, NY","Latitude":"42.31910","Longitude":"-76.21940","Snowdepth":"10.000","Units":"in","Rept_Date":"2021-03-02 13"},"coordinates":[5054,2826]},{"type":"Point","properties":{"Station_ID":"NY-ER-75","Station_Nam":"ELMA CENTER 0.7 SE, NY","Latitude":"42.81936","Longitude":"-78.62140","Snowdepth":"10.000","Units":"in","Rept_Date":"2021-03-02 14"},"coordinates":[4476,3207]},{"type":"Point","properties":{"Station_ID":"NY-ER-194","Station_Nam":"GLENWOOD 1.0 SE, NY","Latitude":"42.60740","Longitude":"-78.64610","Snowdepth":"10.000","Units":"in","Rept_Date":"2021-03-02 12"},"coordinates":[4470,3046]},{"type":"Point","properties":{"Station_ID":"NY-BM-14","Station_Nam":"WHITNEY POINT 1.7 SSE, NY","Latitude":"42.30837","Longitude":"-75.95690","Snowdepth":"10.000","Units":"in","Rept_Date":"2021-03-02 14"},"coordinates":[5117,2818]},{"type":"Point","properties":{"Station_ID":"NJ-MS-94","Station_Nam":"JEFFERSON TWP 4.4 SW, NJ","Latitude":"40.96404","Longitude":"-74.62162","Snowdepth":"10.000","Units":"in","Rept_Date":"2021-03-02 13"},"coordinates":[5438,1793]},{"type":"Point","properties":{"Station_ID":"MWOW3","Station_Nam":"MUKWONAGO","Latitude":"42.85380","Longitude":"-88.43550","Snowdepth":"10.000","Units":"in","Rept_Date":"2021-03-02 13"},"coordinates":[2117,3234]},{"type":"Point","properties":{"Station_ID":"MTQM4","Station_Nam":"MANISTIQUE WWTP","Latitude":"45.95120","Longitude":"-86.25130","Snowdepth":"10.000","Units":"in","Rept_Date":"2021-03-02 12"},"coordinates":[2642,5595]},{"type":"Point","properties":{"Station_ID":"MNPV1","Station_Nam":"MONTPELIER 2","Latitude":"44.25530","Longitude":"-72.60060","Snowdepth":"10.000","Units":"in","Rept_Date":"2021-03-02 12"},"coordinates":[5924,4302]},{"type":"Point","properties":{"Station_ID":"MN-SL-115","Station_Nam":"COTTON 5.7 ESE, MN","Latitude":"47.15142","Longitude":"-92.35772","Snowdepth":"10.000","Units":"in","Rept_Date":"2021-03-02 14"},"coordinates":[1174,6510]},{"type":"Point","properties":{"Station_ID":"MN-SH-10","Station_Nam":"BIG LAKE 5.6 NNE, MN","Latitude":"45.41409","Longitude":"-93.69190","Snowdepth":"10.000","Units":"in","Rept_Date":"2021-03-02 13"},"coordinates":[853,5186]},{"type":"Point","properties":{"Station_ID":"MN-MS-8","Station_Nam":"NEWFOLDEN 0.2 W, MN","Latitude":"48.35613","Longitude":"-96.33460","Snowdepth":"10.000","Units":"in","Rept_Date":"2021-03-02 14"},"coordinates":[217,7429]},{"type":"Point","properties":{"Station_ID":"MN-GH-28","Station_Nam":"CANNON FALLS 0.5 SE, MN","Latitude":"44.50866","Longitude":"-92.89526","Snowdepth":"10.000","Units":"in","Rept_Date":"2021-03-02 14"},"coordinates":[1044,4495]},{"type":"Point","properties":{"Station_ID":"MN-CG-16","Station_Nam":"NORTH BRANCH 1.3 NNW, MN","Latitude":"45.53121","Longitude":"-92.97110","Snowdepth":"10.000","Units":"in","Rept_Date":"2021-03-02 12"},"coordinates":[1026,5275]},{"type":"Point","properties":{"Station_ID":"MLLW3","Station_Nam":"MERRILL 8W","Latitude":"45.17810","Longitude":"-89.84810","Snowdepth":"10.000","Units":"in","Rept_Date":"2021-03-02 12"},"coordinates":[1777,5006]},{"type":"Point","properties":{"Station_ID":"MLCM5","Station_Nam":"MILACA","Latitude":"45.75320","Longitude":"-93.66170","Snowdepth":"10.000","Units":"in","Rept_Date":"2021-03-02 13"},"coordinates":[860,5444]},{"type":"Point","properties":{"Station_ID":"ME-KB-53","Station_Nam":"READFIELD 2.0 NNE, ME","Latitude":"44.41620","Longitude":"-69.95190","Snowdepth":"10.000","Units":"in","Rept_Date":"2021-03-02 12"},"coordinates":[6561,4425]},{"type":"Point","properties":{"Station_ID":"MA-FR-13","Station_Nam":"CONWAY 2.9 NW, MA","Latitude":"42.54419","Longitude":"-72.72743","Snowdepth":"10.000","Units":"in","Rept_Date":"2021-03-02 12"},"coordinates":[5894,2998]},{"type":"Point","properties":{"Station_ID":"MA-ES-48","Station_Nam":"ANDOVER 0.6 E, MA","Latitude":"42.65659","Longitude":"-71.13048","Snowdepth":"10.000","Units":"in","Rept_Date":"2021-03-02 10"},"coordinates":[6278,3083]},{"type":"Point","properties":{"Station_ID":"LAUP1","Station_Nam":"1.5MI S OF RT 30 ON SMIT (LAUREL RIDGE)","Latitude":"40.05000","Longitude":"-79.22060","Snowdepth":"10.000","Units":"in","Rept_Date":"2021-03-02 12"},"coordinates":[4332,1096]},{"type":"Point","properties":{"Station_ID":"JANW3","Station_Nam":"JANESVILLE-NE-HAM","Latitude":"42.70280","Longitude":"-88.99030","Snowdepth":"10.000","Units":"in","Rept_Date":"2021-03-02 13"},"coordinates":[1983,3118]},{"type":"Point","properties":{"Station_ID":"IL-LK-8","Station_Nam":"GURNEE 2.5 NE, IL","Latitude":"42.39716","Longitude":"-87.89620","Snowdepth":"10.000","Units":"in","Rept_Date":"2021-03-02 13"},"coordinates":[2246,2885]},{"type":"Point","properties":{"Station_ID":"GSGP1","Station_Nam":"INEZ SOUTH SLOPE SNOW","Latitude":"41.70000","Longitude":"-78.05000","Snowdepth":"10.000","Units":"in","Rept_Date":"2021-03-02 17"},"coordinates":[4614,2354]},{"type":"Point","properties":{"Station_ID":"GSBP1","Station_Nam":"BROOKS RUN SNOW","Latitude":"41.41670","Longitude":"-78.05000","Snowdepth":"10.000","Units":"in","Rept_Date":"2021-03-02 17"},"coordinates":[4614,2138]},{"type":"Point","properties":{"Station_ID":"FEDM5","Station_Nam":"LEECH LAKE DAM","Latitude":"47.24670","Longitude":"-94.22280","Snowdepth":"10.000","Units":"in","Rept_Date":"2021-03-02 14"},"coordinates":[725,6583]},{"type":"Point","properties":{"Station_ID":"ERRW3","Station_Nam":"MERRILL-4 W","Latitude":"45.17360","Longitude":"-89.77580","Snowdepth":"10.000","Units":"in","Rept_Date":"2021-03-02 22"},"coordinates":[1794,5002]},{"type":"Point","properties":{"Station_ID":"CT-LT-9","Station_Nam":"NEW HARTFORD CENTER 3.2 SW, CT","Latitude":"41.84170","Longitude":"-73.00920","Snowdepth":"10.000","Units":"in","Rept_Date":"2021-03-02 12"},"coordinates":[5826,2462]},{"type":"Point","properties":{"Station_ID":"COVP1","Station_Nam":"COVINGTON 2WSW","Latitude":"41.73330","Longitude":"-77.11670","Snowdepth":"10.000","Units":"in","Rept_Date":"2021-03-02 11"},"coordinates":[4838,2379]},{"type":"Point","properties":{"Station_ID":"CNDP1","Station_Nam":"CANADENSIS","Latitude":"41.18980","Longitude":"-75.23830","Snowdepth":"10.000","Units":"in","Rept_Date":"2021-03-02 12"},"coordinates":[5290,1965]},{"type":"Point","properties":{"Station_ID":"CAN-PE-10","Station_Nam":"NEW LONDON 1.6 ENE, CA","Latitude":"46.46985","Longitude":"-63.49200","Snowdepth":"10.000","Units":"in","Rept_Date":"2021-03-02 12"},"coordinates":[8114,5991]},{"type":"Point","properties":{"Station_ID":"CAN-NB-104","Station_Nam":"PENNFIELD RIDGE 2.7 SSW, CAN","Latitude":"45.09355","Longitude":"-66.71389","Snowdepth":"10.000","Units":"in","Rept_Date":"2021-03-02 11"},"coordinates":[7340,4941]},{"type":"Point","properties":{"Station_ID":"BREW3","Station_Nam":"SURING","Latitude":"44.99580","Longitude":"-88.37860","Snowdepth":"10.000","Units":"in","Rept_Date":"2021-03-02 13"},"coordinates":[2130,4867]},{"type":"Point","properties":{"Station_ID":"BKBW2","Station_Nam":"DAVIS.","Latitude":"39.09830","Longitude":"-79.43190","Snowdepth":"10.000","Units":"in","Rept_Date":"2021-03-02 12"},"coordinates":[4282,370]},{"type":"Point","properties":{"Station_ID":"BAKC3","Station_Nam":"BAKERSVILLE","Latitude":"41.84180","Longitude":"-73.00850","Snowdepth":"10.000","Units":"in","Rept_Date":"2021-03-02 12"},"coordinates":[5826,2462]},{"type":"Point","properties":{"Station_ID":"ASXW3","Station_Nam":"ASHLAND,WI","Latitude":"46.55220","Longitude":"-90.91610","Snowdepth":"10.000","Units":"in","Rept_Date":"2021-03-02 14"},"coordinates":[1520,6053]},{"type":"Point","properties":{"Station_ID":"APXM4","Station_Nam":"GAYLORD 9SSW","Latitude":"44.90720","Longitude":"-84.71880","Snowdepth":"10.000","Units":"in","Rept_Date":"2021-03-03 06"},"coordinates":[3010,4799]},{"type":"Point","properties":{"Station_ID":"ADFN6","Station_Nam":"WEST ALMOND 2NNE SNOW","Latitude":"42.33330","Longitude":"-77.86670","Snowdepth":"10.000","Units":"in","Rept_Date":"2021-03-02 13"},"coordinates":[4658,2837]},{"type":"Point","properties":{"Station_ID":"WI-BN-6","Station_Nam":"SUAMICO 4.4 WNW, WI","Latitude":"44.66111","Longitude":"-88.11780","Snowdepth":"9.900","Units":"in","Rept_Date":"2021-03-02 13"},"coordinates":[2193,4612]},{"type":"Point","properties":{"Station_ID":"WI-LN-2","Station_Nam":"MERRILL 7.0 W, WI","Latitude":"45.17746","Longitude":"-89.84820","Snowdepth":"9.500","Units":"in","Rept_Date":"2021-03-02 12"},"coordinates":[1777,5005]},{"type":"Point","properties":{"Station_ID":"VT-CH-38","Station_Nam":"WILLISTON 0.2 WSW, VT","Latitude":"44.43669","Longitude":"-73.07154","Snowdepth":"9.500","Units":"in","Rept_Date":"2021-03-02 12"},"coordinates":[5811,4440]},{"type":"Point","properties":{"Station_ID":"PA-MN-7","Station_Nam":"STROUDSBURG 5.1 W, PA","Latitude":"40.98869","Longitude":"-75.29590","Snowdepth":"9.500","Units":"in","Rept_Date":"2021-03-02 13"},"coordinates":[5276,1812]},{"type":"Point","properties":{"Station_ID":"NY-PT-2","Station_Nam":"BEACON 4.2 ESE, NY","Latitude":"41.48070","Longitude":"-73.89110","Snowdepth":"9.500","Units":"in","Rept_Date":"2021-03-02 12"},"coordinates":[5614,2187]},{"type":"Point","properties":{"Station_ID":"NY-CT-22","Station_Nam":"FRANKLINVILLE 0.5 NNE, NY","Latitude":"42.34166","Longitude":"-78.45280","Snowdepth":"9.500","Units":"in","Rept_Date":"2021-03-02 13"},"coordinates":[4517,2843]},{"type":"Point","properties":{"Station_ID":"NH-ST-31","Station_Nam":"STRAFFORD 2.9 N, NH","Latitude":"43.31175","Longitude":"-71.13510","Snowdepth":"9.500","Units":"in","Rept_Date":"2021-03-02 13"},"coordinates":[6276,3583]},{"type":"Point","properties":{"Station_ID":"NH-HL-48","Station_Nam":"GREENVILLE 1.1 ENE, NH","Latitude":"42.77674","Longitude":"-71.77990","Snowdepth":"9.500","Units":"in","Rept_Date":"2021-03-02 13"},"coordinates":[6121,3175]},{"type":"Point","properties":{"Station_ID":"MN-SL-15","Station_Nam":"CHISHOLM 0.4 WSW, MN","Latitude":"47.48557","Longitude":"-92.88690","Snowdepth":"9.500","Units":"in","Rept_Date":"2021-03-02 13"},"coordinates":[1046,6765]},{"type":"Point","properties":{"Station_ID":"MI-EM-5","Station_Nam":"HARBOR SPRINGS 0.7 ENE, MI","Latitude":"45.43450","Longitude":"-84.97540","Snowdepth":"9.500","Units":"in","Rept_Date":"2021-03-02 12"},"coordinates":[2949,5201]},{"type":"Point","properties":{"Station_ID":"CT-HR-28","Station_Nam":"NORTH CANTON 0.8 SSW, CT","Latitude":"41.88514","Longitude":"-72.89729","Snowdepth":"9.500","Units":"in","Rept_Date":"2021-03-02 12"},"coordinates":[5853,2495]},{"type":"Point","properties":{"Station_ID":"CAN-ON-451","Station_Nam":"OWEN SOUND 1.2 N - GSCA, CAN","Latitude":"44.58092","Longitude":"-80.93025","Snowdepth":"9.500","Units":"in","Rept_Date":"2021-03-02 13"},"coordinates":[3921,4550]},{"type":"Point","properties":{"Station_ID":"CAN-ON-804","Station_Nam":"KEMBLE 1.6 S - GSCA, CAN","Latitude":"44.71013","Longitude":"-80.92735","Snowdepth":"9.400","Units":"in","Rept_Date":"2021-03-02 13"},"coordinates":[3922,4649]},{"type":"Point","properties":{"Station_ID":"WSWN6","Station_Nam":"WARSAW","Latitude":"42.74220","Longitude":"-78.20850","Snowdepth":"9.000","Units":"in","Rept_Date":"2021-03-02 12"},"coordinates":[4576,3149]},{"type":"Point","properties":{"Station_ID":"WRIM5","Station_Nam":"WRIGHT 3E","Latitude":"46.68040","Longitude":"-92.95420","Snowdepth":"9.000","Units":"in","Rept_Date":"2021-03-02 12"},"coordinates":[1030,6151]},{"type":"Point","properties":{"Station_ID":"WPEN6","Station_Nam":"SOUTH OTSELIC 2NNW SNOW","Latitude":"42.66670","Longitude":"-75.80000","Snowdepth":"9.000","Units":"in","Rept_Date":"2021-03-02 14"},"coordinates":[5155,3091]},{"type":"Point","properties":{"Station_ID":"WMTI4","Station_Nam":"FORT DODGE,IA","Latitude":"42.50610","Longitude":"-94.20110","Snowdepth":"9.000","Units":"in","Rept_Date":"2021-03-02 13"},"coordinates":[730,2968]},{"type":"Point","properties":{"Station_ID":"WLLP1","Station_Nam":"WELLSBORO 4 SW","Latitude":"41.70030","Longitude":"-77.38940","Snowdepth":"9.000","Units":"in","Rept_Date":"2021-03-02 12"},"coordinates":[4773,2354]},{"type":"Point","properties":{"Station_ID":"WI-SB-19","Station_Nam":"SHEBOYGAN 0.7 SSW, WI","Latitude":"43.73560","Longitude":"-87.73490","Snowdepth":"9.000","Units":"in","Rept_Date":"2021-03-02 14"},"coordinates":[2285,3906]},{"type":"Point","properties":{"Station_ID":"WI-OC-1","Station_Nam":"MOUNTAIN 1.1 SW, WI","Latitude":"45.17239","Longitude":"-88.48990","Snowdepth":"9.000","Units":"in","Rept_Date":"2021-03-02 13"},"coordinates":[2104,5001]},{"type":"Point","properties":{"Station_ID":"WI-GT-9","Station_Nam":"CASSVILLE 7.8 ENE, WI","Latitude":"42.74949","Longitude":"-90.84390","Snowdepth":"9.000","Units":"in","Rept_Date":"2021-03-02 13"},"coordinates":[1538,3154]},