{"type":"Topology","objects":{"snowdepth_geo":{"type":"GeometryCollection","name":"snowdepth","crs":{"type":"name","properties":{"name":"urn:ogc:def:crs:OGC:1.3:CRS84"}},"geometries":[{"type":"Point","properties":{"Station_ID":"PRKM4","Station_Nam":"MUNISING EAST","Latitude":"46.42580","Longitude":"-86.62000","Snowdepth":"76.500","Units":"in","Rept_Date":"2020-11-25 06"},"coordinates":[3624,5802]},{"type":"Point","properties":{"Station_ID":"TRIQ6","Station_Nam":"TRIO LAKE","Latitude":"49.22880","Longitude":"-87.22920","Snowdepth":"45.240","Units":"in","Rept_Date":"2020-11-25 06"},"coordinates":[3416,8021]},{"type":"Point","properties":{"Station_ID":"IL-DP-16","Station_Nam":"AURORA 3.6 SE, IL","Latitude":"41.73455","Longitude":"-88.23910","Snowdepth":"20.000","Units":"in","Rept_Date":"2020-11-24 13"},"coordinates":[3071,2087]},{"type":"Point","properties":{"Station_ID":"DVLQ6","Station_Nam":"DEVIOUS LAKE","Latitude":"49.19890","Longitude":"-87.76440","Snowdepth":"9.060","Units":"in","Rept_Date":"2020-11-25 06"},"coordinates":[3233,7997]},{"type":"Point","properties":{"Station_ID":"AUDQ6","Station_Nam":"AUDEN","Latitude":"48.52600","Longitude":"-82.57570","Snowdepth":"8.660","Units":"in","Rept_Date":"2020-11-25 06"},"coordinates":[5004,7465]},{"type":"Point","properties":{"Station_ID":"PTLQ6","Station_Nam":"PORTAGE LAKE","Latitude":"49.06950","Longitude":"-86.65940","Snowdepth":"7.800","Units":"in","Rept_Date":"2020-11-25 06"},"coordinates":[3610,7895]},{"type":"Point","properties":{"Station_ID":"MMNV1","Station_Nam":"MT. MANSFIELD","Latitude":"44.52480","Longitude":"-72.81540","Snowdepth":"6.000","Units":"in","Rept_Date":"2020-11-24 21"},"coordinates":[8335,4297]},{"type":"Point","properties":{"Station_ID":"KMWN","Station_Nam":"MOUNT WASHINGTON","Latitude":"44.26666","Longitude":"-71.30000","Snowdepth":"6.000","Units":"in","Rept_Date":"2020-11-25 00"},"coordinates":[8852,4092]},{"type":"Point","properties":{"Station_ID":"CLQM5","Station_Nam":"CLOQUET","Latitude":"46.70470","Longitude":"-92.52530","Snowdepth":"6.000","Units":"in","Rept_Date":"2020-11-24 14"},"coordinates":[1609,6023]},{"type":"Point","properties":{"Station_ID":"CAN-ON-208","Station_Nam":"PAKENHAM 7.8 NNW, CAN","Latitude":"45.39166","Longitude":"-76.34111","Snowdepth":"6.000","Units":"in","Rept_Date":"2020-11-24 12"},"coordinates":[7132,4983]},{"type":"Point","properties":{"Station_ID":"CAN-ON-187","Station_Nam":"WATERLOO 1.9 E - UOFW, CAN","Latitude":"43.47024","Longitude":"-80.50634","Snowdepth":"5.300","Units":"in","Rept_Date":"2020-11-24 13"},"coordinates":[5710,3462]},{"type":"Point","properties":{"Station_ID":"CAN-ON-92","Station_Nam":"DUNROBIN 1.9 W - MVCA, CAN","Latitude":"45.42318","Longitude":"-76.04525","Snowdepth":"5.100","Units":"in","Rept_Date":"2020-11-24 12"},"coordinates":[7233,5008]},{"type":"Point","properties":{"Station_ID":"FLDM5","Station_Nam":"FLOODWOOD,MN","Latitude":"47.00000","Longitude":"-92.91670","Snowdepth":"5.000","Units":"in","Rept_Date":"2020-11-24 14"},"coordinates":[1475,6256]},{"type":"Point","properties":{"Station_ID":"KABQ6","Station_Nam":"CAB LAKE","Latitude":"49.59950","Longitude":"-89.17990","Snowdepth":"4.920","Units":"in","Rept_Date":"2020-11-25 06"},"coordinates":[2750,8315]},{"type":"Point","properties":{"Station_ID":"OGIQ6","Station_Nam":"OGOKI CAMP","Latitude":"50.76680","Longitude":"-87.85820","Snowdepth":"4.800","Units":"in","Rept_Date":"2020-11-25 06"},"coordinates":[3201,9239]},{"type":"Point","properties":{"Station_ID":"CAN-ON-86","Station_Nam":"GUELPH 5.1 S - CANWARN, CAN","Latitude":"43.49691","Longitude":"-80.24385","Snowdepth":"4.700","Units":"in","Rept_Date":"2020-11-24 12"},"coordinates":[5800,3483]},{"type":"Point","properties":{"Station_ID":"FTHQ6","Station_Nam":"FORT HOPE","Latitude":"51.55820","Longitude":"-87.90510","Snowdepth":"4.610","Units":"in","Rept_Date":"2020-11-25 06"},"coordinates":[3185,9865]},{"type":"Point","properties":{"Station_ID":"SOCQ6","Station_Nam":"SOCKET LAKE","Latitude":"50.77870","Longitude":"-91.79300","Snowdepth":"4.330","Units":"in","Rept_Date":"2020-11-25 06"},"coordinates":[1858,9248]},{"type":"Point","properties":{"Station_ID":"CATQ6","Station_Nam":"CAT LAKE","Latitude":"51.72690","Longitude":"-91.82210","Snowdepth":"4.210","Units":"in","Rept_Date":"2020-11-25 06"},"coordinates":[1848,9999]},{"type":"Point","properties":{"Station_ID":"WLFM5","Station_Nam":"WOLF RIDGE ENVIRON LEARNING CENTER","Latitude":"47.38240","Longitude":"-91.19730","Snowdepth":"4.000","Units":"in","Rept_Date":"2020-11-24 13"},"coordinates":[2062,6559]},{"type":"Point","properties":{"Station_ID":"MWN","Station_Nam":"MOUNT WASHINGTON","Latitude":"44.26670","Longitude":"-71.30000","Snowdepth":"4.000","Units":"in","Rept_Date":"2020-11-24 12"},"coordinates":[8852,4092]},{"type":"Point","properties":{"Station_ID":"MN-CN-36","Station_Nam":"CLOQUET 3.4 ENE, MN","Latitude":"46.74146","Longitude":"-92.42698","Snowdepth":"4.000","Units":"in","Rept_Date":"2020-11-24 13"},"coordinates":[1642,6052]},{"type":"Point","properties":{"Station_ID":"FISM1","Station_Nam":"FORT KENT COOP","Latitude":"47.23850","Longitude":"-68.61240","Snowdepth":"4.000","Units":"in","Rept_Date":"2020-11-24 12"},"coordinates":[9769,6445]},{"type":"Point","properties":{"Station_ID":"DLHM5","Station_Nam":"DULUTH NWS","Latitude":"46.83680","Longitude":"-92.21080","Snowdepth":"4.000","Units":"in","Rept_Date":"2020-11-25 00"},"coordinates":[1716,6127]},{"type":"Point","properties":{"Station_ID":"DLH","Station_Nam":"DULUTH, MN","Latitude":"46.83690","Longitude":"-92.21030","Snowdepth":"4.000","Units":"in","Rept_Date":"2020-11-25 00"},"coordinates":[1716,6127]},{"type":"Point","properties":{"Station_ID":"ARX","Station_Nam":"LA CROSSE, WI","Latitude":"43.82280","Longitude":"-91.19190","Snowdepth":"4.000","Units":"in","Rept_Date":"2020-11-25 00"},"coordinates":[2064,3741]},{"type":"Point","properties":{"Station_ID":"SVBQ6","Station_Nam":"SAVANT BASE","Latitude":"50.28730","Longitude":"-90.65670","Snowdepth":"3.900","Units":"in","Rept_Date":"2020-11-25 06"},"coordinates":[2246,8859]},{"type":"Point","properties":{"Station_ID":"CAN-ON-620","Station_Nam":"GOODERHAM 3.4 SSW, CAN","Latitude":"44.87690","Longitude":"-78.39265","Snowdepth":"3.900","Units":"in","Rept_Date":"2020-11-24 12"},"coordinates":[6432,4575]},{"type":"Point","properties":{"Station_ID":"CAN-ON-593","Station_Nam":"KITCHENER 4.5 E, CAN","Latitude":"43.45147","Longitude":"-80.43180","Snowdepth":"3.900","Units":"in","Rept_Date":"2020-11-24 14"},"coordinates":[5736,3447]},{"type":"Point","properties":{"Station_ID":"IL-WN-40","Station_Nam":"ROCKFORD 4.5 WSW, IL","Latitude":"42.24878","Longitude":"-89.14556","Snowdepth":"3.500","Units":"in","Rept_Date":"2020-11-24 13"},"coordinates":[2762,2494]},{"type":"Point","properties":{"Station_ID":"CAN-ON-220","Station_Nam":"DEEP RIVER 1.5 SE - MNRF, CAN","Latitude":"46.09592","Longitude":"-77.47853","Snowdepth":"3.100","Units":"in","Rept_Date":"2020-11-24 13"},"coordinates":[6743,5541]},{"type":"Point","properties":{"Station_ID":"CAN-MB-368","Station_Nam":"WHITESHELL 1.3 NE, CAN","Latitude":"49.74405","Longitude":"-95.19123","Snowdepth":"3.100","Units":"in","Rept_Date":"2020-11-24 14"},"coordinates":[699,8429]},{"type":"Point","properties":{"Station_ID":"VT-WS-19","Station_Nam":"WATERBURY 3.0 NW, VT","Latitude":"44.36060","Longitude":"-72.80770","Snowdepth":"3.000","Units":"in","Rept_Date":"2020-11-24 11"},"coordinates":[8337,4167]},{"type":"Point","properties":{"Station_ID":"RST","Station_Nam":"ROCHESTER INTERNATIONAL ARPT","Latitude":"43.90890","Longitude":"-92.49780","Snowdepth":"3.000","Units":"in","Rept_Date":"2020-11-25 00"},"coordinates":[1618,3809]},{"type":"Point","properties":{"Station_ID":"RSRM5","Station_Nam":"ROCHESTER AP 2NE","Latitude":"43.92810","Longitude":"-92.47580","Snowdepth":"3.000","Units":"in","Rept_Date":"2020-11-25 00"},"coordinates":[1625,3824]},{"type":"Point","properties":{"Station_ID":"QNCM4","Station_Nam":"QUINCY HILL","Latitude":"47.13640","Longitude":"-88.57950","Snowdepth":"3.000","Units":"in","Rept_Date":"2020-11-24 12"},"coordinates":[2955,6364]},{"type":"Point","properties":{"Station_ID":"NGLW3","Station_Nam":"NEW GLARUS","Latitude":"42.83500","Longitude":"-89.62080","Snowdepth":"3.000","Units":"in","Rept_Date":"2020-11-24 13"},"coordinates":[2600,2959]},{"type":"Point","properties":{"Station_ID":"MN-SL-18","Station_Nam":"DULUTH 1.4 NNW, MN","Latitude":"46.80321","Longitude":"-92.11240","Snowdepth":"3.000","Units":"in","Rept_Date":"2020-11-24 14"},"coordinates":[1749,6101]},{"type":"Point","properties":{"Station_ID":"ME-AR-18","Station_Nam":"NEW SWEDEN 4.9 NNW, ME","Latitude":"47.01080","Longitude":"-68.14390","Snowdepth":"3.000","Units":"in","Rept_Date":"2020-11-24 12"},"coordinates":[9929,6265]},{"type":"Point","properties":{"Station_ID":"LEIM5","Station_Nam":"ORR 3E","Latitude":"48.05810","Longitude":"-92.75220","Snowdepth":"3.000","Units":"in","Rept_Date":"2020-11-24 12"},"coordinates":[1531,7094]},{"type":"Point","properties":{"Station_ID":"CAN-MB-32","Station_Nam":"PINAWA 1.0 SW, CA","Latitude":"50.14747","Longitude":"-95.89020","Snowdepth":"3.000","Units":"in","Rept_Date":"2020-11-24 13"},"coordinates":[460,8748]},{"type":"Point","properties":{"Station_ID":"ARRI2","Station_Nam":"WATER DEPT","Latitude":"41.75000","Longitude":"-88.35000","Snowdepth":"3.000","Units":"in","Rept_Date":"2020-11-24 13"},"coordinates":[3033,2100]},{"type":"Point","properties":{"Station_ID":"IL-KN-125","Station_Nam":"MAPLE PARK 0.1 S, IL","Latitude":"41.90551","Longitude":"-88.59390","Snowdepth":"2.800","Units":"in","Rept_Date":"2020-11-24 11"},"coordinates":[2950,2223]},{"type":"Point","properties":{"Station_ID":"IL-DK-28","Station_Nam":"DE KALB 0.7 SW, IL","Latitude":"41.92269","Longitude":"-88.76072","Snowdepth":"2.800","Units":"in","Rept_Date":"2020-11-24 13"},"coordinates":[2893,2236]},{"type":"Point","properties":{"Station_ID":"CAN-ON-491","Station_Nam":"MILVERTON 1.1 ESE- CANWARN, CAN","Latitude":"43.56074","Longitude":"-80.90887","Snowdepth":"2.700","Units":"in","Rept_Date":"2020-11-24 11"},"coordinates":[5573,3533]},{"type":"Point","properties":{"Station_ID":"WI-GT-2","Station_Nam":"PLATTEVILLE 0.3 NE, WI","Latitude":"42.73820","Longitude":"-90.47267","Snowdepth":"2.500","Units":"in","Rept_Date":"2020-11-24 13"},"coordinates":[2309,2882]},{"type":"Point","properties":{"Station_ID":"WI-BY-29","Station_Nam":"BAYFIELD 5.1 NNW, WI","Latitude":"46.88063","Longitude":"-90.85854","Snowdepth":"2.500","Units":"in","Rept_Date":"2020-11-24 13"},"coordinates":[2177,6162]},{"type":"Point","properties":{"Station_ID":"NY-MD-22","Station_Nam":"ONEIDA 0.4 NW, NY","Latitude":"43.08012","Longitude":"-75.66860","Snowdepth":"2.500","Units":"in","Rept_Date":"2020-11-24 12"},"coordinates":[7361,3153]},{"type":"Point","properties":{"Station_ID":"IL-JD-6","Station_Nam":"HANOVER 0.2 NW, IL","Latitude":"42.25640","Longitude":"-90.28109","Snowdepth":"2.500","Units":"in","Rept_Date":"2020-11-24 13"},"coordinates":[2374,2501]},{"type":"Point","properties":{"Station_ID":"IL-CR-20","Station_Nam":"LANARK 5.3 N, IL","Latitude":"42.17789","Longitude":"-89.85010","Snowdepth":"2.500","Units":"in","Rept_Date":"2020-11-24 14"},"coordinates":[2521,2438]},{"type":"Point","properties":{"Station_ID":"CAN-QC-47","Station_Nam":"SAINTE-FOY 1.8 ENE, CAN","Latitude":"46.76934","Longitude":"-71.27124","Snowdepth":"2.200","Units":"in","Rept_Date":"2020-11-24 12"},"coordinates":[8862,6074]},{"type":"Point","properties":{"Station_ID":"IL-SP-14","Station_Nam":"FREEPORT 1.7 ESE, IL","Latitude":"42.28257","Longitude":"-89.60360","Snowdepth":"2.100","Units":"in","Rept_Date":"2020-11-24 13"},"coordinates":[2606,2521]},{"type":"Point","properties":{"Station_ID":"IA-BC-9","Station_Nam":"WINTHROP 5.6 NNE, IA","Latitude":"42.55206","Longitude":"-91.70663","Snowdepth":"2.100","Units":"in","Rept_Date":"2020-11-24 15"},"coordinates":[1888,2735]},{"type":"Point","properties":{"Station_ID":"WTNM4","Station_Nam":"WATTON 2WSW","Latitude":"46.52660","Longitude":"-88.64240","Snowdepth":"2.000","Units":"in","Rept_Date":"2020-11-24 13"},"coordinates":[2934,5882]},{"type":"Point","properties":{"Station_ID":"WRSM5","Station_Nam":"WRENSHALL","Latitude":"46.61550","Longitude":"-92.38380","Snowdepth":"2.000","Units":"in","Rept_Date":"2020-11-24 14"},"coordinates":[1657,5952]},{"type":"Point","properties":{"Station_ID":"WI-VL-9","Station_Nam":"LAND O' LAKES 11.7 W, WI","Latitude":"46.19023","Longitude":"-89.45790","Snowdepth":"2.000","Units":"in","Rept_Date":"2020-11-24 13"},"coordinates":[2655,5615]},{"type":"Point","properties":{"Station_ID":"WI-SR-1","Station_Nam":"HAYWARD 9.2 NNE, WI","Latitude":"46.13255","Longitude":"-91.40500","Snowdepth":"2.000","Units":"in","Rept_Date":"2020-11-24 12"},"coordinates":[1991,5570]},{"type":"Point","properties":{"Station_ID":"WI-LF-6","Station_Nam":"SOUTH WAYNE 3.9 SSW, WI","Latitude":"42.51173","Longitude":"-89.89555","Snowdepth":"2.000","Units":"in","Rept_Date":"2020-11-24 13"},"coordinates":[2506,2703]},{"type":"Point","properties":{"Station_ID":"WI-LF-5","Station_Nam":"BENTON 0.3 WNW, WI","Latitude":"42.57194","Longitude":"-90.38755","Snowdepth":"2.000","Units":"in","Rept_Date":"2020-11-24 13"},"coordinates":[2338,2750]},{"type":"Point","properties":{"Station_ID":"WI-IW-3","Station_Nam":"MINERAL POINT 7.3 ENE, WI","Latitude":"42.91400","Longitude":"-90.05700","Snowdepth":"2.000","Units":"in","Rept_Date":"2020-11-24 13"},"coordinates":[2451,3021]},{"type":"Point","properties":{"Station_ID":"WI-DA-33","Station_Nam":"OREGON 0.4 SSW, WI","Latitude":"42.92080","Longitude":"-89.38540","Snowdepth":"2.000","Units":"in","Rept_Date":"2020-11-24 13"},"coordinates":[2680,3027]},{"type":"Point","properties":{"Station_ID":"VOLI4","Station_Nam":"VOLGA 1NE","Latitude":"42.81150","Longitude":"-91.52300","Snowdepth":"2.000","Units":"in","Rept_Date":"2020-11-24 12"},"coordinates":[1951,2940]},{"type":"Point","properties":{"Station_ID":"TOGM5","Station_Nam":"CELINA 2E","Latitude":"47.86630","Longitude":"-93.02660","Snowdepth":"2.000","Units":"in","Rept_Date":"2020-11-24 14"},"coordinates":[1437,6942]},{"type":"Point","properties":{"Station_ID":"SPTI4","Station_Nam":"STRAWBERRY POINT","Latitude":"42.68530","Longitude":"-91.53300","Snowdepth":"2.000","Units":"in","Rept_Date":"2020-11-24 13"},"coordinates":[1947,2840]},{"type":"Point","properties":{"Station_ID":"SNYI4","Station_Nam":"STANLEY","Latitude":"42.63330","Longitude":"-91.86320","Snowdepth":"2.000","Units":"in","Rept_Date":"2020-11-24 13"},"coordinates":[1834,2799]},{"type":"Point","properties":{"Station_ID":"MTCI2","Station_Nam":"MOUNT CARROLL","Latitude":"42.09800","Longitude":"-89.98410","Snowdepth":"2.000","Units":"in","Rept_Date":"2020-11-24 13"},"coordinates":[2476,2375]},{"type":"Point","properties":{"Station_ID":"MRBW3","Station_Nam":"MT HOREB","Latitude":"42.98030","Longitude":"-89.73940","Snowdepth":"2.000","Units":"in","Rept_Date":"2020-11-24 13"},"coordinates":[2559,3074]},{"type":"Point","properties":{"Station_ID":"MQT","Station_Nam":"MARQUETTE, MI","Latitude":"46.53140","Longitude":"-87.54920","Snowdepth":"2.000","Units":"in","Rept_Date":"2020-11-25 00"},"coordinates":[3307,5885]},{"type":"Point","properties":{"Station_ID":"MONW3","Station_Nam":"MONROE,WI","Latitude":"42.60000","Longitude":"-89.66670","Snowdepth":"2.000","Units":"in","Rept_Date":"2020-11-24 13"},"coordinates":[2584,2773]},{"type":"Point","properties":{"Station_ID":"MN-CK-18","Station_Nam":"GRAND MARAIS 4.4 WSW, MN","Latitude":"47.74462","Longitude":"-90.43796","Snowdepth":"2.000","Units":"in","Rept_Date":"2020-11-24 13"},"coordinates":[2321,6846]},{"type":"Point","properties":{"Station_ID":"MI-HG-20","Station_Nam":"CALUMET 1.1 SSW, MI","Latitude":"47.23165","Longitude":"-88.45823","Snowdepth":"2.000","Units":"in","Rept_Date":"2020-11-24 11"},"coordinates":[2996,6440]},{"type":"Point","properties":{"Station_ID":"MI-BG-3","Station_Nam":"THREE LAKES, MI","Latitude":"46.55730","Longitude":"-88.20770","Snowdepth":"2.000","Units":"in","Rept_Date":"2020-11-24 13"},"coordinates":[3082,5906]},{"type":"Point","properties":{"Station_ID":"LNOW3","Station_Nam":"LAND O LAKES","Latitude":"46.19000","Longitude":"-89.45700","Snowdepth":"2.000","Units":"in","Rept_Date":"2020-11-24 13"},"coordinates":[2656,5615]},{"type":"Point","properties":{"Station_ID":"LILM1","Station_Nam":"LILLE","Latitude":"47.27770","Longitude":"-68.10520","Snowdepth":"2.000","Units":"in","Rept_Date":"2020-11-24 12"},"coordinates":[9942,6476]},{"type":"Point","properties":{"Station_ID":"LANW3","Station_Nam":"LANCASTER 4WSW","Latitude":"42.82780","Longitude":"-90.78890","Snowdepth":"2.000","Units":"in","Rept_Date":"2020-11-24 14"},"coordinates":[2201,2953]},{"type":"Point","properties":{"Station_ID":"KVOK","Station_Nam":"VOLK / CAMP DOUGLAS","Latitude":"43.93333","Longitude":"-90.26666","Snowdepth":"2.000","Units":"in","Rept_Date":"2020-11-25 00"},"coordinates":[2379,3828]},{"type":"Point","properties":{"Station_ID":"JEFV1","Station_Nam":"JEFFERSONVILLE","Latitude":"44.58430","Longitude":"-72.78700","Snowdepth":"2.000","Units":"in","Rept_Date":"2020-11-24 12"},"coordinates":[8345,4344]},{"type":"Point","properties":{"Station_ID":"IL-WL-63","Station_Nam":"NEW LENOX 1.8 SE, IL","Latitude":"41.49964","Longitude":"-87.96030","Snowdepth":"2.000","Units":"in","Rept_Date":"2020-11-24 13"},"coordinates":[3166,1901]},{"type":"Point","properties":{"Station_ID":"IL-SP-6","Station_Nam":"FREEPORT 2.0 NW, IL","Latitude":"42.30955","Longitude":"-89.66370","Snowdepth":"2.000","Units":"in","Rept_Date":"2020-11-24 13"},"coordinates":[2585,2543]},{"type":"Point","properties":{"Station_ID":"IL-SP-27","Station_Nam":"DAVIS 2.7 N, IL","Latitude":"42.46110","Longitude":"-89.40890","Snowdepth":"2.000","Units":"in","Rept_Date":"2020-11-24 13"},"coordinates":[2672,2663]},{"type":"Point","properties":{"Station_ID":"IL-MCH-80","Station_Nam":"HUNTLEY 0.1 SSE, IL","Latitude":"42.16628","Longitude":"-88.42308","Snowdepth":"2.000","Units":"in","Rept_Date":"2020-11-24 13"},"coordinates":[3008,2429]},{"type":"Point","properties":{"Station_ID":"IL-JD-8","Station_Nam":"STOCKTON 3.4 NNE, IL","Latitude":"42.39960","Longitude":"-89.99020","Snowdepth":"2.000","Units":"in","Rept_Date":"2020-11-24 13"},"coordinates":[2474,2614]},{"type":"Point","properties":{"Station_ID":"IL-DK-24","Station_Nam":"SOMONAUK 1.9 NE, IL","Latitude":"41.65063","Longitude":"-88.65663","Snowdepth":"2.000","Units":"in","Rept_Date":"2020-11-24 14"},"coordinates":[2929,2021]},{"type":"Point","properties":{"Station_ID":"IL-CR-12","Station_Nam":"MOUNT CARROLL 6.8 NNW, IL","Latitude":"42.18735","Longitude":"-90.02185","Snowdepth":"2.000","Units":"in","Rept_Date":"2020-11-24 13"},"coordinates":[2463,2446]},{"type":"Point","properties":{"Station_ID":"IA-LN-53","Station_Nam":"ROBINS 0.8 SE, IA","Latitude":"42.06960","Longitude":"-91.66042","Snowdepth":"2.000","Units":"in","Rept_Date":"2020-11-24 13"},"coordinates":[1904,2353]},{"type":"Point","properties":{"Station_ID":"IA-DV-7","Station_Nam":"BLOOMFIELD 4.2 WNW, IA","Latitude":"40.77675","Longitude":"-92.48850","Snowdepth":"2.000","Units":"in","Rept_Date":"2020-11-24 13"},"coordinates":[1621,1329]},{"type":"Point","properties":{"Station_ID":"IA-BH-17","Station_Nam":"GILBERTVILLE 1.0 NW, IA","Latitude":"42.43070","Longitude":"-92.22526","Snowdepth":"2.000","Units":"in","Rept_Date":"2020-11-24 14"},"coordinates":[1711,2639]},{"type":"Point","properties":{"Station_ID":"HTLM4","Station_Nam":"SNOW PAID OBSERVER FOR KHTL","Latitude":"44.34470","Longitude":"-84.67730","Snowdepth":"2.000","Units":"in","Rept_Date":"2020-11-25 00"},"coordinates":[4287,4154]},{"type":"Point","properties":{"Station_ID":"HTL","Station_Nam":"ROSCOMMON COUNTY AIRPORT","Latitude":"44.35000","Longitude":"-84.66670","Snowdepth":"2.000","Units":"in","Rept_Date":"2020-11-25 00"},"coordinates":[4290,4158]},{"type":"Point","properties":{"Station_ID":"HRVM4","Station_Nam":"HARVEY","Latitude":"46.49080","Longitude":"-87.35470","Snowdepth":"2.000","Units":"in","Rept_Date":"2020-11-24 11"},"coordinates":[3373,5853]},{"type":"Point","properties":{"Station_ID":"HERM4","Station_Nam":"HERMAN,MI","Latitude":"46.65000","Longitude":"-88.33330","Snowdepth":"2.000","Units":"in","Rept_Date":"2020-11-24 13"},"coordinates":[3039,5979]},{"type":"Point","properties":{"Station_ID":"FYTI4","Station_Nam":"FAYETTE","Latitude":"42.88300","Longitude":"-91.83020","Snowdepth":"2.000","Units":"in","Rept_Date":"2020-11-24 13"},"coordinates":[1846,2997]},{"type":"Point","properties":{"Station_ID":"FEEI2","Station_Nam":"PECATONICA RIVER","Latitude":"42.30000","Longitude":"-89.61670","Snowdepth":"2.000","Units":"in","Rept_Date":"2020-11-24 13"},"coordinates":[2601,2535]},{"type":"Point","properties":{"Station_ID":"EKRI4","Station_Nam":"ELKADER 6SSW","Latitude":"42.77540","Longitude":"-91.45370","Snowdepth":"2.000","Units":"in","Rept_Date":"2020-11-24 13"},"coordinates":[1974,2911]},{"type":"Point","properties":{"Station_ID":"EGNI2","Station_Nam":"ELGIN","Latitude":"42.02590","Longitude":"-88.28860","Snowdepth":"2.000","Units":"in","Rept_Date":"2020-11-24 14"},"coordinates":[3054,2318]},{"type":"Point","properties":{"Station_ID":"DUBI4","Station_Nam":"DUBUQUE #3","Latitude":"42.40870","Longitude":"-90.73250","Snowdepth":"2.000","Units":"in","Rept_Date":"2020-11-24 13"},"coordinates":[2220,2621]},{"type":"Point","properties":{"Station_ID":"DLDI4","Station_Nam":"MISSISSIPPI RIVER","Latitude":"42.51670","Longitude":"-90.65000","Snowdepth":"2.000","Units":"in","Rept_Date":"2020-11-24 12"},"coordinates":[2248,2707]},{"type":"Point","properties":{"Station_ID":"DEKI2","Station_Nam":"SOUTH BRANCH KISHWAUKEE RIVER AT DEKALB","Latitude":"41.93110","Longitude":"-88.75970","Snowdepth":"2.000","Units":"in","Rept_Date":"2020-11-24 13"},"coordinates":[2894,2243]},{"type":"Point","properties":{"Station_ID":"CRLM5","Station_Nam":"CROSS LAKE DAM","Latitude":"46.66930","Longitude":"-94.11060","Snowdepth":"2.000","Units":"in","Rept_Date":"2020-11-24 14"},"coordinates":[1067,5995]},{"type":"Point","properties":{"Station_ID":"COTM5","Station_Nam":"COTTON","Latitude":"47.16870","Longitude":"-92.46290","Snowdepth":"2.000","Units":"in","Rept_Date":"2020-11-24 12"},"coordinates":[1630,6390]},{"type":"Point","properties":{"Station_ID":"CLKM4","Station_Nam":"CLARKSBURG","Latitude":"46.49910","Longitude":"-87.84500","Snowdepth":"2.000","Units":"in","Rept_Date":"2020-11-24 12"},"coordinates":[3206,5860]},{"type":"Point","properties":{"Station_ID":"CAN-ON-771","Station_Nam":"KENORA 8.7 NNE - CANWARN, CAN","Latitude":"49.84171","Longitude":"-94.44386","Snowdepth":"2.000","Units":"in","Rept_Date":"2020-11-24 13"},"coordinates":[954,8506]},{"type":"Point","properties":{"Station_ID":"CAN-ON-33","Station_Nam":"BURLINGTON 1.7 W, CA","Latitude":"43.37134","Longitude":"-79.83550","Snowdepth":"2.000","Units":"in","Rept_Date":"2020-11-24 12"},"coordinates":[5939,3383]},{"type":"Point","properties":{"Station_ID":"CAN-MB-56","Station_Nam":"WINNIPEG 7.6 ENE, CAN","Latitude":"49.93264","Longitude":"-97.04752","Snowdepth":"2.000","Units":"in","Rept_Date":"2020-11-24 14"},"coordinates":[65,8578]},{"type":"Point","properties":{"Station_ID":"BRAM5","Station_Nam":"BRAINERD","Latitude":"46.34320","Longitude":"-94.20900","Snowdepth":"2.000","Units":"in","Rept_Date":"2020-11-24 13"},"coordinates":[1034,5736]},{"type":"Point","properties":{"Station_ID":"BNDM5","Station_Nam":"ELY 25E","Latitude":"47.97190","Longitude":"-91.44860","Snowdepth":"2.000","Units":"in","Rept_Date":"2020-11-24 13"},"coordinates":[1976,7026]},{"type":"Point","properties":{"Station_ID":"BBEM4","Station_Nam":"BIG BAY 9SW","Latitude":"46.74620","Longitude":"-87.88160","Snowdepth":"2.000","Units":"in","Rept_Date":"2020-11-24 13"},"coordinates":[3193,6055]},{"type":"Point","properties":{"Station_ID":"BATI2","Station_Nam":"BATAVIA","Latitude":"41.84830","Longitude":"-88.31190","Snowdepth":"2.000","Units":"in","Rept_Date":"2020-11-24 12"},"coordinates":[3046,2177]},{"type":"Point","properties":{"Station_ID":"ARGW3","Station_Nam":"ARGYLE","Latitude":"42.70060","Longitude":"-89.01890","Snowdepth":"2.000","Units":"in","Rept_Date":"2020-11-24 14"},"coordinates":[2805,2852]},{"type":"Point","properties":{"Station_ID":"AMOI4","Station_Nam":"ANAMOSA 3 SSW","Latitude":"42.07630","Longitude":"-91.30190","Snowdepth":"2.000","Units":"in","Rept_Date":"2020-11-24 12"},"coordinates":[2026,2358]},{"type":"Point","properties":{"Station_ID":"AMAM4","Station_Nam":"AMASA 1W","Latitude":"46.23470","Longitude":"-88.45440","Snowdepth":"2.000","Units":"in","Rept_Date":"2020-11-24 14"},"coordinates":[2998,5650]},{"type":"Point","properties":{"Station_ID":"IL-DK-37","Station_Nam":"SYCAMORE 0.7 ESE, IL","Latitude":"41.97618","Longitude":"-88.68418","Snowdepth":"1.900","Units":"in","Rept_Date":"2020-11-24 13"},"coordinates":[2919,2279]},{"type":"Point","properties":{"Station_ID":"IL-WN-26","Station_Nam":"ROCKFORD 1.5 ENE, IL","Latitude":"42.27775","Longitude":"-89.03590","Snowdepth":"1.800","Units":"in","Rept_Date":"2020-11-24 15"},"coordinates":[2799,2517]},{"type":"Point","properties":{"Station_ID":"IL-KD-24","Station_Nam":"OSWEGO 5.0 SSE, IL","Latitude":"41.62933","Longitude":"-88.29910","Snowdepth":"1.800","Units":"in","Rept_Date":"2020-11-24 13"},"coordinates":[3051,2004]},{"type":"Point","properties":{"Station_ID":"IL-WL-131","Station_Nam":"HOMER GLEN 0.7 NNE, IL","Latitude":"41.60842","Longitude":"-87.93270","Snowdepth":"1.700","Units":"in","Rept_Date":"2020-11-24 13"},"coordinates":[3176,1987]},{"type":"Point","properties":{"Station_ID":"IL-WL-16","Station_Nam":"HOMER GLEN 0.8 ENE, IL","Latitude":"41.62737","Longitude":"-87.92810","Snowdepth":"1.600","Units":"in","Rept_Date":"2020-11-24 13"},"coordinates":[3177,2002]},{"type":"Point","properties":{"Station_ID":"IL-DP-100","Station_Nam":"BARTLETT 1.1 SE, IL","Latitude":"41.96924","Longitude":"-88.18730","Snowdepth":"1.600","Units":"in","Rept_Date":"2020-11-24 13"},"coordinates":[3089,2273]},{"type":"Point","properties":{"Station_ID":"CAN-ON-784","Station_Nam":"KOMOKA 3.1 W, CAN","Latitude":"42.96000","Longitude":"-81.43805","Snowdepth":"1.600","Units":"in","Rept_Date":"2020-11-24 13"},"coordinates":[5392,3058]},{"type":"Point","properties":{"Station_ID":"CAN-ON-646","Station_Nam":"MISSISSAUGA 6.4 SSE - CANWARN, CAN","Latitude":"43.53417","Longitude":"-79.62089","Snowdepth":"1.600","Units":"in","Rept_Date":"2020-11-24 13"},"coordinates":[6012,3512]},{"type":"Point","properties":{"Station_ID":"IL-KN-98","Station_Nam":"GILBERTS 0.5 N, IL","Latitude":"42.10849","Longitude":"-88.36700","Snowdepth":"1.580","Units":"in","Rept_Date":"2020-11-24 14"},"coordinates":[3028,2383]},{"type":"Point","properties":{"Station_ID":"WI-WB-2","Station_Nam":"STONE LAKE 2.0 NW, WI","Latitude":"45.85960","Longitude":"-91.57710","Snowdepth":"1.500","Units":"in","Rept_Date":"2020-11-24 12"},"coordinates":[1932,5353]},{"type":"Point","properties":{"Station_ID":"WI-DA-99","Station_Nam":"FITCHBURG 1.1 NW, WI","Latitude":"42.99740","Longitude":"-89.44046","Snowdepth":"1.500","Units":"in","Rept_Date":"2020-11-24 13"},"coordinates":[2661,3087]},{"type":"Point","properties":{"Station_ID":"VT-WS-33","Station_Nam":"WAITSFIELD 3.5 WNW, VT","Latitude":"44.20052","Longitude":"-72.89421","Snowdepth":"1.500","Units":"in","Rept_Date":"2020-11-24 13"},"coordinates":[8308,4040]},{"type":"Point","properties":{"Station_ID":"VT-CH-7","Station_Nam":"HUNTINGTON 1.1 E, VT","Latitude":"44.32488","Longitude":"-72.96570","Snowdepth":"1.500","Units":"in","Rept_Date":"2020-11-24 12"},"coordinates":[8284,4138]},{"type":"Point","properties":{"Station_ID":"NY-MD-16","Station_Nam":"CHITTENANGO 2.1 ESE, NY","Latitude":"43.03297","Longitude":"-75.83480","Snowdepth":"1.500","Units":"in","Rept_Date":"2020-11-24 13"},"coordinates":[7304,3115]},{"type":"Point","properties":{"Station_ID":"MN-SL-15","Station_Nam":"CHISHOLM 0.4 WSW, MN","Latitude":"47.48557","Longitude":"-92.88690","Snowdepth":"1.500","Units":"in","Rept_Date":"2020-11-24 13"},"coordinates":[1485,6641]},{"type":"Point","properties":{"Station_ID":"MN-SL-115","Station_Nam":"COTTON 5.7 ESE, MN","Latitude":"47.15142","Longitude":"-92.35772","Snowdepth":"1.500","Units":"in","Rept_Date":"2020-11-24 14"},"coordinates":[1666,6376]},{"type":"Point","properties":{"Station_ID":"MN-CK-6","Station_Nam":"GRAND MARAIS 4.4 W, MN","Latitude":"47.74865","Longitude":"-90.43760","Snowdepth":"1.500","Units":"in","Rept_Date":"2020-11-24 13"},"coordinates":[2321,6849]},{"type":"Point","properties":{"Station_ID":"IL-SP-3","Station_Nam":"ORANGEVILLE 2.8 NW, IL","Latitude":"42.49607","Longitude":"-89.68430","Snowdepth":"1.500","Units":"in","Rept_Date":"2020-11-24 13"},"coordinates":[2578,2690]},{"type":"Point","properties":{"Station_ID":"IL-SP-22","Station_Nam":"FREEPORT 1.2 E, IL","Latitude":"42.29008","Longitude":"-89.61035","Snowdepth":"1.500","Units":"in","Rept_Date":"2020-11-24 13"},"coordinates":[2603,2527]},{"type":"Point","properties":{"Station_ID":"IL-MCH-95","Station_Nam":"CARY 0.5 SSW, IL","Latitude":"42.20235","Longitude":"-88.25224","Snowdepth":"1.500","Units":"in","Rept_Date":"2020-11-24 13"},"coordinates":[3067,2458]},{"type":"Point","properties":{"Station_ID":"IL-KN-96","Station_Nam":"ELBURN 0.3 NW, IL","Latitude":"41.89390","Longitude":"-88.47610","Snowdepth":"1.500","Units":"in","Rept_Date":"2020-11-24 13"},"coordinates":[2990,2213]},{"type":"Point","properties":{"Station_ID":"IL-KN-9","Station_Nam":"ELGIN 1.0 S, IL","Latitude":"42.02560","Longitude":"-88.28850","Snowdepth":"1.500","Units":"in","Rept_Date":"2020-11-24 14"},"coordinates":[3054,2318]},{"type":"Point","properties":{"Station_ID":"IL-KN-78","Station_Nam":"GENEVA 1.3 SSW, IL","Latitude":"41.86442","Longitude":"-88.32320","Snowdepth":"1.500","Units":"in","Rept_Date":"2020-11-24 13"},"coordinates":[3043,2190]},{"type":"Point","properties":{"Station_ID":"IL-KN-64","Station_Nam":"ST. CHARLES 0.1 E, IL","Latitude":"41.92010","Longitude":"-88.29900","Snowdepth":"1.500","Units":"in","Rept_Date":"2020-11-24 14"},"coordinates":[3051,2234]},{"type":"Point","properties":{"Station_ID":"IL-KN-51","Station_Nam":"SUGAR GROVE 1.4 ENE, IL","Latitude":"41.77872","Longitude":"-88.43430","Snowdepth":"1.500","Units":"in","Rept_Date":"2020-11-24 13"},"coordinates":[3005,2122]},{"type":"Point","properties":{"Station_ID":"IL-KN-4","Station_Nam":"SUGAR GROVE 0.7 NE, IL","Latitude":"41.77622","Longitude":"-88.44780","Snowdepth":"1.500","Units":"in","Rept_Date":"2020-11-24 13"},"coordinates":[3000,2120]},{"type":"Point","properties":{"Station_ID":"IL-KN-23","Station_Nam":"BATAVIA 1.5 WNW, IL","Latitude":"41.85937","Longitude":"-88.32750","Snowdepth":"1.500","Units":"in","Rept_Date":"2020-11-24 13"},"coordinates":[3041,2186]},{"type":"Point","properties":{"Station_ID":"IL-KN-128","Station_Nam":"BATAVIA 3.4 WSW, IL","Latitude":"41.83007","Longitude":"-88.36107","Snowdepth":"1.500","Units":"in","Rept_Date":"2020-11-24 13"},"coordinates":[3030,2163]},{"type":"Point","properties":{"Station_ID":"IL-KN-124","Station_Nam":"AURORA 3.1 WSW, IL","Latitude":"41.75647","Longitude":"-88.35182","Snowdepth":"1.500","Units":"in","Rept_Date":"2020-11-24 12"},"coordinates":[3033,2105]},{"type":"Point","properties":{"Station_ID":"IL-KN-121","Station_Nam":"GENEVA 1.3 NW, IL","Latitude":"41.89380","Longitude":"-88.33500","Snowdepth":"1.500","Units":"in","Rept_Date":"2020-11-24 13"},"coordinates":[3039,2213]},{"type":"Point","properties":{"Station_ID":"IL-DP-101","Station_Nam":"AURORA 3.8 SE, IL","Latitude":"41.73035","Longitude":"-88.23760","Snowdepth":"1.500","Units":"in","Rept_Date":"2020-11-24 13"},"coordinates":[3072,2084]},{"type":"Point","properties":{"Station_ID":"IL-CK-50","Station_Nam":"PALOS PARK 1.3 SW, IL","Latitude":"41.65281","Longitude":"-87.86310","Snowdepth":"1.500","Units":"in","Rept_Date":"2020-11-24 13"},"coordinates":[3200,2023]},{"type":"Point","properties":{"Station_ID":"IA-DV-2","Station_Nam":"MOULTON 3.6 ENE, IA","Latitude":"40.70487","Longitude":"-92.61551","Snowdepth":"1.500","Units":"in","Rept_Date":"2020-11-24 13"},"coordinates":[1578,1272]},{"type":"Point","properties":{"Station_ID":"IA-BT-16","Station_Nam":"SHELLSBURG 2.9 S, IA","Latitude":"42.05091","Longitude":"-91.87008","Snowdepth":"1.500","Units":"in","Rept_Date":"2020-11-24 12"},"coordinates":[1832,2338]},{"type":"Point","properties":{"Station_ID":"IA-AL-7","Station_Nam":"HARPERS FERRY 6.4 SSW, IA","Latitude":"43.11454","Longitude":"-91.19841","Snowdepth":"1.500","Units":"in","Rept_Date":"2020-11-24 13"},"coordinates":[2061,3180]},{"type":"Point","properties":{"Station_ID":"HLSN3","Station_Nam":"HERMIT LAKE SNOTEL","Latitude":"44.26130","Longitude":"-71.28320","Snowdepth":"1.460","Units":"in","Rept_Date":"2020-11-25 06"},"coordinates":[8858,4088]},{"type":"Point","properties":{"Station_ID":"IL-KN-118","Station_Nam":"SLEEPY HOLLOW 0.7 W, IL","Latitude":"42.09500","Longitude":"-88.32790","Snowdepth":"1.400","Units":"in","Rept_Date":"2020-11-24 13"},"coordinates":[3041,2373]},{"type":"Point","properties":{"Station_ID":"MN-HS-4","Station_Nam":"CALEDONIA 5.4 S, MN","Latitude":"43.55696","Longitude":"-91.51300","Snowdepth":"1.300","Units":"in","Rept_Date":"2020-11-24 14"},"coordinates":[1954,3530]},{"type":"Point","properties":{"Station_ID":"MN-FM-10","Station_Nam":"WYKOFF 3.1 NW, MN","Latitude":"43.74340","Longitude":"-92.30650","Snowdepth":"1.300","Units":"in","Rept_Date":"2020-11-24 13"},"coordinates":[1683,3678]},{"type":"Point","properties":{"Station_ID":"IL-WL-92","Station_Nam":"NAPERVILLE 4.0 SSW, IL","Latitude":"41.70624","Longitude":"-88.17340","Snowdepth":"1.300","Units":"in","Rept_Date":"2020-11-24 13"},"coordinates":[3094,2065]},{"type":"Point","properties":{"Station_ID":"CAN-ON-699","Station_Nam":"DALHOUSIE MILLS, CAN","Latitude":"45.31670","Longitude":"-74.47120","Snowdepth":"1.300","Units":"in","Rept_Date":"2020-11-24 11"},"coordinates":[7770,4924]},{"type":"Point","properties":{"Station_ID":"IN-PT-133","Station_Nam":"VALPARAISO 2.2 WNW, IN","Latitude":"41.49345","Longitude":"-87.08720","Snowdepth":"1.200","Units":"in","Rept_Date":"2020-11-24 13"},"coordinates":[3464,1896]},{"type":"Point","properties":{"Station_ID":"IL-WL-97","Station_Nam":"NEW LENOX 3.3 E, IL","Latitude":"41.51934","Longitude":"-87.91930","Snowdepth":"1.200","Units":"in","Rept_Date":"2020-11-24 13"},"coordinates":[3180,1917]},{"type":"Point","properties":{"Station_ID":"IL-MCH-13","Station_Nam":"BULL VALLEY 2.5 WNW, IL","Latitude":"42.32455","Longitude":"-88.39460","Snowdepth":"1.200","Units":"in","Rept_Date":"2020-11-24 14"},"coordinates":[3018,2554]},{"type":"Point","properties":{"Station_ID":"IL-LE-10","Station_Nam":"DIXON 3.0 NNW, IL","Latitude":"41.88759","Longitude":"-89.50820","Snowdepth":"1.200","Units":"in","Rept_Date":"2020-11-24 13"},"coordinates":[2638,2208]},{"type":"Point","properties":{"Station_ID":"IL-KN-95","Station_Nam":"ELGIN 2.5 W, IL","Latitude":"42.04041","Longitude":"-88.33660","Snowdepth":"1.200","Units":"in","Rept_Date":"2020-11-24 13"},"coordinates":[3038,2329]},{"type":"Point","properties":{"Station_ID":"IL-DP-78","Station_Nam":"NAPERVILLE 2.4 SE, IL","Latitude":"41.74184","Longitude":"-88.11620","Snowdepth":"1.200","Units":"in","Rept_Date":"2020-11-24 13"},"coordinates":[3113,2093]},{"type":"Point","properties":{"Station_ID":"IL-BN-19","Station_Nam":"BELVIDERE 5.0 NNW, IL","Latitude":"42.32071","Longitude":"-88.88282","Snowdepth":"1.200","Units":"in","Rept_Date":"2020-11-24 13"},"coordinates":[2852,2551]},{"type":"Point","properties":{"Station_ID":"IA-FL-3","Station_Nam":"NORA SPRINGS 2.4 SSE, IA","Latitude":"43.11120","Longitude":"-92.99400","Snowdepth":"1.200","Units":"in","Rept_Date":"2020-11-24 13"},"coordinates":[1449,3177]},{"type":"Point","properties":{"Station_ID":"IA-BT-12","Station_Nam":"FAIRFAX 4.0 NW, IA","Latitude":"41.96223","Longitude":"-91.83675","Snowdepth":"1.200","Units":"in","Rept_Date":"2020-11-24 13"},"coordinates":[1843,2268]},{"type":"Point","properties":{"Station_ID":"CAN-ON-525","Station_Nam":"WOODSTOCK 1.2 ENE, CAN","Latitude":"43.13734","Longitude":"-80.73688","Snowdepth":"1.200","Units":"in","Rept_Date":"2020-11-24 12"},"coordinates":[5632,3198]},{"type":"Point","properties":{"Station_ID":"MN-HS-6","Station_Nam":"HOKAH 4.5 WSW, MN","Latitude":"43.74196","Longitude":"-91.43685","Snowdepth":"1.100","Units":"in","Rept_Date":"2020-11-24 16"},"coordinates":[1980,3677]},{"type":"Point","properties":{"Station_ID":"IL-CK-288","Station_Nam":"ROSELLE 0.8 N, IL","Latitude":"41.99255","Longitude":"-88.08422","Snowdepth":"1.100","Units":"in","Rept_Date":"2020-11-24 16"},"coordinates":[3124,2292]},{"type":"Point","properties":{"Station_ID":"WTRW3","Station_Nam":"WINTER","Latitude":"45.79920","Longitude":"-90.99470","Snowdepth":"1.000","Units":"in","Rept_Date":"2020-11-24 15"},"coordinates":[2131,5306]},{"type":"Point","properties":{"Station_ID":"WRIM5","Station_Nam":"WRIGHT 3E","Latitude":"46.68040","Longitude":"-92.95420","Snowdepth":"1.000","Units":"in","Rept_Date":"2020-11-24 12"},"coordinates":[1462,6003]},{"type":"Point","properties":{"Station_ID":"WORV1","Station_Nam":"WORCESTER 2 W","Latitude":"44.37470","Longitude":"-72.58220","Snowdepth":"1.000","Units":"in","Rept_Date":"2020-11-24 12"},"coordinates":[8414,4178]},{"type":"Point","properties":{"Station_ID":"WODI2","Station_Nam":"WOODSTOCK","Latitude":"42.36280","Longitude":"-88.53140","Snowdepth":"1.000","Units":"in","Rept_Date":"2020-11-24 13"},"coordinates":[2971,2585]},{"type":"Point","properties":{"Station_ID":"WJWI2","Station_Nam":"WESTMONT,IL","Latitude":"41.80000","Longitude":"-87.95000","Snowdepth":"1.000","Units":"in","Rept_Date":"2020-11-24 13"},"coordinates":[3170,2139]},{"type":"Point","properties":{"Station_ID":"WI-VL-14","Station_Nam":"BOULDER JUNCTION 1.4 NE, WI","Latitude":"46.12840","Longitude":"-89.62470","Snowdepth":"1.000","Units":"in","Rept_Date":"2020-11-24 13"},"coordinates":[2598,5566]},{"type":"Point","properties":{"Station_ID":"WI-RK-16","Station_Nam":"JANESVILLE 2.7 ENE, WI","Latitude":"42.69228","Longitude":"-88.96319","Snowdepth":"1.000","Units":"in","Rept_Date":"2020-11-24 15"},"coordinates":[2824,2846]},{"type":"Point","properties":{"Station_ID":"WI-RK-12","Station_Nam":"JANESVILLE 3.1 W, WI","Latitude":"42.67576","Longitude":"-89.07614","Snowdepth":"1.000","Units":"in","Rept_Date":"2020-11-24 13"},"coordinates":[2786,2833]},{"type":"Point","properties":{"Station_ID":"WI-PR-2","Station_Nam":"BUTTERNUT 5.9 SW, WI","Latitude":"45.96501","Longitude":"-90.59750","Snowdepth":"1.000","Units":"in","Rept_Date":"2020-11-24 12"},"coordinates":[2266,5437]},{"type":"Point","properties":{"Station_ID":"WI-IR-3","Station_Nam":"PENCE 0.1 E, WI","Latitude":"46.41555","Longitude":"-90.27013","Snowdepth":"1.000","Units":"in","Rept_Date":"2020-11-24 13"},"coordinates":[2378,5794]},{"type":"Point","properties":{"Station_ID":"WI-IR-2","Station_Nam":"MERCER 2.0 SE, WI","Latitude":"46.14749","Longitude":"-90.03097","Snowdepth":"1.000","Units":"in","Rept_Date":"2020-11-24 13"},"coordinates":[2460,5581]},{"type":"Point","properties":{"Station_ID":"WI-DG-20","Station_Nam":"SOLON SPRINGS 1.2 W, WI","Latitude":"46.35217","Longitude":"-91.84405","Snowdepth":"1.000","Units":"in","Rept_Date":"2020-11-24 13"},"coordinates":[1841,5743]},{"type":"Point","properties":{"Station_ID":"WI-DA-63","Station_Nam":"MADISON 7.0 WSW, WI","Latitude":"43.04003","Longitude":"-89.51438","Snowdepth":"1.000","Units":"in","Rept_Date":"2020-11-24 14"},"coordinates":[2636,3121]},{"type":"Point","properties":{"Station_ID":"WI-DA-62","Station_Nam":"WAUNAKEE 4.9 W, WI","Latitude":"43.19755","Longitude":"-89.54904","Snowdepth":"1.000","Units":"in","Rept_Date":"2020-11-24 13"},"coordinates":[2624,3246]},{"type":"Point","properties":{"Station_ID":"WI-DA-60","Station_Nam":"MIDDLETON 0.8 SSW, WI","Latitude":"43.09292","Longitude":"-89.51258","Snowdepth":"1.000","Units":"in","Rept_Date":"2020-11-24 13"},"coordinates":[2637,3163]},{"type":"Point","properties":{"Station_ID":"WI-DA-46","Station_Nam":"MADISON 6.4 W, WI","Latitude":"43.08337","Longitude":"-89.51503","Snowdepth":"1.000","Units":"in","Rept_Date":"2020-11-24 13"},"coordinates":[2636,3155]},{"type":"Point","properties":{"Station_ID":"WI-DA-45","Station_Nam":"MADISON 6.1 W, WI","Latitude":"43.06948","Longitude":"-89.50788","Snowdepth":"1.000","Units":"in","Rept_Date":"2020-11-24 13"},"coordinates":[2638,3144]},{"type":"Point","properties":{"Station_ID":"WI-DA-39","Station_Nam":"MADISON 4.0 W, WI","Latitude":"43.07741","Longitude":"-89.46757","Snowdepth":"1.000","Units":"in","Rept_Date":"2020-11-24 13"},"coordinates":[2652,3151]},{"type":"Point","properties":{"Station_ID":"WI-BY-2","Station_Nam":"MELLEN 18.6 SW, WI","Latitude":"46.16937","Longitude":"-90.98090","Snowdepth":"1.000","Units":"in","Rept_Date":"2020-11-24 13"},"coordinates":[2136,5599]},{"type":"Point","properties":{"Station_ID":"WHTI2","Station_Nam":"WHEATON,IL","Latitude":"41.81330","Longitude":"-88.07360","Snowdepth":"1.000","Units":"in","Rept_Date":"2020-11-24 13"},"coordinates":[3128,2150]},{"type":"Point","properties":{"Station_ID":"WAIV1","Station_Nam":"WAITSFIELD","Latitude":"44.17560","Longitude":"-72.79610","Snowdepth":"1.000","Units":"in","Rept_Date":"2020-11-24 12"},"coordinates":[8341,4020]},{"type":"Point","properties":{"Station_ID":"VT-WS-7","Station_Nam":"MIDDLESEX 3.1 ENE, VT","Latitude":"44.31799","Longitude":"-72.62650","Snowdepth":"1.000","Units":"in","Rept_Date":"2020-11-24 13"},"coordinates":[8399,4133]},{"type":"Point","properties":{"Station_ID":"VT-WS-11","Station_Nam":"WAITSFIELD 1.8 SE, VT","Latitude":"44.17551","Longitude":"-72.79540","Snowdepth":"1.000","Units":"in","Rept_Date":"2020-11-24 12"},"coordinates":[8342,4020]},{"type":"Point","properties":{"Station_ID":"VT-OL-2","Station_Nam":"BARTON 3.0 ENE, VT","Latitude":"44.75863","Longitude":"-72.11680","Snowdepth":"1.000","Units":"in","Rept_Date":"2020-11-24 12"},"coordinates":[8573,4482]},{"type":"Point","properties":{"Station_ID":"VT-CH-4","Station_Nam":"UNDERHILL 4.4 NNE, VT","Latitude":"44.58774","Longitude":"-72.92250","Snowdepth":"1.000","Units":"in","Rept_Date":"2020-11-24 13"},"coordinates":[8298,4346]},{"type":"Point","properties":{"Station_ID":"VT-CH-11","Station_Nam":"UNDERHILL 5.1 NNE, VT","Latitude":"44.59811","Longitude":"-72.91880","Snowdepth":"1.000","Units":"in","Rept_Date":"2020-11-24 13"},"coordinates":[8300,4355]},{"type":"Point","properties":{"Station_ID":"VANM1","Station_Nam":"VAN BUREN","Latitude":"47.16600","Longitude":"-67.93900","Snowdepth":"1.000","Units":"in","Rept_Date":"2020-11-24 12"},"coordinates":[9999,6388]},{"type":"Point","properties":{"Station_ID":"UPSW3","Station_Nam":"UPSON,WI","Latitude":"46.36780","Longitude":"-90.41220","Snowdepth":"1.000","Units":"in","Rept_Date":"2020-11-25 00"},"coordinates":[2330,5756]},{"type":"Point","properties":{"Station_ID":"TRPI4","Station_Nam":"TRIPOLI,IA","Latitude":"42.81310","Longitude":"-92.25830","Snowdepth":"1.000","Units":"in","Rept_Date":"2020-11-24 13"},"coordinates":[1700,2941]},{"type":"Point","properties":{"Station_ID":"SWHI4","Station_Nam":"SWISHER #2","Latitude":"41.84970","Longitude":"-91.67650","Snowdepth":"1.000","Units":"in","Rept_Date":"2020-11-24 14"},"coordinates":[1898,2178]},{"type":"Point","properties":{"Station_ID":"SUTV1","Station_Nam":"SUTTON","Latitude":"44.61220","Longitude":"-72.04810","Snowdepth":"1.000","Units":"in","Rept_Date":"2020-11-24 13"},"coordinates":[8597,4366]},{"type":"Point","properties":{"Station_ID":"SUAW3","Station_Nam":"SUAMICO","Latitude":"44.60190","Longitude":"-88.09780","Snowdepth":"1.000","Units":"in","Rept_Date":"2020-11-24 12"},"coordinates":[3119,4358]},{"type":"Point","properties":{"Station_ID":"STOW3","Station_Nam":"STOUGHTON,WI","Latitude":"42.91670","Longitude":"-89.21670","Snowdepth":"1.000","Units":"in","Rept_Date":"2020-11-24 13"},"coordinates":[2738,3023]},{"type":"Point","properties":{"Station_ID":"STMM4","Station_Nam":"STAMBAUGH 2SSE","Latitude":"46.05550","Longitude":"-88.62780","Snowdepth":"1.000","Units":"in","Rept_Date":"2020-11-24 13"},"coordinates":[2939,5509]},{"type":"Point","properties":{"Station_ID":"SRAW3","Station_Nam":"SARONA","Latitude":"45.80250","Longitude":"-91.86700","Snowdepth":"1.000","Units":"in","Rept_Date":"2020-11-24 14"},"coordinates":[1833,5308]},{"type":"Point","properties":{"Station_ID":"SLNV1","Station_Nam":"SOUTH LINCOLN","Latitude":"44.07460","Longitude":"-72.97180","Snowdepth":"1.000","Units":"in","Rept_Date":"2020-11-24 12"},"coordinates":[8281,3940]},{"type":"Point","properties":{"Station_ID":"SEBM5","Station_Nam":"SEBEKA","Latitude":"46.62540","Longitude":"-95.09670","Snowdepth":"1.000","Units":"in","Rept_Date":"2020-11-24 13"},"coordinates":[731,5960]},{"type":"Point","properties":{"Station_ID":"SBSI3","Station_Nam":"SOUTH BEND","Latitude":"41.70050","Longitude":"-86.24870","Snowdepth":"1.000","Units":"in","Rept_Date":"2020-11-24 18"},"coordinates":[3751,2060]},{"type":"Point","properties":{"Station_ID":"SBNW3","Station_Nam":"STEUBEN 4SE","Latitude":"43.13430","Longitude":"-90.83720","Snowdepth":"1.000","Units":"in","Rept_Date":"2020-11-24 14"},"coordinates":[2185,3196]},{"type":"Point","properties":{"Station_ID":"SACW3","Station_Nam":"SAUK CITY","Latitude":"43.26000","Longitude":"-89.73580","Snowdepth":"1.000","Units":"in","Rept_Date":"2020-11-24 13"},"coordinates":[2560,3295]},{"type":"Point","properties":{"Station_ID":"RDFN6","Station_Nam":"REDFIELD 8N","Latitude":"43.64130","Longitude":"-75.88400","Snowdepth":"1.000","Units":"in","Rept_Date":"2020-11-24 12"},"coordinates":[7288,3597]},{"type":"Point","properties":{"Station_ID":"PTBN3","Station_Nam":"PITTSBURG RESERVOIR","Latitude":"45.04690","Longitude":"-71.38300","Snowdepth":"1.000","Units":"in","Rept_Date":"2020-11-24 12"},"coordinates":[8824,4710]},{"type":"Point","properties":{"Station_ID":"PRDM4","Station_Nam":"PARADISE","Latitude":"46.60380","Longitude":"-85.03960","Snowdepth":"1.000","Units":"in","Rept_Date":"2020-11-24 11"},"coordinates":[4163,5943]},{"type":"Point","properties":{"Station_ID":"PLLW3","Station_Nam":"PELL LAKE","Latitude":"42.53220","Longitude":"-88.33280","Snowdepth":"1.000","Units":"in","Rept_Date":"2020-11-24 13"},"coordinates":[3039,2719]},{"type":"Point","properties":{"Station_ID":"PKFI2","Station_Nam":"PARK FOREST,IL","Latitude":"41.50000","Longitude":"-87.68330","Snowdepth":"1.000","Units":"in","Rept_Date":"2020-11-24 13"},"coordinates":[3261,1902]},{"type":"Point","properties":{"Station_ID":"PEOI2","Station_Nam":"PEOTONE,IL","Latitude":"41.33330","Longitude":"-87.80000","Snowdepth":"1.000","Units":"in","Rept_Date":"2020-11-24 13"},"coordinates":[3221,1770]},{"type":"Point","properties":{"Station_ID":"PDGM4","Station_Nam":"PAULDING","Latitude":"46.39760","Longitude":"-89.17940","Snowdepth":"1.000","Units":"in","Rept_Date":"2020-11-24 13"},"coordinates":[2750,5779]},{"type":"Point","properties":{"Station_ID":"PBAN8","Station_Nam":"SITE 1-3MI.N","Latitude":"48.97420","Longitude":"-97.23860","Snowdepth":"1.000","Units":"in","Rept_Date":"2020-11-24 13"},"coordinates":[0,7819]},{"type":"Point","properties":{"Station_ID":"OTTI2","Station_Nam":"OTTAWA,IL","Latitude":"41.32830","Longitude":"-88.91060","Snowdepth":"1.000","Units":"in","Rept_Date":"2020-11-24 14"},"coordinates":[2842,1766]},{"type":"Point","properties":{"Station_ID":"OSKI4","Station_Nam":"OSKALOOSA,IA","Latitude":"41.31670","Longitude":"-92.65000","Snowdepth":"1.000","Units":"in","Rept_Date":"2020-11-24 13"},"coordinates":[1566,1756]},{"type":"Point","properties":{"Station_ID":"NY-OT-11","Station_Nam":"HARTWICK, NY","Latitude":"42.65990","Longitude":"-75.05000","Snowdepth":"1.000","Units":"in","Rept_Date":"2020-11-24 13"},"coordinates":[7572,2820]},{"type":"Point","properties":{"Station_ID":"NY-MD-10","Station_Nam":"CAZENOVIA 2.9 SE, NY","Latitude":"42.90003","Longitude":"-75.81140","Snowdepth":"1.000","Units":"in","Rept_Date":"2020-11-24 12"},"coordinates":[7312,3010]},{"type":"Point","properties":{"Station_ID":"NWTI4","Station_Nam":"NEWTON,IA","Latitude":"41.70000","Longitude":"-93.05000","Snowdepth":"1.000","Units":"in","Rept_Date":"2020-11-24 13"},"coordinates":[1429,2060]},{"type":"Point","properties":{"Station_ID":"NVLV1","Station_Nam":"NASHVILLE","Latitude":"44.44970","Longitude":"-72.92640","Snowdepth":"1.000","Units":"in","Rept_Date":"2020-11-24 12"},"coordinates":[8297,4237]},{"type":"Point","properties":{"Station_ID":"NUNV1","Station_Nam":"NORTH UNDERHILL","Latitude":"44.58760","Longitude":"-72.92150","Snowdepth":"1.000","Units":"in","Rept_Date":"2020-11-24 12"},"coordinates":[8299,4346]},{"type":"Point","properties":{"Station_ID":"NHPI4","Station_Nam":"NEW HAMPTON","Latitude":"43.05750","Longitude":"-92.31220","Snowdepth":"1.000","Units":"in","Rept_Date":"2020-11-24 13"},"coordinates":[1681,3135]},{"type":"Point","properties":{"Station_ID":"NH-CS-4","Station_Nam":"PITTSBURG 6.1 NE, NH","Latitude":"45.11060","Longitude":"-71.29760","Snowdepth":"1.000","Units":"in","Rept_Date":"2020-11-24 12"},"coordinates":[8853,4760]},{"type":"Point","properties":{"Station_ID":"MUNI2","Station_Nam":"MUNDELEIN,IL","Latitude":"42.25530","Longitude":"-88.07690","Snowdepth":"1.000","Units":"in","Rept_Date":"2020-11-24 13"},"coordinates":[3127,2500]},{"type":"Point","properties":{"Station_ID":"MSN","Station_Nam":"MADISON DANE COUNTY RGNL","Latitude":"43.13970","Longitude":"-89.33750","Snowdepth":"1.000","Units":"in","Rept_Date":"2020-11-25 00"},"coordinates":[2696,3200]},{"type":"Point","properties":{"Station_ID":"MN-SL-108","Station_Nam":"IRON JUNCTION 3.4 NNW, MN","Latitude":"47.46150","Longitude":"-92.63130","Snowdepth":"1.000","Units":"in","Rept_Date":"2020-11-24 13"},"coordinates":[1572,6622]},{"type":"Point","properties":{"Station_ID":"MN-CW-22","Station_Nam":"FORT RIPLEY 0.8 N, MN","Latitude":"46.18089","Longitude":"-94.36510","Snowdepth":"1.000","Units":"in","Rept_Date":"2020-11-24 13"},"coordinates":[981,5608]},{"type":"Point","properties":{"Station_ID":"MN-BK-16","Station_Nam":"PARK RAPIDS 15.3 NW, MN","Latitude":"47.08653","Longitude":"-95.26951","Snowdepth":"1.000","Units":"in","Rept_Date":"2020-11-24 14"},"coordinates":[672,6325]},{"type":"Point","properties":{"Station_ID":"MKTI4","Station_Nam":"MAQUOKETA","Latitude":"42.07710","Longitude":"-90.66470","Snowdepth":"1.000","Units":"in","Rept_Date":"2020-11-24 13"},"coordinates":[2243,2359]},{"type":"Point","properties":{"Station_ID":"MKNM4","Station_Nam":"MUSKEGON 4 SE","Latitude":"43.18390","Longitude":"-86.20370","Snowdepth":"1.000","Units":"in","Rept_Date":"2020-11-25 00"},"coordinates":[3766,3235]},{"type":"Point","properties":{"Station_ID":"MKG","Station_Nam":"MUSKEGON COUNTY AIRPORT","Latitude":"43.16940","Longitude":"-86.23810","Snowdepth":"1.000","Units":"in","Rept_Date":"2020-11-25 00"},"coordinates":[3754,3223]},{"type":"Point","properties":{"Station_ID":"MIEM4","Station_Nam":"MICHIGAMME 3WNW","Latitude":"46.54530","Longitude":"-88.18000","Snowdepth":"1.000","Units":"in","Rept_Date":"2020-11-24 13"},"coordinates":[3091,5896]},{"type":"Point","properties":{"Station_ID":"MI-MQ-2","Station_Nam":"MARQUETTE 6.5 SSE, MI","Latitude":"46.46461","Longitude":"-87.34064","Snowdepth":"1.000","Units":"in","Rept_Date":"2020-11-24 13"},"coordinates":[3378,5832]},{"type":"Point","properties":{"Station_ID":"MI-MQ-19","Station_Nam":"ISHPEMING 7.2 SW, MI","Latitude":"46.40550","Longitude":"-87.75670","Snowdepth":"1.000","Units":"in","Rept_Date":"2020-11-24 11"},"coordinates":[3236,5786]},{"type":"Point","properties":{"Station_ID":"MI-HG-1","Station_Nam":"HOUGHTON 1.6 ESE, MI","Latitude":"47.10774","Longitude":"-88.52940","Snowdepth":"1.000","Units":"in","Rept_Date":"2020-11-24 13"},"coordinates":[2972,6342]},{"type":"Point","properties":{"Station_ID":"MI-AG-6","Station_Nam":"MUNISING 11.1 SSW, MI","Latitude":"46.27805","Longitude":"-86.75747","Snowdepth":"1.000","Units":"in","Rept_Date":"2020-11-24 12"},"coordinates":[3577,5685]},{"type":"Point","properties":{"Station_ID":"MHYI2","Station_Nam":"MCHENRY -WG STRATTON L&D","Latitude":"42.30910","Longitude":"-88.25330","Snowdepth":"1.000","Units":"in","Rept_Date":"2020-11-24 14"},"coordinates":[3066,2542]},{"type":"Point","properties":{"Station_ID":"MHRI4","Station_Nam":"MANCHESTER #2","Latitude":"42.47320","Longitude":"-91.45160","Snowdepth":"1.000","Units":"in","Rept_Date":"2020-11-24 13"},"coordinates":[1975,2672]},{"type":"Point","properties":{"Station_ID":"MDTI2","Station_Nam":"MENDOTA 2SE","Latitude":"41.52940","Longitude":"-89.12670","Snowdepth":"1.000","Units":"in","Rept_Date":"2020-11-24 13"},"coordinates":[2768,1925]},{"type":"Point","properties":{"Station_ID":"MDDW3","Station_Nam":"MIDDLETON,WI","Latitude":"43.09060","Longitude":"-89.51470","Snowdepth":"1.000","Units":"in","Rept_Date":"2020-11-24 13"},"coordinates":[2636,3161]},{"type":"Point","properties":{"Station_ID":"MCLI4","Station_Nam":"MONTICELLO","Latitude":"42.24110","Longitude":"-91.17320","Snowdepth":"1.000","Units":"in","Rept_Date":"2020-11-24 13"},"coordinates":[2070,2488]},{"type":"Point","properties":{"Station_ID":"MATI2","Station_Nam":"MANHATTAN","Latitude":"41.45840","Longitude":"-87.90980","Snowdepth":"1.000","Units":"in","Rept_Date":"2020-11-24 14"},"coordinates":[3184,1869]},{"type":"Point","properties":{"Station_ID":"MAPM4","Station_Nam":"MAPLE CITY 1E","Latitude":"44.85500","Longitude":"-85.83520","Snowdepth":"1.000","Units":"in","Rept_Date":"2020-11-24 23"},"coordinates":[3892,4558]},{"type":"Point","properties":{"Station_ID":"MABM5","Station_Nam":"MABEL","Latitude":"43.52410","Longitude":"-91.76160","Snowdepth":"1.000","Units":"in","Rept_Date":"2020-11-24 12"},"coordinates":[1869,3504]},{"type":"Point","properties":{"Station_ID":"LSNW3","Station_Nam":"LA CROSSE SNOW","Latitude":"43.86220","Longitude":"-91.26660","Snowdepth":"1.000","Units":"in","Rept_Date":"2020-11-25 00"},"coordinates":[2038,3772]},{"type":"Point","properties":{"Station_ID":"LSE","Station_Nam":"LA CROSSE MUNICIPAL AIRPORT","Latitude":"43.87920","Longitude":"-91.25610","Snowdepth":"1.000","Units":"in","Rept_Date":"2020-11-25 00"},"coordinates":[2042,3785]},{"type":"Point","properties":{"Station_ID":"LOOW3","Station_Nam":"WATERLOO","Latitude":"43.18830","Longitude":"-88.98440","Snowdepth":"1.000","Units":"in","Rept_Date":"2020-11-24 14"},"coordinates":[2817,3238]},{"type":"Point","properties":{"Station_ID":"LKZI2","Station_Nam":"LAKE ZURICH","Latitude":"42.19250","Longitude":"-88.06530","Snowdepth":"1.000","Units":"in","Rept_Date":"2020-11-24 13"},"coordinates":[3131,2450]},{"type":"Point","properties":{"Station_ID":"LKMW3","Station_Nam":"LAKE MILLS,WI","Latitude":"43.06670","Longitude":"-88.91220","Snowdepth":"1.000","Units":"in","Rept_Date":"2020-11-24 14"},"coordinates":[2842,3142]},{"type":"Point","properties":{"Station_ID":"KSGM4","Station_Nam":"KEARSARGE","Latitude":"47.27520","Longitude":"-88.41700","Snowdepth":"1.000","Units":"in","Rept_Date":"2020-11-24 13"},"coordinates":[3011,6474]},{"type":"Point","properties":{"Station_ID":"KRFD","Station_Nam":"GREATER ROCKFORD AIRPORT","Latitude":"42.20000","Longitude":"-89.10000","Snowdepth":"1.000","Units":"in","Rept_Date":"2020-11-24 12"},"coordinates":[2777,2456]},{"type":"Point","properties":{"Station_ID":"KMSN","Station_Nam":"MADISON DANE COUNTY RGNL","Latitude":"43.13333","Longitude":"-89.35000","Snowdepth":"1.000","Units":"in","Rept_Date":"2020-11-25 00"},"coordinates":[2692,3195]},{"type":"Point","properties":{"Station_ID":"KMKG","Station_Nam":"MUSKEGON COUNTY AIRPORT","Latitude":"43.16666","Longitude":"-86.23333","Snowdepth":"1.000","Units":"in","Rept_Date":"2020-11-25 00"},"coordinates":[3756,3221]},{"type":"Point","properties":{"Station_ID":"KDSM","Station_Nam":"DES MOINES INTERNATIONAL","Latitude":"41.53333","Longitude":"-93.66666","Snowdepth":"1.000","Units":"in","Rept_Date":"2020-11-24 12"},"coordinates":[1219,1928]},{"type":"Point","properties":{"Station_ID":"JKJI2","Station_Nam":"JOLIET","Latitude":"41.55030","Longitude":"-88.12670","Snowdepth":"1.000","Units":"in","Rept_Date":"2020-11-24 13"},"coordinates":[3110,1941]},{"type":"Point","properties":{"Station_ID":"IWOM4","Station_Nam":"IRONWOOD#2","Latitude":"46.46520","Longitude":"-90.13820","Snowdepth":"1.000","Units":"in","Rept_Date":"2020-11-24 13"},"coordinates":[2423,5833]},{"type":"Point","properties":{"Station_ID":"ISEM5","Station_Nam":"ISLE 12N","Latitude":"46.31970","Longitude":"-93.50140","Snowdepth":"1.000","Units":"in","Rept_Date":"2020-11-24 14"},"coordinates":[1275,5718]},{"type":"Point","properties":{"Station_ID":"IRMM4","Station_Nam":"WWTP","Latitude":"46.46670","Longitude":"-90.18330","Snowdepth":"1.000","Units":"in","Rept_Date":"2020-11-24 13"},"coordinates":[2408,5834]},{"type":"Point","properties":{"Station_ID":"IN-PT-91","Station_Nam":"CHESTERTON 4.2 E, IN","Latitude":"41.59433","Longitude":"-86.97520","Snowdepth":"1.000","Units":"in","Rept_Date":"2020-11-24 13"},"coordinates":[3503,1976]},{"type":"Point","properties":{"Station_ID":"IL-WL-46","Station_Nam":"PEOTONE 0.4 ENE, IL","Latitude":"41.33361","Longitude":"-87.78910","Snowdepth":"1.000","Units":"in","Rept_Date":"2020-11-24 13"},"coordinates":[3225,1770]},{"type":"Point","properties":{"Station_ID":"IL-WL-25","Station_Nam":"CRETE 2.6 E, IL","Latitude":"41.44681","Longitude":"-87.56570","Snowdepth":"1.000","Units":"in","Rept_Date":"2020-11-24 13"},"coordinates":[3301,1859]},{"type":"Point","properties":{"Station_ID":"IL-WL-20","Station_Nam":"MANHATTAN 4.7 ENE, IL","Latitude":"41.45845","Longitude":"-87.90980","Snowdepth":"1.000","Units":"in","Rept_Date":"2020-11-24 14"},"coordinates":[3184,1869]},{"type":"Point","properties":{"Station_ID":"IL-WL-166","Station_Nam":"NAPERVILLE 3.6 SE, IL","Latitude":"41.72312","Longitude":"-88.10876","Snowdepth":"1.000","Units":"in","Rept_Date":"2020-11-24 14"},"coordinates":[3116,2078]},{"type":"Point","properties":{"Station_ID":"IL-WL-149","Station_Nam":"BULT FIELD-MONEE 4.9 SE, IL","Latitude":"41.37740","Longitude":"-87.67975","Snowdepth":"1.000","Units":"in","Rept_Date":"2020-11-24 14"},"coordinates":[3262,1805]},{"type":"Point","properties":{"Station_ID":"IL-SP-25","Station_Nam":"FREEPORT 1.7 NW, IL","Latitude":"42.30427","Longitude":"-89.66285","Snowdepth":"1.000","Units":"in","Rept_Date":"2020-11-24 13"},"coordinates":[2585,2538]},{"type":"Point","properties":{"Station_ID":"IL-MCH-33","Station_Nam":"WOODSTOCK 3.8 SW, IL","Latitude":"42.27554","Longitude":"-88.49500","Snowdepth":"1.000","Units":"in","Rept_Date":"2020-11-24 14"},"coordinates":[2984,2516]},{"type":"Point","properties":{"Station_ID":"IL-LS-57","Station_Nam":"MENDOTA 0.4 ENE, IL","Latitude":"41.55336","Longitude":"-89.11380","Snowdepth":"1.000","Units":"in","Rept_Date":"2020-11-24 13"},"coordinates":[2773,1944]},{"type":"Point","properties":{"Station_ID":"IL-LE-22","Station_Nam":"AMBOY 0.5 SSW, IL","Latitude":"41.71016","Longitude":"-89.33695","Snowdepth":"1.000","Units":"in","Rept_Date":"2020-11-24 12"},"coordinates":[2697,2068]},{"type":"Point","properties":{"Station_ID":"IL-KN-67","Station_Nam":"ST. CHARLES 6.0 NW, IL","Latitude":"41.98401","Longitude":"-88.38030","Snowdepth":"1.000","Units":"in","Rept_Date":"2020-11-24 13"},"coordinates":[3023,2285]},{"type":"Point","properties":{"Station_ID":"IL-KN-5","Station_Nam":"BATAVIA 0.7 WSW, IL","Latitude":"41.84815","Longitude":"-88.31440","Snowdepth":"1.000","Units":"in","Rept_Date":"2020-11-24 12"},"coordinates":[3046,2177]},{"type":"Point","properties":{"Station_ID":"IL-KN-33","Station_Nam":"NORTH AURORA 1.5 NE, IL","Latitude":"41.81629","Longitude":"-88.30680","Snowdepth":"1.000","Units":"in","Rept_Date":"2020-11-24 13"},"coordinates":[3048,2152]},{"type":"Point","properties":{"Station_ID":"IL-KD-34","Station_Nam":"PLAINFIELD 4.8 SW, IL","Latitude":"41.56779","Longitude":"-88.27010","Snowdepth":"1.000","Units":"in","Rept_Date":"2020-11-24 13"},"coordinates":[3061,1955]},{"type":"Point","properties":{"Station_ID":"IL-KD-102","Station_Nam":"OSWEGO 2.4 SSW, IL","Latitude":"41.66450","Longitude":"-88.34430","Snowdepth":"1.000","Units":"in","Rept_Date":"2020-11-24 14"},"coordinates":[3035,2032]},{"type":"Point","properties":{"Station_ID":"IL-JD-11","Station_Nam":"EAST DUBUQUE 1.7 SE, IL","Latitude":"42.47565","Longitude":"-90.61300","Snowdepth":"1.000","Units":"in","Rept_Date":"2020-11-24 13"},"coordinates":[2261,2674]},{"type":"Point","properties":{"Station_ID":"IL-DP-79","Station_Nam":"BURR RIDGE 1.9 SW, IL","Latitude":"41.73194","Longitude":"-87.94860","Snowdepth":"1.000","Units":"in","Rept_Date":"2020-11-24 13"},"coordinates":[3170,2085]},{"type":"Point","properties":{"Station_ID":"IL-DP-57","Station_Nam":"AURORA 3.5 NE, IL","Latitude":"41.80891","Longitude":"-88.25280","Snowdepth":"1.000","Units":"in","Rept_Date":"2020-11-24 15"},"coordinates":[3067,2146]},{"type":"Point","properties":{"Station_ID":"IL-DP-30","Station_Nam":"LISLE 0.5 WSW, IL","Latitude":"41.79001","Longitude":"-88.09790","Snowdepth":"1.000","Units":"in","Rept_Date":"2020-11-24 13"},"coordinates":[3119,2131]},{"type":"Point","properties":{"Station_ID":"IL-DP-127","Station_Nam":"DOWNERS GROVE 0.4 NNE, IL","Latitude":"41.80331","Longitude":"-88.01542","Snowdepth":"1.000","Units":"in","Rept_Date":"2020-11-24 13"},"coordinates":[3148,2142]},{"type":"Point","properties":{"Station_ID":"IL-DP-109","Station_Nam":"ELMHURST 0.8 ESE, IL","Latitude":"41.89287","Longitude":"-87.92960","Snowdepth":"1.000","Units":"in","Rept_Date":"2020-11-24 13"},"coordinates":[3177,2213]},{"type":"Point","properties":{"Station_ID":"IL-DP-102","Station_Nam":"BOLINGBROOK 2.7 NE, IL","Latitude":"41.73019","Longitude":"-88.04479","Snowdepth":"1.000","Units":"in","Rept_Date":"2020-11-24 13"},"coordinates":[3138,2084]},{"type":"Point","properties":{"Station_ID":"IL-CK-75","Station_Nam":"ELK GROVE VILLAGE 2.2 WSW, IL","Latitude":"41.99526","Longitude":"-88.05270","Snowdepth":"1.000","Units":"in","Rept_Date":"2020-11-24 13"},"coordinates":[3135,2294]},{"type":"Point","properties":{"Station_ID":"IL-CK-131","Station_Nam":"SCHAUMBURG 2.0 E, IL","Latitude":"42.03028","Longitude":"-88.04400","Snowdepth":"1.000","Units":"in","Rept_Date":"2020-11-24 13"},"coordinates":[3138,2321]},{"type":"Point","properties":{"Station_ID":"IFSM5","Station_Nam":"INTERNATIONAL FALLS SNOW","Latitude":"48.57780","Longitude":"-93.39640","Snowdepth":"1.000","Units":"in","Rept_Date":"2020-11-24 18"},"coordinates":[1311,7506]},{"type":"Point","properties":{"Station_ID":"IDNI3","Station_Nam":"INDIANA DUNES NATL LAKE SHORE","Latitude":"41.63330","Longitude":"-87.08330","Snowdepth":"1.000","Units":"in","Rept_Date":"2020-11-24 14"},"coordinates":[3466,2007]},{"type":"Point","properties":{"Station_ID":"IA-ST-3","Station_Nam":"PARK VIEW 0.2 WSW, IA","Latitude":"41.68855","Longitude":"-90.54380","Snowdepth":"1.000","Units":"in","Rept_Date":"2020-11-24 13"},"coordinates":[2285,2051]},{"type":"Point","properties":{"Station_ID":"IA-JH-14","Station_Nam":"SWISHER 0.4 NNE, IA","Latitude":"41.84830","Longitude":"-91.69210","Snowdepth":"1.000","Units":"in","Rept_Date":"2020-11-24 14"},"coordinates":[1893,2177]},{"type":"Point","properties":{"Station_ID":"IA-DV-1","Station_Nam":"BLOOMFIELD 9.4 NNE, IA","Latitude":"40.87464","Longitude":"-92.35238","Snowdepth":"1.000","Units":"in","Rept_Date":"2020-11-24 13"},"coordinates":[1668,1406]},{"type":"Point","properties":{"Station_ID":"IA-BH-7","Station_Nam":"CEDAR FALLS 1.4 SSE, IA","Latitude":"42.50186","Longitude":"-92.44180","Snowdepth":"1.000","Units":"in","Rept_Date":"2020-11-24 13"},"coordinates":[1637,2695]},{"type":"Point","properties":{"Station_ID":"IA-BH-6","Station_Nam":"WATERLOO 1.9 SSE, IA","Latitude":"42.46500","Longitude":"-92.34100","Snowdepth":"1.000","Units":"in","Rept_Date":"2020-11-24 13"},"coordinates":[1671,2666]},{"type":"Point","properties":{"Station_ID":"IA-AL-3","Station_Nam":"MONONA 9.8 N, IA","Latitude":"43.18992","Longitude":"-91.35361","Snowdepth":"1.000","Units":"in","Rept_Date":"2020-11-24 13"},"coordinates":[2008,3240]},{"type":"Point","properties":{"Station_ID":"HURW3","Station_Nam":"HURLEY","Latitude":"46.46250","Longitude":"-90.19550","Snowdepth":"1.000","Units":"in","Rept_Date":"2020-11-24 14"},"coordinates":[2404,5831]},{"type":"Point","properties":{"Station_ID":"HUBN3","Station_Nam":"HUBBARD BROOK","Latitude":"43.93330","Longitude":"-71.71670","Snowdepth":"1.000","Units":"in","Rept_Date":"2020-11-25 05"},"coordinates":[8710,3828]},{"type":"Point","properties":{"Station_ID":"GRWI4","Station_Nam":"GARWIN,IA","Latitude":"42.10000","Longitude":"-92.66670","Snowdepth":"1.000","Units":"in","Rept_Date":"2020-11-24 12"},"coordinates":[1560,2377]},{"type":"Point","properties":{"Station_ID":"GLEI2","Station_Nam":"GLEN ELLYN 4S","Latitude":"41.82670","Longitude":"-88.05810","Snowdepth":"1.000","Units":"in","Rept_Date":"2020-11-24 13"},"coordinates":[3133,2160]},{"type":"Point","properties":{"Station_ID":"GEOI2","Station_Nam":"GENOA,IL","Latitude":"42.08000","Longitude":"-88.70750","Snowdepth":"1.000","Units":"in","Rept_Date":"2020-11-24 13"},"coordinates":[2911,2361]},{"type":"Point","properties":{"Station_ID":"EVRW3","Station_Nam":"EAGLE RIVER-4 E","Latitude":"45.91890","Longitude":"-89.15280","Snowdepth":"1.000","Units":"in","Rept_Date":"2020-11-24 13"},"coordinates":[2759,5400]},{"type":"Point","properties":{"Station_ID":"ERVI2","Station_Nam":"EARLVILLE","Latitude":"41.55140","Longitude":"-88.91470","Snowdepth":"1.000","Units":"in","Rept_Date":"2020-11-24 12"},"coordinates":[2841,1942]},{"type":"Point","properties":{"Station_ID":"EMBM5","Station_Nam":"EMBARASS,MN","Latitude":"47.65810","Longitude":"-92.19580","Snowdepth":"1.000","Units":"in","Rept_Date":"2020-11-24 12"},"coordinates":[1721,6777]},{"type":"Point","properties":{"Station_ID":"ELYM5","Station_Nam":"ELY","Latitude":"47.90560","Longitude":"-91.82830","Snowdepth":"1.000","Units":"in","Rept_Date":"2020-11-24 14"},"coordinates":[1846,6973]},{"type":"Point","properties":{"Station_ID":"ELMI4","Station_Nam":"ELMA IOWA","Latitude":"43.24190","Longitude":"-92.44330","Snowdepth":"1.000","Units":"in","Rept_Date":"2020-11-24 13"},"coordinates":[1636,3281]},{"type":"Point","properties":{"Station_ID":"DXNI2","Station_Nam":"DIXON,IL","Latitude":"41.83330","Longitude":"-89.51670","Snowdepth":"1.000","Units":"in","Rept_Date":"2020-11-24 14"},"coordinates":[2635,2166]},{"type":"Point","properties":{"Station_ID":"DGVW3","Station_Nam":"DODGEVILLE","Latitude":"42.96670","Longitude":"-90.11670","Snowdepth":"1.000","Units":"in","Rept_Date":"2020-11-24 13"},"coordinates":[2430,3063]},{"type":"Point","properties":{"Station_ID":"DARW3","Station_Nam":"DARLINGTON","Latitude":"42.67780","Longitude":"-90.11860","Snowdepth":"1.000","Units":"in","Rept_Date":"2020-11-24 15"},"coordinates":[2430,2834]},{"type":"Point","properties":{"Station_ID":"CRYI2","Station_Nam":"CRYSTAL LAKE","Latitude":"42.26220","Longitude":"-88.46390","Snowdepth":"1.000","Units":"in","Rept_Date":"2020-11-24 13"},"coordinates":[2995,2505]},{"type":"Point","properties":{"Station_ID":"COUW3","Station_Nam":"COUDERAY,WI","Latitude":"45.86670","Longitude":"-91.45000","Snowdepth":"1.000","Units":"in","Rept_Date":"2020-11-24 22"},"coordinates":[1975,5359]},{"type":"Point","properties":{"Station_ID":"CNRM1","Station_Nam":"CONNOR TWP","Latitude":"46.95830","Longitude":"-68.03330","Snowdepth":"1.000","Units":"in","Rept_Date":"2020-11-24 12"},"coordinates":[9967,6223]},{"type":"Point","properties":{"Station_ID":"CMKW3","Station_Nam":"CLAM LAKE 4W","Latitude":"46.16940","Longitude":"-90.98080","Snowdepth":"1.000","Units":"in","Rept_Date":"2020-11-24 13"},"coordinates":[2136,5599]},{"type":"Point","properties":{"Station_ID":"CLIW3","Station_Nam":"CLINTON,WI","Latitude":"42.60000","Longitude":"-88.88330","Snowdepth":"1.000","Units":"in","Rept_Date":"2020-11-24 14"},"coordinates":[2851,2773]},{"type":"Point","properties":{"Station_ID":"CLDM5","Station_Nam":"CALEDONIA","Latitude":"43.63090","Longitude":"-91.50270","Snowdepth":"1.000","Units":"in","Rept_Date":"2020-11-24 13"},"coordinates":[1957,3589]},{"type":"Point","properties":{"Station_ID":"CIYI4","Station_Nam":"CHARLES CITY","Latitude":"43.06040","Longitude":"-92.67160","Snowdepth":"1.000","Units":"in","Rept_Date":"2020-11-24 13"},"coordinates":[1559,3137]},{"type":"Point","properties":{"Station_ID":"CHMW3","Station_Nam":"MADISON,WI","Latitude":"43.06030","Longitude":"-89.47810","Snowdepth":"1.000","Units":"in","Rept_Date":"2020-11-24 13"},"coordinates":[2648,3137]},{"type":"Point","properties":{"Station_ID":"CCTI4","Station_Nam":"CENTRAL CITY","Latitude":"42.21480","Longitude":"-91.52230","Snowdepth":"1.000","Units":"in","Rept_Date":"2020-11-24 14"},"coordinates":[1951,2468]},{"type":"Point","properties":{"Station_ID":"CASI4","Station_Nam":"CASCADE","Latitude":"42.29880","Longitude":"-90.99840","Snowdepth":"1.000","Units":"in","Rept_Date":"2020-11-24 13"},"coordinates":[2130,2534]},{"type":"Point","properties":{"Station_ID":"CAN-QC-59","Station_Nam":"NOTRE-DAME-DES-BOIS 0.2 SW, CAN","Latitude":"45.39408","Longitude":"-71.07568","Snowdepth":"1.000","Units":"in","Rept_Date":"2020-11-24 14"},"coordinates":[8929,4985]},{"type":"Point","properties":{"Station_ID":"CAN-ON-42","Station_Nam":"VANKLEEK HILL 3.4 S, CA","Latitude":"45.48987","Longitude":"-74.64570","Snowdepth":"1.000","Units":"in","Rept_Date":"2020-11-24 12"},"coordinates":[7710,5061]},{"type":"Point","properties":{"Station_ID":"BROW3","Station_Nam":"BRODHEAD,WI","Latitude":"42.61720","Longitude":"-89.38970","Snowdepth":"1.000","Units":"in","Rept_Date":"2020-11-24 13"},"coordinates":[2679,2786]},{"type":"Point","properties":{"Station_ID":"BKBW2","Station_Nam":"DAVIS.","Latitude":"39.09830","Longitude":"-79.43190","Snowdepth":"1.000","Units":"in","Rept_Date":"2020-11-24 12"},"coordinates":[6077,0]},{"type":"Point","properties":{"Station_ID":"BDMW3","Station_Nam":"BEAVER DAM 1 N","Latitude":"43.46860","Longitude":"-88.83970","Snowdepth":"1.000","Units":"in","Rept_Date":"2020-11-24 18"},"coordinates":[2866,3460]},{"type":"Point","properties":{"Station_ID":"BARI2","Station_Nam":"CRABTREE NATURE CENTER","Latitude":"42.11530","Longitude":"-88.16390","Snowdepth":"1.000","Units":"in","Rept_Date":"2020-11-24 14"},"coordinates":[3097,2389]},{"type":"Point","properties":{"Station_ID":"BABW3","Station_Nam":"BARABOO WWTP","Latitude":"43.48330","Longitude":"-89.63330","Snowdepth":"1.000","Units":"in","Rept_Date":"2020-11-24 13"},"coordinates":[2595,3472]},{"type":"Point","properties":{"Station_ID":"ARBW3","Station_Nam":"SOUTH SIDE-ARBORETUM UNIV WI","Latitude":"43.04110","Longitude":"-89.42860","Snowdepth":"1.000","Units":"in","Rept_Date":"2020-11-24 14"},"coordinates":[2665,3122]},{"type":"Point","properties":{"Station_ID":"APXM4","Station_Nam":"GAYLORD 9SSW","Latitude":"44.90720","Longitude":"-84.71880","Snowdepth":"1.000","Units":"in","Rept_Date":"2020-11-25 00"},"coordinates":[4273,4599]},{"type":"Point","properties":{"Station_ID":"APN","Station_Nam":"PHELPS COLLINS FIELD","Latitude":"45.07810","Longitude":"-83.56030","Snowdepth":"1.000","Units":"in","Rept_Date":"2020-11-25 00"},"coordinates":[4668,4735]},{"type":"Point","properties":{"Station_ID":"AMBI2","Station_Nam":"AMBOY,IL","Latitude":"41.72720","Longitude":"-89.33940","Snowdepth":"1.000","Units":"in","Rept_Date":"2020-11-24 14"},"coordinates":[2696,2082]},{"type":"Point","properties":{"Station_ID":"ALXI4","Station_Nam":"WATERLOO SNOW","Latitude":"42.53130","Longitude":"-92.37550","Snowdepth":"1.000","Units":"in","Rept_Date":"2020-11-24 18"},"coordinates":[1660,2718]},{"type":"Point","properties":{"Station_ID":"ALTM5","Station_Nam":"ALTURA 5W","Latitude":"44.06330","Longitude":"-92.03970","Snowdepth":"1.000","Units":"in","Rept_Date":"2020-11-24 13"},"coordinates":[1774,3931]},{"type":"Point","properties":{"Station_ID":"ALPM4","Station_Nam":"SNOW PAID OBSERVER FOR KAPN","Latitude":"45.03110","Longitude":"-83.55970","Snowdepth":"1.000","Units":"in","Rept_Date":"2020-11-25 00"},"coordinates":[4668,4697]},{"type":"Point","properties":{"Station_ID":"ALO","Station_Nam":"WATERLOO MUNICIPAL AIRPORT","Latitude":"42.55690","Longitude":"-92.40000","Snowdepth":"1.000","Units":"in","Rept_Date":"2020-11-24 12"},"coordinates":[1651,2738]},{"type":"Point","properties":{"Station_ID":"AFTW3","Station_Nam":"ROCK RIVER","Latitude":"42.61670","Longitude":"-89.06670","Snowdepth":"1.000","Units":"in","Rept_Date":"2020-11-24 13"},"coordinates":[2789,2786]}]}},"arcs":[],"transform":{"scale":[0.002930253025302531,0.0012629862986298628],"translate":[-97.2386,39.0983]}}