{"type":"Topology","objects":{"snowdepth_geo":{"type":"GeometryCollection","name":"snowdepth","crs":{"type":"name","properties":{"name":"urn:ogc:def:crs:OGC:1.3:CRS84"}},"geometries":[{"type":"Point","properties":{"Station_ID":"PRKM4","Station_Nam":"MUNISING EAST","Latitude":"46.42580","Longitude":"-86.62000","Snowdepth":"76.500","Units":"in","Rept_Date":"2020-11-22 21"},"coordinates":[3644,5001]},{"type":"Point","properties":{"Station_ID":"TRIQ6","Station_Nam":"TRIO LAKE","Latitude":"49.22880","Longitude":"-87.22920","Snowdepth":"9.170","Units":"in","Rept_Date":"2020-11-23 02"},"coordinates":[3435,7644]},{"type":"Point","properties":{"Station_ID":"AUDQ6","Station_Nam":"AUDEN","Latitude":"48.52600","Longitude":"-82.57570","Snowdepth":"7.480","Units":"in","Rept_Date":"2020-11-23 02"},"coordinates":[5033,6981]},{"type":"Point","properties":{"Station_ID":"DVLQ6","Station_Nam":"DEVIOUS LAKE","Latitude":"49.19890","Longitude":"-87.76440","Snowdepth":"6.300","Units":"in","Rept_Date":"2020-11-23 02"},"coordinates":[3252,7616]},{"type":"Point","properties":{"Station_ID":"KABQ6","Station_Nam":"CAB LAKE","Latitude":"49.59950","Longitude":"-89.17990","Snowdepth":"5.080","Units":"in","Rept_Date":"2020-11-23 02"},"coordinates":[2766,7993]},{"type":"Point","properties":{"Station_ID":"PTLQ6","Station_Nam":"PORTAGE LAKE","Latitude":"49.06950","Longitude":"-86.65940","Snowdepth":"3.900","Units":"in","Rept_Date":"2020-11-23 02"},"coordinates":[3631,7494]},{"type":"Point","properties":{"Station_ID":"OGIQ6","Station_Nam":"OGOKI CAMP","Latitude":"50.76680","Longitude":"-87.85820","Snowdepth":"3.860","Units":"in","Rept_Date":"2020-11-23 02"},"coordinates":[3219,9094]},{"type":"Point","properties":{"Station_ID":"MN-CN-36","Station_Nam":"CLOQUET 3.4 ENE, MN","Latitude":"46.74146","Longitude":"-92.42698","Snowdepth":"3.500","Units":"in","Rept_Date":"2020-11-22 13"},"coordinates":[1651,5299]},{"type":"Point","properties":{"Station_ID":"CAN-ON-672","Station_Nam":"WHEATLEY 7.1 NNW, CAN","Latitude":"42.15600","Longitude":"-82.48147","Snowdepth":"3.100","Units":"in","Rept_Date":"2020-11-22 12"},"coordinates":[5065,976]},{"type":"Point","properties":{"Station_ID":"WRSM5","Station_Nam":"WRENSHALL","Latitude":"46.61550","Longitude":"-92.38380","Snowdepth":"3.000","Units":"in","Rept_Date":"2020-11-22 14"},"coordinates":[1666,5180]},{"type":"Point","properties":{"Station_ID":"WLFM5","Station_Nam":"WOLF RIDGE ENVIRON LEARNING CENTER","Latitude":"47.38240","Longitude":"-91.19730","Snowdepth":"3.000","Units":"in","Rept_Date":"2020-11-22 13"},"coordinates":[2073,5903]},{"type":"Point","properties":{"Station_ID":"MWN","Station_Nam":"MOUNT WASHINGTON","Latitude":"44.26670","Longitude":"-71.30000","Snowdepth":"3.000","Units":"in","Rept_Date":"2020-11-22 12"},"coordinates":[8903,2966]},{"type":"Point","properties":{"Station_ID":"MN-SL-175","Station_Nam":"DULUTH 4.6 NE, MN","Latitude":"46.83860","Longitude":"-92.05140","Snowdepth":"3.000","Units":"in","Rept_Date":"2020-11-22 14"},"coordinates":[1780,5391]},{"type":"Point","properties":{"Station_ID":"MN-SL-105","Station_Nam":"DULUTH 11.8 NNE, MN","Latitude":"46.94680","Longitude":"-92.03925","Snowdepth":"3.000","Units":"in","Rept_Date":"2020-11-22 14"},"coordinates":[1784,5493]},{"type":"Point","properties":{"Station_ID":"MMNV1","Station_Nam":"MT. MANSFIELD","Latitude":"44.52480","Longitude":"-72.81540","Snowdepth":"3.000","Units":"in","Rept_Date":"2020-11-22 21"},"coordinates":[8382,3209]},{"type":"Point","properties":{"Station_ID":"MLCM5","Station_Nam":"MILACA","Latitude":"45.75320","Longitude":"-93.66170","Snowdepth":"3.000","Units":"in","Rept_Date":"2020-11-22 13"},"coordinates":[1228,4367]},{"type":"Point","properties":{"Station_ID":"KMWN","Station_Nam":"MOUNT WASHINGTON","Latitude":"44.26666","Longitude":"-71.30000","Snowdepth":"3.000","Units":"in","Rept_Date":"2020-11-23 00"},"coordinates":[8903,2966]},{"type":"Point","properties":{"Station_ID":"HUDI3","Station_Nam":"HUDSON 3SW","Latitude":"41.51150","Longitude":"-85.13190","Snowdepth":"3.000","Units":"in","Rept_Date":"2020-11-22 15"},"coordinates":[4155,368]},{"type":"Point","properties":{"Station_ID":"DLHM5","Station_Nam":"DULUTH NWS","Latitude":"46.83680","Longitude":"-92.21080","Snowdepth":"3.000","Units":"in","Rept_Date":"2020-11-23 00"},"coordinates":[1726,5389]},{"type":"Point","properties":{"Station_ID":"DLH","Station_Nam":"DULUTH, MN","Latitude":"46.83690","Longitude":"-92.21030","Snowdepth":"3.000","Units":"in","Rept_Date":"2020-11-23 00"},"coordinates":[1726,5389]},{"type":"Point","properties":{"Station_ID":"BRAM5","Station_Nam":"BRAINERD","Latitude":"46.34320","Longitude":"-94.20900","Snowdepth":"3.000","Units":"in","Rept_Date":"2020-11-22 13"},"coordinates":[1040,4924]},{"type":"Point","properties":{"Station_ID":"SOCQ6","Station_Nam":"SOCKET LAKE","Latitude":"50.77870","Longitude":"-91.79300","Snowdepth":"2.950","Units":"in","Rept_Date":"2020-11-23 02"},"coordinates":[1869,9105]},{"type":"Point","properties":{"Station_ID":"CATQ6","Station_Nam":"CAT LAKE","Latitude":"51.72690","Longitude":"-91.82210","Snowdepth":"2.520","Units":"in","Rept_Date":"2020-11-23 02"},"coordinates":[1859,9999]},{"type":"Point","properties":{"Station_ID":"CAN-MB-56","Station_Nam":"WINNIPEG 7.6 ENE, CAN","Latitude":"49.93264","Longitude":"-97.04752","Snowdepth":"2.500","Units":"in","Rept_Date":"2020-11-22 14"},"coordinates":[66,8307]},{"type":"Point","properties":{"Station_ID":"CAN-MB-368","Station_Nam":"WHITESHELL 1.3 NE, CAN","Latitude":"49.74405","Longitude":"-95.19123","Snowdepth":"2.500","Units":"in","Rept_Date":"2020-11-22 14"},"coordinates":[703,8130]},{"type":"Point","properties":{"Station_ID":"CAN-MB-32","Station_Nam":"PINAWA 1.0 SW, CA","Latitude":"50.14747","Longitude":"-95.89020","Snowdepth":"2.500","Units":"in","Rept_Date":"2020-11-22 13"},"coordinates":[463,8510]},{"type":"Point","properties":{"Station_ID":"FTHQ6","Station_Nam":"FORT HOPE","Latitude":"51.55820","Longitude":"-87.90510","Snowdepth":"2.400","Units":"in","Rept_Date":"2020-11-23 02"},"coordinates":[3203,9840]},{"type":"Point","properties":{"Station_ID":"SVBQ6","Station_Nam":"SAVANT BASE","Latitude":"50.28730","Longitude":"-90.65670","Snowdepth":"2.360","Units":"in","Rept_Date":"2020-11-23 02"},"coordinates":[2259,8642]},{"type":"Point","properties":{"Station_ID":"WI-BY-29","Station_Nam":"BAYFIELD 5.1 NNW, WI","Latitude":"46.88063","Longitude":"-90.85854","Snowdepth":"2.000","Units":"in","Rept_Date":"2020-11-22 13"},"coordinates":[2190,5430]},{"type":"Point","properties":{"Station_ID":"WHKM4","Station_Nam":"WHITE LAKE,MI","Latitude":"42.69750","Longitude":"-83.47220","Snowdepth":"2.000","Units":"in","Rept_Date":"2020-11-23 00"},"coordinates":[4725,1487]},{"type":"Point","properties":{"Station_ID":"MRAM5","Station_Nam":"MORA","Latitude":"45.87760","Longitude":"-93.31470","Snowdepth":"2.000","Units":"in","Rept_Date":"2020-11-22 13"},"coordinates":[1347,4485]},{"type":"Point","properties":{"Station_ID":"MN-CW-22","Station_Nam":"FORT RIPLEY 0.8 N, MN","Latitude":"46.18089","Longitude":"-94.36510","Snowdepth":"2.000","Units":"in","Rept_Date":"2020-11-22 13"},"coordinates":[986,4771]},{"type":"Point","properties":{"Station_ID":"MI-WS-41","Station_Nam":"ANN ARBOR 7.1 W, MI","Latitude":"42.26390","Longitude":"-83.86940","Snowdepth":"2.000","Units":"in","Rept_Date":"2020-11-22 13"},"coordinates":[4589,1078]},{"type":"Point","properties":{"Station_ID":"ME-AR-18","Station_Nam":"NEW SWEDEN 4.9 NNW, ME","Latitude":"47.01080","Longitude":"-68.14390","Snowdepth":"2.000","Units":"in","Rept_Date":"2020-11-22 12"},"coordinates":[9986,5553]},{"type":"Point","properties":{"Station_ID":"IN-NB-38","Station_Nam":"KENDALLVILLE 2.2 SW, IN","Latitude":"41.42320","Longitude":"-85.29139","Snowdepth":"2.000","Units":"in","Rept_Date":"2020-11-22 19"},"coordinates":[4100,285]},{"type":"Point","properties":{"Station_ID":"EDNO1","Station_Nam":"EDON 4S","Latitude":"41.49810","Longitude":"-84.77440","Snowdepth":"2.000","Units":"in","Rept_Date":"2020-11-22 21"},"coordinates":[4278,356]},{"type":"Point","properties":{"Station_ID":"COKM5","Station_Nam":"COOK","Latitude":"47.85060","Longitude":"-92.69250","Snowdepth":"2.000","Units":"in","Rept_Date":"2020-11-22 12"},"coordinates":[1560,6345]},{"type":"Point","properties":{"Station_ID":"BNDM5","Station_Nam":"ELY 25E","Latitude":"47.97190","Longitude":"-91.44860","Snowdepth":"2.000","Units":"in","Rept_Date":"2020-11-22 13"},"coordinates":[1987,6459]},{"type":"Point","properties":{"Station_ID":"ARBM4","Station_Nam":"UNIV OF MICH","Latitude":"42.30000","Longitude":"-83.71670","Snowdepth":"2.000","Units":"in","Rept_Date":"2020-11-22 23"},"coordinates":[4641,1112]},{"type":"Point","properties":{"Station_ID":"MI-HL-4","Station_Nam":"JONESVILLE 5.9 ENE, MI","Latitude":"42.01472","Longitude":"-84.56190","Snowdepth":"1.800","Units":"in","Rept_Date":"2020-11-22 14"},"coordinates":[4351,843]},{"type":"Point","properties":{"Station_ID":"IN-AL-86","Station_Nam":"FORT WAYNE 9.0 NNE, IN","Latitude":"41.19179","Longitude":"-85.06564","Snowdepth":"1.800","Units":"in","Rept_Date":"2020-11-22 18"},"coordinates":[4178,67]},{"type":"Point","properties":{"Station_ID":"CAN-ON-771","Station_Nam":"KENORA 8.7 NNE - CANWARN, CAN","Latitude":"49.84171","Longitude":"-94.44386","Snowdepth":"1.800","Units":"in","Rept_Date":"2020-11-22 14"},"coordinates":[959,8222]},{"type":"Point","properties":{"Station_ID":"IN-SN-37","Station_Nam":"ANGOLA 8.8 ESE, IN","Latitude":"41.61638","Longitude":"-84.83442","Snowdepth":"1.700","Units":"in","Rept_Date":"2020-11-22 15"},"coordinates":[4257,467]},{"type":"Point","properties":{"Station_ID":"MN-SL-15","Station_Nam":"CHISHOLM 0.4 WSW, MN","Latitude":"47.48557","Longitude":"-92.88690","Snowdepth":"1.500","Units":"in","Rept_Date":"2020-11-22 13"},"coordinates":[1494,6001]},{"type":"Point","properties":{"Station_ID":"MN-ML-11","Station_Nam":"FORESTON 2.1 NW, MN","Latitude":"45.75208","Longitude":"-93.74299","Snowdepth":"1.500","Units":"in","Rept_Date":"2020-11-22 13"},"coordinates":[1200,4366]},{"type":"Point","properties":{"Station_ID":"MN-CW-54","Station_Nam":"AITKIN 9.6 W, MN","Latitude":"46.53711","Longitude":"-93.90688","Snowdepth":"1.500","Units":"in","Rept_Date":"2020-11-22 14"},"coordinates":[1143,5106]},{"type":"Point","properties":{"Station_ID":"MN-CS-23","Station_Nam":"HACKENSACK 7.1 ENE, MN","Latitude":"46.96166","Longitude":"-94.37513","Snowdepth":"1.500","Units":"in","Rept_Date":"2020-11-22 14"},"coordinates":[983,5507]},{"type":"Point","properties":{"Station_ID":"MN-AT-5","Station_Nam":"TAMARACK 1.4 SW, MN","Latitude":"46.63760","Longitude":"-93.14554","Snowdepth":"1.500","Units":"in","Rept_Date":"2020-11-22 13"},"coordinates":[1405,5201]},{"type":"Point","properties":{"Station_ID":"MI-JC-13","Station_Nam":"HANOVER 3.8 W, MI","Latitude":"42.10700","Longitude":"-84.62600","Snowdepth":"1.500","Units":"in","Rept_Date":"2020-11-22 13"},"coordinates":[4329,930]},{"type":"Point","properties":{"Station_ID":"MI-JC-11","Station_Nam":"JACKSON 3.2 W, MI","Latitude":"42.24061","Longitude":"-84.46690","Snowdepth":"1.500","Units":"in","Rept_Date":"2020-11-22 14"},"coordinates":[4383,1056]},{"type":"Point","properties":{"Station_ID":"MI-HL-9","Station_Nam":"MONTGOMERY 1.9 SSE, MI","Latitude":"41.75167","Longitude":"-84.78952","Snowdepth":"1.500","Units":"in","Rept_Date":"2020-11-22 13"},"coordinates":[4273,595]},{"type":"Point","properties":{"Station_ID":"IN-SN-5","Station_Nam":"HAMILTON 1.7 E, IN","Latitude":"41.53241","Longitude":"-84.88530","Snowdepth":"1.500","Units":"in","Rept_Date":"2020-11-22 12"},"coordinates":[4240,388]},{"type":"Point","properties":{"Station_ID":"IN-SN-3","Station_Nam":"HUDSON 4.6 N, IN","Latitude":"41.59970","Longitude":"-85.08950","Snowdepth":"1.500","Units":"in","Rept_Date":"2020-11-22 12"},"coordinates":[4170,452]},{"type":"Point","properties":{"Station_ID":"MN-WG-16","Station_Nam":"WOODBURY 1.7 N, MN","Latitude":"44.93054","Longitude":"-92.92490","Snowdepth":"1.200","Units":"in","Rept_Date":"2020-11-22 13"},"coordinates":[1481,3592]},{"type":"Point","properties":{"Station_ID":"MN-RM-63","Station_Nam":"NORTH SAINT PAUL 1.0 NW, MN","Latitude":"45.02410","Longitude":"-93.01400","Snowdepth":"1.200","Units":"in","Rept_Date":"2020-11-22 13"},"coordinates":[1450,3680]},{"type":"Point","properties":{"Station_ID":"IN-AL-1","Station_Nam":"FORT WAYNE 4.1 NE, IN","Latitude":"41.12066","Longitude":"-85.08950","Snowdepth":"1.100","Units":"in","Rept_Date":"2020-11-22 12"},"coordinates":[4170,0]},{"type":"Point","properties":{"Station_ID":"WTRW3","Station_Nam":"WINTER","Latitude":"45.79920","Longitude":"-90.99470","Snowdepth":"1.000","Units":"in","Rept_Date":"2020-11-22 15"},"coordinates":[2143,4411]},{"type":"Point","properties":{"Station_ID":"WI-SC-44","Station_Nam":"NEW RICHMOND 4.4 SW, WI","Latitude":"45.08201","Longitude":"-92.60651","Snowdepth":"1.000","Units":"in","Rept_Date":"2020-11-22 14"},"coordinates":[1590,3735]},{"type":"Point","properties":{"Station_ID":"WI-PK-4","Station_Nam":"DRESSER 6.1 ESE, WI","Latitude":"45.32436","Longitude":"-92.52080","Snowdepth":"1.000","Units":"in","Rept_Date":"2020-11-22 14"},"coordinates":[1619,3963]},{"type":"Point","properties":{"Station_ID":"WI-IR-3","Station_Nam":"PENCE 0.1 E, WI","Latitude":"46.41555","Longitude":"-90.27013","Snowdepth":"1.000","Units":"in","Rept_Date":"2020-11-22 13"},"coordinates":[2392,4992]},{"type":"Point","properties":{"Station_ID":"UPSW3","Station_Nam":"UPSON,WI","Latitude":"46.36780","Longitude":"-90.41220","Snowdepth":"1.000","Units":"in","Rept_Date":"2020-11-23 00"},"coordinates":[2343,4947]},{"type":"Point","properties":{"Station_ID":"SLNM4","Station_Nam":"SALINE,MI","Latitude":"42.13330","Longitude":"-83.81670","Snowdepth":"1.000","Units":"in","Rept_Date":"2020-11-22 14"},"coordinates":[4607,955]},{"type":"Point","properties":{"Station_ID":"SEBM5","Station_Nam":"SEBEKA","Latitude":"46.62540","Longitude":"-95.09670","Snowdepth":"1.000","Units":"in","Rept_Date":"2020-11-22 13"},"coordinates":[735,5190]},{"type":"Point","properties":{"Station_ID":"RLWM5","Station_Nam":"CAMP NORRIS DNR","Latitude":"48.61000","Longitude":"-95.18170","Snowdepth":"1.000","Units":"in","Rept_Date":"2020-11-22 13"},"coordinates":[706,7061]},{"type":"Point","properties":{"Station_ID":"PDLM4","Station_Nam":"PAINESDALE","Latitude":"47.04160","Longitude":"-88.67170","Snowdepth":"1.000","Units":"in","Rept_Date":"2020-11-22 13"},"coordinates":[2940,5582]},{"type":"Point","properties":{"Station_ID":"PBAN8","Station_Nam":"SITE 1-3MI.N","Latitude":"48.97420","Longitude":"-97.23860","Snowdepth":"1.000","Units":"in","Rept_Date":"2020-11-22 13"},"coordinates":[0,7404]},{"type":"Point","properties":{"Station_ID":"OTTM5","Station_Nam":"OTTERTAIL,MN","Latitude":"46.41670","Longitude":"-95.56670","Snowdepth":"1.000","Units":"in","Rept_Date":"2020-11-22 14"},"coordinates":[574,4993]},{"type":"Point","properties":{"Station_ID":"NYMM5","Station_Nam":"NEW YORK MILLS","Latitude":"46.50920","Longitude":"-95.37990","Snowdepth":"1.000","Units":"in","Rept_Date":"2020-11-22 13"},"coordinates":[638,5080]},{"type":"Point","properties":{"Station_ID":"MRIM4","Station_Nam":"MORENCI,MI","Latitude":"41.71670","Longitude":"-84.20000","Snowdepth":"1.000","Units":"in","Rept_Date":"2020-11-22 12"},"coordinates":[4475,562]},{"type":"Point","properties":{"Station_ID":"MN-WG-88","Station_Nam":"WOODBURY 0.3 NNW, MN","Latitude":"44.90930","Longitude":"-92.92522","Snowdepth":"1.000","Units":"in","Rept_Date":"2020-11-22 12"},"coordinates":[1480,3572]},{"type":"Point","properties":{"Station_ID":"MN-SL-108","Station_Nam":"IRON JUNCTION 3.4 NNW, MN","Latitude":"47.46150","Longitude":"-92.63130","Snowdepth":"1.000","Units":"in","Rept_Date":"2020-11-22 13"},"coordinates":[1581,5978]},{"type":"Point","properties":{"Station_ID":"MN-SL-103","Station_Nam":"DULUTH 1.2 SW, MN","Latitude":"46.77114","Longitude":"-92.12314","Snowdepth":"1.000","Units":"in","Rept_Date":"2020-11-22 12"},"coordinates":[1756,5327]},{"type":"Point","properties":{"Station_ID":"MN-MR-13","Station_Nam":"LITTLE FALLS 8.0 NE, MN","Latitude":"46.06785","Longitude":"-94.24789","Snowdepth":"1.000","Units":"in","Rept_Date":"2020-11-22 13"},"coordinates":[1026,4664]},{"type":"Point","properties":{"Station_ID":"MN-KB-17","Station_Nam":"MORA 2.5 S, MN","Latitude":"45.84100","Longitude":"-93.29700","Snowdepth":"1.000","Units":"in","Rept_Date":"2020-11-22 13"},"coordinates":[1353,4450]},{"type":"Point","properties":{"Station_ID":"MN-CW-8","Station_Nam":"BRAINERD 11.5 E, MN","Latitude":"46.38556","Longitude":"-93.95720","Snowdepth":"1.000","Units":"in","Rept_Date":"2020-11-22 14"},"coordinates":[1126,4963]},{"type":"Point","properties":{"Station_ID":"MN-CW-44","Station_Nam":"CROSBY 1.1 SW, MN","Latitude":"46.47772","Longitude":"-93.97293","Snowdepth":"1.000","Units":"in","Rept_Date":"2020-11-22 13"},"coordinates":[1121,5050]},{"type":"Point","properties":{"Station_ID":"MI-WS-53","Station_Nam":"CHELSEA 3.7 NNE, MI","Latitude":"42.36360","Longitude":"-83.99330","Snowdepth":"1.000","Units":"in","Rept_Date":"2020-11-22 13"},"coordinates":[4546,1172]},{"type":"Point","properties":{"Station_ID":"MI-WS-11","Station_Nam":"ANN ARBOR 2.1 WNW, MI","Latitude":"42.28323","Longitude":"-83.77150","Snowdepth":"1.000","Units":"in","Rept_Date":"2020-11-22 12"},"coordinates":[4622,1096]},{"type":"Point","properties":{"Station_ID":"MI-MR-16","Station_Nam":"OTTAWA LAKE 1.4 SSW, MI","Latitude":"41.78278","Longitude":"-83.73895","Snowdepth":"1.000","Units":"in","Rept_Date":"2020-11-22 12"},"coordinates":[4633,624]},{"type":"Point","properties":{"Station_ID":"MI-JC-10","Station_Nam":"HANOVER 4.1 E, MI","Latitude":"42.09263","Longitude":"-84.47292","Snowdepth":"1.000","Units":"in","Rept_Date":"2020-11-22 14"},"coordinates":[4381,916]},{"type":"Point","properties":{"Station_ID":"MCHM4","Station_Nam":"MANCHESTER,MI","Latitude":"42.15000","Longitude":"-84.01670","Snowdepth":"1.000","Units":"in","Rept_Date":"2020-11-22 15"},"coordinates":[4538,970]},{"type":"Point","properties":{"Station_ID":"LUCW3","Station_Nam":"LUCK","Latitude":"45.57330","Longitude":"-92.48520","Snowdepth":"1.000","Units":"in","Rept_Date":"2020-11-22 14"},"coordinates":[1631,4198]},{"type":"Point","properties":{"Station_ID":"LNGM5","Station_Nam":"LONG PRAIRIE","Latitude":"45.96460","Longitude":"-94.88920","Snowdepth":"1.000","Units":"in","Rept_Date":"2020-11-22 12"},"coordinates":[806,4567]},{"type":"Point","properties":{"Station_ID":"LILM1","Station_Nam":"LILLE","Latitude":"47.27770","Longitude":"-68.10520","Snowdepth":"1.000","Units":"in","Rept_Date":"2020-11-22 12"},"coordinates":[9999,5805]},{"type":"Point","properties":{"Station_ID":"LBRM5","Station_Nam":"LAKE BRONSON DAM","Latitude":"48.72410","Longitude":"-96.62180","Snowdepth":"1.000","Units":"in","Rept_Date":"2020-11-22 14"},"coordinates":[212,7168]},{"type":"Point","properties":{"Station_ID":"ISEM5","Station_Nam":"ISLE 12N","Latitude":"46.31970","Longitude":"-93.50140","Snowdepth":"1.000","Units":"in","Rept_Date":"2020-11-22 14"},"coordinates":[1283,4901]},{"type":"Point","properties":{"Station_ID":"INL","Station_Nam":"FALLS INTERNATIONAL ARPT","Latitude":"48.56640","Longitude":"-93.40310","Snowdepth":"1.000","Units":"in","Rept_Date":"2020-11-23 00"},"coordinates":[1316,7019]},{"type":"Point","properties":{"Station_ID":"IN-SN-9","Station_Nam":"ANGOLA 4.1 N, IN","Latitude":"41.70100","Longitude":"-84.98670","Snowdepth":"1.000","Units":"in","Rept_Date":"2020-11-22 12"},"coordinates":[4205,547]},{"type":"Point","properties":{"Station_ID":"IN-SN-25","Station_Nam":"ANGOLA 1.2 S, IN","Latitude":"41.62494","Longitude":"-85.00180","Snowdepth":"1.000","Units":"in","Rept_Date":"2020-11-22 12"},"coordinates":[4200,475]},{"type":"Point","properties":{"Station_ID":"IN-NB-11","Station_Nam":"ALBION 3.7 S, IN","Latitude":"41.34161","Longitude":"-85.41560","Snowdepth":"1.000","Units":"in","Rept_Date":"2020-11-22 14"},"coordinates":[4058,208]},{"type":"Point","properties":{"Station_ID":"IN-KS-41","Station_Nam":"NORTH WEBSTER 2.3 N, IN","Latitude":"41.35866","Longitude":"-85.70060","Snowdepth":"1.000","Units":"in","Rept_Date":"2020-11-22 12"},"coordinates":[3960,224]},{"type":"Point","properties":{"Station_ID":"IFSM5","Station_Nam":"INTERNATIONAL FALLS SNOW","Latitude":"48.57780","Longitude":"-93.39640","Snowdepth":"1.000","Units":"in","Rept_Date":"2020-11-22 18"},"coordinates":[1319,7030]},{"type":"Point","properties":{"Station_ID":"HURW3","Station_Nam":"HURLEY","Latitude":"46.46250","Longitude":"-90.19550","Snowdepth":"1.000","Units":"in","Rept_Date":"2020-11-22 14"},"coordinates":[2417,5036]},{"type":"Point","properties":{"Station_ID":"HUBN3","Station_Nam":"HUBBARD BROOK","Latitude":"43.93330","Longitude":"-71.71670","Snowdepth":"1.000","Units":"in","Rept_Date":"2020-11-22 20"},"coordinates":[8759,2652]},{"type":"Point","properties":{"Station_ID":"EMBM5","Station_Nam":"EMBARASS,MN","Latitude":"47.65810","Longitude":"-92.19580","Snowdepth":"1.000","Units":"in","Rept_Date":"2020-11-22 14"},"coordinates":[1731,6163]},{"type":"Point","properties":{"Station_ID":"DTW","Station_Nam":"DETROIT METROPOLITAN","Latitude":"42.21220","Longitude":"-83.35330","Snowdepth":"1.000","Units":"in","Rept_Date":"2020-11-22 18"},"coordinates":[4766,1029]},{"type":"Point","properties":{"Station_ID":"COUW3","Station_Nam":"COUDERAY,WI","Latitude":"45.86670","Longitude":"-91.45000","Snowdepth":"1.000","Units":"in","Rept_Date":"2020-11-22 22"},"coordinates":[1987,4474]},{"type":"Point","properties":{"Station_ID":"CHLM4","Station_Nam":"CHELSEA,MI","Latitude":"42.31670","Longitude":"-84.01670","Snowdepth":"1.000","Units":"in","Rept_Date":"2020-11-22 14"},"coordinates":[4538,1128]},{"type":"Point","properties":{"Station_ID":"CAN-ON-324","Station_Nam":"AMHERSTBURG 4.0 NNE, CAN","Latitude":"42.13151","Longitude":"-83.08810","Snowdepth":"1.000","Units":"in","Rept_Date":"2020-11-22 12"},"coordinates":[4857,953]},{"type":"Point","properties":{"Station_ID":"CAN-ON-192","Station_Nam":"STRATHROY 14.9 SSW, CAN","Latitude":"42.84097","Longitude":"-81.70844","Snowdepth":"1.000","Units":"in","Rept_Date":"2020-11-22 13"},"coordinates":[5330,1622]},{"type":"Point","properties":{"Station_ID":"ANQI3","Station_Nam":"ANGOLA,IN","Latitude":"41.63970","Longitude":"-84.99000","Snowdepth":"1.000","Units":"in","Rept_Date":"2020-11-22 11"},"coordinates":[4204,489]},{"type":"Point","properties":{"Station_ID":"AASM4","Station_Nam":"ANN ARBOR SE","Latitude":"42.24160","Longitude":"-83.69330","Snowdepth":"1.000","Units":"in","Rept_Date":"2020-11-22 12"},"coordinates":[4649,1057]}]}},"arcs":[],"transform":{"scale":[0.0029136313631363143,0.0010607300730073005],"translate":[-97.2386,41.12066]}}