{"type":"Topology","objects":{"snowdepth_geo":{"type":"GeometryCollection","name":"snowdepth","crs":{"type":"name","properties":{"name":"urn:ogc:def:crs:OGC:1.3:CRS84"}},"geometries":[{"type":"Point","properties":{"Station_ID":"PRKM4","Station_Nam":"MUNISING EAST","Latitude":"46.42580","Longitude":"-86.62000","Snowdepth":"76.500","Units":"in","Rept_Date":"2020-04-19 06"},"coordinates":[2058,5385]},{"type":"Point","properties":{"Station_ID":"OGIQ6","Station_Nam":"OGOKI CAMP","Latitude":"50.76680","Longitude":"-87.85820","Snowdepth":"61.100","Units":"in","Rept_Date":"2020-04-19 06"},"coordinates":[1751,9163]},{"type":"Point","properties":{"Station_ID":"AUDQ6","Station_Nam":"AUDEN","Latitude":"48.52600","Longitude":"-82.57570","Snowdepth":"47.640","Units":"in","Rept_Date":"2020-04-19 06"},"coordinates":[3062,7213]},{"type":"Point","properties":{"Station_ID":"PDLM4","Station_Nam":"PAINESDALE","Latitude":"47.04160","Longitude":"-88.67170","Snowdepth":"29.000","Units":"in","Rept_Date":"2020-04-18 12"},"coordinates":[1549,5921]},{"type":"Point","properties":{"Station_ID":"MNSM4","Station_Nam":"MUNISING","Latitude":"46.41210","Longitude":"-86.66250","Snowdepth":"29.000","Units":"in","Rept_Date":"2020-04-18 10"},"coordinates":[2048,5373]},{"type":"Point","properties":{"Station_ID":"CAN-NS-39","Station_Nam":"ST. ANNS 2.8 NW, CA","Latitude":"46.25082","Longitude":"-60.64340","Snowdepth":"26.000","Units":"in","Rept_Date":"2020-04-18 12"},"coordinates":[8507,5232]},{"type":"Point","properties":{"Station_ID":"MI-BG-3","Station_Nam":"L'ANSE 17.8 SE, MI","Latitude":"46.55730","Longitude":"-88.20770","Snowdepth":"23.000","Units":"in","Rept_Date":"2020-04-18 12"},"coordinates":[1664,5499]},{"type":"Point","properties":{"Station_ID":"HERM4","Station_Nam":"HERMAN,MI","Latitude":"46.65000","Longitude":"-88.33330","Snowdepth":"20.000","Units":"in","Rept_Date":"2020-04-18 12"},"coordinates":[1633,5580]},{"type":"Point","properties":{"Station_ID":"MQT","Station_Nam":"MARQUETTE, MI","Latitude":"46.53140","Longitude":"-87.54920","Snowdepth":"18.000","Units":"in","Rept_Date":"2020-04-19 06"},"coordinates":[1827,5477]},{"type":"Point","properties":{"Station_ID":"KSGM4","Station_Nam":"KEARSARGE","Latitude":"47.27520","Longitude":"-88.41700","Snowdepth":"18.000","Units":"in","Rept_Date":"2020-04-18 12"},"coordinates":[1612,6124]},{"type":"Point","properties":{"Station_ID":"DVLQ6","Station_Nam":"DEVIOUS LAKE","Latitude":"49.19890","Longitude":"-87.76440","Snowdepth":"15.280","Units":"in","Rept_Date":"2020-04-19 06"},"coordinates":[1774,7799]},{"type":"Point","properties":{"Station_ID":"PTLQ6","Station_Nam":"PORTAGE LAKE","Latitude":"49.06950","Longitude":"-86.65940","Snowdepth":"14.610","Units":"in","Rept_Date":"2020-04-19 06"},"coordinates":[2048,7686]},{"type":"Point","properties":{"Station_ID":"TRIQ6","Station_Nam":"TRIO LAKE","Latitude":"49.22880","Longitude":"-87.22920","Snowdepth":"14.490","Units":"in","Rept_Date":"2020-04-19 06"},"coordinates":[1907,7825]},{"type":"Point","properties":{"Station_ID":"NH-CS-10","Station_Nam":"RANDOLPH 1.4 NE, NH","Latitude":"44.38824","Longitude":"-71.26950","Snowdepth":"13.000","Units":"in","Rept_Date":"2020-04-18 11"},"coordinates":[5869,3611]},{"type":"Point","properties":{"Station_ID":"CAN-NB-13","Station_Nam":"BATHURST 3.8 NW, CAN","Latitude":"47.64212","Longitude":"-65.68756","Snowdepth":"13.000","Units":"in","Rept_Date":"2020-04-18 10"},"coordinates":[7255,6444]},{"type":"Point","properties":{"Station_ID":"SVBQ6","Station_Nam":"SAVANT BASE","Latitude":"50.28730","Longitude":"-90.65670","Snowdepth":"12.870","Units":"in","Rept_Date":"2020-04-19 06"},"coordinates":[1056,8746]},{"type":"Point","properties":{"Station_ID":"EFRM3","Station_Nam":"ROCHESTER","Latitude":"41.78490","Longitude":"-70.91760","Snowdepth":"12.000","Units":"in","Rept_Date":"2020-04-18 11"},"coordinates":[5956,1345]},{"type":"Point","properties":{"Station_ID":"CAN-NL-82","Station_Nam":"GANDER 2.7 NW, CAN","Latitude":"48.97737","Longitude":"-54.63396","Snowdepth":"11.400","Units":"in","Rept_Date":"2020-04-18 09"},"coordinates":[9999,7606]},{"type":"Point","properties":{"Station_ID":"STEM4","Station_Nam":"STEUBEN","Latitude":"46.18530","Longitude":"-86.46410","Snowdepth":"11.000","Units":"in","Rept_Date":"2020-04-18 13"},"coordinates":[2097,5175]},{"type":"Point","properties":{"Station_ID":"ME-AR-18","Station_Nam":"NEW SWEDEN 4.9 NNW, ME","Latitude":"47.01080","Longitude":"-68.14390","Snowdepth":"10.500","Units":"in","Rept_Date":"2020-04-18 11"},"coordinates":[6645,5894]},{"type":"Point","properties":{"Station_ID":"WLFM5","Station_Nam":"WOLF RIDGE ENVIRON LEARNING CENTER","Latitude":"47.38240","Longitude":"-91.19730","Snowdepth":"10.000","Units":"in","Rept_Date":"2020-04-18 12"},"coordinates":[922,6217]},{"type":"Point","properties":{"Station_ID":"PA-CR-1","Station_Nam":"EMPORIUM 2.6 S, PA","Latitude":"41.47342","Longitude":"-78.24330","Snowdepth":"10.000","Units":"in","Rept_Date":"2020-04-18 12"},"coordinates":[4138,1074]},{"type":"Point","properties":{"Station_ID":"CAN-NB-11","Station_Nam":"MIRAMICHI 3.3 S, CAN","Latitude":"46.99343","Longitude":"-65.50690","Snowdepth":"9.500","Units":"in","Rept_Date":"2020-04-18 11"},"coordinates":[7300,5879]},{"type":"Point","properties":{"Station_ID":"CJRP1","Station_Nam":"COUDERSPORT 7SE","Latitude":"41.73920","Longitude":"-77.97110","Snowdepth":"9.000","Units":"in","Rept_Date":"2020-04-18 11"},"coordinates":[4205,1305]},{"type":"Point","properties":{"Station_ID":"BBEM4","Station_Nam":"BIG BAY 9SW","Latitude":"46.74620","Longitude":"-87.88160","Snowdepth":"9.000","Units":"in","Rept_Date":"2020-04-18 12"},"coordinates":[1745,5664]},{"type":"Point","properties":{"Station_ID":"GGRM4","Station_Nam":"GREEN GARDEN NO.2","Latitude":"46.45330","Longitude":"-87.30380","Snowdepth":"8.000","Units":"in","Rept_Date":"2020-04-18 12"},"coordinates":[1888,5409]},{"type":"Point","properties":{"Station_ID":"FISM1","Station_Nam":"FORT KENT COOP","Latitude":"47.23850","Longitude":"-68.61240","Snowdepth":"8.000","Units":"in","Rept_Date":"2020-04-18 11"},"coordinates":[6529,6092]},{"type":"Point","properties":{"Station_ID":"CAN-NL-65","Station_Nam":"KIPPENS 0.7 NE, CA","Latitude":"48.55436","Longitude":"-58.61850","Snowdepth":"8.000","Units":"in","Rept_Date":"2020-04-18 11"},"coordinates":[9010,7238]},{"type":"Point","properties":{"Station_ID":"WLLP1","Station_Nam":"WELLSBORO 4 SW","Latitude":"41.70030","Longitude":"-77.38940","Snowdepth":"7.000","Units":"in","Rept_Date":"2020-04-18 11"},"coordinates":[4350,1272]},{"type":"Point","properties":{"Station_ID":"MWN","Station_Nam":"MOUNT WASHINGTON","Latitude":"44.26670","Longitude":"-71.30000","Snowdepth":"7.000","Units":"in","Rept_Date":"2020-04-18 12"},"coordinates":[5861,3505]},{"type":"Point","properties":{"Station_ID":"KMWN","Station_Nam":"MOUNT WASHINGTON","Latitude":"44.26666","Longitude":"-71.30000","Snowdepth":"7.000","Units":"in","Rept_Date":"2020-04-19 06"},"coordinates":[5861,3505]},{"type":"Point","properties":{"Station_ID":"KISM4","Station_Nam":"K.I. SAWYER WWTP","Latitude":"46.33410","Longitude":"-87.37790","Snowdepth":"7.000","Units":"in","Rept_Date":"2020-04-18 12"},"coordinates":[1870,5305]},{"type":"Point","properties":{"Station_ID":"IBLM5","Station_Nam":"ISABELLA 14W","Latitude":"47.59360","Longitude":"-91.65140","Snowdepth":"7.000","Units":"in","Rept_Date":"2020-04-18 14"},"coordinates":[809,6401]},{"type":"Point","properties":{"Station_ID":"GLTP1","Station_Nam":"GALETON,PA","Latitude":"41.73330","Longitude":"-77.63330","Snowdepth":"7.000","Units":"in","Rept_Date":"2020-04-18 12"},"coordinates":[4289,1300]},{"type":"Point","properties":{"Station_ID":"CQDP1","Station_Nam":"COWANESQUE DAM","Latitude":"41.99670","Longitude":"-77.15170","Snowdepth":"7.000","Units":"in","Rept_Date":"2020-04-18 11"},"coordinates":[4409,1530]},{"type":"Point","properties":{"Station_ID":"WALN6","Station_Nam":"WALTON 2","Latitude":"42.18470","Longitude":"-75.14550","Snowdepth":"6.000","Units":"in","Rept_Date":"2020-04-18 09"},"coordinates":[4907,1693]},{"type":"Point","properties":{"Station_ID":"UNVM7","Station_Nam":"UNIONVILLE","Latitude":"40.47500","Longitude":"-93.00310","Snowdepth":"6.000","Units":"in","Rept_Date":"2020-04-18 12"},"coordinates":[473,205]},{"type":"Point","properties":{"Station_ID":"PALP1","Station_Nam":"PORT ALLEGANY,PA","Latitude":"41.81670","Longitude":"-78.28330","Snowdepth":"6.000","Units":"in","Rept_Date":"2020-04-18 11"},"coordinates":[4128,1373]},{"type":"Point","properties":{"Station_ID":"PA-PT-2","Station_Nam":"ROULETTE 1.8 NNE, PA","Latitude":"41.80759","Longitude":"-78.14140","Snowdepth":"6.000","Units":"in","Rept_Date":"2020-04-18 11"},"coordinates":[4163,1365]},{"type":"Point","properties":{"Station_ID":"NY-BM-34","Station_Nam":"VESTAL 3.2 E, NY","Latitude":"42.08258","Longitude":"-75.99120","Snowdepth":"6.000","Units":"in","Rept_Date":"2020-04-18 11"},"coordinates":[4697,1604]},{"type":"Point","properties":{"Station_ID":"MI-HG-1","Station_Nam":"HOUGHTON 1.6 ESE, MI","Latitude":"47.10774","Longitude":"-88.52940","Snowdepth":"6.000","Units":"in","Rept_Date":"2020-04-18 12"},"coordinates":[1584,5978]},{"type":"Point","properties":{"Station_ID":"MI-GG-4","Station_Nam":"WATERSMEET 5.0 SE, MI","Latitude":"46.20333","Longitude":"-89.13170","Snowdepth":"6.000","Units":"in","Rept_Date":"2020-04-18 13"},"coordinates":[1435,5191]},{"type":"Point","properties":{"Station_ID":"NY-OT-11","Station_Nam":"HARTWICK, NY","Latitude":"42.65990","Longitude":"-75.05000","Snowdepth":"5.500","Units":"in","Rept_Date":"2020-04-18 12"},"coordinates":[4931,2107]},{"type":"Point","properties":{"Station_ID":"NY-BM-21","Station_Nam":"WINDSOR 8.0 SE, NY","Latitude":"42.00992","Longitude":"-75.51420","Snowdepth":"5.300","Units":"in","Rept_Date":"2020-04-18 11"},"coordinates":[4815,1541]},{"type":"Point","properties":{"Station_ID":"WLXP1","Station_Nam":"GLEN HAZEL,PA","Latitude":"41.56670","Longitude":"-78.60000","Snowdepth":"5.000","Units":"in","Rept_Date":"2020-04-18 11"},"coordinates":[4049,1155]},{"type":"Point","properties":{"Station_ID":"WI-VL-9","Station_Nam":"LAND O' LAKES 11.7 W, WI","Latitude":"46.19023","Longitude":"-89.45790","Snowdepth":"5.000","Units":"in","Rept_Date":"2020-04-18 12"},"coordinates":[1354,5180]},{"type":"Point","properties":{"Station_ID":"WI-VL-10","Station_Nam":"LAND O LAKES 4.3 WNW, WI","Latitude":"46.17440","Longitude":"-89.30380","Snowdepth":"5.000","Units":"in","Rept_Date":"2020-04-18 12"},"coordinates":[1392,5166]},{"type":"Point","properties":{"Station_ID":"WI-IR-3","Station_Nam":"PENCE 0.1 E, WI","Latitude":"46.41555","Longitude":"-90.27013","Snowdepth":"5.000","Units":"in","Rept_Date":"2020-04-18 12"},"coordinates":[1152,5376]},{"type":"Point","properties":{"Station_ID":"TGRP1","Station_Nam":"TIOGA RIVER AT TIOGA","Latitude":"41.90830","Longitude":"-77.12920","Snowdepth":"5.000","Units":"in","Rept_Date":"2020-04-18 11"},"coordinates":[4414,1453]},{"type":"Point","properties":{"Station_ID":"TAKW3","Station_Nam":"RICE RESERVOIR NO. 2","Latitude":"45.53770","Longitude":"-89.73220","Snowdepth":"5.000","Units":"in","Rept_Date":"2020-04-18 12"},"coordinates":[1285,4612]},{"type":"Point","properties":{"Station_ID":"RUHN6","Station_Nam":"RUSHFORD","Latitude":"42.42610","Longitude":"-78.19220","Snowdepth":"5.000","Units":"in","Rept_Date":"2020-04-18 12"},"coordinates":[4150,1903]},{"type":"Point","properties":{"Station_ID":"PRDM4","Station_Nam":"PARADISE","Latitude":"46.60380","Longitude":"-85.03960","Snowdepth":"5.000","Units":"in","Rept_Date":"2020-04-18 11"},"coordinates":[2450,5540]},{"type":"Point","properties":{"Station_ID":"PA-EL-1","Station_Nam":"ST. MARYS 1.7 SE, PA","Latitude":"41.41069","Longitude":"-78.53480","Snowdepth":"5.000","Units":"in","Rept_Date":"2020-04-18 10"},"coordinates":[4065,1020]},{"type":"Point","properties":{"Station_ID":"NY-CN-2","Station_Nam":"NORWICH 5.7 NE, NY","Latitude":"42.58333","Longitude":"-75.43330","Snowdepth":"5.000","Units":"in","Rept_Date":"2020-04-18 12"},"coordinates":[4835,2040]},{"type":"Point","properties":{"Station_ID":"NY-BM-51","Station_Nam":"ENDICOTT 2.8 NNE, NY","Latitude":"42.13560","Longitude":"-76.04380","Snowdepth":"5.000","Units":"in","Rept_Date":"2020-04-18 11"},"coordinates":[4684,1651]},{"type":"Point","properties":{"Station_ID":"MI-MQ-19","Station_Nam":"ISHPEMING 7.2 SW, MI","Latitude":"46.40550","Longitude":"-87.75670","Snowdepth":"5.000","Units":"in","Rept_Date":"2020-04-18 10"},"coordinates":[1776,5367]},{"type":"Point","properties":{"Station_ID":"LNOW3","Station_Nam":"LAND O LAKES","Latitude":"46.19000","Longitude":"-89.45700","Snowdepth":"5.000","Units":"in","Rept_Date":"2020-04-18 12"},"coordinates":[1354,5180]},{"type":"Point","properties":{"Station_ID":"CVWP1","Station_Nam":"CHANDLER VALLEY 1SE","Latitude":"41.93010","Longitude":"-79.29700","Snowdepth":"5.000","Units":"in","Rept_Date":"2020-04-18 11"},"coordinates":[3876,1472]},{"type":"Point","properties":{"Station_ID":"CRVW3","Station_Nam":"CRIVITZ HIGH FALLS","Latitude":"45.35750","Longitude":"-88.19190","Snowdepth":"5.000","Units":"in","Rept_Date":"2020-04-18 12"},"coordinates":[1668,4455]},{"type":"Point","properties":{"Station_ID":"COVP1","Station_Nam":"COVINGTON 2WSW","Latitude":"41.73330","Longitude":"-77.11670","Snowdepth":"5.000","Units":"in","Rept_Date":"2020-04-18 11"},"coordinates":[4417,1300]},{"type":"Point","properties":{"Station_ID":"BGMN6","Station_Nam":"BINGHAMTON WFO","Latitude":"42.21160","Longitude":"-75.98580","Snowdepth":"5.000","Units":"in","Rept_Date":"2020-04-19 04"},"coordinates":[4698,1717]},{"type":"Point","properties":{"Station_ID":"BDFP1","Station_Nam":"BRADFORD,PA","Latitude":"41.95000","Longitude":"-78.73330","Snowdepth":"5.000","Units":"in","Rept_Date":"2020-04-18 12"},"coordinates":[4016,1489]},{"type":"Point","properties":{"Station_ID":"41.9034_079.6523","Station_Nam":"CORRY (CLE0230)","Latitude":"41.90340","Longitude":"-79.65230","Snowdepth":"5.000","Units":"in","Rept_Date":"2020-04-18 13"},"coordinates":[3788,1448]},{"type":"Point","properties":{"Station_ID":"PA-FR-2","Station_Nam":"MARIENVILLE 5.3 W, PA","Latitude":"41.45710","Longitude":"-79.18150","Snowdepth":"4.600","Units":"in","Rept_Date":"2020-04-18 10"},"coordinates":[3905,1060]},{"type":"Point","properties":{"Station_ID":"NY-TG-15","Station_Nam":"BERKSHIRE 1.9 ENE, NY","Latitude":"42.31910","Longitude":"-76.21940","Snowdepth":"4.500","Units":"in","Rept_Date":"2020-04-18 12"},"coordinates":[4640,1810]},{"type":"Point","properties":{"Station_ID":"NY-DL-28","Station_Nam":"FLEISCHMANNS 5.7 N, NY","Latitude":"42.23779","Longitude":"-74.52335","Snowdepth":"4.500","Units":"in","Rept_Date":"2020-04-18 11"},"coordinates":[5061,1739]},{"type":"Point","properties":{"Station_ID":"NY-BM-4","Station_Nam":"ENDICOTT 5.2 SSE, NY","Latitude":"42.02958","Longitude":"-76.02130","Snowdepth":"4.500","Units":"in","Rept_Date":"2020-04-18 11"},"coordinates":[4689,1558]},{"type":"Point","properties":{"Station_ID":"NY-BM-14","Station_Nam":"WHITNEY POINT 1.7 SSE, NY","Latitude":"42.30837","Longitude":"-75.95690","Snowdepth":"4.500","Units":"in","Rept_Date":"2020-04-18 12"},"coordinates":[4705,1801]},{"type":"Point","properties":{"Station_ID":"NY-AL-11","Station_Nam":"WELLSVILLE 2.4 ENE, NY","Latitude":"42.13750","Longitude":"-77.90550","Snowdepth":"4.500","Units":"in","Rept_Date":"2020-04-18 11"},"coordinates":[4222,1652]},{"type":"Point","properties":{"Station_ID":"CT-LT-7","Station_Nam":"LITCHFIELD 2.3 NNE, CT","Latitude":"41.77445","Longitude":"-73.16900","Snowdepth":"4.500","Units":"in","Rept_Date":"2020-04-18 12"},"coordinates":[5397,1336]},{"type":"Point","properties":{"Station_ID":"CT-LT-29","Station_Nam":"GOSHEN 0.5 NW, CT","Latitude":"41.83707","Longitude":"-73.23003","Snowdepth":"4.500","Units":"in","Rept_Date":"2020-04-18 11"},"coordinates":[5382,1391]},{"type":"Point","properties":{"Station_ID":"SOCQ6","Station_Nam":"SOCKET LAKE","Latitude":"50.77870","Longitude":"-91.79300","Snowdepth":"4.490","Units":"in","Rept_Date":"2020-04-19 06"},"coordinates":[774,9174]},{"type":"Point","properties":{"Station_ID":"HPN04_MADIS","Station_Nam":"HANOVER","Latitude":"45.16770","Longitude":"-93.63430","Snowdepth":"4.240","Units":"in","Rept_Date":"2020-04-19 06"},"coordinates":[317,4290]},{"type":"Point","properties":{"Station_ID":"MA-WR-82","Station_Nam":"SHREWSBURY 1.9 NNE, MA","Latitude":"42.32730","Longitude":"-71.70840","Snowdepth":"4.100","Units":"in","Rept_Date":"2020-04-18 16"},"coordinates":[5760,1817]},{"type":"Point","properties":{"Station_ID":"ZNOM4","Station_Nam":"NORWAY","Latitude":"45.77810","Longitude":"-87.89560","Snowdepth":"4.000","Units":"in","Rept_Date":"2020-04-18 12"},"coordinates":[1741,4821]},{"type":"Point","properties":{"Station_ID":"WRRP1","Station_Nam":"ALLEGHENY RIVER AT WARREN","Latitude":"41.84380","Longitude":"-79.15000","Snowdepth":"4.000","Units":"in","Rept_Date":"2020-04-18 11"},"coordinates":[3913,1397]},{"type":"Point","properties":{"Station_ID":"WORM3","Station_Nam":"WORTHINGTON","Latitude":"42.38690","Longitude":"-72.92100","Snowdepth":"4.000","Units":"in","Rept_Date":"2020-04-18 11"},"coordinates":[5459,1869]},{"type":"Point","properties":{"Station_ID":"WHTN6","Station_Nam":"WHITESVILLE","Latitude":"42.05980","Longitude":"-77.75530","Snowdepth":"4.000","Units":"in","Rept_Date":"2020-04-18 11"},"coordinates":[4259,1585]},{"type":"Point","properties":{"Station_ID":"TIPM4","Station_Nam":"TIPTON,MI","Latitude":"42.03330","Longitude":"-84.10000","Snowdepth":"4.000","Units":"in","Rept_Date":"2020-04-18 12"},"coordinates":[2684,1561]},{"type":"Point","properties":{"Station_ID":"STVP1","Station_Nam":"GEO B STEVENSON LAKE","Latitude":"41.40000","Longitude":"-78.01670","Snowdepth":"4.000","Units":"in","Rept_Date":"2020-04-18 13"},"coordinates":[4194,1010]},{"type":"Point","properties":{"Station_ID":"SBRM3","Station_Nam":"SOUTHBRIDGE","Latitude":"42.05830","Longitude":"-72.07210","Snowdepth":"4.000","Units":"in","Rept_Date":"2020-04-18 11"},"coordinates":[5670,1583]},{"type":"Point","properties":{"Station_ID":"SBOP1","Station_Nam":"SPRINGBORO","Latitude":"41.81660","Longitude":"-80.43330","Snowdepth":"4.000","Units":"in","Rept_Date":"2020-04-18 11"},"coordinates":[3594,1373]},{"type":"Point","properties":{"Station_ID":"ROWM3","Station_Nam":"ROWE 3NE","Latitude":"42.73500","Longitude":"-72.86920","Snowdepth":"4.000","Units":"in","Rept_Date":"2020-04-18 11"},"coordinates":[5472,2172]},{"type":"Point","properties":{"Station_ID":"PLEP1","Station_Nam":"PLEASANT MOUNT 1 W","Latitude":"41.73940","Longitude":"-75.44650","Snowdepth":"4.000","Units":"in","Rept_Date":"2020-04-18 12"},"coordinates":[4832,1306]},{"type":"Point","properties":{"Station_ID":"PA-CW-8","Station_Nam":"SPRINGBORO 3.0 WNW, PA","Latitude":"41.81654","Longitude":"-80.42540","Snowdepth":"4.000","Units":"in","Rept_Date":"2020-04-18 11"},"coordinates":[3596,1373]},{"type":"Point","properties":{"Station_ID":"PA-BF-5","Station_Nam":"WYALUSING 2.8 SSW, PA","Latitude":"41.62879","Longitude":"-76.27359","Snowdepth":"4.000","Units":"in","Rept_Date":"2020-04-18 11"},"coordinates":[4627,1209]},{"type":"Point","properties":{"Station_ID":"NY-TM-45","Station_Nam":"NEWFIELD HAMLET 4.3 S, NY","Latitude":"42.29650","Longitude":"-76.60676","Snowdepth":"4.000","Units":"in","Rept_Date":"2020-04-18 13"},"coordinates":[4544,1791]},{"type":"Point","properties":{"Station_ID":"NY-ST-3","Station_Nam":"SOUTH CORNING 4.7 S, NY","Latitude":"42.05672","Longitude":"-77.04850","Snowdepth":"4.000","Units":"in","Rept_Date":"2020-04-18 13"},"coordinates":[4434,1582]},{"type":"Point","properties":{"Station_ID":"NY-LV-5","Station_Nam":"DANSVILLE 1.0 ENE, NY","Latitude":"42.56802","Longitude":"-77.67900","Snowdepth":"4.000","Units":"in","Rept_Date":"2020-04-18 11"},"coordinates":[4278,2027]},{"type":"Point","properties":{"Station_ID":"NY-GR-14","Station_Nam":"LEXINGTON 1.5 N, NY","Latitude":"42.26024","Longitude":"-74.35875","Snowdepth":"4.000","Units":"in","Rept_Date":"2020-04-18 11"},"coordinates":[5102,1759]},{"type":"Point","properties":{"Station_ID":"NY-DL-25","Station_Nam":"HOBART 4.8 ESE, NY","Latitude":"42.35230","Longitude":"-74.57830","Snowdepth":"4.000","Units":"in","Rept_Date":"2020-04-18 11"},"coordinates":[5048,1839]},{"type":"Point","properties":{"Station_ID":"NY-DL-24","Station_Nam":"WALTON 6.5 W, NY","Latitude":"42.16534","Longitude":"-75.25850","Snowdepth":"4.000","Units":"in","Rept_Date":"2020-04-18 11"},"coordinates":[4879,1676]},{"type":"Point","properties":{"Station_ID":"NY-DL-23","Station_Nam":"LONG EDDY 6.5 NNE, NY","Latitude":"41.93510","Longitude":"-75.07840","Snowdepth":"4.000","Units":"in","Rept_Date":"2020-04-18 12"},"coordinates":[4923,1476]},{"type":"Point","properties":{"Station_ID":"NY-CM-6","Station_Nam":"ELMIRA 3.2 E, NY","Latitude":"42.08900","Longitude":"-76.74890","Snowdepth":"4.000","Units":"in","Rept_Date":"2020-04-18 13"},"coordinates":[4509,1610]},{"type":"Point","properties":{"Station_ID":"NFKC3","Station_Nam":"NORFOLK","Latitude":"41.97250","Longitude":"-73.22080","Snowdepth":"4.000","Units":"in","Rept_Date":"2020-04-18 12"},"coordinates":[5385,1509]},{"type":"Point","properties":{"Station_ID":"NALN6","Station_Nam":"CATTARAUGUS","Latitude":"42.32450","Longitude":"-78.86700","Snowdepth":"4.000","Units":"in","Rept_Date":"2020-04-18 12"},"coordinates":[3983,1815]},{"type":"Point","properties":{"Station_ID":"MTAI4","Station_Nam":"MOUNT AYR,IA","Latitude":"40.68280","Longitude":"-94.29440","Snowdepth":"4.000","Units":"in","Rept_Date":"2020-04-18 12"},"coordinates":[153,386]},{"type":"Point","properties":{"Station_ID":"MA-WR-41","Station_Nam":"AUBURN 2.6 SW, MA","Latitude":"42.17336","Longitude":"-71.86869","Snowdepth":"4.000","Units":"in","Rept_Date":"2020-04-18 12"},"coordinates":[5720,1683]},{"type":"Point","properties":{"Station_ID":"MA-WR-18","Station_Nam":"NORTHBOROUGH 0.6 SSE, MA","Latitude":"42.30367","Longitude":"-71.64620","Snowdepth":"4.000","Units":"in","Rept_Date":"2020-04-18 13"},"coordinates":[5776,1797]},{"type":"Point","properties":{"Station_ID":"LVDW3","Station_Nam":"LAC VIEUX DESERT","Latitude":"46.12110","Longitude":"-89.07580","Snowdepth":"4.000","Units":"in","Rept_Date":"2020-04-18 12"},"coordinates":[1448,5120]},{"type":"Point","properties":{"Station_ID":"LAPP1","Station_Nam":"LAPORTE,PA","Latitude":"41.42470","Longitude":"-76.49250","Snowdepth":"4.000","Units":"in","Rept_Date":"2020-04-18 10"},"coordinates":[4572,1032]},{"type":"Point","properties":{"Station_ID":"KZAP1","Station_Nam":"KINZUA","Latitude":"41.90060","Longitude":"-79.11860","Snowdepth":"4.000","Units":"in","Rept_Date":"2020-04-18 11"},"coordinates":[3920,1446]},{"type":"Point","properties":{"Station_ID":"KANP1","Station_Nam":"KANE,PA","Latitude":"41.68330","Longitude":"-78.80000","Snowdepth":"4.000","Units":"in","Rept_Date":"2020-04-18 11"},"coordinates":[4000,1257]},{"type":"Point","properties":{"Station_ID":"IN-EL-59","Station_Nam":"GOSHEN 1.2 SW, IN","Latitude":"41.56898","Longitude":"-85.85356","Snowdepth":"4.000","Units":"in","Rept_Date":"2020-04-18 11"},"coordinates":[2248,1157]},{"type":"Point","properties":{"Station_ID":"IA-WY-7","Station_Nam":"ALLERTON 5.1 E, IA","Latitude":"40.71603","Longitude":"-93.26943","Snowdepth":"4.000","Units":"in","Rept_Date":"2020-04-18 12"},"coordinates":[407,415]},{"type":"Point","properties":{"Station_ID":"DELN6","Station_Nam":"DELHI 2 SE","Latitude":"42.25580","Longitude":"-74.91270","Snowdepth":"4.000","Units":"in","Rept_Date":"2020-04-18 12"},"coordinates":[4965,1755]},{"type":"Point","properties":{"Station_ID":"CT-WN-12","Station_Nam":"EASTFORD 2.0 W, CT","Latitude":"41.89906","Longitude":"-72.12071","Snowdepth":"4.000","Units":"in","Rept_Date":"2020-04-18 12"},"coordinates":[5658,1445]},{"type":"Point","properties":{"Station_ID":"CT-TL-33","Station_Nam":"TOLLAND 3.6 NNE, CT","Latitude":"41.91859","Longitude":"-72.33910","Snowdepth":"4.000","Units":"in","Rept_Date":"2020-04-18 11"},"coordinates":[5604,1462]},{"type":"Point","properties":{"Station_ID":"CT-LT-9","Station_Nam":"NEW HARTFORD CENTER 3.2 SW, CT","Latitude":"41.84170","Longitude":"-73.00920","Snowdepth":"4.000","Units":"in","Rept_Date":"2020-04-18 11"},"coordinates":[5437,1395]},{"type":"Point","properties":{"Station_ID":"CNTP1","Station_Nam":"CANTON","Latitude":"41.65160","Longitude":"-76.84630","Snowdepth":"4.000","Units":"in","Rept_Date":"2020-04-18 12"},"coordinates":[4485,1229]},{"type":"Point","properties":{"Station_ID":"CNNW3","Station_Nam":"CRANDON","Latitude":"45.55110","Longitude":"-88.89830","Snowdepth":"4.000","Units":"in","Rept_Date":"2020-04-18 11"},"coordinates":[1493,4623]},{"type":"Point","properties":{"Station_ID":"CCON6","Station_Nam":"CALLICOON CENTER","Latitude":"41.82750","Longitude":"-74.95060","Snowdepth":"4.000","Units":"in","Rept_Date":"2020-04-18 12"},"coordinates":[4955,1382]},{"type":"Point","properties":{"Station_ID":"BLHM3","Station_Nam":"BLUE HILL COOP","Latitude":"42.21230","Longitude":"-71.11370","Snowdepth":"4.000","Units":"in","Rept_Date":"2020-04-18 11"},"coordinates":[5908,1717]},{"type":"Point","properties":{"Station_ID":"BGBM4","Station_Nam":"BIG BAY 1NW","Latitude":"46.83250","Longitude":"-87.75040","Snowdepth":"4.000","Units":"in","Rept_Date":"2020-04-18 12"},"coordinates":[1778,5739]},{"type":"Point","properties":{"Station_ID":"BCNI4","Station_Nam":"BEACONSFIELD,IA","Latitude":"40.82360","Longitude":"-94.04390","Snowdepth":"4.000","Units":"in","Rept_Date":"2020-04-18 12"},"coordinates":[215,509]},{"type":"Point","properties":{"Station_ID":"BAKC3","Station_Nam":"BAKERSVILLE","Latitude":"41.84180","Longitude":"-73.00850","Snowdepth":"4.000","Units":"in","Rept_Date":"2020-04-18 11"},"coordinates":[5437,1395]},{"type":"Point","properties":{"Station_ID":"ABGW3","Station_Nam":"AMBERG 9 E","Latitude":"45.48250","Longitude":"-87.81190","Snowdepth":"4.000","Units":"in","Rept_Date":"2020-04-18 11"},"coordinates":[1762,4564]},{"type":"Point","properties":{"Station_ID":"41.9492_079.7821","Station_Nam":"AMITY TWP (CLE0216)","Latitude":"41.94920","Longitude":"-79.78210","Snowdepth":"4.000","Units":"in","Rept_Date":"2020-04-18 12"},"coordinates":[3756,1488]},{"type":"Point","properties":{"Station_ID":"41.8966_080.1567","Station_Nam":"2 NW EDINBORO  SNOW SPOTTER (CLE0251)","Latitude":"41.89660","Longitude":"-80.15670","Snowdepth":"4.000","Units":"in","Rept_Date":"2020-04-18 10"},"coordinates":[3663,1442]},{"type":"Point","properties":{"Station_ID":"41.8166_080.4333","Station_Nam":"3 WNW Springboro  Co-Op Observer (SBOP1)","Latitude":"41.81660","Longitude":"-80.43330","Snowdepth":"4.000","Units":"in","Rept_Date":"2020-04-18 11"},"coordinates":[3594,1373]},{"type":"Point","properties":{"Station_ID":"41.8165_080.4254","Station_Nam":"3 WNW Springboro  CoCoRaHS (PA-CW-8)","Latitude":"41.81650","Longitude":"-80.42540","Snowdepth":"4.000","Units":"in","Rept_Date":"2020-04-18 11"},"coordinates":[3596,1373]},{"type":"Point","properties":{"Station_ID":"CT-TL-27","Station_Nam":"WILLINGTON 2.7 SE, CT","Latitude":"41.83890","Longitude":"-72.22430","Snowdepth":"3.800","Units":"in","Rept_Date":"2020-04-18 11"},"coordinates":[5632,1392]},{"type":"Point","properties":{"Station_ID":"CT-LT-15","Station_Nam":"COLEBROOK 1.0 NE, CT","Latitude":"42.00200","Longitude":"-73.08250","Snowdepth":"3.800","Units":"in","Rept_Date":"2020-04-18 11"},"coordinates":[5419,1534]},{"type":"Point","properties":{"Station_ID":"KABQ6","Station_Nam":"CAB LAKE","Latitude":"49.59950","Longitude":"-89.17990","Snowdepth":"3.780","Units":"in","Rept_Date":"2020-04-19 06"},"coordinates":[1423,8147]},{"type":"Point","properties":{"Station_ID":"NY-CR-3","Station_Nam":"WILLET 1.8 E, NY","Latitude":"42.47385","Longitude":"-75.87250","Snowdepth":"3.600","Units":"in","Rept_Date":"2020-04-18 11"},"coordinates":[4726,1945]},{"type":"Point","properties":{"Station_ID":"VT-CL-3","Station_Nam":"GROTON 4.4 WSW, VT","Latitude":"44.19440","Longitude":"-72.28240","Snowdepth":"3.500","Units":"in","Rept_Date":"2020-04-18 10"},"coordinates":[5618,3443]},{"type":"Point","properties":{"Station_ID":"RI-KN-21","Station_Nam":"COVENTRY 1.9 NE, RI","Latitude":"41.71140","Longitude":"-71.54779","Snowdepth":"3.500","Units":"in","Rept_Date":"2020-04-18 12"},"coordinates":[5800,1281]},{"type":"Point","properties":{"Station_ID":"PA-VN-7","Station_Nam":"COOPERSTOWN 1.3 E, PA","Latitude":"41.50067","Longitude":"-79.84970","Snowdepth":"3.500","Units":"in","Rept_Date":"2020-04-18 11"},"coordinates":[3739,1098]},{"type":"Point","properties":{"Station_ID":"PA-VN-5","Station_Nam":"SENECA 0.7 NNE, PA","Latitude":"41.38455","Longitude":"-79.69790","Snowdepth":"3.500","Units":"in","Rept_Date":"2020-04-18 11"},"coordinates":[3777,997]},{"type":"Point","properties":{"Station_ID":"PA-BF-20","Station_Nam":"SAYRE 0.7 S, PA","Latitude":"41.97510","Longitude":"-76.52100","Snowdepth":"3.500","Units":"in","Rept_Date":"2020-04-18 11"},"coordinates":[4565,1511]},{"type":"Point","properties":{"Station_ID":"OH-HR-2","Station_Nam":"BELLEVUE 0.6 N, OH","Latitude":"41.28386","Longitude":"-82.84080","Snowdepth":"3.500","Units":"in","Rept_Date":"2020-04-18 11"},"coordinates":[2996,909]},{"type":"Point","properties":{"Station_ID":"NY-TG-5","Station_Nam":"BERKSHIRE 2.0 N, NY","Latitude":"42.33463","Longitude":"-76.18990","Snowdepth":"3.500","Units":"in","Rept_Date":"2020-04-18 11"},"coordinates":[4648,1824]},{"type":"Point","properties":{"Station_ID":"NY-TG-20","Station_Nam":"CANDOR 1.8 N, NY","Latitude":"42.25308","Longitude":"-76.33780","Snowdepth":"3.500","Units":"in","Rept_Date":"2020-04-18 11"},"coordinates":[4611,1753]},{"type":"Point","properties":{"Station_ID":"NY-SY-1","Station_Nam":"SMITH VALLEY 1.9 SE, NY","Latitude":"42.39072","Longitude":"-76.71760","Snowdepth":"3.500","Units":"in","Rept_Date":"2020-04-18 11"},"coordinates":[4517,1873]},{"type":"Point","properties":{"Station_ID":"NY-DL-32","Station_Nam":"DELHI 6.6 WNW, NY","Latitude":"42.32118","Longitude":"-75.02991","Snowdepth":"3.500","Units":"in","Rept_Date":"2020-04-18 11"},"coordinates":[4935,1812]},{"type":"Point","properties":{"Station_ID":"NY-CR-1","Station_Nam":"FREETOWN 1.0 NE, NY","Latitude":"42.53299","Longitude":"-76.02111","Snowdepth":"3.500","Units":"in","Rept_Date":"2020-04-18 11"},"coordinates":[4689,1996]},{"type":"Point","properties":{"Station_ID":"NY-BM-7","Station_Nam":"VESTAL 2.8 SSE, NY","Latitude":"42.04930","Longitude":"-76.02880","Snowdepth":"3.500","Units":"in","Rept_Date":"2020-04-18 13"},"coordinates":[4688,1575]},{"type":"Point","properties":{"Station_ID":"MA-NF-26","Station_Nam":"BELLINGHAM 2.4 S, MA","Latitude":"42.06011","Longitude":"-71.47064","Snowdepth":"3.500","Units":"in","Rept_Date":"2020-04-18 11"},"coordinates":[5819,1585]},{"type":"Point","properties":{"Station_ID":"MA-HS-2","Station_Nam":"WESTHAMPTON 1.8 SW, MA","Latitude":"42.27943","Longitude":"-72.78700","Snowdepth":"3.500","Units":"in","Rept_Date":"2020-04-18 12"},"coordinates":[5492,1776]},{"type":"Point","properties":{"Station_ID":"CT-HR-28","Station_Nam":"NORTH CANTON 0.8 SSW, CT","Latitude":"41.88514","Longitude":"-72.89729","Snowdepth":"3.500","Units":"in","Rept_Date":"2020-04-18 11"},"coordinates":[5465,1432]},{"type":"Point","properties":{"Station_ID":"CT-HR-24","Station_Nam":"COLLINSVILLE 0.9 NW, CT","Latitude":"41.82680","Longitude":"-72.93720","Snowdepth":"3.500","Units":"in","Rept_Date":"2020-04-18 11"},"coordinates":[5455,1382]},{"type":"Point","properties":{"Station_ID":"41.2839_082.8408","Station_Nam":"1 N Bellevue  CoCoRaHS (OH-HR-2)","Latitude":"41.28390","Longitude":"-82.84080","Snowdepth":"3.500","Units":"in","Rept_Date":"2020-04-18 10"},"coordinates":[2996,909]},{"type":"Point","properties":{"Station_ID":"NY-TM-42","Station_Nam":"ITHACA 6.4 E, NY","Latitude":"42.43350","Longitude":"-76.37860","Snowdepth":"3.200","Units":"in","Rept_Date":"2020-04-18 11"},"coordinates":[4601,1910]},{"type":"Point","properties":{"Station_ID":"MA-MD-55","Station_Nam":"HOLLISTON 0.7 W, MA","Latitude":"42.19946","Longitude":"-71.44789","Snowdepth":"3.100","Units":"in","Rept_Date":"2020-04-18 12"},"coordinates":[5825,1706]},{"type":"Point","properties":{"Station_ID":"WILW3","Station_Nam":"RESERVOIR","Latitude":"45.70000","Longitude":"-89.83330","Snowdepth":"3.000","Units":"in","Rept_Date":"2020-04-18 11"},"coordinates":[1260,4753]},{"type":"Point","properties":{"Station_ID":"WI-ON-6","Station_Nam":"RHINELANDER 5.2 N, WI","Latitude":"45.71388","Longitude":"-89.42150","Snowdepth":"3.000","Units":"in","Rept_Date":"2020-04-18 13"},"coordinates":[1363,4765]},{"type":"Point","properties":{"Station_ID":"WALM3","Station_Nam":"WALPOLE 2","Latitude":"42.16090","Longitude":"-71.24610","Snowdepth":"3.000","Units":"in","Rept_Date":"2020-04-18 11"},"coordinates":[5875,1673]},{"type":"Point","properties":{"Station_ID":"TSVP1","Station_Nam":"TITUSVILLE,PA","Latitude":"41.63330","Longitude":"-79.70000","Snowdepth":"3.000","Units":"in","Rept_Date":"2020-04-18 11"},"coordinates":[3776,1213]},{"type":"Point","properties":{"Station_ID":"TRVM4","Station_Nam":"THREE RIVERS,MI","Latitude":"41.93330","Longitude":"-85.63330","Snowdepth":"3.000","Units":"in","Rept_Date":"2020-04-18 11"},"coordinates":[2303,1474]},{"type":"Point","properties":{"Station_ID":"STGW3","Station_Nam":"ST GERMAIN","Latitude":"45.91550","Longitude":"-89.48940","Snowdepth":"3.000","Units":"in","Rept_Date":"2020-04-18 11"},"coordinates":[1346,4941]},{"type":"Point","properties":{"Station_ID":"RVOP1","Station_Nam":"RENOVO,PA","Latitude":"41.33330","Longitude":"-77.73330","Snowdepth":"3.000","Units":"in","Rept_Date":"2020-04-18 11"},"coordinates":[4264,952]},{"type":"Point","properties":{"Station_ID":"RI-PR-63","Station_Nam":"WOONSOCKET 1.5 NW, RI","Latitude":"42.01540","Longitude":"-71.52170","Snowdepth":"3.000","Units":"in","Rept_Date":"2020-04-18 12"},"coordinates":[5806,1546]},{"type":"Point","properties":{"Station_ID":"RI-PR-55","Station_Nam":"CUMBERLAND HILL 3.6 NNE, RI","Latitude":"42.01656","Longitude":"-71.42238","Snowdepth":"3.000","Units":"in","Rept_Date":"2020-04-18 11"},"coordinates":[5831,1547]},{"type":"Point","properties":{"Station_ID":"RI-PR-50","Station_Nam":"HARRISVILLE 1.2 SSE, RI","Latitude":"41.95128","Longitude":"-71.67171","Snowdepth":"3.000","Units":"in","Rept_Date":"2020-04-18 11"},"coordinates":[5769,1490]},{"type":"Point","properties":{"Station_ID":"RI-PR-45","Station_Nam":"MANVILLE 0.4 WSW, RI","Latitude":"41.96757","Longitude":"-71.48103","Snowdepth":"3.000","Units":"in","Rept_Date":"2020-04-18 11"},"coordinates":[5817,1504]},{"type":"Point","properties":{"Station_ID":"RI-PR-33","Station_Nam":"GREENVILLE 0.7 NNW, RI","Latitude":"41.88890","Longitude":"-71.56030","Snowdepth":"3.000","Units":"in","Rept_Date":"2020-04-18 12"},"coordinates":[5797,1436]},{"type":"Point","properties":{"Station_ID":"RDWP1","Station_Nam":"RIDGWAY,PA","Latitude":"41.41670","Longitude":"-78.75000","Snowdepth":"3.000","Units":"in","Rept_Date":"2020-04-18 11"},"coordinates":[4012,1025]},{"type":"Point","properties":{"Station_ID":"PGVN6","Station_Nam":"PORTAGEVILLE","Latitude":"42.57580","Longitude":"-78.06720","Snowdepth":"3.000","Units":"in","Rept_Date":"2020-04-18 11"},"coordinates":[4181,2034]},{"type":"Point","properties":{"Station_ID":"PA-FR-1","Station_Nam":"TIONESTA 7.3 SSE, PA","Latitude":"41.39404","Longitude":"-79.41310","Snowdepth":"3.000","Units":"in","Rept_Date":"2020-04-18 09"},"coordinates":[3847,1005]},{"type":"Point","properties":{"Station_ID":"PA-CW-18","Station_Nam":"CONNEAUT LAKE 1.3 WNW, PA","Latitude":"41.60816","Longitude":"-80.33371","Snowdepth":"3.000","Units":"in","Rept_Date":"2020-04-18 11"},"coordinates":[3619,1191]},{"type":"Point","properties":{"Station_ID":"PA-BF-14","Station_Nam":"SAYRE 2.8 WNW, PA","Latitude":"41.99750","Longitude":"-76.57260","Snowdepth":"3.000","Units":"in","Rept_Date":"2020-04-18 12"},"coordinates":[4553,1530]},{"type":"Point","properties":{"Station_ID":"OLNN6","Station_Nam":"OLEAN","Latitude":"42.07370","Longitude":"-78.45180","Snowdepth":"3.000","Units":"in","Rept_Date":"2020-04-18 11"},"coordinates":[4086,1597]},{"type":"Point","properties":{"Station_ID":"OH-GG-7","Station_Nam":"MIDDLEFIELD 0.6 NE, OH","Latitude":"41.46438","Longitude":"-81.06520","Snowdepth":"3.000","Units":"in","Rept_Date":"2020-04-18 12"},"coordinates":[3437,1066]},{"type":"Point","properties":{"Station_ID":"OH-GG-4","Station_Nam":"MONTVILLE 1.2 SSE, OH","Latitude":"41.59030","Longitude":"-81.04800","Snowdepth":"3.000","Units":"in","Rept_Date":"2020-04-18 11"},"coordinates":[3441,1176]},{"type":"Point","properties":{"Station_ID":"NY-UL-28","Station_Nam":"KERHONKSON 3.7 N, NY","Latitude":"41.83214","Longitude":"-74.30115","Snowdepth":"3.000","Units":"in","Rept_Date":"2020-04-18 11"},"coordinates":[5116,1386]},{"type":"Point","properties":{"Station_ID":"NY-OT-29","Station_Nam":"NEW BERLIN 1.5 NE, NY","Latitude":"42.63689","Longitude":"-75.31090","Snowdepth":"3.000","Units":"in","Rept_Date":"2020-04-18 12"},"coordinates":[4866,2087]},{"type":"Point","properties":{"Station_ID":"NY-MG-3","Station_Nam":"HESSVILLE 1.8 WSW, NY","Latitude":"42.86430","Longitude":"-74.72140","Snowdepth":"3.000","Units":"in","Rept_Date":"2020-04-18 13"},"coordinates":[5012,2285]},{"type":"Point","properties":{"Station_ID":"NY-ER-63","Station_Nam":"GLENWOOD 1.5 SE, NY","Latitude":"42.60195","Longitude":"-78.63910","Snowdepth":"3.000","Units":"in","Rept_Date":"2020-04-18 12"},"coordinates":[4039,2056]},{"type":"Point","properties":{"Station_ID":"NY-CQ-39","Station_Nam":"GERRY 0.8 N, NY","Latitude":"42.20500","Longitude":"-79.24700","Snowdepth":"3.000","Units":"in","Rept_Date":"2020-04-18 12"},"coordinates":[3889,1711]},{"type":"Point","properties":{"Station_ID":"NY-CQ-34","Station_Nam":"KENNEDY 2.6 SE, NY","Latitude":"42.12567","Longitude":"-79.07235","Snowdepth":"3.000","Units":"in","Rept_Date":"2020-04-18 12"},"coordinates":[3932,1642]},{"type":"Point","properties":{"Station_ID":"NY-CN-9","Station_Nam":"NORWICH 5.4 W, NY","Latitude":"42.53356","Longitude":"-75.63060","Snowdepth":"3.000","Units":"in","Rept_Date":"2020-04-18 11"},"coordinates":[4786,1997]},{"type":"Point","properties":{"Station_ID":"NY-AB-54","Station_Nam":"ALTAMONT 2.9 SW, NY","Latitude":"42.68182","Longitude":"-74.08326","Snowdepth":"3.000","Units":"in","Rept_Date":"2020-04-18 13"},"coordinates":[5171,2126]},{"type":"Point","properties":{"Station_ID":"NY-AB-1","Station_Nam":"ALTAMONT 2.7 SSW, NY","Latitude":"42.66696","Longitude":"-74.05090","Snowdepth":"3.000","Units":"in","Rept_Date":"2020-04-18 11"},"coordinates":[5179,2113]},{"type":"Point","properties":{"Station_ID":"NTHM3","Station_Nam":"NORTHBRIDGE 2","Latitude":"42.11500","Longitude":"-71.67600","Snowdepth":"3.000","Units":"in","Rept_Date":"2020-04-18 11"},"coordinates":[5768,1633]},{"type":"Point","properties":{"Station_ID":"NH-HL-48","Station_Nam":"GREENVILLE 1.1 ENE, NH","Latitude":"42.77674","Longitude":"-71.77990","Snowdepth":"3.000","Units":"in","Rept_Date":"2020-04-18 12"},"coordinates":[5742,2209]},{"type":"Point","properties":{"Station_ID":"MN-CK-6","Station_Nam":"GRAND MARAIS 4.4 W, MN","Latitude":"47.74865","Longitude":"-90.43760","Snowdepth":"3.000","Units":"in","Rept_Date":"2020-04-18 12"},"coordinates":[1110,6536]},{"type":"Point","properties":{"Station_ID":"MILM3","Station_Nam":"MILFORD","Latitude":"42.16330","Longitude":"-71.51190","Snowdepth":"3.000","Units":"in","Rept_Date":"2020-04-18 11"},"coordinates":[5809,1675]},{"type":"Point","properties":{"Station_ID":"MI-HL-9","Station_Nam":"MONTGOMERY 1.9 SSE, MI","Latitude":"41.75167","Longitude":"-84.78952","Snowdepth":"3.000","Units":"in","Rept_Date":"2020-04-18 12"},"coordinates":[2513,1316]},{"type":"Point","properties":{"Station_ID":"MI-HL-4","Station_Nam":"JONESVILLE 5.9 ENE, MI","Latitude":"42.01472","Longitude":"-84.56190","Snowdepth":"3.000","Units":"in","Rept_Date":"2020-04-18 11"},"coordinates":[2569,1545]},{"type":"Point","properties":{"Station_ID":"MI-BN-5","Station_Nam":"BUCHANAN 1.3 WNW, MI","Latitude":"41.83634","Longitude":"-86.38900","Snowdepth":"3.000","Units":"in","Rept_Date":"2020-04-18 11"},"coordinates":[2115,1390]},{"type":"Point","properties":{"Station_ID":"MECN6","Station_Nam":"MECKLENBURG 4 SW","Latitude":"42.44220","Longitude":"-76.75740","Snowdepth":"3.000","Units":"in","Rept_Date":"2020-04-18 11"},"coordinates":[4507,1917]},{"type":"Point","properties":{"Station_ID":"MA-WR-55","Station_Nam":"HARVARD 2.1 S, MA","Latitude":"42.46891","Longitude":"-71.58360","Snowdepth":"3.000","Units":"in","Rept_Date":"2020-04-18 11"},"coordinates":[5791,1941]},{"type":"Point","properties":{"Station_ID":"MA-WR-28","Station_Nam":"BERLIN 1.3 WSW, MA","Latitude":"42.37750","Longitude":"-71.65830","Snowdepth":"3.000","Units":"in","Rept_Date":"2020-04-18 12"},"coordinates":[5773,1861]},{"type":"Point","properties":{"Station_ID":"MA-NF-31","Station_Nam":"STOUGHTON 1.2 E, MA","Latitude":"42.11520","Longitude":"-71.07620","Snowdepth":"3.000","Units":"in","Rept_Date":"2020-04-18 12"},"coordinates":[5917,1633]},{"type":"Point","properties":{"Station_ID":"MA-NF-11","Station_Nam":"MILLIS 2.0 SW, MA","Latitude":"42.14602","Longitude":"-71.37940","Snowdepth":"3.000","Units":"in","Rept_Date":"2020-04-18 12"},"coordinates":[5842,1660]},{"type":"Point","properties":{"Station_ID":"MA-MD-107","Station_Nam":"FRAMINGHAM 1.7 E, MA","Latitude":"42.30516","Longitude":"-71.40471","Snowdepth":"3.000","Units":"in","Rept_Date":"2020-04-18 12"},"coordinates":[5835,1798]},{"type":"Point","properties":{"Station_ID":"MA-HS-7","Station_Nam":"PLAINFIELD 2.2 SW, MA","Latitude":"42.49272","Longitude":"-72.94540","Snowdepth":"3.000","Units":"in","Rept_Date":"2020-04-18 12"},"coordinates":[5453,1961]},{"type":"Point","properties":{"Station_ID":"MA-FR-17","Station_Nam":"BUCKLAND 1.8 ESE, MA","Latitude":"42.58900","Longitude":"-72.75110","Snowdepth":"3.000","Units":"in","Rept_Date":"2020-04-18 12"},"coordinates":[5501,2045]},{"type":"Point","properties":{"Station_ID":"JWTN6","Station_Nam":"EAST JEWETT","Latitude":"42.23430","Longitude":"-74.14430","Snowdepth":"3.000","Units":"in","Rept_Date":"2020-04-18 12"},"coordinates":[5155,1736]},{"type":"Point","properties":{"Station_ID":"IMNM4","Station_Nam":"IRON MOUTAIN 5N","Latitude":"45.87580","Longitude":"-88.04030","Snowdepth":"3.000","Units":"in","Rept_Date":"2020-04-19 00"},"coordinates":[1706,4906]},{"type":"Point","properties":{"Station_ID":"HUDI3","Station_Nam":"HUDSON 3SW","Latitude":"41.51150","Longitude":"-85.13190","Snowdepth":"3.000","Units":"in","Rept_Date":"2020-04-18 12"},"coordinates":[2428,1107]},{"type":"Point","properties":{"Station_ID":"GREN3","Station_Nam":"GREENVILLE 1 NNE","Latitude":"42.78270","Longitude":"-71.79850","Snowdepth":"3.000","Units":"in","Rept_Date":"2020-04-18 13"},"coordinates":[5738,2214]},{"type":"Point","properties":{"Station_ID":"FCHM3","Station_Nam":"FITCHBURG COOP","Latitude":"42.61680","Longitude":"-71.80170","Snowdepth":"3.000","Units":"in","Rept_Date":"2020-04-18 12"},"coordinates":[5737,2069]},{"type":"Point","properties":{"Station_ID":"EHYM3","Station_Nam":"EAST HAWLEY","Latitude":"42.57410","Longitude":"-72.86790","Snowdepth":"3.000","Units":"in","Rept_Date":"2020-04-18 12"},"coordinates":[5472,2032]},{"type":"Point","properties":{"Station_ID":"DLSN6","Station_Nam":"DELANSON 2NE","Latitude":"42.76720","Longitude":"-74.17110","Snowdepth":"3.000","Units":"in","Rept_Date":"2020-04-18 11"},"coordinates":[5149,2200]},{"type":"Point","properties":{"Station_ID":"COVM4","Station_Nam":"COVINGTON","Latitude":"46.55880","Longitude":"-88.54190","Snowdepth":"3.000","Units":"in","Rept_Date":"2020-04-18 12"},"coordinates":[1581,5501]},{"type":"Point","properties":{"Station_ID":"COBN6","Station_Nam":"COBLESKILL 2ESE","Latitude":"42.66710","Longitude":"-74.44230","Snowdepth":"3.000","Units":"in","Rept_Date":"2020-04-18 12"},"coordinates":[5081,2113]},{"type":"Point","properties":{"Station_ID":"CLKM4","Station_Nam":"CLARKSBURG","Latitude":"46.49910","Longitude":"-87.84500","Snowdepth":"3.000","Units":"in","Rept_Date":"2020-04-18 11"},"coordinates":[1754,5449]},{"type":"Point","properties":{"Station_ID":"AROM4","Station_Nam":"ARNOLD,MI","Latitude":"46.06670","Longitude":"-87.48330","Snowdepth":"3.000","Units":"in","Rept_Date":"2020-04-18 12"},"coordinates":[1844,5072]},{"type":"Point","properties":{"Station_ID":"ANQI3","Station_Nam":"ANGOLA,IN","Latitude":"41.63970","Longitude":"-84.99000","Snowdepth":"3.000","Units":"in","Rept_Date":"2020-04-18 10"},"coordinates":[2463,1219]},{"type":"Point","properties":{"Station_ID":"ANGN6","Station_Nam":"ANGELICA","Latitude":"42.31080","Longitude":"-78.02300","Snowdepth":"3.000","Units":"in","Rept_Date":"2020-04-18 11"},"coordinates":[4192,1803]},{"type":"Point","properties":{"Station_ID":"ALRI4","Station_Nam":"ALLERTON,IA","Latitude":"40.70670","Longitude":"-93.36500","Snowdepth":"3.000","Units":"in","Rept_Date":"2020-04-18 12"},"coordinates":[384,407]},{"type":"Point","properties":{"Station_ID":"ALFN6","Station_Nam":"ALFRED","Latitude":"42.27980","Longitude":"-77.76560","Snowdepth":"3.000","Units":"in","Rept_Date":"2020-04-18 11"},"coordinates":[4256,1776]},{"type":"Point","properties":{"Station_ID":"ADDN6","Station_Nam":"ADDISON","Latitude":"42.10130","Longitude":"-77.23440","Snowdepth":"3.000","Units":"in","Rept_Date":"2020-04-18 11"},"coordinates":[4388,1621]},{"type":"Point","properties":{"Station_ID":"41.8275_080.5321","Station_Nam":"MONROE TWP  SNOW SPOTTER (X4180805)","Latitude":"41.82750","Longitude":"-80.53210","Snowdepth":"3.000","Units":"in","Rept_Date":"2020-04-18 13"},"coordinates":[3570,1382]},{"type":"Point","properties":{"Station_ID":"41.6082_080.3337","Station_Nam":"1 WNW Conneaut Lake  CoCoRaHS (PA-CW-18)","Latitude":"41.60820","Longitude":"-80.33370","Snowdepth":"3.000","Units":"in","Rept_Date":"2020-04-18 11"},"coordinates":[3619,1191]},{"type":"Point","properties":{"Station_ID":"41.5909_081.0473","Station_Nam":"MONTVILLE (CLE1322)","Latitude":"41.59090","Longitude":"-81.04730","Snowdepth":"3.000","Units":"in","Rept_Date":"2020-04-18 12"},"coordinates":[3442,1176]},{"type":"Point","properties":{"Station_ID":"41.5903_081.0480","Station_Nam":"1 SSE Montville  CoCoRaHS (OH-GG-4)","Latitude":"41.59030","Longitude":"-81.04800","Snowdepth":"3.000","Units":"in","Rept_Date":"2020-04-18 11"},"coordinates":[3441,1176]},{"type":"Point","properties":{"Station_ID":"41.4644_081.0652","Station_Nam":"1 NE Middlefield  CoCoRaHS (OH-GG-7)","Latitude":"41.46440","Longitude":"-81.06520","Snowdepth":"3.000","Units":"in","Rept_Date":"2020-04-18 12"},"coordinates":[3437,1066]},{"type":"Point","properties":{"Station_ID":"MA-MD-106","Station_Nam":"HOLLISTON 2.4 W, MA","Latitude":"42.20069","Longitude":"-71.47981","Snowdepth":"2.900","Units":"in","Rept_Date":"2020-04-18 11"},"coordinates":[5817,1707]},{"type":"Point","properties":{"Station_ID":"NY-BM-24","Station_Nam":"BINGHAMTON 1.3 ENE, NY","Latitude":"42.10981","Longitude":"-75.88580","Snowdepth":"2.800","Units":"in","Rept_Date":"2020-04-18 12"},"coordinates":[4723,1628]},{"type":"Point","properties":{"Station_ID":"CT-HR-58","Station_Nam":"WEST HARTFORD 2.1 NNE, CT","Latitude":"41.79730","Longitude":"-72.74234","Snowdepth":"2.800","Units":"in","Rept_Date":"2020-04-18 11"},"coordinates":[5503,1356]},{"type":"Point","properties":{"Station_ID":"MA-WR-81","Station_Nam":"WORCESTER 1.6 SE, MA","Latitude":"42.25354","Longitude":"-71.78530","Snowdepth":"2.700","Units":"in","Rept_Date":"2020-04-18 11"},"coordinates":[5741,1753]},{"type":"Point","properties":{"Station_ID":"MA-MD-156","Station_Nam":"MARLBOROUGH 2.8 ENE, MA","Latitude":"42.37021","Longitude":"-71.50011","Snowdepth":"2.700","Units":"in","Rept_Date":"2020-04-18 10"},"coordinates":[5812,1855]},{"type":"Point","properties":{"Station_ID":"NY-CM-24","Station_Nam":"CHEMUNG 5.7 N, NY","Latitude":"42.09130","Longitude":"-76.62810","Snowdepth":"2.600","Units":"in","Rept_Date":"2020-04-18 13"},"coordinates":[4539,1612]},{"type":"Point","properties":{"Station_ID":"MA-PL-5","Station_Nam":"KINGSTON 3.3 WNW, MA","Latitude":"42.01702","Longitude":"-70.77200","Snowdepth":"2.600","Units":"in","Rept_Date":"2020-04-18 11"},"coordinates":[5993,1547]},{"type":"Point","properties":{"Station_ID":"MA-BR-61","Station_Nam":"MANSFIELD 2.4 ENE, MA","Latitude":"42.03591","Longitude":"-71.17473","Snowdepth":"2.600","Units":"in","Rept_Date":"2020-04-18 11"},"coordinates":[5893,1564]},{"type":"Point","properties":{"Station_ID":"RI-PR-71","Station_Nam":"CRANSTON 1.3 N, RI","Latitude":"41.78507","Longitude":"-71.47650","Snowdepth":"2.500","Units":"in","Rept_Date":"2020-04-18 12"},"coordinates":[5818,1345]},{"type":"Point","properties":{"Station_ID":"RI-PR-51","Station_Nam":"NORTH SMITHFIELD 0.6 S, RI","Latitude":"41.95440","Longitude":"-71.54944","Snowdepth":"2.500","Units":"in","Rept_Date":"2020-04-18 10"},"coordinates":[5800,1493]},{"type":"Point","properties":{"Station_ID":"RI-PR-28","Station_Nam":"NORTH SMITHFIELD 0.7 SE, RI","Latitude":"41.95910","Longitude":"-71.54201","Snowdepth":"2.500","Units":"in","Rept_Date":"2020-04-18 11"},"coordinates":[5801,1497]},{"type":"Point","properties":{"Station_ID":"OH-PT-13","Station_Nam":"MANTUA 1.0 NNW, OH","Latitude":"41.29421","Longitude":"-81.23160","Snowdepth":"2.500","Units":"in","Rept_Date":"2020-04-18 12"},"coordinates":[3396,918]},{"type":"Point","properties":{"Station_ID":"NY-TM-27","Station_Nam":"GROTON 3.2 SSW, NY","Latitude":"42.54725","Longitude":"-76.39960","Snowdepth":"2.500","Units":"in","Rept_Date":"2020-04-18 11"},"coordinates":[4595,2009]},{"type":"Point","properties":{"Station_ID":"NY-TM-18","Station_Nam":"EAST ITHACA 4.7 E, NY","Latitude":"42.41910","Longitude":"-76.37330","Snowdepth":"2.500","Units":"in","Rept_Date":"2020-04-18 11"},"coordinates":[4602,1897]},{"type":"Point","properties":{"Station_ID":"NY-TG-26","Station_Nam":"CANDOR 0.7 NW, NY","Latitude":"42.23428","Longitude":"-76.34758","Snowdepth":"2.500","Units":"in","Rept_Date":"2020-04-18 12"},"coordinates":[4608,1736]},{"type":"Point","properties":{"Station_ID":"NY-GR-7","Station_Nam":"GREENVILLE 0.7 E, NY","Latitude":"42.41400","Longitude":"-74.00900","Snowdepth":"2.500","Units":"in","Rept_Date":"2020-04-18 11"},"coordinates":[5189,1893]},{"type":"Point","properties":{"Station_ID":"NY-CR-5","Station_Nam":"MARATHON 1.0 NW, NY","Latitude":"42.45161","Longitude":"-76.04370","Snowdepth":"2.500","Units":"in","Rept_Date":"2020-04-18 11"},"coordinates":[4684,1926]},{"type":"Point","properties":{"Station_ID":"MI-HL-1","Station_Nam":"LITCHFIELD 0.3 ENE, MI","Latitude":"42.04528","Longitude":"-84.75310","Snowdepth":"2.500","Units":"in","Rept_Date":"2020-04-18 11"},"coordinates":[2522,1572]},{"type":"Point","properties":{"Station_ID":"MA-WR-42","Station_Nam":"NORTHBOROUGH 2.3 N, MA","Latitude":"42.34535","Longitude":"-71.64390","Snowdepth":"2.500","Units":"in","Rept_Date":"2020-04-18 11"},"coordinates":[5776,1833]},{"type":"Point","properties":{"Station_ID":"MA-WR-22","Station_Nam":"FITCHBURG 2.0 NNE, MA","Latitude":"42.61671","Longitude":"-71.80100","Snowdepth":"2.500","Units":"in","Rept_Date":"2020-04-18 12"},"coordinates":[5737,2069]},{"type":"Point","properties":{"Station_ID":"MA-NF-1","Station_Nam":"NORWOOD 1.3 NW, MA","Latitude":"42.19738","Longitude":"-71.21526","Snowdepth":"2.500","Units":"in","Rept_Date":"2020-04-18 11"},"coordinates":[5883,1704]},{"type":"Point","properties":{"Station_ID":"MA-MD-89","Station_Nam":"SUDBURY 3.6 W, MA","Latitude":"42.36394","Longitude":"-71.47012","Snowdepth":"2.500","Units":"in","Rept_Date":"2020-04-18 11"},"coordinates":[5819,1849]},{"type":"Point","properties":{"Station_ID":"MA-MD-51","Station_Nam":"MAYNARD 0.7 ESE, MA","Latitude":"42.42027","Longitude":"-71.44484","Snowdepth":"2.500","Units":"in","Rept_Date":"2020-04-18 11"},"coordinates":[5826,1898]},{"type":"Point","properties":{"Station_ID":"MA-MD-42","Station_Nam":"HOLLISTON 0.8 S, MA","Latitude":"42.18820","Longitude":"-71.43390","Snowdepth":"2.500","Units":"in","Rept_Date":"2020-04-18 11"},"coordinates":[5828,1696]},{"type":"Point","properties":{"Station_ID":"MA-MD-158","Station_Nam":"SHERBORN 1.1 NW, MA","Latitude":"42.24460","Longitude":"-71.38130","Snowdepth":"2.500","Units":"in","Rept_Date":"2020-04-18 10"},"coordinates":[5841,1745]},{"type":"Point","properties":{"Station_ID":"MA-FR-13","Station_Nam":"CONWAY 2.9 NW, MA","Latitude":"42.54419","Longitude":"-72.72743","Snowdepth":"2.500","Units":"in","Rept_Date":"2020-04-18 11"},"coordinates":[5507,2006]},{"type":"Point","properties":{"Station_ID":"MA-BR-3","Station_Nam":"NORTON 1.8 NNE, MA","Latitude":"41.99270","Longitude":"-71.16660","Snowdepth":"2.500","Units":"in","Rept_Date":"2020-04-18 11"},"coordinates":[5895,1526]},{"type":"Point","properties":{"Station_ID":"MA-BA-27","Station_Nam":"WELLFLEET 0.7 NW, MA","Latitude":"41.94100","Longitude":"-70.04330","Snowdepth":"2.500","Units":"in","Rept_Date":"2020-04-18 12"},"coordinates":[6173,1481]},{"type":"Point","properties":{"Station_ID":"IN-SN-5","Station_Nam":"HAMILTON 1.7 E, IN","Latitude":"41.53241","Longitude":"-84.88530","Snowdepth":"2.500","Units":"in","Rept_Date":"2020-04-18 11"},"coordinates":[2489,1125]},{"type":"Point","properties":{"Station_ID":"IN-EL-36","Station_Nam":"ELKHART 4.8 SW, IN","Latitude":"41.64249","Longitude":"-86.04150","Snowdepth":"2.500","Units":"in","Rept_Date":"2020-04-18 12"},"coordinates":[2202,1221]},{"type":"Point","properties":{"Station_ID":"IA-DV-8","Station_Nam":"BLOOMFIELD 6.5 E, IA","Latitude":"40.73552","Longitude":"-92.29492","Snowdepth":"2.500","Units":"in","Rept_Date":"2020-04-18 12"},"coordinates":[649,432]},{"type":"Point","properties":{"Station_ID":"CT-HR-88","Station_Nam":"SUFFIELD DEPOT 6.0 WNW, CT","Latitude":"42.02629","Longitude":"-72.75082","Snowdepth":"2.500","Units":"in","Rept_Date":"2020-04-18 11"},"coordinates":[5501,1555]},{"type":"Point","properties":{"Station_ID":"CAN-ON-324","Station_Nam":"AMHERSTBURG 4.0 NNE, CAN","Latitude":"42.13151","Longitude":"-83.08810","Snowdepth":"2.500","Units":"in","Rept_Date":"2020-04-18 11"},"coordinates":[2935,1647]},{"type":"Point","properties":{"Station_ID":"41.2942_081.2316","Station_Nam":"1 NNW Mantua  CoCoRaHS (OH-PT-13)","Latitude":"41.29420","Longitude":"-81.23160","Snowdepth":"2.500","Units":"in","Rept_Date":"2020-04-18 12"},"coordinates":[3396,918]},{"type":"Point","properties":{"Station_ID":"MA-WR-75","Station_Nam":"WARREN 2.4 WSW, MA","Latitude":"42.20400","Longitude":"-72.23540","Snowdepth":"2.400","Units":"in","Rept_Date":"2020-04-18 11"},"coordinates":[5629,1710]},{"type":"Point","properties":{"Station_ID":"IN-SN-3","Station_Nam":"HUDSON 4.6 N, IN","Latitude":"41.59970","Longitude":"-85.08950","Snowdepth":"2.400","Units":"in","Rept_Date":"2020-04-18 12"},"coordinates":[2438,1184]},{"type":"Point","properties":{"Station_ID":"NY-LV-1","Station_Nam":"DANSVILLE 3.6 WSW, NY","Latitude":"42.53210","Longitude":"-77.75540","Snowdepth":"2.200","Units":"in","Rept_Date":"2020-04-18 10"},"coordinates":[4259,1996]},{"type":"Point","properties":{"Station_ID":"MA-PL-22","Station_Nam":"EAST BRIDGEWATER 0.3 WSW, MA","Latitude":"42.03202","Longitude":"-70.95479","Snowdepth":"2.200","Units":"in","Rept_Date":"2020-04-18 11"},"coordinates":[5947,1560]},{"type":"Point","properties":{"Station_ID":"CT-HR-8","Station_Nam":"NORTH GRANBY 1.3 ENE, CT","Latitude":"42.02440","Longitude":"-72.82070","Snowdepth":"2.200","Units":"in","Rept_Date":"2020-04-18 11"},"coordinates":[5484,1554]},{"type":"Point","properties":{"Station_ID":"IN-SN-2","Station_Nam":"HUDSON 4.1 NNW, IN","Latitude":"41.59187","Longitude":"-85.10120","Snowdepth":"2.100","Units":"in","Rept_Date":"2020-04-18 11"},"coordinates":[2435,1177]},{"type":"Point","properties":{"Station_ID":"FTHQ6","Station_Nam":"FORT HOPE","Latitude":"51.55820","Longitude":"-87.90510","Snowdepth":"2.090","Units":"in","Rept_Date":"2020-04-19 06"},"coordinates":[1739,9852]},{"type":"Point","properties":{"Station_ID":"WYTM4","Station_Nam":"WYANDOTTE","Latitude":"42.20110","Longitude":"-83.16830","Snowdepth":"2.000","Units":"in","Rept_Date":"2020-04-18 12"},"coordinates":[2915,1708]},{"type":"Point","properties":{"Station_ID":"WVYN6","Station_Nam":"WAVERLY","Latitude":"41.98470","Longitude":"-76.50140","Snowdepth":"2.000","Units":"in","Rept_Date":"2020-04-18 11"},"coordinates":[4570,1519]},{"type":"Point","properties":{"Station_ID":"WSWN6","Station_Nam":"WARSAW","Latitude":"42.74220","Longitude":"-78.20850","Snowdepth":"2.000","Units":"in","Rept_Date":"2020-04-18 11"},"coordinates":[4146,2179]},{"type":"Point","properties":{"Station_ID":"WRSN6","Station_Nam":"WARSAW 6SW","Latitude":"42.68550","Longitude":"-78.22020","Snowdepth":"2.000","Units":"in","Rept_Date":"2020-04-18 11"},"coordinates":[4143,2129]},{"type":"Point","properties":{"Station_ID":"WNSR1","Station_Nam":"WOONSOCKET","Latitude":"41.98440","Longitude":"-71.49070","Snowdepth":"2.000","Units":"in","Rept_Date":"2020-04-18 13"},"coordinates":[5814,1519]},{"type":"Point","properties":{"Station_ID":"WITN6","Station_Nam":"WHITNEY POINT DAM","Latitude":"42.34180","Longitude":"-75.96530","Snowdepth":"2.000","Units":"in","Rept_Date":"2020-04-18 12"},"coordinates":[4703,1830]},{"type":"Point","properties":{"Station_ID":"WI-VL-14","Station_Nam":"BOULDER JUNCTION 1.4 NE, WI","Latitude":"46.12840","Longitude":"-89.62470","Snowdepth":"2.000","Units":"in","Rept_Date":"2020-04-18 12"},"coordinates":[1312,5126]},{"type":"Point","properties":{"Station_ID":"VT-WH-9","Station_Nam":"WEST HALIFAX 0.2 SE, VT","Latitude":"42.78561","Longitude":"-72.76950","Snowdepth":"2.000","Units":"in","Rept_Date":"2020-04-18 11"},"coordinates":[5497,2216]},{"type":"Point","properties":{"Station_ID":"VT-BN-12","Station_Nam":"STAMFORD 5.0 NNE, VT","Latitude":"42.82000","Longitude":"-73.02000","Snowdepth":"2.000","Units":"in","Rept_Date":"2020-04-18 19"},"coordinates":[5434,2246]},{"type":"Point","properties":{"Station_ID":"SVSN6","Station_Nam":"SILVER SPRINGS 3N","Latitude":"42.70580","Longitude":"-78.09370","Snowdepth":"2.000","Units":"in","Rept_Date":"2020-04-18 11"},"coordinates":[4175,2147]},{"type":"Point","properties":{"Station_ID":"SLNM4","Station_Nam":"SALINE,MI","Latitude":"42.13330","Longitude":"-83.81670","Snowdepth":"2.000","Units":"in","Rept_Date":"2020-04-18 13"},"coordinates":[2754,1649]},{"type":"Point","properties":{"Station_ID":"SHBN6","Station_Nam":"SHERBURNE","Latitude":"42.67730","Longitude":"-75.50660","Snowdepth":"2.000","Units":"in","Rept_Date":"2020-04-18 11"},"coordinates":[4817,2122]},{"type":"Point","properties":{"Station_ID":"SFVC3","Station_Nam":"STAFFORDVILLE","Latitude":"41.99840","Longitude":"-72.26060","Snowdepth":"2.000","Units":"in","Rept_Date":"2020-04-18 09"},"coordinates":[5623,1531]},{"type":"Point","properties":{"Station_ID":"SAYP1","Station_Nam":"SAYLORSBURG,PA","Latitude":"40.91670","Longitude":"-75.33330","Snowdepth":"2.000","Units":"in","Rept_Date":"2020-04-18 12"},"coordinates":[4860,590]},{"type":"Point","properties":{"Station_ID":"RLKW3","Station_Nam":"REST LAKE","Latitude":"46.12220","Longitude":"-89.87720","Snowdepth":"2.000","Units":"in","Rept_Date":"2020-04-18 13"},"coordinates":[1250,5121]},{"type":"Point","properties":{"Station_ID":"RKHN6","Station_Nam":"ROCK HILL 3 SW","Latitude":"41.59170","Longitude":"-74.61410","Snowdepth":"2.000","Units":"in","Rept_Date":"2020-04-18 11"},"coordinates":[5039,1177]},{"type":"Point","properties":{"Station_ID":"RI-PR-82","Station_Nam":"PROVIDENCE 1.6 NNW, RI","Latitude":"41.84110","Longitude":"-71.43575","Snowdepth":"2.000","Units":"in","Rept_Date":"2020-04-18 11"},"coordinates":[5828,1394]},{"type":"Point","properties":{"Station_ID":"RHIW3","Station_Nam":"RHINELANDER","Latitude":"45.59860","Longitude":"-89.45080","Snowdepth":"2.000","Units":"in","Rept_Date":"2020-04-18 12"},"coordinates":[1355,4665]},{"type":"Point","properties":{"Station_ID":"PYMI3","Station_Nam":"PLYMOUTH","Latitude":"41.33920","Longitude":"-86.33580","Snowdepth":"2.000","Units":"in","Rept_Date":"2020-04-18 11"},"coordinates":[2129,957]},{"type":"Point","properties":{"Station_ID":"PRNW3","Station_Nam":"PRENTICE,WI","Latitude":"45.54780","Longitude":"-90.30000","Snowdepth":"2.000","Units":"in","Rept_Date":"2020-04-18 13"},"coordinates":[1145,4621]},{"type":"Point","properties":{"Station_ID":"PHON6","Station_Nam":"PHOENICIA 2SW","Latitude":"42.06420","Longitude":"-74.34080","Snowdepth":"2.000","Units":"in","Rept_Date":"2020-04-18 11"},"coordinates":[5107,1588]},{"type":"Point","properties":{"Station_ID":"OH-WD-14","Station_Nam":"PERRYSBURG 1.6 WSW, OH","Latitude":"41.54114","Longitude":"-83.64970","Snowdepth":"2.000","Units":"in","Rept_Date":"2020-04-18 11"},"coordinates":[2796,1133]},{"type":"Point","properties":{"Station_ID":"OH-PT-9","Station_Nam":"HIRAM 0.4 N, OH","Latitude":"41.31595","Longitude":"-81.14340","Snowdepth":"2.000","Units":"in","Rept_Date":"2020-04-18 12"},"coordinates":[3418,937]},{"type":"Point","properties":{"Station_ID":"NY-WY-7","Station_Nam":"VARYSBURG 3.1 E, NY","Latitude":"42.75646","Longitude":"-78.24890","Snowdepth":"2.000","Units":"in","Rept_Date":"2020-04-18 12"},"coordinates":[4136,2191]},{"type":"Point","properties":{"Station_ID":"NY-WY-11","Station_Nam":"SILVER SPRINGS COOP, NY","Latitude":"42.70580","Longitude":"-78.09370","Snowdepth":"2.000","Units":"in","Rept_Date":"2020-04-18 11"},"coordinates":[4175,2147]},{"type":"Point","properties":{"Station_ID":"NY-UL-23","Station_Nam":"WEST HURLEY 0.1 S, NY","Latitude":"42.00455","Longitude":"-74.11094","Snowdepth":"2.000","Units":"in","Rept_Date":"2020-04-18 12"},"coordinates":[5164,1536]},{"type":"Point","properties":{"Station_ID":"NY-UL-16","Station_Nam":"ROSENDALE VILLAGE 1.8 WNW, NY","Latitude":"41.86083","Longitude":"-74.10750","Snowdepth":"2.000","Units":"in","Rept_Date":"2020-04-18 12"},"coordinates":[5164,1411]},{"type":"Point","properties":{"Station_ID":"NY-TM-5","Station_Nam":"FREEVILLE 1.5 NE, NY","Latitude":"42.52530","Longitude":"-76.32180","Snowdepth":"2.000","Units":"in","Rept_Date":"2020-04-18 11"},"coordinates":[4615,1990]},{"type":"Point","properties":{"Station_ID":"NY-TM-4","Station_Nam":"GROTON 0.5 NW, NY","Latitude":"42.59127","Longitude":"-76.37200","Snowdepth":"2.000","Units":"in","Rept_Date":"2020-04-18 12"},"coordinates":[4602,2047]},{"type":"Point","properties":{"Station_ID":"NY-SY-12","Station_Nam":"DUNDEE 5.7 ESE, NY","Latitude":"42.49807","Longitude":"-76.87150","Snowdepth":"2.000","Units":"in","Rept_Date":"2020-04-18 14"},"coordinates":[4478,1966]},{"type":"Point","properties":{"Station_ID":"NY-SY-11","Station_Nam":"DUNDEE 6.2 E, NY","Latitude":"42.52210","Longitude":"-76.85580","Snowdepth":"2.000","Units":"in","Rept_Date":"2020-04-18 11"},"coordinates":[4482,1987]},{"type":"Point","properties":{"Station_ID":"NY-FL-7","Station_Nam":"BROADALBIN 4.7 ESE, NY","Latitude":"43.03940","Longitude":"-74.10845","Snowdepth":"2.000","Units":"in","Rept_Date":"2020-04-18 13"},"coordinates":[5164,2437]},{"type":"Point","properties":{"Station_ID":"NY-CT-2","Station_Nam":"RANDOLPH 1.1 ENE, NY","Latitude":"42.17056","Longitude":"-78.96120","Snowdepth":"2.000","Units":"in","Rept_Date":"2020-04-18 11"},"coordinates":[3960,1681]},{"type":"Point","properties":{"Station_ID":"NY-CQ-35","Station_Nam":"FALCONER 0.3 WSW, NY","Latitude":"42.11766","Longitude":"-79.20278","Snowdepth":"2.000","Units":"in","Rept_Date":"2020-04-18 11"},"coordinates":[3900,1635]},{"type":"Point","properties":{"Station_ID":"NRWN6","Station_Nam":"NORWICH","Latitude":"42.51170","Longitude":"-75.51970","Snowdepth":"2.000","Units":"in","Rept_Date":"2020-04-18 10"},"coordinates":[4814,1978]},{"type":"Point","properties":{"Station_ID":"NRNM3","Station_Nam":"NORTON WEST","Latitude":"41.99280","Longitude":"-71.16660","Snowdepth":"2.000","Units":"in","Rept_Date":"2020-04-18 11"},"coordinates":[5895,1526]},{"type":"Point","properties":{"Station_ID":"MLLW3","Station_Nam":"MERRILL 8W","Latitude":"45.17810","Longitude":"-89.84810","Snowdepth":"2.000","Units":"in","Rept_Date":"2020-04-18 11"},"coordinates":[1257,4299]},{"type":"Point","properties":{"Station_ID":"MIEM4","Station_Nam":"MICHIGAMME 3WNW","Latitude":"46.54530","Longitude":"-88.18000","Snowdepth":"2.000","Units":"in","Rept_Date":"2020-04-18 12"},"coordinates":[1671,5489]},{"type":"Point","properties":{"Station_ID":"MI-WS-25","Station_Nam":"SALINE 3.8 SSW, MI","Latitude":"42.12618","Longitude":"-83.81090","Snowdepth":"2.000","Units":"in","Rept_Date":"2020-04-18 11"},"coordinates":[2756,1642]},{"type":"Point","properties":{"Station_ID":"MI-LN-16","Station_Nam":"CLINTON 0.5 NE, MI","Latitude":"42.07710","Longitude":"-83.96530","Snowdepth":"2.000","Units":"in","Rept_Date":"2020-04-18 10"},"coordinates":[2717,1600]},{"type":"Point","properties":{"Station_ID":"MI-JC-13","Station_Nam":"HANOVER 3.8 W, MI","Latitude":"42.10700","Longitude":"-84.62600","Snowdepth":"2.000","Units":"in","Rept_Date":"2020-04-18 12"},"coordinates":[2553,1626]},{"type":"Point","properties":{"Station_ID":"MI-JC-11","Station_Nam":"JACKSON 3.2 W, MI","Latitude":"42.24061","Longitude":"-84.46690","Snowdepth":"2.000","Units":"in","Rept_Date":"2020-04-18 12"},"coordinates":[2593,1742]},{"type":"Point","properties":{"Station_ID":"MA-WR-8","Station_Nam":"FITCHBURG 1.6 SSW, MA","Latitude":"42.56674","Longitude":"-71.82170","Snowdepth":"2.000","Units":"in","Rept_Date":"2020-04-18 14"},"coordinates":[5732,2026]},{"type":"Point","properties":{"Station_ID":"MA-WR-58","Station_Nam":"LUNENBURG 0.6 NE, MA","Latitude":"42.60180","Longitude":"-71.71653","Snowdepth":"2.000","Units":"in","Rept_Date":"2020-04-18 12"},"coordinates":[5758,2056]},{"type":"Point","properties":{"Station_ID":"MA-WR-54","Station_Nam":"BARRE 1.4 NNE, MA","Latitude":"42.44082","Longitude":"-72.09591","Snowdepth":"2.000","Units":"in","Rept_Date":"2020-04-18 11"},"coordinates":[5664,1916]},{"type":"Point","properties":{"Station_ID":"MA-PL-36","Station_Nam":"HINGHAM 0.8 ESE, MA","Latitude":"42.23093","Longitude":"-70.87448","Snowdepth":"2.000","Units":"in","Rept_Date":"2020-04-18 11"},"coordinates":[5967,1733]},{"type":"Point","properties":{"Station_ID":"MA-PL-31","Station_Nam":"BRIDGEWATER 1.8 SE, MA","Latitude":"41.97174","Longitude":"-70.94377","Snowdepth":"2.000","Units":"in","Rept_Date":"2020-04-18 12"},"coordinates":[5950,1508]},{"type":"Point","properties":{"Station_ID":"MA-PL-30","Station_Nam":"DUXBURY 3.7 W, MA","Latitude":"42.04238","Longitude":"-70.74616","Snowdepth":"2.000","Units":"in","Rept_Date":"2020-04-18 11"},"coordinates":[5999,1569]},{"type":"Point","properties":{"Station_ID":"MA-PL-23","Station_Nam":"PEMBROKE 2.8 SW, MA","Latitude":"42.03841","Longitude":"-70.83937","Snowdepth":"2.000","Units":"in","Rept_Date":"2020-04-18 12"},"coordinates":[5976,1566]},{"type":"Point","properties":{"Station_ID":"MA-PL-15","Station_Nam":"ABINGTON 1.2 NNE, MA","Latitude":"42.13426","Longitude":"-70.95208","Snowdepth":"2.000","Units":"in","Rept_Date":"2020-04-18 11"},"coordinates":[5948,1649]},{"type":"Point","properties":{"Station_ID":"MA-MD-80","Station_Nam":"LINCOLN 1.5 SW, MA","Latitude":"42.40398","Longitude":"-71.32421","Snowdepth":"2.000","Units":"in","Rept_Date":"2020-04-18 12"},"coordinates":[5855,1884]},{"type":"Point","properties":{"Station_ID":"MA-MD-52","Station_Nam":"LEXINGTON 0.6 SW, MA","Latitude":"42.43983","Longitude":"-71.24047","Snowdepth":"2.000","Units":"in","Rept_Date":"2020-04-18 11"},"coordinates":[5876,1915]},{"type":"Point","properties":{"Station_ID":"MA-MD-115","Station_Nam":"HUDSON 1.4 NW, MA","Latitude":"42.40372","Longitude":"-71.58680","Snowdepth":"2.000","Units":"in","Rept_Date":"2020-04-18 11"},"coordinates":[5790,1884]},{"type":"Point","properties":{"Station_ID":"MA-HS-12","Station_Nam":"NORTHAMPTON 0.4 S, MA","Latitude":"42.32072","Longitude":"-72.67383","Snowdepth":"2.000","Units":"in","Rept_Date":"2020-04-18 13"},"coordinates":[5520,1812]},{"type":"Point","properties":{"Station_ID":"MA-BR-8","Station_Nam":"DIGHTON 1.1 WSW, MA","Latitude":"41.81198","Longitude":"-71.13650","Snowdepth":"2.000","Units":"in","Rept_Date":"2020-04-18 11"},"coordinates":[5902,1369]},{"type":"Point","properties":{"Station_ID":"MA-BR-58","Station_Nam":"DIGHTON 3.3 NNW, MA","Latitude":"41.85802","Longitude":"-71.14733","Snowdepth":"2.000","Units":"in","Rept_Date":"2020-04-18 12"},"coordinates":[5899,1409]},{"type":"Point","properties":{"Station_ID":"MA-BR-30","Station_Nam":"TAUNTON 3.9 N, MA","Latitude":"41.95813","Longitude":"-71.08211","Snowdepth":"2.000","Units":"in","Rept_Date":"2020-04-18 11"},"coordinates":[5916,1496]},{"type":"Point","properties":{"Station_ID":"MA-BR-23","Station_Nam":"ATTLEBORO 0.9 ENE, MA","Latitude":"41.93583","Longitude":"-71.28055","Snowdepth":"2.000","Units":"in","Rept_Date":"2020-04-18 12"},"coordinates":[5866,1477]},{"type":"Point","properties":{"Station_ID":"MA-BR-2","Station_Nam":"REHOBOTH 2.1 N, MA","Latitude":"41.86302","Longitude":"-71.27290","Snowdepth":"2.000","Units":"in","Rept_Date":"2020-04-18 11"},"coordinates":[5868,1413]},{"type":"Point","properties":{"Station_ID":"LTVN6","Station_Nam":"LITTLE VALLEY","Latitude":"42.24730","Longitude":"-78.81250","Snowdepth":"2.000","Units":"in","Rept_Date":"2020-04-18 11"},"coordinates":[3996,1748]},{"type":"Point","properties":{"Station_ID":"KCEF","Station_Nam":"CHICOPEE FALLS / WESTOVER AIR FORCE BASE","Latitude":"42.20000","Longitude":"-72.53333","Snowdepth":"2.000","Units":"in","Rept_Date":"2020-04-18 12"},"coordinates":[5555,1707]},{"type":"Point","properties":{"Station_ID":"KBDL","Station_Nam":"BRADLEY INTERNATIONAL AIRPORT","Latitude":"41.93333","Longitude":"-72.68333","Snowdepth":"2.000","Units":"in","Rept_Date":"2020-04-18 12"},"coordinates":[5518,1474]},{"type":"Point","properties":{"Station_ID":"JSTN6","Station_Nam":"JAMESTOWN 4 ENE","Latitude":"42.11000","Longitude":"-79.15910","Snowdepth":"2.000","Units":"in","Rept_Date":"2020-04-18 10"},"coordinates":[3910,1628]},{"type":"Point","properties":{"Station_ID":"JPBM3","Station_Nam":"JAMAICA PLAIN","Latitude":"42.30310","Longitude":"-71.12400","Snowdepth":"2.000","Units":"in","Rept_Date":"2020-04-18 12"},"coordinates":[5905,1796]},{"type":"Point","properties":{"Station_ID":"IRMM4","Station_Nam":"WWTP","Latitude":"46.46670","Longitude":"-90.18330","Snowdepth":"2.000","Units":"in","Rept_Date":"2020-04-18 12"},"coordinates":[1174,5420]},{"type":"Point","properties":{"Station_ID":"IN-SJ-17","Station_Nam":"WALKERTON 5.7 ENE, IN","Latitude":"41.50190","Longitude":"-86.38510","Snowdepth":"2.000","Units":"in","Rept_Date":"2020-04-18 11"},"coordinates":[2116,1099]},{"type":"Point","properties":{"Station_ID":"IN-PT-3","Station_Nam":"VALPARAISO 2.0 WSW, IN","Latitude":"41.46741","Longitude":"-87.08750","Snowdepth":"2.000","Units":"in","Rept_Date":"2020-04-18 11"},"coordinates":[1942,1069]},{"type":"Point","properties":{"Station_ID":"IN-PT-133","Station_Nam":"VALPARAISO 2.2 WNW, IN","Latitude":"41.49345","Longitude":"-87.08720","Snowdepth":"2.000","Units":"in","Rept_Date":"2020-04-18 12"},"coordinates":[1942,1092]},{"type":"Point","properties":{"Station_ID":"IN-NB-11","Station_Nam":"ALBION 3.7 S, IN","Latitude":"41.34161","Longitude":"-85.41560","Snowdepth":"2.000","Units":"in","Rept_Date":"2020-04-18 13"},"coordinates":[2357,959]},{"type":"Point","properties":{"Station_ID":"IN-LG-5","Station_Nam":"LAGRANGE 1.3 ENE, IN","Latitude":"41.65270","Longitude":"-85.39630","Snowdepth":"2.000","Units":"in","Rept_Date":"2020-04-18 12"},"coordinates":[2362,1230]},{"type":"Point","properties":{"Station_ID":"IN-EL-39","Station_Nam":"GOSHEN 3.0 WSW, IN","Latitude":"41.55775","Longitude":"-85.88342","Snowdepth":"2.000","Units":"in","Rept_Date":"2020-04-18 11"},"coordinates":[2241,1148]},{"type":"Point","properties":{"Station_ID":"IL-KX-9","Station_Nam":"KNOXVILLE 0.7 NW, IL","Latitude":"40.91356","Longitude":"-90.29350","Snowdepth":"2.000","Units":"in","Rept_Date":"2020-04-18 12"},"coordinates":[1146,587]},{"type":"Point","properties":{"Station_ID":"IA-DV-7","Station_Nam":"BLOOMFIELD 4.2 WNW, IA","Latitude":"40.77675","Longitude":"-92.48850","Snowdepth":"2.000","Units":"in","Rept_Date":"2020-04-18 12"},"coordinates":[601,468]},{"type":"Point","properties":{"Station_ID":"HRLN6","Station_Nam":"HORNELL ALMOND DAM","Latitude":"42.34880","Longitude":"-77.70440","Snowdepth":"2.000","Units":"in","Rept_Date":"2020-04-18 14"},"coordinates":[4272,1836]},{"type":"Point","properties":{"Station_ID":"GRCM7","Station_Nam":"GREEN CITY","Latitude":"40.35030","Longitude":"-92.94920","Snowdepth":"2.000","Units":"in","Rept_Date":"2020-04-18 12"},"coordinates":[487,97]},{"type":"Point","properties":{"Station_ID":"GNEN6","Station_Nam":"GREENE","Latitude":"42.32440","Longitude":"-75.77170","Snowdepth":"2.000","Units":"in","Rept_Date":"2020-04-18 11"},"coordinates":[4751,1815]},{"type":"Point","properties":{"Station_ID":"GHMN3","Station_Nam":"PINKHAM NOTCH","Latitude":"44.25800","Longitude":"-71.25250","Snowdepth":"2.000","Units":"in","Rept_Date":"2020-04-18 10"},"coordinates":[5873,3498]},{"type":"Point","properties":{"Station_ID":"ESDN6","Station_Nam":"EAST SIDNEY","Latitude":"42.33290","Longitude":"-75.22960","Snowdepth":"2.000","Units":"in","Rept_Date":"2020-04-18 12"},"coordinates":[4886,1822]},{"type":"Point","properties":{"Station_ID":"EMRN6","Station_Nam":"ELMIRA","Latitude":"42.09970","Longitude":"-76.83580","Snowdepth":"2.000","Units":"in","Rept_Date":"2020-04-18 11"},"coordinates":[4487,1619]},{"type":"Point","properties":{"Station_ID":"DNDM4","Station_Nam":"DUNDEE,MI","Latitude":"41.95000","Longitude":"-83.65000","Snowdepth":"2.000","Units":"in","Rept_Date":"2020-04-18 11"},"coordinates":[2795,1489]},{"type":"Point","properties":{"Station_ID":"CTYR1","Station_Nam":"COVENTRY 2","Latitude":"41.66840","Longitude":"-71.55710","Snowdepth":"2.000","Units":"in","Rept_Date":"2020-04-18 11"},"coordinates":[5798,1244]},{"type":"Point","properties":{"Station_ID":"CT-WN-6","Station_Nam":"DAYVILLE 2.0 ENE, CT","Latitude":"41.85585","Longitude":"-71.85170","Snowdepth":"2.000","Units":"in","Rept_Date":"2020-04-18 13"},"coordinates":[5725,1407]},{"type":"Point","properties":{"Station_ID":"CT-TL-2","Station_Nam":"STAFFORDVILLE 0.4 NNW, CT","Latitude":"41.99874","Longitude":"-72.26100","Snowdepth":"2.000","Units":"in","Rept_Date":"2020-04-18 10"},"coordinates":[5623,1531]},{"type":"Point","properties":{"Station_ID":"CT-HR-39","Station_Nam":"FARMINGTON 1.6 SW, CT","Latitude":"41.71693","Longitude":"-72.81224","Snowdepth":"2.000","Units":"in","Rept_Date":"2020-04-18 13"},"coordinates":[5486,1286]},{"type":"Point","properties":{"Station_ID":"CSBP1","Station_Nam":"COOKSBURG","Latitude":"41.35750","Longitude":"-79.21720","Snowdepth":"2.000","Units":"in","Rept_Date":"2020-04-18 13"},"coordinates":[3896,973]},{"type":"Point","properties":{"Station_ID":"CHLM4","Station_Nam":"CHELSEA,MI","Latitude":"42.31670","Longitude":"-84.01670","Snowdepth":"2.000","Units":"in","Rept_Date":"2020-04-18 13"},"coordinates":[2704,1808]},{"type":"Point","properties":{"Station_ID":"CCPM7","Station_Nam":"CONCEPTION","Latitude":"40.23940","Longitude":"-94.68330","Snowdepth":"2.000","Units":"in","Rept_Date":"2020-04-18 13"},"coordinates":[56,0]},{"type":"Point","properties":{"Station_ID":"CAN-NB-96","Station_Nam":"SAINT-IGNACE 2.6 NE, CAN","Latitude":"46.71424","Longitude":"-65.05609","Snowdepth":"2.000","Units":"in","Rept_Date":"2020-04-18 10"},"coordinates":[7412,5636]},{"type":"Point","properties":{"Station_ID":"AVTW3","Station_Nam":"ARBOR VITAE-JOHNSON LAKE","Latitude":"45.89940","Longitude":"-89.72670","Snowdepth":"2.000","Units":"in","Rept_Date":"2020-04-18 11"},"coordinates":[1287,4927]},{"type":"Point","properties":{"Station_ID":"AURW3","Station_Nam":"AURORA","Latitude":"45.77000","Longitude":"-88.11810","Snowdepth":"2.000","Units":"in","Rept_Date":"2020-04-18 13"},"coordinates":[1686,4814]},{"type":"Point","properties":{"Station_ID":"ASTW3","Station_Nam":"ATHELSTANE","Latitude":"45.42500","Longitude":"-88.05750","Snowdepth":"2.000","Units":"in","Rept_Date":"2020-04-18 11"},"coordinates":[1701,4514]},{"type":"Point","properties":{"Station_ID":"ASBM3","Station_Nam":"ASHBURNHAM","Latitude":"42.61780","Longitude":"-71.91590","Snowdepth":"2.000","Units":"in","Rept_Date":"2020-04-18 11"},"coordinates":[5709,2070]},{"type":"Point","properties":{"Station_ID":"AGSW3","Station_Nam":"AUGUSTA RANGER STATION","Latitude":"44.68250","Longitude":"-91.13570","Snowdepth":"2.000","Units":"in","Rept_Date":"2020-04-18 13"},"coordinates":[937,3867]},{"type":"Point","properties":{"Station_ID":"AGNW3","Station_Nam":"ARGONNE-1.5 NW","Latitude":"45.67360","Longitude":"-88.90380","Snowdepth":"2.000","Units":"in","Rept_Date":"2020-04-18 13"},"coordinates":[1491,4730]},{"type":"Point","properties":{"Station_ID":"AASM4","Station_Nam":"ANN ARBOR SE","Latitude":"42.24160","Longitude":"-83.69330","Snowdepth":"2.000","Units":"in","Rept_Date":"2020-04-18 11"},"coordinates":[2785,1743]},{"type":"Point","properties":{"Station_ID":"41.5411_083.6497","Station_Nam":"2 WSW Perrysburg  CoCoRaHS (OH-WD-14)","Latitude":"41.54110","Longitude":"-83.64970","Snowdepth":"2.000","Units":"in","Rept_Date":"2020-04-18 09"},"coordinates":[2796,1133]},{"type":"Point","properties":{"Station_ID":"41.3160_081.1434","Station_Nam":"N Hiram  CoCoRaHS (OH-PT-9)","Latitude":"41.31600","Longitude":"-81.14340","Snowdepth":"2.000","Units":"in","Rept_Date":"2020-04-18 12"},"coordinates":[3418,937]},{"type":"Point","properties":{"Station_ID":"41.3151_081.1434","Station_Nam":"HIRAM (CLE2220)","Latitude":"41.31510","Longitude":"-81.14340","Snowdepth":"2.000","Units":"in","Rept_Date":"2020-04-18 13"},"coordinates":[3418,936]},{"type":"Point","properties":{"Station_ID":"MI-WY-125","Station_Nam":"CANTON 2.7 N, MI","Latitude":"42.34732","Longitude":"-83.47286","Snowdepth":"1.900","Units":"in","Rept_Date":"2020-04-18 11"},"coordinates":[2839,1835]},{"type":"Point","properties":{"Station_ID":"MA-NF-58","Station_Nam":"PLAINVILLE 0.6 NNW, MA","Latitude":"42.00830","Longitude":"-71.33850","Snowdepth":"1.900","Units":"in","Rept_Date":"2020-04-18 11"},"coordinates":[5852,1540]},{"type":"Point","properties":{"Station_ID":"IL-WL-97","Station_Nam":"NEW LENOX 3.3 E, IL","Latitude":"41.51934","Longitude":"-87.91930","Snowdepth":"1.900","Units":"in","Rept_Date":"2020-04-18 12"},"coordinates":[1736,1114]},{"type":"Point","properties":{"Station_ID":"NY-GR-6","Station_Nam":"FREEHOLD 3.4 E, NY","Latitude":"42.36045","Longitude":"-73.98350","Snowdepth":"1.800","Units":"in","Rept_Date":"2020-04-18 11"},"coordinates":[5195,1846]},{"type":"Point","properties":{"Station_ID":"MA-HS-26","Station_Nam":"EASTHAMPTON 0.5 SW, MA","Latitude":"42.26110","Longitude":"-72.68920","Snowdepth":"1.800","Units":"in","Rept_Date":"2020-04-18 11"},"coordinates":[5517,1760]},{"type":"Point","properties":{"Station_ID":"MA-HD-28","Station_Nam":"WESTFIELD 2.8 SE, MA","Latitude":"42.10685","Longitude":"-72.72148","Snowdepth":"1.800","Units":"in","Rept_Date":"2020-04-18 10"},"coordinates":[5509,1625]},{"type":"Point","properties":{"Station_ID":"CATQ6","Station_Nam":"CAT LAKE","Latitude":"51.72690","Longitude":"-91.82210","Snowdepth":"1.770","Units":"in","Rept_Date":"2020-04-19 06"},"coordinates":[767,9999]},{"type":"Point","properties":{"Station_ID":"CT-HR-99","Station_Nam":"SUFFIELD 3.6 ENE, CT","Latitude":"42.01498","Longitude":"-72.63842","Snowdepth":"1.700","Units":"in","Rept_Date":"2020-04-18 11"},"coordinates":[5529,1546]},{"type":"Point","properties":{"Station_ID":"MA-BE-21","Station_Nam":"CHESHIRE 0.5 NNW, MA","Latitude":"42.56315","Longitude":"-73.15701","Snowdepth":"1.600","Units":"in","Rept_Date":"2020-04-18 11"},"coordinates":[5400,2023]},{"type":"Point","properties":{"Station_ID":"WI-LN-2","Station_Nam":"MERRILL 7.0 W, WI","Latitude":"45.17746","Longitude":"-89.84820","Snowdepth":"1.500","Units":"in","Rept_Date":"2020-04-18 11"},"coordinates":[1257,4298]},{"type":"Point","properties":{"Station_ID":"OH-LS-23","Station_Nam":"SWANTON 6.7 NNE, OH","Latitude":"41.67098","Longitude":"-83.83534","Snowdepth":"1.500","Units":"in","Rept_Date":"2020-04-18 11"},"coordinates":[2749,1246]},{"type":"Point","properties":{"Station_ID":"OH-HY-7","Station_Nam":"NAPOLEON 0.6 WSW, OH","Latitude":"41.39101","Longitude":"-84.13780","Snowdepth":"1.500","Units":"in","Rept_Date":"2020-04-18 12"},"coordinates":[2674,1002]},{"type":"Point","properties":{"Station_ID":"NY-YT-8","Station_Nam":"MIDDLESEX 3.5 S, NY","Latitude":"42.65390","Longitude":"-77.26600","Snowdepth":"1.500","Units":"in","Rept_Date":"2020-04-18 13"},"coordinates":[4380,2102]},{"type":"Point","properties":{"Station_ID":"NY-UL-19","Station_Nam":"WOODSTOCK 0.8 ENE, NY","Latitude":"42.04097","Longitude":"-74.09588","Snowdepth":"1.500","Units":"in","Rept_Date":"2020-04-18 11"},"coordinates":[5167,1568]},{"type":"Point","properties":{"Station_ID":"NY-TM-38","Station_Nam":"TRUMANSBURG 0.4 WNW, NY","Latitude":"42.54205","Longitude":"-76.66870","Snowdepth":"1.500","Units":"in","Rept_Date":"2020-04-18 11"},"coordinates":[4529,2004]},{"type":"Point","properties":{"Station_ID":"NY-CT-22","Station_Nam":"FRANKLINVILLE 0.5 NNE, NY","Latitude":"42.34166","Longitude":"-78.45280","Snowdepth":"1.500","Units":"in","Rept_Date":"2020-04-18 12"},"coordinates":[4086,1830]},{"type":"Point","properties":{"Station_ID":"NH-CR-15","Station_Nam":"JACKSON 3.7 NW, NH","Latitude":"44.19069","Longitude":"-71.22598","Snowdepth":"1.500","Units":"in","Rept_Date":"2020-04-18 11"},"coordinates":[5880,3439]},{"type":"Point","properties":{"Station_ID":"MI-KZ-1","Station_Nam":"KALAMAZOO 6.0 SW, MI","Latitude":"42.20613","Longitude":"-85.65900","Snowdepth":"1.500","Units":"in","Rept_Date":"2020-04-18 12"},"coordinates":[2297,1712]},{"type":"Point","properties":{"Station_ID":"MI-BN-3","Station_Nam":"BUCHANAN 1.4 ESE, MI","Latitude":"41.81829","Longitude":"-86.34230","Snowdepth":"1.500","Units":"in","Rept_Date":"2020-04-18 11"},"coordinates":[2127,1374]},{"type":"Point","properties":{"Station_ID":"MA-MD-81","Station_Nam":"WAKEFIELD 0.5 NNW, MA","Latitude":"42.51171","Longitude":"-71.07007","Snowdepth":"1.500","Units":"in","Rept_Date":"2020-04-18 12"},"coordinates":[5919,1978]},{"type":"Point","properties":{"Station_ID":"MA-MD-126","Station_Nam":"MELROSE 0.5 NE, MA","Latitude":"42.46055","Longitude":"-71.05396","Snowdepth":"1.500","Units":"in","Rept_Date":"2020-04-18 11"},"coordinates":[5923,1933]},{"type":"Point","properties":{"Station_ID":"MA-MD-12","Station_Nam":"ACTON 1.3 SW, MA","Latitude":"42.46746","Longitude":"-71.48200","Snowdepth":"1.500","Units":"in","Rept_Date":"2020-04-18 11"},"coordinates":[5816,1939]},{"type":"Point","properties":{"Station_ID":"IN-AL-6","Station_Nam":"FORT WAYNE 5.4 WSW, IN","Latitude":"41.05315","Longitude":"-85.23890","Snowdepth":"1.500","Units":"in","Rept_Date":"2020-04-18 11"},"coordinates":[2401,708]},{"type":"Point","properties":{"Station_ID":"IN-AL-53","Station_Nam":"FORT WAYNE 5.5 N, IN","Latitude":"41.15350","Longitude":"-85.13290","Snowdepth":"1.500","Units":"in","Rept_Date":"2020-04-18 12"},"coordinates":[2427,796]},{"type":"Point","properties":{"Station_ID":"IN-AL-51","Station_Nam":"FORT WAYNE 2.6 NE, IN","Latitude":"41.10262","Longitude":"-85.10830","Snowdepth":"1.500","Units":"in","Rept_Date":"2020-04-18 11"},"coordinates":[2433,751]},{"type":"Point","properties":{"Station_ID":"IA-TY-2","Station_Nam":"NEW MARKET 4.7 N, IA","Latitude":"40.80060","Longitude":"-94.91020","Snowdepth":"1.500","Units":"in","Rept_Date":"2020-04-18 12"},"coordinates":[0,488]},{"type":"Point","properties":{"Station_ID":"CT-LT-28","Station_Nam":"CANAAN 4.2 ESE, CT","Latitude":"42.00963","Longitude":"-73.25603","Snowdepth":"1.500","Units":"in","Rept_Date":"2020-04-18 11"},"coordinates":[5376,1541]},{"type":"Point","properties":{"Station_ID":"41.6710_083.8354","Station_Nam":"7 NNE Swanton  CoCoRaHS (OH-LS-23)","Latitude":"41.67100","Longitude":"-83.83540","Snowdepth":"1.500","Units":"in","Rept_Date":"2020-04-18 11"},"coordinates":[2749,1246]},{"type":"Point","properties":{"Station_ID":"MA-MD-7","Station_Nam":"WINCHESTER 0.7 SE, MA","Latitude":"42.44594","Longitude":"-71.13580","Snowdepth":"1.400","Units":"in","Rept_Date":"2020-04-18 11"},"coordinates":[5902,1921]},{"type":"Point","properties":{"Station_ID":"OH-PT-10","Station_Nam":"KENT 3.6 NE, OH","Latitude":"41.20083","Longitude":"-81.33890","Snowdepth":"1.300","Units":"in","Rept_Date":"2020-04-18 12"},"coordinates":[3369,837]},{"type":"Point","properties":{"Station_ID":"NY-UL-29","Station_Nam":"HIGHLAND 0.2 SW, NY","Latitude":"41.71486","Longitude":"-73.96839","Snowdepth":"1.300","Units":"in","Rept_Date":"2020-04-18 11"},"coordinates":[5199,1284]},{"type":"Point","properties":{"Station_ID":"NY-CY-31","Station_Nam":"SCIPIO CENTER 3.0 S, NY","Latitude":"42.74002","Longitude":"-76.55682","Snowdepth":"1.300","Units":"in","Rept_Date":"2020-04-18 11"},"coordinates":[4556,2177]},{"type":"Point","properties":{"Station_ID":"MA-MD-160","Station_Nam":"READING 1.2 N, MA","Latitude":"42.55319","Longitude":"-71.10330","Snowdepth":"1.300","Units":"in","Rept_Date":"2020-04-18 10"},"coordinates":[5910,2014]},{"type":"Point","properties":{"Station_ID":"MA-FR-31","Station_Nam":"COLRAIN 3.7 WNW, MA","Latitude":"42.68716","Longitude":"-72.75112","Snowdepth":"1.300","Units":"in","Rept_Date":"2020-04-18 11"},"coordinates":[5501,2131]},{"type":"Point","properties":{"Station_ID":"IN-EL-57","Station_Nam":"GOSHEN 2.8 NW, IN","Latitude":"41.60298","Longitude":"-85.87781","Snowdepth":"1.300","Units":"in","Rept_Date":"2020-04-18 13"},"coordinates":[2242,1187]},{"type":"Point","properties":{"Station_ID":"41.2008_081.3389","Station_Nam":"4 NE Kent  CoCoRaHS (OH-PT-10)","Latitude":"41.20080","Longitude":"-81.33890","Snowdepth":"1.300","Units":"in","Rept_Date":"2020-04-18 12"},"coordinates":[3369,837]},{"type":"Point","properties":{"Station_ID":"MI-WS-53","Station_Nam":"CHELSEA 3.7 NNE, MI","Latitude":"42.36360","Longitude":"-83.99330","Snowdepth":"1.200","Units":"in","Rept_Date":"2020-04-18 12"},"coordinates":[2710,1849]},{"type":"Point","properties":{"Station_ID":"IN-PT-98","Station_Nam":"VALPARAISO 0.9 NNW, IN","Latitude":"41.48956","Longitude":"-87.05800","Snowdepth":"1.200","Units":"in","Rept_Date":"2020-04-18 12"},"coordinates":[1949,1088]},{"type":"Point","properties":{"Station_ID":"CAN-QC-47","Station_Nam":"SAINTE-FOY 1.8 ENE, CAN","Latitude":"46.76934","Longitude":"-71.27124","Snowdepth":"1.200","Units":"in","Rept_Date":"2020-04-18 11"},"coordinates":[5869,5684]},{"type":"Point","properties":{"Station_ID":"CAN-NB-105","Station_Nam":"SISSON BROOK 3.8 E, CAN","Latitude":"46.98305","Longitude":"-67.32532","Snowdepth":"1.200","Units":"in","Rept_Date":"2020-04-18 11"},"coordinates":[6848,5870]},{"type":"Point","properties":{"Station_ID":"WTRM4","Station_Nam":"WATERSMEET 12WSW","Latitude":"46.22310","Longitude":"-89.40850","Snowdepth":"1.000","Units":"in","Rept_Date":"2020-04-18 11"},"coordinates":[1366,5208]},{"type":"Point","properties":{"Station_ID":"WTNM4","Station_Nam":"WATTON 2WSW","Latitude":"46.52660","Longitude":"-88.64240","Snowdepth":"1.000","Units":"in","Rept_Date":"2020-04-18 12"},"coordinates":[1556,5473]},{"type":"Point","properties":{"Station_ID":"WSKW3","Station_Nam":"WAUSAUKEE","Latitude":"45.38020","Longitude":"-87.95660","Snowdepth":"1.000","Units":"in","Rept_Date":"2020-04-18 13"},"coordinates":[1726,4475]},{"type":"Point","properties":{"Station_ID":"WLSN6","Station_Nam":"WALES","Latitude":"42.73920","Longitude":"-78.58780","Snowdepth":"1.000","Units":"in","Rept_Date":"2020-04-18 11"},"coordinates":[4052,2176]},{"type":"Point","properties":{"Station_ID":"WI-TY-2","Station_Nam":"SHELDON 8.1 ENE, WI","Latitude":"45.35598","Longitude":"-90.80296","Snowdepth":"1.000","Units":"in","Rept_Date":"2020-04-18 12"},"coordinates":[1020,4454]},{"type":"Point","properties":{"Station_ID":"WDBI3","Station_Nam":"WOODBURN 3N","Latitude":"41.16450","Longitude":"-84.84820","Snowdepth":"1.000","Units":"in","Rept_Date":"2020-04-18 11"},"coordinates":[2498,805]},{"type":"Point","properties":{"Station_ID":"WAUO1","Station_Nam":"UNKNOWN","Latitude":"41.55000","Longitude":"-84.13000","Snowdepth":"1.000","Units":"in","Rept_Date":"2020-04-18 12"},"coordinates":[2676,1141]},{"type":"Point","properties":{"Station_ID":"VT-BN-3","Station_Nam":"LANDGROVE 1.1 NNE, VT","Latitude":"43.29092","Longitude":"-72.83260","Snowdepth":"1.000","Units":"in","Rept_Date":"2020-04-18 11"},"coordinates":[5481,2656]},{"type":"Point","properties":{"Station_ID":"SUAW3","Station_Nam":"SUAMICO","Latitude":"44.60190","Longitude":"-88.09780","Snowdepth":"1.000","Units":"in","Rept_Date":"2020-04-18 11"},"coordinates":[1691,3797]},{"type":"Point","properties":{"Station_ID":"SHHN6","Station_Nam":"SCHOHARIE VILLAGE","Latitude":"42.66500","Longitude":"-74.30360","Snowdepth":"1.000","Units":"in","Rept_Date":"2020-04-18 11"},"coordinates":[5116,2111]},{"type":"Point","properties":{"Station_ID":"RWGM5","Station_Nam":"RED WING","Latitude":"44.57120","Longitude":"-92.52830","Snowdepth":"1.000","Units":"in","Rept_Date":"2020-04-18 13"},"coordinates":[591,3771]},{"type":"Point","properties":{"Station_ID":"RI-PR-44","Station_Nam":"CRANSTON 4.2 ENE, RI","Latitude":"41.77990","Longitude":"-71.40170","Snowdepth":"1.000","Units":"in","Rept_Date":"2020-04-18 14"},"coordinates":[5836,1341]},{"type":"Point","properties":{"Station_ID":"RHLW3","Station_Nam":"RHINELANDER 4NE","Latitude":"45.65270","Longitude":"-89.30740","Snowdepth":"1.000","Units":"in","Rept_Date":"2020-04-18 11"},"coordinates":[1391,4712]},{"type":"Point","properties":{"Station_ID":"PRTM7","Station_Nam":"PRINCETON","Latitude":"40.39860","Longitude":"-93.58390","Snowdepth":"1.000","Units":"in","Rept_Date":"2020-04-18 12"},"coordinates":[329,139]},{"type":"Point","properties":{"Station_ID":"PERV1","Station_Nam":"PERU","Latitude":"43.26670","Longitude":"-72.90000","Snowdepth":"1.000","Units":"in","Rept_Date":"2020-04-18 11"},"coordinates":[5464,2635]},{"type":"Point","properties":{"Station_ID":"PEKN6","Station_Nam":"PECK LAKE","Latitude":"43.11500","Longitude":"-74.42360","Snowdepth":"1.000","Units":"in","Rept_Date":"2020-04-18 11"},"coordinates":[5086,2503]},{"type":"Point","properties":{"Station_ID":"PDGM4","Station_Nam":"PAULDING","Latitude":"46.39760","Longitude":"-89.17940","Snowdepth":"1.000","Units":"in","Rept_Date":"2020-04-18 13"},"coordinates":[1423,5360]},{"type":"Point","properties":{"Station_ID":"PA-CN-18","Station_Nam":"PORT MATILDA 2.2 ESE, PA","Latitude":"40.79117","Longitude":"-78.01180","Snowdepth":"1.000","Units":"in","Rept_Date":"2020-04-18 11"},"coordinates":[4195,480]},{"type":"Point","properties":{"Station_ID":"OH-TR-4","Station_Nam":"NEWTON FALLS 0.6 N, OH","Latitude":"41.19773","Longitude":"-80.97210","Snowdepth":"1.000","Units":"in","Rept_Date":"2020-04-18 11"},"coordinates":[3460,834]},{"type":"Point","properties":{"Station_ID":"OH-PL-4","Station_Nam":"PAULDING 5.6 ESE, OH","Latitude":"41.09193","Longitude":"-84.49202","Snowdepth":"1.000","Units":"in","Rept_Date":"2020-04-18 11"},"coordinates":[2586,742]},{"type":"Point","properties":{"Station_ID":"OH-LR-8","Station_Nam":"ELYRIA 0.4 SE, OH","Latitude":"41.37628","Longitude":"-82.09920","Snowdepth":"1.000","Units":"in","Rept_Date":"2020-04-18 11"},"coordinates":[3180,990]},{"type":"Point","properties":{"Station_ID":"OH-CY-42","Station_Nam":"STRONGSVILLE 1.3 SE, OH","Latitude":"41.29815","Longitude":"-81.81507","Snowdepth":"1.000","Units":"in","Rept_Date":"2020-04-18 12"},"coordinates":[3251,922]},{"type":"Point","properties":{"Station_ID":"OH-CY-39","Station_Nam":"WESTLAKE 0.5 SSW, OH","Latitude":"41.44795","Longitude":"-81.93260","Snowdepth":"1.000","Units":"in","Rept_Date":"2020-04-18 12"},"coordinates":[3222,1052]},{"type":"Point","properties":{"Station_ID":"OBEO1","Station_Nam":"OBERLIN,OH","Latitude":"41.26670","Longitude":"-82.21670","Snowdepth":"1.000","Units":"in","Rept_Date":"2020-04-18 12"},"coordinates":[3151,894]},{"type":"Point","properties":{"Station_ID":"NY-UL-34","Station_Nam":"WALLKILL 3.7 E, NY","Latitude":"41.61840","Longitude":"-74.09380","Snowdepth":"1.000","Units":"in","Rept_Date":"2020-04-18 11"},"coordinates":[5168,1200]},{"type":"Point","properties":{"Station_ID":"NY-UL-31","Station_Nam":"HURLEY 2.2 S, NY","Latitude":"41.88149","Longitude":"-74.05626","Snowdepth":"1.000","Units":"in","Rept_Date":"2020-04-18 11"},"coordinates":[5177,1429]},{"type":"Point","properties":{"Station_ID":"NY-OR-21","Station_Nam":"PORT JERVIS 2.9 ESE, NY","Latitude":"41.35990","Longitude":"-74.64090","Snowdepth":"1.000","Units":"in","Rept_Date":"2020-04-18 11"},"coordinates":[5032,975]},{"type":"Point","properties":{"Station_ID":"NY-OG-61","Station_Nam":"SKANEATELES 0.8 NNW, NY","Latitude":"42.95538","Longitude":"-76.43362","Snowdepth":"1.000","Units":"in","Rept_Date":"2020-04-18 12"},"coordinates":[4587,2364]},{"type":"Point","properties":{"Station_ID":"NY-OD-2","Station_Nam":"POINT ROCK 0.6 SE, NY","Latitude":"43.37335","Longitude":"-75.53840","Snowdepth":"1.000","Units":"in","Rept_Date":"2020-04-18 12"},"coordinates":[4809,2728]},{"type":"Point","properties":{"Station_ID":"NY-MD-10","Station_Nam":"CAZENOVIA 2.9 SE, NY","Latitude":"42.90003","Longitude":"-75.81140","Snowdepth":"1.000","Units":"in","Rept_Date":"2020-04-18 11"},"coordinates":[4741,2316]},{"type":"Point","properties":{"Station_ID":"NY-HR-16","Station_Nam":"ILION 0.7 WSW, NY","Latitude":"43.00880","Longitude":"-75.05390","Snowdepth":"1.000","Units":"in","Rept_Date":"2020-04-18 11"},"coordinates":[4930,2411]},{"type":"Point","properties":{"Station_ID":"NY-ER-65","Station_Nam":"BOSTON 1.5 NE, NY","Latitude":"42.65470","Longitude":"-78.72010","Snowdepth":"1.000","Units":"in","Rept_Date":"2020-04-18 11"},"coordinates":[4019,2102]},{"type":"Point","properties":{"Station_ID":"NY-ER-166","Station_Nam":"BOSTON 2.5 NE, NY","Latitude":"42.65480","Longitude":"-78.70300","Snowdepth":"1.000","Units":"in","Rept_Date":"2020-04-18 11"},"coordinates":[4024,2102]},{"type":"Point","properties":{"Station_ID":"NY-CY-8","Station_Nam":"AUBURN 8.3 SSE, NY","Latitude":"42.82869","Longitude":"-76.48670","Snowdepth":"1.000","Units":"in","Rept_Date":"2020-04-18 10"},"coordinates":[4574,2254]},{"type":"Point","properties":{"Station_ID":"NWPM4","Station_Nam":"NEWPORT 4SSE","Latitude":"41.94970","Longitude":"-83.28000","Snowdepth":"1.000","Units":"in","Rept_Date":"2020-04-18 11"},"coordinates":[2887,1489]},{"type":"Point","properties":{"Station_ID":"NPNO1","Station_Nam":"NAPOLEON 1SW","Latitude":"41.38160","Longitude":"-84.15130","Snowdepth":"1.000","Units":"in","Rept_Date":"2020-04-18 12"},"coordinates":[2671,994]},{"type":"Point","properties":{"Station_ID":"NH-MR-65","Station_Nam":"EPSOM 3.2 SSW, NH","Latitude":"43.18162","Longitude":"-71.36560","Snowdepth":"1.000","Units":"in","Rept_Date":"2020-04-18 11"},"coordinates":[5845,2561]},{"type":"Point","properties":{"Station_ID":"NH-HL-49","Station_Nam":"MONT VERNON 1.3 SSW, NH","Latitude":"42.87616","Longitude":"-71.68280","Snowdepth":"1.000","Units":"in","Rept_Date":"2020-04-18 12"},"coordinates":[5766,2295]},{"type":"Point","properties":{"Station_ID":"MRIM4","Station_Nam":"MORENCI,MI","Latitude":"41.71670","Longitude":"-84.20000","Snowdepth":"1.000","Units":"in","Rept_Date":"2020-04-18 11"},"coordinates":[2659,1286]},{"type":"Point","properties":{"Station_ID":"MOSO1","Station_Nam":"MOSQUITO CREEK DAM","Latitude":"41.28830","Longitude":"-80.76470","Snowdepth":"1.000","Units":"in","Rept_Date":"2020-04-18 11"},"coordinates":[3512,913]},{"type":"Point","properties":{"Station_ID":"MO-WH-1","Station_Nam":"GRANT CITY 4.4 WSW, MO","Latitude":"40.46410","Longitude":"-94.49260","Snowdepth":"1.000","Units":"in","Rept_Date":"2020-04-18 13"},"coordinates":[104,196]},{"type":"Point","properties":{"Station_ID":"MNCKG6BM","Station_Nam":"VISTA 4.6 SE","Latitude":"43.91333","Longitude":"-93.39663","Snowdepth":"1.000","Units":"in","Rept_Date":"2020-04-18 12"},"coordinates":[376,3198]},{"type":"Point","properties":{"Station_ID":"MN-SL-105","Station_Nam":"DULUTH 11.8 NNE, MN","Latitude":"46.94680","Longitude":"-92.03925","Snowdepth":"1.000","Units":"in","Rept_Date":"2020-04-18 12"},"coordinates":[713,5838]},{"type":"Point","properties":{"Station_ID":"MIDM3","Station_Nam":"MIDDLETON","Latitude":"42.59340","Longitude":"-71.01870","Snowdepth":"1.000","Units":"in","Rept_Date":"2020-04-18 11"},"coordinates":[5931,2049]},{"type":"Point","properties":{"Station_ID":"MI-WS-42","Station_Nam":"ANN ARBOR 4.5 W, MI","Latitude":"42.27814","Longitude":"-83.81884","Snowdepth":"1.000","Units":"in","Rept_Date":"2020-04-18 11"},"coordinates":[2754,1775]},{"type":"Point","properties":{"Station_ID":"MI-WS-41","Station_Nam":"ANN ARBOR 7.1 W, MI","Latitude":"42.26390","Longitude":"-83.86940","Snowdepth":"1.000","Units":"in","Rept_Date":"2020-04-18 11"},"coordinates":[2741,1762]},{"type":"Point","properties":{"Station_ID":"MI-WS-11","Station_Nam":"ANN ARBOR 2.1 WNW, MI","Latitude":"42.28323","Longitude":"-83.77150","Snowdepth":"1.000","Units":"in","Rept_Date":"2020-04-18 12"},"coordinates":[2765,1779]},{"type":"Point","properties":{"Station_ID":"MI-MR-1","Station_Nam":"NEWPORT 3.1 SE, MI","Latitude":"41.94960","Longitude":"-83.28010","Snowdepth":"1.000","Units":"in","Rept_Date":"2020-04-18 11"},"coordinates":[2887,1489]},{"type":"Point","properties":{"Station_ID":"MI-JC-24","Station_Nam":"GRASS LAKE 1.7 NNE, MI","Latitude":"42.27360","Longitude":"-84.20119","Snowdepth":"1.000","Units":"in","Rept_Date":"2020-04-18 11"},"coordinates":[2659,1771]},{"type":"Point","properties":{"Station_ID":"MI-JC-10","Station_Nam":"HANOVER 4.1 E, MI","Latitude":"42.09263","Longitude":"-84.47292","Snowdepth":"1.000","Units":"in","Rept_Date":"2020-04-18 13"},"coordinates":[2591,1613]},{"type":"Point","properties":{"Station_ID":"MI-BN-4","Station_Nam":"NILES 2.7 W, MI","Latitude":"41.83705","Longitude":"-86.30050","Snowdepth":"1.000","Units":"in","Rept_Date":"2020-04-18 12"},"coordinates":[2137,1391]},{"type":"Point","properties":{"Station_ID":"MI-BN-2","Station_Nam":"STEVENSVILLE 1.7 SSE, MI","Latitude":"41.99114","Longitude":"-86.50860","Snowdepth":"1.000","Units":"in","Rept_Date":"2020-04-18 11"},"coordinates":[2086,1525]},{"type":"Point","properties":{"Station_ID":"MCHM4","Station_Nam":"MANCHESTER,MI","Latitude":"42.15000","Longitude":"-84.01670","Snowdepth":"1.000","Units":"in","Rept_Date":"2020-04-18 15"},"coordinates":[2704,1663]},{"type":"Point","properties":{"Station_ID":"MA-MD-85","Station_Nam":"WILMINGTON 2.2 WNW, MA","Latitude":"42.56871","Longitude":"-71.20764","Snowdepth":"1.000","Units":"in","Rept_Date":"2020-04-18 11"},"coordinates":[5884,2027]},{"type":"Point","properties":{"Station_ID":"MA-FR-10","Station_Nam":"CONWAY 0.9 SW, MA","Latitude":"42.50879","Longitude":"-72.69730","Snowdepth":"1.000","Units":"in","Rept_Date":"2020-04-18 12"},"coordinates":[5515,1975]},{"type":"Point","properties":{"Station_ID":"MA-ES-41","Station_Nam":"DANVERS 0.8 ESE, MA","Latitude":"42.56849","Longitude":"-70.93526","Snowdepth":"1.000","Units":"in","Rept_Date":"2020-04-18 12"},"coordinates":[5952,2027]},{"type":"Point","properties":{"Station_ID":"MA-BE-3","Station_Nam":"STOCKBRIDGE .2 NNE, MA","Latitude":"42.28983","Longitude":"-73.31950","Snowdepth":"1.000","Units":"in","Rept_Date":"2020-04-18 10"},"coordinates":[5360,1785]},{"type":"Point","properties":{"Station_ID":"MA-BE-11","Station_Nam":"GREAT BARRINGTON 3.0 N, MA","Latitude":"42.23790","Longitude":"-73.35030","Snowdepth":"1.000","Units":"in","Rept_Date":"2020-04-18 12"},"coordinates":[5352,1740]},{"type":"Point","properties":{"Station_ID":"KPVD","Station_Nam":"PROVIDENCE GREEN STATE AIRPORT","Latitude":"41.73333","Longitude":"-71.43333","Snowdepth":"1.000","Units":"in","Rept_Date":"2020-04-18 12"},"coordinates":[5828,1300]},{"type":"Point","properties":{"Station_ID":"KITO1","Station_Nam":"RAVENNA-KIRWAN TAILWATER","Latitude":"41.15690","Longitude":"-81.07190","Snowdepth":"1.000","Units":"in","Rept_Date":"2020-04-18 11"},"coordinates":[3436,799]},{"type":"Point","properties":{"Station_ID":"KEWI2","Station_Nam":"KEWANEE 1 E","Latitude":"41.24290","Longitude":"-89.89970","Snowdepth":"1.000","Units":"in","Rept_Date":"2020-04-18 12"},"coordinates":[1244,873]},