{"type":"Topology","objects":{"snowdepth_geo":{"type":"GeometryCollection","name":"snowdepth","crs":{"type":"name","properties":{"name":"urn:ogc:def:crs:OGC:1.3:CRS84"}},"geometries":[{"type":"Point","properties":{"Station_ID":"PRKM4","Station_Nam":"MUNISING EAST","Latitude":"46.42580","Longitude":"-86.62000","Snowdepth":"76.500","Units":"in","Rept_Date":"2020-11-18 06"},"coordinates":[3373,4965]},{"type":"Point","properties":{"Station_ID":"QOU","Station_Nam":"QOU","Latitude":"50.79250","Longitude":"-69.67470","Snowdepth":"9.646","Units":"in","Rept_Date":"2020-11-17 12"},"coordinates":[9070,9112]},{"type":"Point","properties":{"Station_ID":"FLDM5","Station_Nam":"FLOODWOOD,MN","Latitude":"47.00000","Longitude":"-92.91670","Snowdepth":"8.000","Units":"in","Rept_Date":"2020-11-17 14"},"coordinates":[1256,5510]},{"type":"Point","properties":{"Station_ID":"CLQM5","Station_Nam":"CLOQUET","Latitude":"46.70470","Longitude":"-92.52530","Snowdepth":"8.000","Units":"in","Rept_Date":"2020-11-17 14"},"coordinates":[1388,5230]},{"type":"Point","properties":{"Station_ID":"TRIQ6","Station_Nam":"TRIO LAKE","Latitude":"49.22880","Longitude":"-87.22920","Snowdepth":"7.560","Units":"in","Rept_Date":"2020-11-18 06"},"coordinates":[3168,7627]},{"type":"Point","properties":{"Station_ID":"MLZ","Station_Nam":"MLZ","Latitude":"50.66170","Longitude":"-68.82360","Snowdepth":"7.047","Units":"in","Rept_Date":"2020-11-17 12"},"coordinates":[9356,8988]},{"type":"Point","properties":{"Station_ID":"WLFM5","Station_Nam":"WOLF RIDGE ENVIRON LEARNING CENTER","Latitude":"47.38240","Longitude":"-91.19730","Snowdepth":"7.000","Units":"in","Rept_Date":"2020-11-17 13"},"coordinates":[1834,5874]},{"type":"Point","properties":{"Station_ID":"DLHM5","Station_Nam":"DULUTH NWS","Latitude":"46.83680","Longitude":"-92.21080","Snowdepth":"7.000","Units":"in","Rept_Date":"2020-11-18 06"},"coordinates":[1493,5355]},{"type":"Point","properties":{"Station_ID":"DLH","Station_Nam":"DULUTH, MN","Latitude":"46.83690","Longitude":"-92.21030","Snowdepth":"7.000","Units":"in","Rept_Date":"2020-11-18 00"},"coordinates":[1494,5356]},{"type":"Point","properties":{"Station_ID":"WI-WB-2","Station_Nam":"STONE LAKE 2.0 NW, WI","Latitude":"45.85960","Longitude":"-91.57710","Snowdepth":"6.500","Units":"in","Rept_Date":"2020-11-17 13"},"coordinates":[1707,4428]},{"type":"Point","properties":{"Station_ID":"MN-CN-36","Station_Nam":"CLOQUET 3.4 ENE, MN","Latitude":"46.74146","Longitude":"-92.42698","Snowdepth":"6.500","Units":"in","Rept_Date":"2020-11-17 13"},"coordinates":[1421,5265]},{"type":"Point","properties":{"Station_ID":"QGT","Station_Nam":"QGT","Latitude":"49.64720","Longitude":"-67.62640","Snowdepth":"6.496","Units":"in","Rept_Date":"2020-11-17 12"},"coordinates":[9759,8024]},{"type":"Point","properties":{"Station_ID":"NY-ER-77","Station_Nam":"COLDEN 2.4 ENE, NY","Latitude":"42.65088","Longitude":"-78.61060","Snowdepth":"6.000","Units":"in","Rept_Date":"2020-11-17 13"},"coordinates":[6066,1381]},{"type":"Point","properties":{"Station_ID":"HURW3","Station_Nam":"HURLEY","Latitude":"46.46250","Longitude":"-90.19550","Snowdepth":"6.000","Units":"in","Rept_Date":"2020-11-17 14"},"coordinates":[2171,5000]},{"type":"Point","properties":{"Station_ID":"BBEM4","Station_Nam":"BIG BAY 9SW","Latitude":"46.74620","Longitude":"-87.88160","Snowdepth":"6.000","Units":"in","Rept_Date":"2020-11-17 13"},"coordinates":[2949,5269]},{"type":"Point","properties":{"Station_ID":"BABM5","Station_Nam":"BABBITT","Latitude":"47.71210","Longitude":"-91.95330","Snowdepth":"6.000","Units":"in","Rept_Date":"2020-11-17 13"},"coordinates":[1580,6187]},{"type":"Point","properties":{"Station_ID":"MFU","Station_Nam":"MFU","Latitude":"51.52170","Longitude":"-66.91110","Snowdepth":"5.630","Units":"in","Rept_Date":"2020-11-17 12"},"coordinates":[9999,9804]},{"type":"Point","properties":{"Station_ID":"DVLQ6","Station_Nam":"DEVIOUS LAKE","Latitude":"49.19890","Longitude":"-87.76440","Snowdepth":"5.550","Units":"in","Rept_Date":"2020-11-18 06"},"coordinates":[2988,7598]},{"type":"Point","properties":{"Station_ID":"NY-ER-166","Station_Nam":"BOSTON 2.5 NE, NY","Latitude":"42.65480","Longitude":"-78.70300","Snowdepth":"5.500","Units":"in","Rept_Date":"2020-11-17 12"},"coordinates":[6035,1384]},{"type":"Point","properties":{"Station_ID":"WRSM5","Station_Nam":"WRENSHALL","Latitude":"46.61550","Longitude":"-92.38380","Snowdepth":"5.000","Units":"in","Rept_Date":"2020-11-17 14"},"coordinates":[1435,5145]},{"type":"Point","properties":{"Station_ID":"WI-IR-3","Station_Nam":"PENCE 0.1 E, WI","Latitude":"46.41555","Longitude":"-90.27013","Snowdepth":"5.000","Units":"in","Rept_Date":"2020-11-17 13"},"coordinates":[2146,4955]},{"type":"Point","properties":{"Station_ID":"WI-DG-20","Station_Nam":"SOLON SPRINGS 1.2 W, WI","Latitude":"46.35217","Longitude":"-91.84405","Snowdepth":"5.000","Units":"in","Rept_Date":"2020-11-17 13"},"coordinates":[1617,4895]},{"type":"Point","properties":{"Station_ID":"WI-BY-22","Station_Nam":"MASON 11.5 WNW, WI","Latitude":"46.50198","Longitude":"-91.28339","Snowdepth":"5.000","Units":"in","Rept_Date":"2020-11-17 14"},"coordinates":[1805,5038]},{"type":"Point","properties":{"Station_ID":"SGVN6","Station_Nam":"SPRINGVILLE","Latitude":"42.54970","Longitude":"-78.57670","Snowdepth":"5.000","Units":"in","Rept_Date":"2020-11-17 23"},"coordinates":[6077,1285]},{"type":"Point","properties":{"Station_ID":"COTM5","Station_Nam":"COTTON","Latitude":"47.16870","Longitude":"-92.46290","Snowdepth":"5.000","Units":"in","Rept_Date":"2020-11-17 12"},"coordinates":[1409,5671]},{"type":"Point","properties":{"Station_ID":"CAN-ON-5","Station_Nam":"OWEN SOUND 1.5 NW - GSCA, CAN","Latitude":"44.57837","Longitude":"-80.95461","Snowdepth":"5.000","Units":"in","Rept_Date":"2020-11-17 13"},"coordinates":[5278,3211]},{"type":"Point","properties":{"Station_ID":"41.8966_080.1567","Station_Nam":"2 NW EDINBORO  SNOW SPOTTER (CLE0251)","Latitude":"41.89660","Longitude":"-80.15670","Snowdepth":"5.000","Units":"in","Rept_Date":"2020-11-17 23"},"coordinates":[5546,664]},{"type":"Point","properties":{"Station_ID":"41.8717_080.0850","Station_Nam":"EDINBORO 2E  SNOW SPOTTER (X4190801)","Latitude":"41.87170","Longitude":"-80.08500","Snowdepth":"5.000","Units":"in","Rept_Date":"2020-11-17 23"},"coordinates":[5570,641]},{"type":"Point","properties":{"Station_ID":"QLB","Station_Nam":"QLB","Latitude":"50.72360","Longitude":"-75.10000","Snowdepth":"4.921","Units":"in","Rept_Date":"2020-11-17 12"},"coordinates":[7246,9046]},{"type":"Point","properties":{"Station_ID":"NY-ER-65","Station_Nam":"BOSTON 1.5 NE, NY","Latitude":"42.65470","Longitude":"-78.72010","Snowdepth":"4.900","Units":"in","Rept_Date":"2020-11-17 12"},"coordinates":[6029,1384]},{"type":"Point","properties":{"Station_ID":"WI-SR-1","Station_Nam":"HAYWARD 9.2 NNE, WI","Latitude":"46.13255","Longitude":"-91.40500","Snowdepth":"4.500","Units":"in","Rept_Date":"2020-11-17 12"},"coordinates":[1764,4687]},{"type":"Point","properties":{"Station_ID":"QCX","Station_Nam":"QCX","Latitude":"51.32830","Longitude":"-70.08060","Snowdepth":"4.370","Units":"in","Rept_Date":"2020-11-17 12"},"coordinates":[8933,9621]},{"type":"Point","properties":{"Station_ID":"PTLQ6","Station_Nam":"PORTAGE LAKE","Latitude":"49.06950","Longitude":"-86.65940","Snowdepth":"4.170","Units":"in","Rept_Date":"2020-11-18 06"},"coordinates":[3360,7476]},{"type":"Point","properties":{"Station_ID":"WRIM5","Station_Nam":"WRIGHT 3E","Latitude":"46.68040","Longitude":"-92.95420","Snowdepth":"4.000","Units":"in","Rept_Date":"2020-11-17 12"},"coordinates":[1244,5207]},{"type":"Point","properties":{"Station_ID":"WI-BY-14","Station_Nam":"ASHLAND 9.8 W, WI","Latitude":"46.59742","Longitude":"-91.07856","Snowdepth":"4.000","Units":"in","Rept_Date":"2020-11-17 12"},"coordinates":[1874,5128]},{"type":"Point","properties":{"Station_ID":"WI-BT-14","Station_Nam":"OAKLAND 9.0 ENE, WI","Latitude":"45.95184","Longitude":"-92.21653","Snowdepth":"4.000","Units":"in","Rept_Date":"2020-11-17 13"},"coordinates":[1492,4515]},{"type":"Point","properties":{"Station_ID":"MN-KB-17","Station_Nam":"MORA 2.5 S, MN","Latitude":"45.84100","Longitude":"-93.29700","Snowdepth":"4.000","Units":"in","Rept_Date":"2020-11-17 13"},"coordinates":[1128,4410]},{"type":"Point","properties":{"Station_ID":"MMNV1","Station_Nam":"MT. MANSFIELD","Latitude":"44.52480","Longitude":"-72.81540","Snowdepth":"4.000","Units":"in","Rept_Date":"2020-11-17 21"},"coordinates":[8014,3160]},{"type":"Point","properties":{"Station_ID":"KMWN","Station_Nam":"MOUNT WASHINGTON","Latitude":"44.26666","Longitude":"-71.30000","Snowdepth":"4.000","Units":"in","Rept_Date":"2020-11-18 06"},"coordinates":[8524,2915]},{"type":"Point","properties":{"Station_ID":"IWOM4","Station_Nam":"IRONWOOD#2","Latitude":"46.46520","Longitude":"-90.13820","Snowdepth":"4.000","Units":"in","Rept_Date":"2020-11-17 13"},"coordinates":[2190,5003]},{"type":"Point","properties":{"Station_ID":"IRMM4","Station_Nam":"WWTP","Latitude":"46.46670","Longitude":"-90.18330","Snowdepth":"4.000","Units":"in","Rept_Date":"2020-11-17 13"},"coordinates":[2175,5004]},{"type":"Point","properties":{"Station_ID":"HERM4","Station_Nam":"HERMAN,MI","Latitude":"46.65000","Longitude":"-88.33330","Snowdepth":"4.000","Units":"in","Rept_Date":"2020-11-17 13"},"coordinates":[2797,5178]},{"type":"Point","properties":{"Station_ID":"FISM1","Station_Nam":"FORT KENT COOP","Latitude":"47.23850","Longitude":"-68.61240","Snowdepth":"4.000","Units":"in","Rept_Date":"2020-11-17 12"},"coordinates":[9427,5737]},{"type":"Point","properties":{"Station_ID":"BUTW3","Station_Nam":"BUTTERNUT 3SW","Latitude":"45.98080","Longitude":"-90.54170","Snowdepth":"4.000","Units":"in","Rept_Date":"2020-11-17 12"},"coordinates":[2055,4543]},{"type":"Point","properties":{"Station_ID":"BRAM5","Station_Nam":"BRAINERD","Latitude":"46.34320","Longitude":"-94.20900","Snowdepth":"4.000","Units":"in","Rept_Date":"2020-11-17 13"},"coordinates":[822,4887]},{"type":"Point","properties":{"Station_ID":"BNDM5","Station_Nam":"ELY 25E","Latitude":"47.97190","Longitude":"-91.44860","Snowdepth":"4.000","Units":"in","Rept_Date":"2020-11-17 13"},"coordinates":[1750,6433]},{"type":"Point","properties":{"Station_ID":"42.0299_080.0884","Station_Nam":"SUMMIT TWP  SNOW SPOTTER (X4200801)","Latitude":"42.02990","Longitude":"-80.08840","Snowdepth":"4.000","Units":"in","Rept_Date":"2020-11-17 22"},"coordinates":[5569,791]},{"type":"Point","properties":{"Station_ID":"AUDQ6","Station_Nam":"AUDEN","Latitude":"48.52600","Longitude":"-82.57570","Snowdepth":"3.740","Units":"in","Rept_Date":"2020-11-18 06"},"coordinates":[4733,6959]},{"type":"Point","properties":{"Station_ID":"MN-SL-15","Station_Nam":"CHISHOLM 0.4 WSW, MN","Latitude":"47.48557","Longitude":"-92.88690","Snowdepth":"3.500","Units":"in","Rept_Date":"2020-11-17 13"},"coordinates":[1266,5972]},{"type":"Point","properties":{"Station_ID":"MN-SL-108","Station_Nam":"IRON JUNCTION 3.4 NNW, MN","Latitude":"47.46150","Longitude":"-92.63130","Snowdepth":"3.500","Units":"in","Rept_Date":"2020-11-17 13"},"coordinates":[1352,5949]},{"type":"Point","properties":{"Station_ID":"CAN-ON-526","Station_Nam":"HILTON BEACH 0.7 SW - MNRF, CAN","Latitude":"46.25357","Longitude":"-83.90014","Snowdepth":"3.500","Units":"in","Rept_Date":"2020-11-17 12"},"coordinates":[4287,4802]},{"type":"Point","properties":{"Station_ID":"CAN-ON-451","Station_Nam":"OWEN SOUND 1.2 N - GSCA, CAN","Latitude":"44.58092","Longitude":"-80.93025","Snowdepth":"3.500","Units":"in","Rept_Date":"2020-11-17 13"},"coordinates":[5286,3213]},{"type":"Point","properties":{"Station_ID":"CAN-ON-245","Station_Nam":"PHELPSTON 3.1 ESE, CAN","Latitude":"44.50564","Longitude":"-79.81035","Snowdepth":"3.500","Units":"in","Rept_Date":"2020-11-17 13"},"coordinates":[5662,3142]},{"type":"Point","properties":{"Station_ID":"QLM","Station_Nam":"QLM","Latitude":"48.92030","Longitude":"-70.25280","Snowdepth":"3.346","Units":"in","Rept_Date":"2020-11-17 12"},"coordinates":[8876,7334]},{"type":"Point","properties":{"Station_ID":"SUAW3","Station_Nam":"SUAMICO","Latitude":"44.60190","Longitude":"-88.09780","Snowdepth":"3.000","Units":"in","Rept_Date":"2020-11-17 12"},"coordinates":[2876,3233]},{"type":"Point","properties":{"Station_ID":"SRAW3","Station_Nam":"SARONA","Latitude":"45.80250","Longitude":"-91.86700","Snowdepth":"3.000","Units":"in","Rept_Date":"2020-11-17 14"},"coordinates":[1609,4373]},{"type":"Point","properties":{"Station_ID":"SPOW3","Station_Nam":"SPOONER,WI","Latitude":"45.82360","Longitude":"-91.70000","Snowdepth":"3.000","Units":"in","Rept_Date":"2020-11-17 14"},"coordinates":[1665,4393]},{"type":"Point","properties":{"Station_ID":"PDGM4","Station_Nam":"PAULDING","Latitude":"46.39760","Longitude":"-89.17940","Snowdepth":"3.000","Units":"in","Rept_Date":"2020-11-17 13"},"coordinates":[2513,4938]},{"type":"Point","properties":{"Station_ID":"NY-LV-5","Station_Nam":"DANSVILLE 1.0 ENE, NY","Latitude":"42.56802","Longitude":"-77.67900","Snowdepth":"3.000","Units":"in","Rept_Date":"2020-11-17 12"},"coordinates":[6379,1302]},{"type":"Point","properties":{"Station_ID":"NY-CQ-39","Station_Nam":"GERRY 0.8 N, NY","Latitude":"42.20500","Longitude":"-79.24700","Snowdepth":"3.000","Units":"in","Rept_Date":"2020-11-17 13"},"coordinates":[5852,957]},{"type":"Point","properties":{"Station_ID":"NY-CQ-34","Station_Nam":"KENNEDY 2.6 SE, NY","Latitude":"42.12567","Longitude":"-79.07235","Snowdepth":"3.000","Units":"in","Rept_Date":"2020-11-17 13"},"coordinates":[5911,882]},{"type":"Point","properties":{"Station_ID":"MN-SL-115","Station_Nam":"COTTON 5.7 ESE, MN","Latitude":"47.15142","Longitude":"-92.35772","Snowdepth":"3.000","Units":"in","Rept_Date":"2020-11-17 14"},"coordinates":[1444,5654]},{"type":"Point","properties":{"Station_ID":"MN-BK-10","Station_Nam":"DETROIT LAKES 5.7 N, MN","Latitude":"46.88666","Longitude":"-95.84444","Snowdepth":"3.000","Units":"in","Rept_Date":"2020-11-17 13"},"coordinates":[272,5403]},{"type":"Point","properties":{"Station_ID":"MIEM4","Station_Nam":"MICHIGAMME 3WNW","Latitude":"46.54530","Longitude":"-88.18000","Snowdepth":"3.000","Units":"in","Rept_Date":"2020-11-17 13"},"coordinates":[2849,5079]},{"type":"Point","properties":{"Station_ID":"MI-BG-3","Station_Nam":"THREE LAKES, MI","Latitude":"46.55730","Longitude":"-88.20770","Snowdepth":"3.000","Units":"in","Rept_Date":"2020-11-17 13"},"coordinates":[2839,5090]},{"type":"Point","properties":{"Station_ID":"LNGM5","Station_Nam":"LONG PRAIRIE","Latitude":"45.96460","Longitude":"-94.88920","Snowdepth":"3.000","Units":"in","Rept_Date":"2020-11-17 12"},"coordinates":[593,4527]},{"type":"Point","properties":{"Station_ID":"LILM1","Station_Nam":"LILLE","Latitude":"47.27770","Longitude":"-68.10520","Snowdepth":"3.000","Units":"in","Rept_Date":"2020-11-17 12"},"coordinates":[9598,5774]},{"type":"Point","properties":{"Station_ID":"HGHN6","Station_Nam":"HIGHMARKET","Latitude":"43.60510","Longitude":"-75.55430","Snowdepth":"3.000","Units":"in","Rept_Date":"2020-11-17 11"},"coordinates":[7093,2287]},{"type":"Point","properties":{"Station_ID":"ELYM5","Station_Nam":"ELY","Latitude":"47.90560","Longitude":"-91.82830","Snowdepth":"3.000","Units":"in","Rept_Date":"2020-11-17 14"},"coordinates":[1622,6370]},{"type":"Point","properties":{"Station_ID":"COUW3","Station_Nam":"COUDERAY,WI","Latitude":"45.86670","Longitude":"-91.45000","Snowdepth":"3.000","Units":"in","Rept_Date":"2020-11-17 22"},"coordinates":[1749,4434]},{"type":"Point","properties":{"Station_ID":"COKM5","Station_Nam":"COOK","Latitude":"47.85060","Longitude":"-92.69250","Snowdepth":"3.000","Units":"in","Rept_Date":"2020-11-17 12"},"coordinates":[1332,6318]},{"type":"Point","properties":{"Station_ID":"CODN6","Station_Nam":"COLDEN","Latitude":"42.64720","Longitude":"-78.71110","Snowdepth":"3.000","Units":"in","Rept_Date":"2020-11-17 12"},"coordinates":[6032,1377]},{"type":"Point","properties":{"Station_ID":"ANJM4","Station_Nam":"SNOW PAID OBSERVER FOR KANJ","Latitude":"46.48670","Longitude":"-84.40260","Snowdepth":"3.000","Units":"in","Rept_Date":"2020-11-18 06"},"coordinates":[4119,5023]},{"type":"Point","properties":{"Station_ID":"41.9034_079.6523","Station_Nam":"CORRY (CLE0230)","Latitude":"41.90340","Longitude":"-79.65230","Snowdepth":"3.000","Units":"in","Rept_Date":"2020-11-17 14"},"coordinates":[5716,671]},{"type":"Point","properties":{"Station_ID":"QTV","Station_Nam":"QTV","Latitude":"49.66000","Longitude":"-69.35690","Snowdepth":"2.953","Units":"in","Rept_Date":"2020-11-17 12"},"coordinates":[9177,8036]},{"type":"Point","properties":{"Station_ID":"KABQ6","Station_Nam":"CAB LAKE","Latitude":"49.59950","Longitude":"-89.17990","Snowdepth":"2.760","Units":"in","Rept_Date":"2020-11-18 06"},"coordinates":[2512,7979]},{"type":"Point","properties":{"Station_ID":"QMD","Station_Nam":"QMD","Latitude":"49.29060","Longitude":"-75.84500","Snowdepth":"2.638","Units":"in","Rept_Date":"2020-11-17 12"},"coordinates":[6996,7686]},{"type":"Point","properties":{"Station_ID":"WI-WB-16","Station_Nam":"SARONA 4.5 NNE, WI","Latitude":"45.77030","Longitude":"-91.76890","Snowdepth":"2.500","Units":"in","Rept_Date":"2020-11-17 13"},"coordinates":[1642,4343]},{"type":"Point","properties":{"Station_ID":"WI-BY-6","Station_Nam":"BARNES 2.2 S, WI","Latitude":"46.30264","Longitude":"-91.50320","Snowdepth":"2.500","Units":"in","Rept_Date":"2020-11-17 13"},"coordinates":[1731,4848]},{"type":"Point","properties":{"Station_ID":"MN-MR-13","Station_Nam":"LITTLE FALLS 8.0 NE, MN","Latitude":"46.06785","Longitude":"-94.24789","Snowdepth":"2.500","Units":"in","Rept_Date":"2020-11-17 13"},"coordinates":[809,4625]},{"type":"Point","properties":{"Station_ID":"MN-CW-22","Station_Nam":"FORT RIPLEY 0.8 N, MN","Latitude":"46.18089","Longitude":"-94.36510","Snowdepth":"2.500","Units":"in","Rept_Date":"2020-11-17 13"},"coordinates":[769,4733]},{"type":"Point","properties":{"Station_ID":"ME-AR-18","Station_Nam":"NEW SWEDEN 4.9 NNW, ME","Latitude":"47.01080","Longitude":"-68.14390","Snowdepth":"2.500","Units":"in","Rept_Date":"2020-11-17 12"},"coordinates":[9585,5521]},{"type":"Point","properties":{"Station_ID":"FTHQ6","Station_Nam":"FORT HOPE","Latitude":"51.55820","Longitude":"-87.90510","Snowdepth":"2.480","Units":"in","Rept_Date":"2020-11-18 06"},"coordinates":[2941,9839]},{"type":"Point","properties":{"Station_ID":"QMA","Station_Nam":"QMA","Latitude":"50.10330","Longitude":"-70.47190","Snowdepth":"2.402","Units":"in","Rept_Date":"2020-11-17 12"},"coordinates":[8802,8457]},{"type":"Point","properties":{"Station_ID":"42.1173_079.8962","Station_Nam":"4 W Colt Station  Trained Spotter (CLE0298)","Latitude":"42.11734","Longitude":"-79.89615","Snowdepth":"2.400","Units":"in","Rept_Date":"2020-11-17 13"},"coordinates":[5634,874]},{"type":"Point","properties":{"Station_ID":"CAN-ON-452","Station_Nam":"CHATSWORTH 1.8 ENE - GSCA, CAN","Latitude":"44.46118","Longitude":"-80.87506","Snowdepth":"2.200","Units":"in","Rept_Date":"2020-11-17 12"},"coordinates":[5304,3100]},{"type":"Point","properties":{"Station_ID":"QGD","Station_Nam":"QGD","Latitude":"51.11140","Longitude":"-67.13940","Snowdepth":"2.087","Units":"in","Rept_Date":"2020-11-17 12"},"coordinates":[9922,9415]},{"type":"Point","properties":{"Station_ID":"OGIQ6","Station_Nam":"OGOKI CAMP","Latitude":"50.76680","Longitude":"-87.85820","Snowdepth":"2.050","Units":"in","Rept_Date":"2020-11-18 06"},"coordinates":[2957,9087]},{"type":"Point","properties":{"Station_ID":"WTRM4","Station_Nam":"WATERSMEET 12WSW","Latitude":"46.22310","Longitude":"-89.40850","Snowdepth":"2.000","Units":"in","Rept_Date":"2020-11-17 12"},"coordinates":[2436,4773]},{"type":"Point","properties":{"Station_ID":"WTNM4","Station_Nam":"WATTON 2WSW","Latitude":"46.52660","Longitude":"-88.64240","Snowdepth":"2.000","Units":"in","Rept_Date":"2020-11-17 13"},"coordinates":[2693,5061]},{"type":"Point","properties":{"Station_ID":"WRSN6","Station_Nam":"WARSAW 6SW","Latitude":"42.68550","Longitude":"-78.22020","Snowdepth":"2.000","Units":"in","Rept_Date":"2020-11-17 12"},"coordinates":[6197,1413]},{"type":"Point","properties":{"Station_ID":"WLDM5","Station_Nam":"WILD RIVER STATE PARK","Latitude":"45.52310","Longitude":"-92.74890","Snowdepth":"2.000","Units":"in","Rept_Date":"2020-11-17 14"},"coordinates":[1313,4108]},{"type":"Point","properties":{"Station_ID":"WI-PR-2","Station_Nam":"BUTTERNUT 5.9 SW, WI","Latitude":"45.96501","Longitude":"-90.59750","Snowdepth":"2.000","Units":"in","Rept_Date":"2020-11-17 12"},"coordinates":[2036,4528]},{"type":"Point","properties":{"Station_ID":"WI-BY-2","Station_Nam":"MELLEN 18.6 SW, WI","Latitude":"46.16937","Longitude":"-90.98090","Snowdepth":"2.000","Units":"in","Rept_Date":"2020-11-17 13"},"coordinates":[1907,4722]},{"type":"Point","properties":{"Station_ID":"WI-BY-1","Station_Nam":"BAYFIELD 8.8 N, WI","Latitude":"46.93855","Longitude":"-90.83490","Snowdepth":"2.000","Units":"in","Rept_Date":"2020-11-17 13"},"coordinates":[1956,5452]},{"type":"Point","properties":{"Station_ID":"WI-BR-2","Station_Nam":"CHETEK 2.0 SE, WI","Latitude":"45.29427","Longitude":"-91.62470","Snowdepth":"2.000","Units":"in","Rept_Date":"2020-11-17 13"},"coordinates":[1691,3891]},{"type":"Point","properties":{"Station_ID":"VT-OL-1","Station_Nam":"WESTFIELD 0.7 WNW, VT","Latitude":"44.89160","Longitude":"-72.44350","Snowdepth":"2.000","Units":"in","Rept_Date":"2020-11-17 12"},"coordinates":[8139,3508]},{"type":"Point","properties":{"Station_ID":"TOHM5","Station_Nam":"TWO HARBORS WWTP","Latitude":"47.01760","Longitude":"-91.66480","Snowdepth":"2.000","Units":"in","Rept_Date":"2020-11-17 13"},"coordinates":[1677,5527]},{"type":"Point","properties":{"Station_ID":"SSMM4","Station_Nam":"SAULT STE MARIE","Latitude":"46.48660","Longitude":"-84.40250","Snowdepth":"2.000","Units":"in","Rept_Date":"2020-11-17 13"},"coordinates":[4119,5023]},{"type":"Point","properties":{"Station_ID":"SD-UN-2","Station_Nam":"ELK POINT 5.6 NNE, SD","Latitude":"42.76126","Longitude":"-96.65320","Snowdepth":"2.000","Units":"in","Rept_Date":"2020-11-17 15"},"coordinates":[0,1485]},{"type":"Point","properties":{"Station_ID":"RCEM5","Station_Nam":"RICE","Latitude":"45.75760","Longitude":"-94.20720","Snowdepth":"2.000","Units":"in","Rept_Date":"2020-11-17 13"},"coordinates":[822,4331]},{"type":"Point","properties":{"Station_ID":"QNCM4","Station_Nam":"QUINCY HILL","Latitude":"47.13640","Longitude":"-88.57950","Snowdepth":"2.000","Units":"in","Rept_Date":"2020-11-17 12"},"coordinates":[2714,5640]},{"type":"Point","properties":{"Station_ID":"NYMM5","Station_Nam":"NEW YORK MILLS","Latitude":"46.50920","Longitude":"-95.37990","Snowdepth":"2.000","Units":"in","Rept_Date":"2020-11-17 13"},"coordinates":[428,5044]},{"type":"Point","properties":{"Station_ID":"NY-CQ-41","Station_Nam":"MAYVILLE 0.2 ESE, NY","Latitude":"42.25194","Longitude":"-79.49809","Snowdepth":"2.000","Units":"in","Rept_Date":"2020-11-17 12"},"coordinates":[5767,1002]},{"type":"Point","properties":{"Station_ID":"NALN6","Station_Nam":"CATTARAUGUS","Latitude":"42.32450","Longitude":"-78.86700","Snowdepth":"2.000","Units":"in","Rept_Date":"2020-11-17 13"},"coordinates":[5980,1071]},{"type":"Point","properties":{"Station_ID":"MWN","Station_Nam":"MOUNT WASHINGTON","Latitude":"44.26670","Longitude":"-71.30000","Snowdepth":"2.000","Units":"in","Rept_Date":"2020-11-17 12"},"coordinates":[8524,2915]},{"type":"Point","properties":{"Station_ID":"MN-TD-12","Station_Nam":"LONG PRAIRIE 2.1 NNE, MN","Latitude":"46.00588","Longitude":"-94.84649","Snowdepth":"2.000","Units":"in","Rept_Date":"2020-11-17 14"},"coordinates":[607,4566]},{"type":"Point","properties":{"Station_ID":"MN-SH-985","Station_Nam":"PRINCETON 3.3 WSW, MN","Latitude":"45.55211","Longitude":"-93.64481","Snowdepth":"2.000","Units":"in","Rept_Date":"2020-11-17 12"},"coordinates":[1011,4136]},{"type":"Point","properties":{"Station_ID":"MN-MR-4","Station_Nam":"LITTLE FALLS 1.2 SW, MN","Latitude":"45.96886","Longitude":"-94.37720","Snowdepth":"2.000","Units":"in","Rept_Date":"2020-11-17 13"},"coordinates":[765,4531]},{"type":"Point","properties":{"Station_ID":"MN-IS-18","Station_Nam":"BRAHAM 0.7 SW, MN","Latitude":"45.71379","Longitude":"-93.18095","Snowdepth":"2.000","Units":"in","Rept_Date":"2020-11-17 14"},"coordinates":[1167,4289]},{"type":"Point","properties":{"Station_ID":"MN-HN-298","Station_Nam":"EXCELSIOR 1.8 W, MN","Latitude":"44.89722","Longitude":"-93.60286","Snowdepth":"2.000","Units":"in","Rept_Date":"2020-11-17 13"},"coordinates":[1025,3514]},{"type":"Point","properties":{"Station_ID":"MN-DS-9","Station_Nam":"ALEXANDRIA 0.5 W, MN","Latitude":"45.87828","Longitude":"-95.38273","Snowdepth":"2.000","Units":"in","Rept_Date":"2020-11-17 14"},"coordinates":[427,4445]},{"type":"Point","properties":{"Station_ID":"MN-CW-44","Station_Nam":"CROSBY 1.1 SW, MN","Latitude":"46.47772","Longitude":"-93.97293","Snowdepth":"2.000","Units":"in","Rept_Date":"2020-11-17 13"},"coordinates":[901,5014]},{"type":"Point","properties":{"Station_ID":"MN-CK-6","Station_Nam":"GRAND MARAIS 4.4 W, MN","Latitude":"47.74865","Longitude":"-90.43760","Snowdepth":"2.000","Units":"in","Rept_Date":"2020-11-17 13"},"coordinates":[2090,6221]},{"type":"Point","properties":{"Station_ID":"MN-AT-5","Station_Nam":"TAMARACK 1.4 SW, MN","Latitude":"46.63760","Longitude":"-93.14554","Snowdepth":"2.000","Units":"in","Rept_Date":"2020-11-17 13"},"coordinates":[1179,5166]},{"type":"Point","properties":{"Station_ID":"MLCM5","Station_Nam":"MILACA","Latitude":"45.75320","Longitude":"-93.66170","Snowdepth":"2.000","Units":"in","Rept_Date":"2020-11-17 13"},"coordinates":[1006,4326]},{"type":"Point","properties":{"Station_ID":"MI-OT-4","Station_Nam":"GAYLORD 1.7 WNW, MI","Latitude":"45.03280","Longitude":"-84.71090","Snowdepth":"2.000","Units":"in","Rept_Date":"2020-11-17 13"},"coordinates":[4015,3642]},{"type":"Point","properties":{"Station_ID":"MI-OT-16","Station_Nam":"GAYLORD 2.2 SSE, MI","Latitude":"44.99441","Longitude":"-84.65820","Snowdepth":"2.000","Units":"in","Rept_Date":"2020-11-17 12"},"coordinates":[4033,3606]},{"type":"Point","properties":{"Station_ID":"GAYM4","Station_Nam":"GAYLORD","Latitude":"45.03320","Longitude":"-84.71130","Snowdepth":"2.000","Units":"in","Rept_Date":"2020-11-17 13"},"coordinates":[4015,3643]},{"type":"Point","properties":{"Station_ID":"FORM5","Station_Nam":"FOREST LAKE 5NE","Latitude":"45.33170","Longitude":"-92.89820","Snowdepth":"2.000","Units":"in","Rept_Date":"2020-11-17 13"},"coordinates":[1262,3926]},{"type":"Point","properties":{"Station_ID":"EMBM5","Station_Nam":"EMBARASS,MN","Latitude":"47.65810","Longitude":"-92.19580","Snowdepth":"2.000","Units":"in","Rept_Date":"2020-11-17 12"},"coordinates":[1499,6135]},{"type":"Point","properties":{"Station_ID":"CSPP1","Station_Nam":"COUDERSPORT 1 SW","Latitude":"41.77500","Longitude":"-78.04170","Snowdepth":"2.000","Units":"in","Rept_Date":"2020-11-17 12"},"coordinates":[6257,549]},{"type":"Point","properties":{"Station_ID":"CRLM5","Station_Nam":"CROSS LAKE DAM","Latitude":"46.66930","Longitude":"-94.11060","Snowdepth":"2.000","Units":"in","Rept_Date":"2020-11-17 14"},"coordinates":[855,5196]},{"type":"Point","properties":{"Station_ID":"CNRM1","Station_Nam":"CONNOR TWP","Latitude":"46.95830","Longitude":"-68.03330","Snowdepth":"2.000","Units":"in","Rept_Date":"2020-11-17 12"},"coordinates":[9622,5471]},{"type":"Point","properties":{"Station_ID":"CMKW3","Station_Nam":"CLAM LAKE 4W","Latitude":"46.16940","Longitude":"-90.98080","Snowdepth":"2.000","Units":"in","Rept_Date":"2020-11-17 13"},"coordinates":[1907,4722]},{"type":"Point","properties":{"Station_ID":"CLKM4","Station_Nam":"CLARKSBURG","Latitude":"46.49910","Longitude":"-87.84500","Snowdepth":"2.000","Units":"in","Rept_Date":"2020-11-17 12"},"coordinates":[2961,5035]},{"type":"Point","properties":{"Station_ID":"CAN-ON-130","Station_Nam":"BARRIE 3.6 N - CANWARN, CAN","Latitude":"44.41135","Longitude":"-79.69817","Snowdepth":"2.000","Units":"in","Rept_Date":"2020-11-17 13"},"coordinates":[5700,3052]},{"type":"Point","properties":{"Station_ID":"BSNM5","Station_Nam":"BENSON","Latitude":"45.31670","Longitude":"-95.61660","Snowdepth":"2.000","Units":"in","Rept_Date":"2020-11-17 14"},"coordinates":[348,3912]},{"type":"Point","properties":{"Station_ID":"BDFP1","Station_Nam":"BRADFORD,PA","Latitude":"41.95000","Longitude":"-78.73330","Snowdepth":"2.000","Units":"in","Rept_Date":"2020-11-17 13"},"coordinates":[6024,715]},{"type":"Point","properties":{"Station_ID":"ANJ","Station_Nam":"SAULT STE MARIE","Latitude":"46.46670","Longitude":"-84.36670","Snowdepth":"2.000","Units":"in","Rept_Date":"2020-11-18 00"},"coordinates":[4131,5004]},{"type":"Point","properties":{"Station_ID":"ALXM5","Station_Nam":"ALEXANDRIA","Latitude":"45.87820","Longitude":"-95.38270","Snowdepth":"2.000","Units":"in","Rept_Date":"2020-11-17 13"},"coordinates":[427,4445]},{"type":"Point","properties":{"Station_ID":"42.1284_079.8945","Station_Nam":"NORTHEAST 6SW (CLE0249)","Latitude":"42.12840","Longitude":"-79.89450","Snowdepth":"2.000","Units":"in","Rept_Date":"2020-11-17 23"},"coordinates":[5634,884]},{"type":"Point","properties":{"Station_ID":"41.8495_080.3016","Station_Nam":"4 WNW Crossingville  Trained Spotter (X4180803)","Latitude":"41.84946","Longitude":"-80.30159","Snowdepth":"2.000","Units":"in","Rept_Date":"2020-11-18 01"},"coordinates":[5497,620]},{"type":"Point","properties":{"Station_ID":"41.4727_081.1835","Station_Nam":"2 W Burton  Trained Spotter (CLE1337)","Latitude":"41.47271","Longitude":"-81.18346","Snowdepth":"2.000","Units":"in","Rept_Date":"2020-11-17 23"},"coordinates":[5201,262]},{"type":"Point","properties":{"Station_ID":"41.4329_081.3246","Station_Nam":"South Russell  Trained Spotter (CLE1339)","Latitude":"41.43291","Longitude":"-81.32455","Snowdepth":"2.000","Units":"in","Rept_Date":"2020-11-18 02"},"coordinates":[5153,224]},{"type":"Point","properties":{"Station_ID":"41.3292_080.7272","Station_Nam":"Cortland  Trained Spotter (X4130807)","Latitude":"41.32922","Longitude":"-80.72719","Snowdepth":"2.000","Units":"in","Rept_Date":"2020-11-17 22"},"coordinates":[5354,126]},{"type":"Point","properties":{"Station_ID":"QGO","Station_Nam":"QGO","Latitude":"48.85500","Longitude":"-74.20640","Snowdepth":"1.929","Units":"in","Rept_Date":"2020-11-17 12"},"coordinates":[7546,7272]},{"type":"Point","properties":{"Station_ID":"QTM","Station_Nam":"QTM","Latitude":"51.05780","Longitude":"-72.57190","Snowdepth":"1.850","Units":"in","Rept_Date":"2020-11-17 12"},"coordinates":[8096,9364]},{"type":"Point","properties":{"Station_ID":"SOCQ6","Station_Nam":"SOCKET LAKE","Latitude":"50.77870","Longitude":"-91.79300","Snowdepth":"1.850","Units":"in","Rept_Date":"2020-11-18 06"},"coordinates":[1634,9099]},{"type":"Point","properties":{"Station_ID":"PA-PT-2","Station_Nam":"ROULETTE 1.8 NNE, PA","Latitude":"41.80759","Longitude":"-78.14140","Snowdepth":"1.800","Units":"in","Rept_Date":"2020-11-17 12"},"coordinates":[6223,580]},{"type":"Point","properties":{"Station_ID":"QGA","Station_Nam":"QGA","Latitude":"47.25640","Longitude":"-73.73810","Snowdepth":"1.535","Units":"in","Rept_Date":"2020-11-17 12"},"coordinates":[7704,5754]},{"type":"Point","properties":{"Station_ID":"WI-WB-17","Station_Nam":"SARONA 4.9 E, WI","Latitude":"45.71720","Longitude":"-91.70610","Snowdepth":"1.500","Units":"in","Rept_Date":"2020-11-17 13"},"coordinates":[1663,4292]},{"type":"Point","properties":{"Station_ID":"WI-VL-14","Station_Nam":"BOULDER JUNCTION 1.4 NE, WI","Latitude":"46.12840","Longitude":"-89.62470","Snowdepth":"1.500","Units":"in","Rept_Date":"2020-11-17 13"},"coordinates":[2363,4683]},{"type":"Point","properties":{"Station_ID":"WI-RS-1","Station_Nam":"LADYSMITH 2.8 WNW, WI","Latitude":"45.48180","Longitude":"-91.14680","Snowdepth":"1.500","Units":"in","Rept_Date":"2020-11-17 13"},"coordinates":[1851,4069]},{"type":"Point","properties":{"Station_ID":"WI-PR-6","Station_Nam":"PHILLIPS 1.3 S, WI","Latitude":"45.67677","Longitude":"-90.39543","Snowdepth":"1.500","Units":"in","Rept_Date":"2020-11-17 12"},"coordinates":[2104,4254]},{"type":"Point","properties":{"Station_ID":"OH-PT-10","Station_Nam":"KENT 3.6 NE, OH","Latitude":"41.20083","Longitude":"-81.33890","Snowdepth":"1.500","Units":"in","Rept_Date":"2020-11-17 13"},"coordinates":[5149,4]},{"type":"Point","properties":{"Station_ID":"NY-ER-63","Station_Nam":"GLENWOOD 1.5 SE, NY","Latitude":"42.60195","Longitude":"-78.63910","Snowdepth":"1.500","Units":"in","Rept_Date":"2020-11-17 13"},"coordinates":[6056,1334]},{"type":"Point","properties":{"Station_ID":"NY-CQ-40","Station_Nam":"JAMESTOWN 1.4 WSW, NY","Latitude":"42.08809","Longitude":"-79.25944","Snowdepth":"1.500","Units":"in","Rept_Date":"2020-11-17 13"},"coordinates":[5848,846]},{"type":"Point","properties":{"Station_ID":"MN-IT-7","Station_Nam":"GRAND RAPIDS 6.2 SSW, MN","Latitude":"47.13687","Longitude":"-93.56660","Snowdepth":"1.500","Units":"in","Rept_Date":"2020-11-17 12"},"coordinates":[1038,5640]},{"type":"Point","properties":{"Station_ID":"MN-IS-21","Station_Nam":"ISANTI 5.0 SW, MN","Latitude":"45.43360","Longitude":"-93.30200","Snowdepth":"1.500","Units":"in","Rept_Date":"2020-11-17 14"},"coordinates":[1127,4023]},{"type":"Point","properties":{"Station_ID":"MN-BK-15","Station_Nam":"LAKE PARK 9.9 S, MN","Latitude":"46.74150","Longitude":"-96.11090","Snowdepth":"1.500","Units":"in","Rept_Date":"2020-11-17 14"},"coordinates":[182,5265]},{"type":"Point","properties":{"Station_ID":"MN-AA-76","Station_Nam":"NOWTHEN 2.9 SSE, MN","Latitude":"45.30360","Longitude":"-93.42620","Snowdepth":"1.500","Units":"in","Rept_Date":"2020-11-17 13"},"coordinates":[1085,3900]},{"type":"Point","properties":{"Station_ID":"CAN-ON-620","Station_Nam":"GOODERHAM 3.4 SSW, CAN","Latitude":"44.87690","Longitude":"-78.39265","Snowdepth":"1.500","Units":"in","Rept_Date":"2020-11-17 12"},"coordinates":[6139,3494]},{"type":"Point","properties":{"Station_ID":"41.7396_080.5416","Station_Nam":"PIERPONT 2SE (CLE1412)","Latitude":"41.73960","Longitude":"-80.54160","Snowdepth":"1.500","Units":"in","Rept_Date":"2020-11-17 15"},"coordinates":[5417,515]},{"type":"Point","properties":{"Station_ID":"CAN-ON-757","Station_Nam":"SAULT STE. MARIE 2.8 ESE - GLFC, CAN","Latitude":"46.50300","Longitude":"-84.30300","Snowdepth":"1.400","Units":"in","Rept_Date":"2020-11-17 13"},"coordinates":[4152,5038]},{"type":"Point","properties":{"Station_ID":"QCO","Station_Nam":"QCO","Latitude":"51.45280","Longitude":"-72.20110","Snowdepth":"1.299","Units":"in","Rept_Date":"2020-11-17 12"},"coordinates":[8221,9739]},{"type":"Point","properties":{"Station_ID":"CATQ6","Station_Nam":"CAT LAKE","Latitude":"51.72690","Longitude":"-91.82210","Snowdepth":"1.260","Units":"in","Rept_Date":"2020-11-18 06"},"coordinates":[1624,9999]},{"type":"Point","properties":{"Station_ID":"QIQ","Station_Nam":"QIQ","Latitude":"49.82390","Longitude":"-68.54310","Snowdepth":"1.220","Units":"in","Rept_Date":"2020-11-17 12"},"coordinates":[9450,8192]},{"type":"Point","properties":{"Station_ID":"QLI","Station_Nam":"QLI","Latitude":"50.27080","Longitude":"-73.92280","Snowdepth":"1.102","Units":"in","Rept_Date":"2020-11-17 12"},"coordinates":[7642,8616]},{"type":"Point","properties":{"Station_ID":"SVBQ6","Station_Nam":"SAVANT BASE","Latitude":"50.28730","Longitude":"-90.65670","Snowdepth":"1.100","Units":"in","Rept_Date":"2020-11-18 06"},"coordinates":[2016,8632]},{"type":"Point","properties":{"Station_ID":"MI-AT-6","Station_Nam":"MANCELONA 0.5 ESE, MI","Latitude":"44.89981","Longitude":"-85.05100","Snowdepth":"1.100","Units":"in","Rept_Date":"2020-11-17 13"},"coordinates":[3901,3516]},{"type":"Point","properties":{"Station_ID":"YNG","Station_Nam":"YOUNGSTOWN-WARREN REG AIRPRT","Latitude":"41.25890","Longitude":"-80.67610","Snowdepth":"1.000","Units":"in","Rept_Date":"2020-11-18 00"},"coordinates":[5371,59]},{"type":"Point","properties":{"Station_ID":"WUNW3","Station_Nam":"WAUSAU-NORTHEAST","Latitude":"44.97310","Longitude":"-89.61690","Snowdepth":"1.000","Units":"in","Rept_Date":"2020-11-17 12"},"coordinates":[2366,3586]},{"type":"Point","properties":{"Station_ID":"WSWN6","Station_Nam":"WARSAW","Latitude":"42.74220","Longitude":"-78.20850","Snowdepth":"1.000","Units":"in","Rept_Date":"2020-11-17 12"},"coordinates":[6201,1467]},{"type":"Point","properties":{"Station_ID":"WRUM5","Station_Nam":"WARROAD 4W","Latitude":"48.89600","Longitude":"-95.40700","Snowdepth":"1.000","Units":"in","Rept_Date":"2020-11-18 04"},"coordinates":[419,7311]},{"type":"Point","properties":{"Station_ID":"WMRM5","Station_Nam":"WILLMAR 5N","Latitude":"45.19010","Longitude":"-95.05860","Snowdepth":"1.000","Units":"in","Rept_Date":"2020-11-17 12"},"coordinates":[536,3792]},{"type":"Point","properties":{"Station_ID":"WLXP1","Station_Nam":"GLEN HAZEL,PA","Latitude":"41.56670","Longitude":"-78.60000","Snowdepth":"1.000","Units":"in","Rept_Date":"2020-11-17 12"},"coordinates":[6069,351]},{"type":"Point","properties":{"Station_ID":"WLSN6","Station_Nam":"WALES","Latitude":"42.73920","Longitude":"-78.58780","Snowdepth":"1.000","Units":"in","Rept_Date":"2020-11-17 12"},"coordinates":[6073,1464]},{"type":"Point","properties":{"Station_ID":"WLNM4","Station_Nam":"WELLSTON 1N","Latitude":"44.22940","Longitude":"-85.95690","Snowdepth":"1.000","Units":"in","Rept_Date":"2020-11-17 12"},"coordinates":[3596,2880]},{"type":"Point","properties":{"Station_ID":"WLLP1","Station_Nam":"WELLSBORO 4 SW","Latitude":"41.70030","Longitude":"-77.38940","Snowdepth":"1.000","Units":"in","Rept_Date":"2020-11-17 12"},"coordinates":[6476,478]},{"type":"Point","properties":{"Station_ID":"WI-VL-9","Station_Nam":"LAND O' LAKES 11.7 W, WI","Latitude":"46.19023","Longitude":"-89.45790","Snowdepth":"1.000","Units":"in","Rept_Date":"2020-11-17 12"},"coordinates":[2419,4741]},{"type":"Point","properties":{"Station_ID":"WI-PR-8","Station_Nam":"PHILLIPS 0.4 SSW, WI","Latitude":"45.69086","Longitude":"-90.40200","Snowdepth":"1.000","Units":"in","Rept_Date":"2020-11-17 13"},"coordinates":[2102,4267]},{"type":"Point","properties":{"Station_ID":"WI-ON-6","Station_Nam":"RHINELANDER 5.2 N, WI","Latitude":"45.71388","Longitude":"-89.42150","Snowdepth":"1.000","Units":"in","Rept_Date":"2020-11-17 14"},"coordinates":[2431,4289]},{"type":"Point","properties":{"Station_ID":"WI-MT-19","Station_Nam":"EVERGREEN 1.5 WSW, WI","Latitude":"44.83512","Longitude":"-89.66528","Snowdepth":"1.000","Units":"in","Rept_Date":"2020-11-17 13"},"coordinates":[2349,3455]},{"type":"Point","properties":{"Station_ID":"WI-MT-16","Station_Nam":"WAUSAU 5.4 SSW, WI","Latitude":"44.89160","Longitude":"-89.69407","Snowdepth":"1.000","Units":"in","Rept_Date":"2020-11-17 13"},"coordinates":[2340,3508]},{"type":"Point","properties":{"Station_ID":"WI-MT-1","Station_Nam":"SCHOFIELD 3.3 E, WI","Latitude":"44.91806","Longitude":"-89.54470","Snowdepth":"1.000","Units":"in","Rept_Date":"2020-11-17 13"},"coordinates":[2390,3533]},{"type":"Point","properties":{"Station_ID":"WI-LN-2","Station_Nam":"MERRILL 7.0 W, WI","Latitude":"45.17746","Longitude":"-89.84820","Snowdepth":"1.000","Units":"in","Rept_Date":"2020-11-17 12"},"coordinates":[2288,3780]},{"type":"Point","properties":{"Station_ID":"WI-BR-17","Station_Nam":"CLAYTON 2.9 ENE, WI","Latitude":"45.34073","Longitude":"-92.11158","Snowdepth":"1.000","Units":"in","Rept_Date":"2020-11-17 13"},"coordinates":[1527,3935]},{"type":"Point","properties":{"Station_ID":"VT-OL-2","Station_Nam":"BARTON 3.0 ENE, VT","Latitude":"44.75863","Longitude":"-72.11680","Snowdepth":"1.000","Units":"in","Rept_Date":"2020-11-17 12"},"coordinates":[8249,3382]},{"type":"Point","properties":{"Station_ID":"VT-OL-12","Station_Nam":"GREENSBORO 3.9 NNE, VT","Latitude":"44.63100","Longitude":"-72.28000","Snowdepth":"1.000","Units":"in","Rept_Date":"2020-11-17 13"},"coordinates":[8194,3261]},{"type":"Point","properties":{"Station_ID":"VANM1","Station_Nam":"VAN BUREN","Latitude":"47.16600","Longitude":"-67.93900","Snowdepth":"1.000","Units":"in","Rept_Date":"2020-11-17 12"},"coordinates":[9653,5668]},{"type":"Point","properties":{"Station_ID":"UMNM5","Station_Nam":"UNIVERSITY OF MN ST. PAUL","Latitude":"44.99020","Longitude":"-93.17990","Snowdepth":"1.000","Units":"in","Rept_Date":"2020-11-17 14"},"coordinates":[1168,3602]},{"type":"Point","properties":{"Station_ID":"SVSN6","Station_Nam":"SILVER SPRINGS 3N","Latitude":"42.70580","Longitude":"-78.09370","Snowdepth":"1.000","Units":"in","Rept_Date":"2020-11-17 12"},"coordinates":[6240,1433]},{"type":"Point","properties":{"Station_ID":"SUTV1","Station_Nam":"SUTTON","Latitude":"44.61220","Longitude":"-72.04810","Snowdepth":"1.000","Units":"in","Rept_Date":"2020-11-17 13"},"coordinates":[8272,3243]},{"type":"Point","properties":{"Station_ID":"STGW3","Station_Nam":"ST GERMAIN","Latitude":"45.91550","Longitude":"-89.48940","Snowdepth":"1.000","Units":"in","Rept_Date":"2020-11-17 12"},"coordinates":[2408,4481]},{"type":"Point","properties":{"Station_ID":"STC","Station_Nam":"ST. CLOUD REGIONAL AIRPORT","Latitude":"45.54330","Longitude":"-94.05140","Snowdepth":"1.000","Units":"in","Rept_Date":"2020-11-17 12"},"coordinates":[875,4127]},{"type":"Point","properties":{"Station_ID":"SHHW3","Station_Nam":"SHAWANO 2SSW","Latitude":"44.76310","Longitude":"-88.61830","Snowdepth":"1.000","Units":"in","Rept_Date":"2020-11-17 14"},"coordinates":[2701,3386]},{"type":"Point","properties":{"Station_ID":"SEBM5","Station_Nam":"SEBEKA","Latitude":"46.62540","Longitude":"-95.09670","Snowdepth":"1.000","Units":"in","Rept_Date":"2020-11-17 13"},"coordinates":[523,5155]},{"type":"Point","properties":{"Station_ID":"SCSM5","Station_Nam":"ST CLOUD STATE","Latitude":"45.55100","Longitude":"-94.14950","Snowdepth":"1.000","Units":"in","Rept_Date":"2020-11-17 12"},"coordinates":[842,4134]},{"type":"Point","properties":{"Station_ID":"SCOM4","Station_Nam":"SCOTTVILLE 2 SE","Latitude":"43.93310","Longitude":"-86.24530","Snowdepth":"1.000","Units":"in","Rept_Date":"2020-11-17 12"},"coordinates":[3499,2598]},{"type":"Point","properties":{"Station_ID":"RSTW3","Station_Nam":"ROSHOLT","Latitude":"44.62710","Longitude":"-89.30600","Snowdepth":"1.000","Units":"in","Rept_Date":"2020-11-17 13"},"coordinates":[2470,3257]},{"type":"Point","properties":{"Station_ID":"RHIW3","Station_Nam":"RHINELANDER","Latitude":"45.59860","Longitude":"-89.45080","Snowdepth":"1.000","Units":"in","Rept_Date":"2020-11-17 13"},"coordinates":[2421,4180]},{"type":"Point","properties":{"Station_ID":"RHAN6","Station_Nam":"ALLEGANY STATE PARK","Latitude":"42.10030","Longitude":"-78.74970","Snowdepth":"1.000","Units":"in","Rept_Date":"2020-11-17 12"},"coordinates":[6019,858]},{"type":"Point","properties":{"Station_ID":"RDFN6","Station_Nam":"REDFIELD 8N","Latitude":"43.64130","Longitude":"-75.88400","Snowdepth":"1.000","Units":"in","Rept_Date":"2020-11-17 12"},"coordinates":[6982,2321]},{"type":"Point","properties":{"Station_ID":"PTBN3","Station_Nam":"PITTSBURG RESERVOIR","Latitude":"45.04690","Longitude":"-71.38300","Snowdepth":"1.000","Units":"in","Rept_Date":"2020-11-17 12"},"coordinates":[8496,3656]},{"type":"Point","properties":{"Station_ID":"PRNW3","Station_Nam":"PRENTICE,WI","Latitude":"45.54780","Longitude":"-90.30000","Snowdepth":"1.000","Units":"in","Rept_Date":"2020-11-17 14"},"coordinates":[2136,4131]},{"type":"Point","properties":{"Station_ID":"PRGN6","Station_Nam":"PERRYSBURG","Latitude":"42.46470","Longitude":"-79.00310","Snowdepth":"1.000","Units":"in","Rept_Date":"2020-11-17 12"},"coordinates":[5934,1204]},{"type":"Point","properties":{"Station_ID":"PGVN6","Station_Nam":"PORTAGEVILLE","Latitude":"42.57580","Longitude":"-78.06720","Snowdepth":"1.000","Units":"in","Rept_Date":"2020-11-17 12"},"coordinates":[6248,1309]},{"type":"Point","properties":{"Station_ID":"OTTM5","Station_Nam":"OTTERTAIL,MN","Latitude":"46.41670","Longitude":"-95.56670","Snowdepth":"1.000","Units":"in","Rept_Date":"2020-11-17 12"},"coordinates":[365,4957]},{"type":"Point","properties":{"Station_ID":"OLNN6","Station_Nam":"OLEAN","Latitude":"42.07370","Longitude":"-78.45180","Snowdepth":"1.000","Units":"in","Rept_Date":"2020-11-17 12"},"coordinates":[6119,833]},{"type":"Point","properties":{"Station_ID":"OH-GG-7","Station_Nam":"MIDDLEFIELD 0.6 NE, OH","Latitude":"41.46438","Longitude":"-81.06520","Snowdepth":"1.000","Units":"in","Rept_Date":"2020-11-17 13"},"coordinates":[5241,254]},{"type":"Point","properties":{"Station_ID":"OCON6","Station_Nam":"OSCEOLA","Latitude":"43.50370","Longitude":"-75.72170","Snowdepth":"1.000","Units":"in","Rept_Date":"2020-11-17 13"},"coordinates":[7037,2190]},{"type":"Point","properties":{"Station_ID":"NY-WY-11","Station_Nam":"SILVER SPRINGS COOP, NY","Latitude":"42.70580","Longitude":"-78.09370","Snowdepth":"1.000","Units":"in","Rept_Date":"2020-11-17 12"},"coordinates":[6240,1433]},{"type":"Point","properties":{"Station_ID":"NY-ST-33","Station_Nam":"BATH 4.2 E, NY","Latitude":"42.33968","Longitude":"-77.23666","Snowdepth":"1.000","Units":"in","Rept_Date":"2020-11-17 12"},"coordinates":[6528,1085]},{"type":"Point","properties":{"Station_ID":"NY-ER-158","Station_Nam":"EAST AURORA 2.7 SSE, NY","Latitude":"42.72936","Longitude":"-78.60561","Snowdepth":"1.000","Units":"in","Rept_Date":"2020-11-17 13"},"coordinates":[6067,1455]},{"type":"Point","properties":{"Station_ID":"NY-CT-32","Station_Nam":"SALAMANCA 1.5 E, NY","Latitude":"42.16730","Longitude":"-78.69277","Snowdepth":"1.000","Units":"in","Rept_Date":"2020-11-17 12"},"coordinates":[6038,921]},{"type":"Point","properties":{"Station_ID":"NY-CT-2","Station_Nam":"RANDOLPH 1.1 ENE, NY","Latitude":"42.17056","Longitude":"-78.96120","Snowdepth":"1.000","Units":"in","Rept_Date":"2020-11-17 12"},"coordinates":[5948,924]},{"type":"Point","properties":{"Station_ID":"NPTV1","Station_Nam":"NEWPORT","Latitude":"44.94900","Longitude":"-72.19120","Snowdepth":"1.000","Units":"in","Rept_Date":"2020-11-17 12"},"coordinates":[8224,3563]},{"type":"Point","properties":{"Station_ID":"NH-CS-4","Station_Nam":"PITTSBURG 6.1 NE, NH","Latitude":"45.11060","Longitude":"-71.29760","Snowdepth":"1.000","Units":"in","Rept_Date":"2020-11-17 12"},"coordinates":[8524,3716]},{"type":"Point","properties":{"Station_ID":"MQT","Station_Nam":"MARQUETTE, MI","Latitude":"46.53140","Longitude":"-87.54920","Snowdepth":"1.000","Units":"in","Rept_Date":"2020-11-18 06"},"coordinates":[3061,5065]},{"type":"Point","properties":{"Station_ID":"MN-SH-38","Station_Nam":"ELK RIVER 1.6 S, MN","Latitude":"45.30850","Longitude":"-93.56256","Snowdepth":"1.000","Units":"in","Rept_Date":"2020-11-17 13"},"coordinates":[1039,3904]},{"type":"Point","properties":{"Station_ID":"MN-SH-10","Station_Nam":"BIG LAKE 5.6 NNE, MN","Latitude":"45.41409","Longitude":"-93.69190","Snowdepth":"1.000","Units":"in","Rept_Date":"2020-11-17 13"},"coordinates":[996,4004]},{"type":"Point","properties":{"Station_ID":"MN-RM-15","Station_Nam":"ROSEVILLE 2.1 NW, MN","Latitude":"45.03502","Longitude":"-93.18620","Snowdepth":"1.000","Units":"in","Rept_Date":"2020-11-17 12"},"coordinates":[1166,3645]},{"type":"Point","properties":{"Station_ID":"MN-CK-18","Station_Nam":"GRAND MARAIS 4.4 WSW, MN","Latitude":"47.74462","Longitude":"-90.43796","Snowdepth":"1.000","Units":"in","Rept_Date":"2020-11-17 13"},"coordinates":[2090,6218]},{"type":"Point","properties":{"Station_ID":"MN-CG-16","Station_Nam":"NORTH BRANCH 1.3 NNW, MN","Latitude":"45.53121","Longitude":"-92.97110","Snowdepth":"1.000","Units":"in","Rept_Date":"2020-11-17 12"},"coordinates":[1238,4116]},{"type":"Point","properties":{"Station_ID":"MN-BK-6","Station_Nam":"LAKE PARK 6.0 S, MN","Latitude":"46.79850","Longitude":"-96.12180","Snowdepth":"1.000","Units":"in","Rept_Date":"2020-11-17 13"},"coordinates":[179,5319]},{"type":"Point","properties":{"Station_ID":"MLLW3","Station_Nam":"MERRILL 8W","Latitude":"45.17810","Longitude":"-89.84810","Snowdepth":"1.000","Units":"in","Rept_Date":"2020-11-17 12"},"coordinates":[2288,3780]},{"type":"Point","properties":{"Station_ID":"MI-OT-17","Station_Nam":"GAYLORD 4.1 S, MI","Latitude":"44.96388","Longitude":"-84.68467","Snowdepth":"1.000","Units":"in","Rept_Date":"2020-11-17 12"},"coordinates":[4024,3577]},{"type":"Point","properties":{"Station_ID":"MI-HG-20","Station_Nam":"CALUMET 1.1 SSW, MI","Latitude":"47.23165","Longitude":"-88.45823","Snowdepth":"1.000","Units":"in","Rept_Date":"2020-11-17 11"},"coordinates":[2755,5730]},{"type":"Point","properties":{"Station_ID":"MEDW3","Station_Nam":"MEDFORD","Latitude":"45.13080","Longitude":"-90.34390","Snowdepth":"1.000","Units":"in","Rept_Date":"2020-11-17 14"},"coordinates":[2121,3735]},{"type":"Point","properties":{"Station_ID":"LTVN6","Station_Nam":"LITTLE VALLEY","Latitude":"42.24730","Longitude":"-78.81250","Snowdepth":"1.000","Units":"in","Rept_Date":"2020-11-17 12"},"coordinates":[5998,997]},{"type":"Point","properties":{"Station_ID":"LPLN6","Station_Nam":"LAKE PLACID 2 S","Latitude":"44.30420","Longitude":"-73.98390","Snowdepth":"1.000","Units":"in","Rept_Date":"2020-11-17 13"},"coordinates":[7621,2951]},{"type":"Point","properties":{"Station_ID":"LNOW3","Station_Nam":"LAND O LAKES","Latitude":"46.19000","Longitude":"-89.45700","Snowdepth":"1.000","Units":"in","Rept_Date":"2020-11-17 12"},"coordinates":[2419,4741]},{"type":"Point","properties":{"Station_ID":"LADW3","Station_Nam":"LADYSMITH WTP","Latitude":"45.44290","Longitude":"-91.08970","Snowdepth":"1.000","Units":"in","Rept_Date":"2020-11-17 13"},"coordinates":[1870,4032]},{"type":"Point","properties":{"Station_ID":"KZAP1","Station_Nam":"KINZUA","Latitude":"41.90060","Longitude":"-79.11860","Snowdepth":"1.000","Units":"in","Rept_Date":"2020-11-17 12"},"coordinates":[5895,668]},{"type":"Point","properties":{"Station_ID":"KYNG","Station_Nam":"YOUNGSTOWN-WARREN REG AIRPRT","Latitude":"41.25000","Longitude":"-80.66666","Snowdepth":"1.000","Units":"in","Rept_Date":"2020-11-18 06"},"coordinates":[5375,50]},{"type":"Point","properties":{"Station_ID":"KSGM4","Station_Nam":"KEARSARGE","Latitude":"47.27520","Longitude":"-88.41700","Snowdepth":"1.000","Units":"in","Rept_Date":"2020-11-17 13"},"coordinates":[2769,5772]},{"type":"Point","properties":{"Station_ID":"KSEM4","Station_Nam":"KALKASKA 11SE","Latitude":"44.58970","Longitude":"-85.04860","Snowdepth":"1.000","Units":"in","Rept_Date":"2020-11-17 13"},"coordinates":[3901,3222]},{"type":"Point","properties":{"Station_ID":"KIMM5","Station_Nam":"KIMBALL 3N","Latitude":"45.35330","Longitude":"-94.30560","Snowdepth":"1.000","Units":"in","Rept_Date":"2020-11-17 12"},"coordinates":[789,3947]},{"type":"Point","properties":{"Station_ID":"KANP1","Station_Nam":"KANE,PA","Latitude":"41.68330","Longitude":"-78.80000","Snowdepth":"1.000","Units":"in","Rept_Date":"2020-11-17 12"},"coordinates":[6002,462]},{"type":"Point","properties":{"Station_ID":"JSTN6","Station_Nam":"JAMESTOWN 4 ENE","Latitude":"42.11000","Longitude":"-79.15910","Snowdepth":"1.000","Units":"in","Rept_Date":"2020-11-17 12"},"coordinates":[5881,867]},{"type":"Point","properties":{"Station_ID":"HOLW3","Station_Nam":"HOLCOMBE","Latitude":"45.22370","Longitude":"-91.12700","Snowdepth":"1.000","Units":"in","Rept_Date":"2020-11-17 13"},"coordinates":[1858,3824]},{"type":"Point","properties":{"Station_ID":"GLTP1","Station_Nam":"GALETON,PA","Latitude":"41.73330","Longitude":"-77.63330","Snowdepth":"1.000","Units":"in","Rept_Date":"2020-11-17 13"},"coordinates":[6394,509]},{"type":"Point","properties":{"Station_ID":"FRKN6","Station_Nam":"FRANKLINVILLE","Latitude":"42.32960","Longitude":"-78.46330","Snowdepth":"1.000","Units":"in","Rept_Date":"2020-11-17 12"},"coordinates":[6115,1076]},{"type":"Point","properties":{"Station_ID":"FREM4","Station_Nam":"FREMONT,MI","Latitude":"43.45000","Longitude":"-86.03330","Snowdepth":"1.000","Units":"in","Rept_Date":"2020-11-17 12"},"coordinates":[3570,2139]},{"type":"Point","properties":{"Station_ID":"ELKM5","Station_Nam":"ELK RIVER","Latitude":"45.30470","Longitude":"-93.58420","Snowdepth":"1.000","Units":"in","Rept_Date":"2020-11-17 13"},"coordinates":[1032,3901]},{"type":"Point","properties":{"Station_ID":"EGRW3","Station_Nam":"EAGLE RIVER-SOUTH","Latitude":"45.91360","Longitude":"-89.24360","Snowdepth":"1.000","Units":"in","Rept_Date":"2020-11-17 13"},"coordinates":[2491,4479]},{"type":"Point","properties":{"Station_ID":"CVWP1","Station_Nam":"CHANDLER VALLEY 1SE","Latitude":"41.93010","Longitude":"-79.29700","Snowdepth":"1.000","Units":"in","Rept_Date":"2020-11-17 12"},"coordinates":[5835,696]},{"type":"Point","properties":{"Station_ID":"CJRP1","Station_Nam":"COUDERSPORT 7SE","Latitude":"41.73920","Longitude":"-77.97110","Snowdepth":"1.000","Units":"in","Rept_Date":"2020-11-17 12"},"coordinates":[6281,515]},{"type":"Point","properties":{"Station_ID":"CDLM4","Station_Nam":"CADILLAC 9&10 NEWS","Latitude":"44.21130","Longitude":"-85.40860","Snowdepth":"1.000","Units":"in","Rept_Date":"2020-11-17 12"},"coordinates":[3780,2862]},{"type":"Point","properties":{"Station_ID":"CBLW3","Station_Nam":"CUMBERLAND","Latitude":"45.53310","Longitude":"-92.02260","Snowdepth":"1.000","Units":"in","Rept_Date":"2020-11-17 13"},"coordinates":[1557,4117]},{"type":"Point","properties":{"Station_ID":"BGMN6","Station_Nam":"BINGHAMTON WFO","Latitude":"42.21160","Longitude":"-75.98580","Snowdepth":"1.000","Units":"in","Rept_Date":"2020-11-18 05"},"coordinates":[6948,963]},{"type":"Point","properties":{"Station_ID":"BFHW3","Station_Nam":"BAYFIELD FISH HATCHERY","Latitude":"46.78670","Longitude":"-90.86420","Snowdepth":"1.000","Units":"in","Rept_Date":"2020-11-17 14"},"coordinates":[1946,5308]},{"type":"Point","properties":{"Station_ID":"AVTW3","Station_Nam":"ARBOR VITAE-JOHNSON LAKE","Latitude":"45.89940","Longitude":"-89.72670","Snowdepth":"1.000","Units":"in","Rept_Date":"2020-11-17 12"},"coordinates":[2329,4465]},{"type":"Point","properties":{"Station_ID":"ATAN6","Station_Nam":"ATTICA 7 SW","Latitude":"42.81070","Longitude":"-78.39790","Snowdepth":"1.000","Units":"in","Rept_Date":"2020-11-17 11"},"coordinates":[6137,1532]},{"type":"Point","properties":{"Station_ID":"APXM4","Station_Nam":"GAYLORD 9SSW","Latitude":"44.90720","Longitude":"-84.71880","Snowdepth":"1.000","Units":"in","Rept_Date":"2020-11-18 06"},"coordinates":[4012,3523]},{"type":"Point","properties":{"Station_ID":"AMAM4","Station_Nam":"AMASA 1W","Latitude":"46.23470","Longitude":"-88.45440","Snowdepth":"1.000","Units":"in","Rept_Date":"2020-11-17 14"},"coordinates":[2756,4784]},{"type":"Point","properties":{"Station_ID":"ALFN6","Station_Nam":"ALFRED","Latitude":"42.27980","Longitude":"-77.76560","Snowdepth":"1.000","Units":"in","Rept_Date":"2020-11-17 13"},"coordinates":[6350,1028]},{"type":"Point","properties":{"Station_ID":"41.5909_081.0473","Station_Nam":"MONTVILLE (CLE1322)","Latitude":"41.59090","Longitude":"-81.04730","Snowdepth":"1.000","Units":"in","Rept_Date":"2020-11-18 00"},"coordinates":[5247,374]},{"type":"Point","properties":{"Station_ID":"41.5847_081.2519","Station_Nam":"CHARDON 2N  SNOW SPOTTER (X4160813)","Latitude":"41.58470","Longitude":"-81.25190","Snowdepth":"1.000","Units":"in","Rept_Date":"2020-11-17 13"},"coordinates":[5178,368]},{"type":"Point","properties":{"Station_ID":"41.5363_080.8353","Station_Nam":"ORWELL 1E  SNOW SPOTTER (CLE1445)","Latitude":"41.53630","Longitude":"-80.83530","Snowdepth":"1.000","Units":"in","Rept_Date":"2020-11-18 02"},"coordinates":[5318,322]},{"type":"Point","properties":{"Station_ID":"41.5186_080.2187","Station_Nam":"6 E Atlantic  Trained Spotter (CLE0352)","Latitude":"41.51859","Longitude":"-80.21871","Snowdepth":"1.000","Units":"in","Rept_Date":"2020-11-18 01"},"coordinates":[5525,305]},{"type":"Point","properties":{"Station_ID":"41.4716_081.1803","Station_Nam":"BURTON (CLE1314)","Latitude":"41.47160","Longitude":"-81.18030","Snowdepth":"1.000","Units":"in","Rept_Date":"2020-11-18 01"},"coordinates":[5202,261]},{"type":"Point","properties":{"Station_ID":"41.4330_081.4097","Station_Nam":"CHAGRIN FALLS  SNOW SPOTTER (CLE1172)","Latitude":"41.43300","Longitude":"-81.40970","Snowdepth":"1.000","Units":"in","Rept_Date":"2020-11-17 14"},"coordinates":[5125,224]},{"type":"Point","properties":{"Station_ID":"41.2574_080.6670","Station_Nam":"Youngstown Regional Airport  Trained Spotter (CLE2302)","Latitude":"41.25735","Longitude":"-80.66700","Snowdepth":"1.000","Units":"in","Rept_Date":"2020-11-18 00"},"coordinates":[5374,57]},{"type":"Point","properties":{"Station_ID":"41.2282_080.8472","Station_Nam":"WARREN (CLE2324)","Latitude":"41.22820","Longitude":"-80.84720","Snowdepth":"1.000","Units":"in","Rept_Date":"2020-11-17 23"},"coordinates":[5314,30]},{"type":"Point","properties":{"Station_ID":"41.1970_080.9871","Station_Nam":"NEWTON FALLS (CLE2322)","Latitude":"41.19700","Longitude":"-80.98710","Snowdepth":"1.000","Units":"in","Rept_Date":"2020-11-18 00"},"coordinates":[5267,0]}]}},"arcs":[],"transform":{"scale":[0.0029745074507450736,0.0010530953095309527],"translate":[-96.6532,41.197]}}