{"type":"Topology","objects":{"snowdepth_geo":{"type":"GeometryCollection","name":"snowdepth","crs":{"type":"name","properties":{"name":"urn:ogc:def:crs:OGC:1.3:CRS84"}},"geometries":[{"type":"Point","properties":{"Station_ID":"MMSV1","Station_Nam":"MOUNT MANSFIELD","Latitude":"44.53330","Longitude":"-72.83330","Snowdepth":"82.000","Units":"in","Rept_Date":"2019-11-29 05"},"coordinates":[7690,6433]},{"type":"Point","properties":{"Station_ID":"PRKM4","Station_Nam":"MUNISING EAST","Latitude":"46.42580","Longitude":"-86.62000","Snowdepth":"76.500","Units":"in","Rept_Date":"2019-11-29 06"},"coordinates":[3346,7371]},{"type":"Point","properties":{"Station_ID":"OGIQ6","Station_Nam":"OGOKI CAMP","Latitude":"50.76680","Longitude":"-87.85820","Snowdepth":"61.100","Units":"in","Rept_Date":"2019-11-29 06"},"coordinates":[2956,9523]},{"type":"Point","properties":{"Station_ID":"HTLN3","Station_Nam":"HERMIT LAKE SNOWPLOT","Latitude":"44.26130","Longitude":"-71.28330","Snowdepth":"23.000","Units":"in","Rept_Date":"2019-11-28 11"},"coordinates":[8179,6298]},{"type":"Point","properties":{"Station_ID":"IWOM4","Station_Nam":"IRONWOOD#2","Latitude":"46.46520","Longitude":"-90.13820","Snowdepth":"21.000","Units":"in","Rept_Date":"2019-11-28 13"},"coordinates":[2237,7391]},{"type":"Point","properties":{"Station_ID":"GMSM4","Station_Nam":"GRAND MARAIS 10S","Latitude":"46.50940","Longitude":"-85.96310","Snowdepth":"20.000","Units":"in","Rept_Date":"2019-11-28 14"},"coordinates":[3553,7413]},{"type":"Point","properties":{"Station_ID":"BERM4","Station_Nam":"BERGLAND DAM","Latitude":"46.58690","Longitude":"-89.54750","Snowdepth":"20.000","Units":"in","Rept_Date":"2019-11-28 13"},"coordinates":[2424,7451]},{"type":"Point","properties":{"Station_ID":"CAN-NB-50","Station_Nam":"DOYLEVILLE 2.4 WNW, CAN","Latitude":"47.90803","Longitude":"-66.13279","Snowdepth":"19.100","Units":"in","Rept_Date":"2019-11-28 13"},"coordinates":[9802,8106]},{"type":"Point","properties":{"Station_ID":"PDLM4","Station_Nam":"PAINESDALE","Latitude":"47.04160","Longitude":"-88.67170","Snowdepth":"18.000","Units":"in","Rept_Date":"2019-11-28 13"},"coordinates":[2700,7676]},{"type":"Point","properties":{"Station_ID":"MI-HG-18","Station_Nam":"CALUMET 0.7 W (TAMARACK), MI","Latitude":"47.24560","Longitude":"-88.46791","Snowdepth":"18.000","Units":"in","Rept_Date":"2019-11-28 13"},"coordinates":[2764,7778]},{"type":"Point","properties":{"Station_ID":"MI-HG-17","Station_Nam":"CALUMET 0.5 NE (CALUMET LAKE), MI","Latitude":"47.25300","Longitude":"-88.44652","Snowdepth":"18.000","Units":"in","Rept_Date":"2019-11-28 13"},"coordinates":[2770,7781]},{"type":"Point","properties":{"Station_ID":"MI-HG-11","Station_Nam":"HOUGHTON 3.0 SSW, MI","Latitude":"47.07704","Longitude":"-88.59680","Snowdepth":"17.000","Units":"in","Rept_Date":"2019-11-28 13"},"coordinates":[2723,7694]},{"type":"Point","properties":{"Station_ID":"MI-BG-3","Station_Nam":"L'ANSE 17.8 SE, MI","Latitude":"46.55730","Longitude":"-88.20770","Snowdepth":"17.000","Units":"in","Rept_Date":"2019-11-28 13"},"coordinates":[2846,7436]},{"type":"Point","properties":{"Station_ID":"CBVM1","Station_Nam":"CARRABASSETT VALLEY","Latitude":"45.08040","Longitude":"-70.30310","Snowdepth":"17.000","Units":"in","Rept_Date":"2019-11-28 12"},"coordinates":[8488,6704]},{"type":"Point","properties":{"Station_ID":"QNCM4","Station_Nam":"QUINCY HILL","Latitude":"47.13640","Longitude":"-88.57950","Snowdepth":"16.000","Units":"in","Rept_Date":"2019-11-28 12"},"coordinates":[2729,7723]},{"type":"Point","properties":{"Station_ID":"GNLM4","Station_Nam":"GREENLAND 6N","Latitude":"46.87360","Longitude":"-89.10060","Snowdepth":"16.000","Units":"in","Rept_Date":"2019-11-28 13"},"coordinates":[2564,7593]},{"type":"Point","properties":{"Station_ID":"BBEM4","Station_Nam":"BIG BAY 9SW","Latitude":"46.74620","Longitude":"-87.88160","Snowdepth":"16.000","Units":"in","Rept_Date":"2019-11-28 13"},"coordinates":[2948,7530]},{"type":"Point","properties":{"Station_ID":"WRPW3","Station_Nam":"WATER PURIFICATION PLANT","Latitude":"44.38800","Longitude":"-89.80550","Snowdepth":"15.000","Units":"in","Rept_Date":"2019-11-28 12"},"coordinates":[2342,6361]},{"type":"Point","properties":{"Station_ID":"WI-IR-3","Station_Nam":"PENCE 0.1 E, WI","Latitude":"46.41555","Longitude":"-90.27013","Snowdepth":"15.000","Units":"in","Rept_Date":"2019-11-28 13"},"coordinates":[2196,7366]},{"type":"Point","properties":{"Station_ID":"SUAW3","Station_Nam":"SUAMICO","Latitude":"44.60190","Longitude":"-88.09780","Snowdepth":"15.000","Units":"in","Rept_Date":"2019-11-28 12"},"coordinates":[2880,6467]},{"type":"Point","properties":{"Station_ID":"PDGM4","Station_Nam":"PAULDING","Latitude":"46.39760","Longitude":"-89.17940","Snowdepth":"15.000","Units":"in","Rept_Date":"2019-11-28 13"},"coordinates":[2540,7357]},{"type":"Point","properties":{"Station_ID":"MQT","Station_Nam":"MARQUETTE, MI","Latitude":"46.53140","Longitude":"-87.54920","Snowdepth":"15.000","Units":"in","Rept_Date":"2019-11-29 06"},"coordinates":[3053,7424]},{"type":"Point","properties":{"Station_ID":"LNOW3","Station_Nam":"LAND O LAKES","Latitude":"46.19000","Longitude":"-89.45700","Snowdepth":"15.000","Units":"in","Rept_Date":"2019-11-28 13"},"coordinates":[2452,7254]},{"type":"Point","properties":{"Station_ID":"IBLM5","Station_Nam":"ISABELLA 14W","Latitude":"47.59360","Longitude":"-91.65140","Snowdepth":"15.000","Units":"in","Rept_Date":"2019-11-28 15"},"coordinates":[1761,7950]},{"type":"Point","properties":{"Station_ID":"HURW3","Station_Nam":"HURLEY","Latitude":"46.46250","Longitude":"-90.19550","Snowdepth":"15.000","Units":"in","Rept_Date":"2019-11-28 14"},"coordinates":[2219,7389]},{"type":"Point","properties":{"Station_ID":"HERM4","Station_Nam":"HERMAN,MI","Latitude":"46.65000","Longitude":"-88.33330","Snowdepth":"15.000","Units":"in","Rept_Date":"2019-11-28 13"},"coordinates":[2806,7482]},{"type":"Point","properties":{"Station_ID":"BRAM1","Station_Nam":"BRASSUA DAM","Latitude":"45.66020","Longitude":"-69.81190","Snowdepth":"15.000","Units":"in","Rept_Date":"2019-11-28 12"},"coordinates":[8642,6992]},{"type":"Point","properties":{"Station_ID":"WI-VL-10","Station_Nam":"LAND O LAKES 4.3 WNW, WI","Latitude":"46.17440","Longitude":"-89.30380","Snowdepth":"14.500","Units":"in","Rept_Date":"2019-11-28 13"},"coordinates":[2500,7247]},{"type":"Point","properties":{"Station_ID":"WTRM4","Station_Nam":"WATERSMEET 12WSW","Latitude":"46.22310","Longitude":"-89.40850","Snowdepth":"14.000","Units":"in","Rept_Date":"2019-11-28 12"},"coordinates":[2467,7271]},{"type":"Point","properties":{"Station_ID":"RGNM1","Station_Nam":"RANGELEY 2NW","Latitude":"44.98940","Longitude":"-70.67220","Snowdepth":"14.000","Units":"in","Rept_Date":"2019-11-28 14"},"coordinates":[8371,6659]},{"type":"Point","properties":{"Station_ID":"RANM1","Station_Nam":"RANGELEY,ME","Latitude":"44.96670","Longitude":"-70.65000","Snowdepth":"14.000","Units":"in","Rept_Date":"2019-11-28 12"},"coordinates":[8378,6648]},{"type":"Point","properties":{"Station_ID":"NH-CS-10","Station_Nam":"RANDOLPH 1.4 NE, NH","Latitude":"44.38824","Longitude":"-71.26950","Snowdepth":"14.000","Units":"in","Rept_Date":"2019-11-28 12"},"coordinates":[8183,6361]},{"type":"Point","properties":{"Station_ID":"MMNV1","Station_Nam":"MT. MANSFIELD","Latitude":"44.52480","Longitude":"-72.81540","Snowdepth":"14.000","Units":"in","Rept_Date":"2019-11-28 21"},"coordinates":[7696,6429]},{"type":"Point","properties":{"Station_ID":"MI-HG-12","Station_Nam":"DOLLAR BAY 0.2 ENE, MI","Latitude":"47.12067","Longitude":"-88.49895","Snowdepth":"14.000","Units":"in","Rept_Date":"2019-11-28 13"},"coordinates":[2754,7716]},{"type":"Point","properties":{"Station_ID":"ME-PN-45","Station_Nam":"MILLINOCKET 2.7 ESE, ME","Latitude":"45.65002","Longitude":"-68.64472","Snowdepth":"14.000","Units":"in","Rept_Date":"2019-11-28 12"},"coordinates":[9010,6987]},{"type":"Point","properties":{"Station_ID":"LVDW3","Station_Nam":"LAC VIEUX DESERT","Latitude":"46.12110","Longitude":"-89.07580","Snowdepth":"14.000","Units":"in","Rept_Date":"2019-11-28 15"},"coordinates":[2572,7220]},{"type":"Point","properties":{"Station_ID":"ESGM1","Station_Nam":"EAST SANGERVILLE","Latitude":"45.13690","Longitude":"-69.28060","Snowdepth":"14.000","Units":"in","Rept_Date":"2019-11-28 12"},"coordinates":[8810,6732]},{"type":"Point","properties":{"Station_ID":"ME-AR-18","Station_Nam":"NEW SWEDEN 4.9 NNW, ME","Latitude":"47.01080","Longitude":"-68.14390","Snowdepth":"13.500","Units":"in","Rept_Date":"2019-11-28 12"},"coordinates":[9168,7661]},{"type":"Point","properties":{"Station_ID":"RKWM1","Station_Nam":"MOOSEHEAD LAKE","Latitude":"45.58330","Longitude":"-69.71670","Snowdepth":"13.000","Units":"in","Rept_Date":"2019-11-28 12"},"coordinates":[8672,6954]},{"type":"Point","properties":{"Station_ID":"MWN","Station_Nam":"MOUNT WASHINGTON","Latitude":"44.26670","Longitude":"-71.30000","Snowdepth":"13.000","Units":"in","Rept_Date":"2019-11-29 05"},"coordinates":[8174,6301]},{"type":"Point","properties":{"Station_ID":"MI-MQ-19","Station_Nam":"ISHPEMING 7.2 SW, MI","Latitude":"46.40550","Longitude":"-87.75670","Snowdepth":"13.000","Units":"in","Rept_Date":"2019-11-28 11"},"coordinates":[2988,7361]},{"type":"Point","properties":{"Station_ID":"MI-HG-1","Station_Nam":"HOUGHTON 1.6 ESE, MI","Latitude":"47.10774","Longitude":"-88.52940","Snowdepth":"13.000","Units":"in","Rept_Date":"2019-11-28 13"},"coordinates":[2744,7709]},{"type":"Point","properties":{"Station_ID":"ME-AR-15","Station_Nam":"PRESQUE ISLE 1.3 WSW, ME","Latitude":"46.67960","Longitude":"-68.01270","Snowdepth":"13.000","Units":"in","Rept_Date":"2019-11-28 14"},"coordinates":[9209,7497]},{"type":"Point","properties":{"Station_ID":"LNCM1","Station_Nam":"LINCOLN WATER DISTRICT","Latitude":"45.32410","Longitude":"-68.58300","Snowdepth":"13.000","Units":"in","Rept_Date":"2019-11-28 14"},"coordinates":[9030,6825]},{"type":"Point","properties":{"Station_ID":"KMWN","Station_Nam":"MOUNT WASHINGTON","Latitude":"44.26666","Longitude":"-71.30000","Snowdepth":"13.000","Units":"in","Rept_Date":"2019-11-29 06"},"coordinates":[8174,6301]},{"type":"Point","properties":{"Station_ID":"JCBM4","Station_Nam":"JACOBSVILLE","Latitude":"47.00830","Longitude":"-88.43180","Snowdepth":"13.000","Units":"in","Rept_Date":"2019-11-28 12"},"coordinates":[2775,7660]},{"type":"Point","properties":{"Station_ID":"EVRW3","Station_Nam":"EAGLE RIVER-4 E","Latitude":"45.91890","Longitude":"-89.15280","Snowdepth":"13.000","Units":"in","Rept_Date":"2019-11-28 12"},"coordinates":[2548,7120]},{"type":"Point","properties":{"Station_ID":"WI-IR-4","Station_Nam":"MERCER 7.0 NNE, WI","Latitude":"46.26677","Longitude":"-90.03360","Snowdepth":"12.500","Units":"in","Rept_Date":"2019-11-28 13"},"coordinates":[2270,7292]},{"type":"Point","properties":{"Station_ID":"ME-FR-2","Station_Nam":"TEMPLE 1.8 W, ME","Latitude":"44.68329","Longitude":"-70.26420","Snowdepth":"12.500","Units":"in","Rept_Date":"2019-11-28 12"},"coordinates":[8500,6507]},{"type":"Point","properties":{"Station_ID":"WI-PR-6","Station_Nam":"PHILLIPS 1.3 S, WI","Latitude":"45.67677","Longitude":"-90.39543","Snowdepth":"12.000","Units":"in","Rept_Date":"2019-11-28 12"},"coordinates":[2156,7000]},{"type":"Point","properties":{"Station_ID":"WI-BY-14","Station_Nam":"ASHLAND 9.8 W, WI","Latitude":"46.59742","Longitude":"-91.07856","Snowdepth":"12.000","Units":"in","Rept_Date":"2019-11-28 12"},"coordinates":[1941,7456]},{"type":"Point","properties":{"Station_ID":"STGW3","Station_Nam":"ST GERMAIN","Latitude":"45.91550","Longitude":"-89.48940","Snowdepth":"12.000","Units":"in","Rept_Date":"2019-11-28 12"},"coordinates":[2442,7118]},{"type":"Point","properties":{"Station_ID":"MI-HG-14","Station_Nam":"HOUGHTON 0.6 SE, MI","Latitude":"47.10847","Longitude":"-88.55235","Snowdepth":"12.000","Units":"in","Rept_Date":"2019-11-28 13"},"coordinates":[2737,7710]},{"type":"Point","properties":{"Station_ID":"MI-HG-13","Station_Nam":"HOUGHTON 1.2 WNW, MI","Latitude":"47.12035","Longitude":"-88.58525","Snowdepth":"12.000","Units":"in","Rept_Date":"2019-11-28 13"},"coordinates":[2727,7715]},{"type":"Point","properties":{"Station_ID":"LTMW3","Station_Nam":"LAKE TOMAHAWK 2 SE","Latitude":"45.80750","Longitude":"-89.55830","Snowdepth":"12.000","Units":"in","Rept_Date":"2019-11-28 13"},"coordinates":[2420,7065]},{"type":"Point","properties":{"Station_ID":"KSGM4","Station_Nam":"KEARSARGE","Latitude":"47.27520","Longitude":"-88.41700","Snowdepth":"12.000","Units":"in","Rept_Date":"2019-11-28 13"},"coordinates":[2780,7792]},{"type":"Point","properties":{"Station_ID":"IRMM4","Station_Nam":"WWTP","Latitude":"46.46670","Longitude":"-90.18330","Snowdepth":"12.000","Units":"in","Rept_Date":"2019-11-28 13"},"coordinates":[2223,7391]},{"type":"Point","properties":{"Station_ID":"EGRW3","Station_Nam":"EAGLE RIVER-SOUTH","Latitude":"45.91360","Longitude":"-89.24360","Snowdepth":"12.000","Units":"in","Rept_Date":"2019-11-28 13"},"coordinates":[2519,7117]},{"type":"Point","properties":{"Station_ID":"CMKW3","Station_Nam":"CLAM LAKE 4W","Latitude":"46.16940","Longitude":"-90.98080","Snowdepth":"12.000","Units":"in","Rept_Date":"2019-11-28 13"},"coordinates":[1972,7244]},{"type":"Point","properties":{"Station_ID":"WRSM5","Station_Nam":"WRENSHALL","Latitude":"46.61550","Longitude":"-92.38380","Snowdepth":"11.000","Units":"in","Rept_Date":"2019-11-28 14"},"coordinates":[1530,7465]},{"type":"Point","properties":{"Station_ID":"WLFM5","Station_Nam":"WOLF RIDGE ENVIRON LEARNING CENTER","Latitude":"47.38240","Longitude":"-91.19730","Snowdepth":"11.000","Units":"in","Rept_Date":"2019-11-28 13"},"coordinates":[1904,7845]},{"type":"Point","properties":{"Station_ID":"WI-PR-7","Station_Nam":"BRANTWOOD 7.4 S, WI","Latitude":"45.45450","Longitude":"-90.10249","Snowdepth":"11.000","Units":"in","Rept_Date":"2019-11-28 10"},"coordinates":[2249,6890]},{"type":"Point","properties":{"Station_ID":"RLKW3","Station_Nam":"REST LAKE","Latitude":"46.12220","Longitude":"-89.87720","Snowdepth":"11.000","Units":"in","Rept_Date":"2019-11-28 14"},"coordinates":[2320,7221]},{"type":"Point","properties":{"Station_ID":"RHLW3","Station_Nam":"RHINELANDER 4NE","Latitude":"45.65270","Longitude":"-89.30740","Snowdepth":"11.000","Units":"in","Rept_Date":"2019-11-28 12"},"coordinates":[2499,6988]},{"type":"Point","properties":{"Station_ID":"PHEW3","Station_Nam":"PHELPS","Latitude":"46.06630","Longitude":"-89.07520","Snowdepth":"11.000","Units":"in","Rept_Date":"2019-11-28 13"},"coordinates":[2572,7193]},{"type":"Point","properties":{"Station_ID":"JKMM1","Station_Nam":"JACKMAN","Latitude":"45.62600","Longitude":"-70.24600","Snowdepth":"11.000","Units":"in","Rept_Date":"2019-11-28 12"},"coordinates":[8506,6975]},{"type":"Point","properties":{"Station_ID":"CNRM1","Station_Nam":"CONNOR TWP","Latitude":"46.95830","Longitude":"-68.03330","Snowdepth":"11.000","Units":"in","Rept_Date":"2019-11-28 12"},"coordinates":[9203,7635]},{"type":"Point","properties":{"Station_ID":"CNNW3","Station_Nam":"CRANDON","Latitude":"45.55110","Longitude":"-88.89830","Snowdepth":"11.000","Units":"in","Rept_Date":"2019-11-28 12"},"coordinates":[2628,6938]},{"type":"Point","properties":{"Station_ID":"CAR","Station_Nam":"CARIBOU, ME","Latitude":"46.86830","Longitude":"-68.01360","Snowdepth":"11.000","Units":"in","Rept_Date":"2019-11-28 12"},"coordinates":[9209,7591]},{"type":"Point","properties":{"Station_ID":"CAN-NB-13","Station_Nam":"BATHURST 3.8 NW, CAN","Latitude":"47.64212","Longitude":"-65.68756","Snowdepth":"11.000","Units":"in","Rept_Date":"2019-11-28 11"},"coordinates":[9942,7974]},{"type":"Point","properties":{"Station_ID":"CAN-NB-105","Station_Nam":"SISSON BROOK 3.8 E, CAN","Latitude":"46.98305","Longitude":"-67.32532","Snowdepth":"11.000","Units":"in","Rept_Date":"2019-11-28 11"},"coordinates":[9426,7647]},{"type":"Point","properties":{"Station_ID":"BFHW3","Station_Nam":"BAYFIELD FISH HATCHERY","Latitude":"46.78670","Longitude":"-90.86420","Snowdepth":"11.000","Units":"in","Rept_Date":"2019-11-28 14"},"coordinates":[2009,7550]},{"type":"Point","properties":{"Station_ID":"DVLQ6","Station_Nam":"DEVIOUS LAKE","Latitude":"49.19890","Longitude":"-87.76440","Snowdepth":"10.750","Units":"in","Rept_Date":"2019-11-29 06"},"coordinates":[2985,8746]},{"type":"Point","properties":{"Station_ID":"WI-PR-2","Station_Nam":"BUTTERNUT 5.9 SW, WI","Latitude":"45.96501","Longitude":"-90.59750","Snowdepth":"10.500","Units":"in","Rept_Date":"2019-11-28 12"},"coordinates":[2093,7143]},{"type":"Point","properties":{"Station_ID":"PTLQ6","Station_Nam":"PORTAGE LAKE","Latitude":"49.06950","Longitude":"-86.65940","Snowdepth":"10.350","Units":"in","Rept_Date":"2019-11-29 06"},"coordinates":[3334,8682]},{"type":"Point","properties":{"Station_ID":"WILW3","Station_Nam":"RESERVOIR","Latitude":"45.70000","Longitude":"-89.83330","Snowdepth":"10.000","Units":"in","Rept_Date":"2019-11-28 12"},"coordinates":[2333,7011]},{"type":"Point","properties":{"Station_ID":"WI-TY-2","Station_Nam":"SHELDON 8.1 ENE, WI","Latitude":"45.35598","Longitude":"-90.80296","Snowdepth":"10.000","Units":"in","Rept_Date":"2019-11-28 13"},"coordinates":[2028,6841]},{"type":"Point","properties":{"Station_ID":"WI-RS-1","Station_Nam":"LADYSMITH 2.8 WNW, WI","Latitude":"45.48180","Longitude":"-91.14680","Snowdepth":"10.000","Units":"in","Rept_Date":"2019-11-28 13"},"coordinates":[1920,6903]},{"type":"Point","properties":{"Station_ID":"WI-ON-2","Station_Nam":"RHINELANDER 6.3 WNW, WI","Latitude":"45.67583","Longitude":"-89.53240","Snowdepth":"10.000","Units":"in","Rept_Date":"2019-11-28 13"},"coordinates":[2428,6999]},{"type":"Point","properties":{"Station_ID":"WI-LN-2","Station_Nam":"MERRILL 7.0 W, WI","Latitude":"45.17746","Longitude":"-89.84820","Snowdepth":"10.000","Units":"in","Rept_Date":"2019-11-28 12"},"coordinates":[2329,6752]},{"type":"Point","properties":{"Station_ID":"VANM1","Station_Nam":"VAN BUREN","Latitude":"47.16600","Longitude":"-67.93900","Snowdepth":"10.000","Units":"in","Rept_Date":"2019-11-28 12"},"coordinates":[9233,7738]},{"type":"Point","properties":{"Station_ID":"MQRW3","Station_Nam":"MINOCQUA","Latitude":"45.88630","Longitude":"-89.73220","Snowdepth":"10.000","Units":"in","Rept_Date":"2019-11-28 12"},"coordinates":[2365,7104]},{"type":"Point","properties":{"Station_ID":"JMPW3","Station_Nam":"JUMP RIVER 1 NW","Latitude":"45.35610","Longitude":"-90.80250","Snowdepth":"10.000","Units":"in","Rept_Date":"2019-11-28 13"},"coordinates":[2028,6841]},{"type":"Point","properties":{"Station_ID":"ELYM5","Station_Nam":"ELY","Latitude":"47.90560","Longitude":"-91.82830","Snowdepth":"10.000","Units":"in","Rept_Date":"2019-11-28 16"},"coordinates":[1705,8105]},{"type":"Point","properties":{"Station_ID":"BRDM1","Station_Nam":"BRIDGEWATER","Latitude":"46.42870","Longitude":"-67.84370","Snowdepth":"10.000","Units":"in","Rept_Date":"2019-11-28 23"},"coordinates":[9263,7373]},{"type":"Point","properties":{"Station_ID":"BNDM5","Station_Nam":"ELY 25E","Latitude":"47.97190","Longitude":"-91.44860","Snowdepth":"10.000","Units":"in","Rept_Date":"2019-11-28 13"},"coordinates":[1824,8138]},{"type":"Point","properties":{"Station_ID":"WI-PR-8","Station_Nam":"PHILLIPS 0.4 SSW, WI","Latitude":"45.69086","Longitude":"-90.40200","Snowdepth":"9.500","Units":"in","Rept_Date":"2019-11-28 13"},"coordinates":[2154,7007]},{"type":"Point","properties":{"Station_ID":"WI-ON-6","Station_Nam":"RHINELANDER 5.2 N, WI","Latitude":"45.71388","Longitude":"-89.42150","Snowdepth":"9.500","Units":"in","Rept_Date":"2019-11-28 15"},"coordinates":[2463,7018]},{"type":"Point","properties":{"Station_ID":"WI-BY-1","Station_Nam":"BAYFIELD 8.8 N, WI","Latitude":"46.93855","Longitude":"-90.83490","Snowdepth":"9.500","Units":"in","Rept_Date":"2019-11-28 13"},"coordinates":[2018,7625]},{"type":"Point","properties":{"Station_ID":"WTNM4","Station_Nam":"WATTON 2WSW","Latitude":"46.52660","Longitude":"-88.64240","Snowdepth":"9.000","Units":"in","Rept_Date":"2019-11-28 13"},"coordinates":[2709,7421]},{"type":"Point","properties":{"Station_ID":"SULW3","Station_Nam":"SUMMIT LAKE","Latitude":"45.37880","Longitude":"-89.19410","Snowdepth":"9.000","Units":"in","Rept_Date":"2019-11-28 11"},"coordinates":[2535,6852]},{"type":"Point","properties":{"Station_ID":"RHIW3","Station_Nam":"RHINELANDER","Latitude":"45.59860","Longitude":"-89.45080","Snowdepth":"9.000","Units":"in","Rept_Date":"2019-11-28 13"},"coordinates":[2454,6961]},{"type":"Point","properties":{"Station_ID":"RHI","Station_Nam":"RHINELANDER-ONEIDA COUNTY AIRPORT","Latitude":"45.63080","Longitude":"-89.46530","Snowdepth":"9.000","Units":"in","Rept_Date":"2019-11-28 12"},"coordinates":[2449,6977]},{"type":"Point","properties":{"Station_ID":"MWTM1","Station_Nam":"MILLINOCKET WWTP","Latitude":"45.64030","Longitude":"-68.67480","Snowdepth":"9.000","Units":"in","Rept_Date":"2019-11-28 13"},"coordinates":[9001,6982]},{"type":"Point","properties":{"Station_ID":"MAIW3","Station_Nam":"MADELINE ISLAND","Latitude":"46.78330","Longitude":"-90.76670","Snowdepth":"9.000","Units":"in","Rept_Date":"2019-11-28 13"},"coordinates":[2039,7548]},{"type":"Point","properties":{"Station_ID":"LILM1","Station_Nam":"LILLE","Latitude":"47.27770","Longitude":"-68.10520","Snowdepth":"9.000","Units":"in","Rept_Date":"2019-11-28 12"},"coordinates":[9180,7793]},{"type":"Point","properties":{"Station_ID":"CLKM4","Station_Nam":"CLARKSBURG","Latitude":"46.49910","Longitude":"-87.84500","Snowdepth":"9.000","Units":"in","Rept_Date":"2019-11-28 12"},"coordinates":[2960,7407]},{"type":"Point","properties":{"Station_ID":"AVTW3","Station_Nam":"ARBOR VITAE-JOHNSON LAKE","Latitude":"45.89940","Longitude":"-89.72670","Snowdepth":"9.000","Units":"in","Rept_Date":"2019-11-28 12"},"coordinates":[2367,7110]},{"type":"Point","properties":{"Station_ID":"AGNW3","Station_Nam":"ARGONNE-1.5 NW","Latitude":"45.67360","Longitude":"-88.90380","Snowdepth":"9.000","Units":"in","Rept_Date":"2019-11-28 14"},"coordinates":[2626,6998]},{"type":"Point","properties":{"Station_ID":"WI-CH-8","Station_Nam":"CHIPPEWA FALLS 4.4 NE, WI","Latitude":"44.98480","Longitude":"-91.33910","Snowdepth":"8.000","Units":"in","Rept_Date":"2019-11-28 14"},"coordinates":[1859,6657]},{"type":"Point","properties":{"Station_ID":"WELM5","Station_Nam":"WELLS","Latitude":"43.74680","Longitude":"-93.73680","Snowdepth":"8.000","Units":"in","Rept_Date":"2019-11-28 14"},"coordinates":[1103,6043]},{"type":"Point","properties":{"Station_ID":"TOPM1","Station_Nam":"TOPSFIELD","Latitude":"45.43470","Longitude":"-67.72020","Snowdepth":"8.000","Units":"in","Rept_Date":"2019-11-28 12"},"coordinates":[9302,6880]},{"type":"Point","properties":{"Station_ID":"STMM4","Station_Nam":"STAMBAUGH 2SSE","Latitude":"46.05550","Longitude":"-88.62780","Snowdepth":"8.000","Units":"in","Rept_Date":"2019-11-28 13"},"coordinates":[2713,7188]},{"type":"Point","properties":{"Station_ID":"ROBW3","Station_Nam":"ROBERTS WWTP","Latitude":"44.97070","Longitude":"-92.56200","Snowdepth":"8.000","Units":"in","Rept_Date":"2019-11-28 14"},"coordinates":[1474,6650]},{"type":"Point","properties":{"Station_ID":"RHRW3","Station_Nam":"RHINELANDER WJFW TV-12","Latitude":"45.62220","Longitude":"-89.41000","Snowdepth":"8.000","Units":"in","Rept_Date":"2019-11-29 04"},"coordinates":[2467,6973]},{"type":"Point","properties":{"Station_ID":"MTOM5","Station_Nam":"MANKATO 4E","Latitude":"44.16730","Longitude":"-93.91020","Snowdepth":"8.000","Units":"in","Rept_Date":"2019-11-28 11"},"coordinates":[1049,6252]},{"type":"Point","properties":{"Station_ID":"MN-WC-5","Station_Nam":"WASECA 0.9 NNE, MN","Latitude":"44.09451","Longitude":"-93.49289","Snowdepth":"8.000","Units":"in","Rept_Date":"2019-11-28 13"},"coordinates":[1180,6215]},{"type":"Point","properties":{"Station_ID":"MN-SC-2","Station_Nam":"PRIOR LAKE 2.0 W, MN","Latitude":"44.71250","Longitude":"-93.46360","Snowdepth":"8.000","Units":"in","Rept_Date":"2019-11-28 13"},"coordinates":[1190,6522]},{"type":"Point","properties":{"Station_ID":"MIEM4","Station_Nam":"MICHIGAMME 3WNW","Latitude":"46.54530","Longitude":"-88.18000","Snowdepth":"8.000","Units":"in","Rept_Date":"2019-11-28 13"},"coordinates":[2854,7430]},{"type":"Point","properties":{"Station_ID":"KIMM5","Station_Nam":"KIMBALL 3N","Latitude":"45.35330","Longitude":"-94.30560","Snowdepth":"8.000","Units":"in","Rept_Date":"2019-11-28 12"},"coordinates":[924,6839]},{"type":"Point","properties":{"Station_ID":"HMYM1","Station_Nam":"HARMONY","Latitude":"44.94660","Longitude":"-69.54560","Snowdepth":"8.000","Units":"in","Rept_Date":"2019-11-28 12"},"coordinates":[8726,6638]},{"type":"Point","properties":{"Station_ID":"GHMN3","Station_Nam":"PINKHAM NOTCH","Latitude":"44.25800","Longitude":"-71.25250","Snowdepth":"8.000","Units":"in","Rept_Date":"2019-11-28 11"},"coordinates":[8189,6297]},{"type":"Point","properties":{"Station_ID":"FBTM5","Station_Nam":"FARIBAULT","Latitude":"44.30920","Longitude":"-93.26600","Snowdepth":"8.000","Units":"in","Rept_Date":"2019-11-28 13"},"coordinates":[1252,6322]},{"type":"Point","properties":{"Station_ID":"BABM5","Station_Nam":"BABBITT","Latitude":"47.71210","Longitude":"-91.95330","Snowdepth":"8.000","Units":"in","Rept_Date":"2019-11-28 13"},"coordinates":[1665,8009]},{"type":"Point","properties":{"Station_ID":"ANDM1","Station_Nam":"ANDOVER 2","Latitude":"44.65300","Longitude":"-70.79410","Snowdepth":"8.000","Units":"in","Rept_Date":"2019-11-28 12"},"coordinates":[8333,6492]},{"type":"Point","properties":{"Station_ID":"TRIQ6","Station_Nam":"TRIO LAKE","Latitude":"49.22880","Longitude":"-87.22920","Snowdepth":"7.950","Units":"in","Rept_Date":"2019-11-29 06"},"coordinates":[3154,8761]},{"type":"Point","properties":{"Station_ID":"CAN-NB-97","Station_Nam":"NEW MARYLAND 0.6 NW, CAN","Latitude":"45.90112","Longitude":"-66.68739","Snowdepth":"7.900","Units":"in","Rept_Date":"2019-11-28 11"},"coordinates":[9627,7111]},{"type":"Point","properties":{"Station_ID":"AUDQ6","Station_Nam":"AUDEN","Latitude":"48.52600","Longitude":"-82.57570","Snowdepth":"7.640","Units":"in","Rept_Date":"2019-11-29 06"},"coordinates":[4620,8412]},{"type":"Point","properties":{"Station_ID":"SVBQ6","Station_Nam":"SAVANT BASE","Latitude":"50.28730","Longitude":"-90.65670","Snowdepth":"7.520","Units":"in","Rept_Date":"2019-11-29 06"},"coordinates":[2074,9285]},{"type":"Point","properties":{"Station_ID":"WI-SR-1","Station_Nam":"HAYWARD 9.2 NNE, WI","Latitude":"46.13255","Longitude":"-91.40500","Snowdepth":"7.400","Units":"in","Rept_Date":"2019-11-28 12"},"coordinates":[1838,7226]},{"type":"Point","properties":{"Station_ID":"WI-SC-24","Station_Nam":"DEER PARK 2.6 SSE, WI","Latitude":"45.15739","Longitude":"-92.35759","Snowdepth":"7.000","Units":"in","Rept_Date":"2019-11-28 13"},"coordinates":[1538,6742]},{"type":"Point","properties":{"Station_ID":"WI-CH-3","Station_Nam":"CORNELL 4.1 W, WI","Latitude":"45.17024","Longitude":"-91.23610","Snowdepth":"7.000","Units":"in","Rept_Date":"2019-11-28 14"},"coordinates":[1891,6749]},{"type":"Point","properties":{"Station_ID":"WI-BY-6","Station_Nam":"BARNES 2.2 S, WI","Latitude":"46.30264","Longitude":"-91.50320","Snowdepth":"7.000","Units":"in","Rept_Date":"2019-11-28 13"},"coordinates":[1807,7310]},{"type":"Point","properties":{"Station_ID":"WI-AS-4","Station_Nam":"ASHLAND 0.5 WNW, WI","Latitude":"46.58240","Longitude":"-90.88390","Snowdepth":"7.000","Units":"in","Rept_Date":"2019-11-28 13"},"coordinates":[2002,7449]},{"type":"Point","properties":{"Station_ID":"NWCM4","Station_Nam":"NEWBERRY CITY","Latitude":"46.35720","Longitude":"-85.51780","Snowdepth":"7.000","Units":"in","Rept_Date":"2019-11-28 12"},"coordinates":[3693,7337]},{"type":"Point","properties":{"Station_ID":"MSP","Station_Nam":"MINNEAPOLIS-ST PAUL INTL AP","Latitude":"44.88310","Longitude":"-93.22890","Snowdepth":"7.000","Units":"in","Rept_Date":"2019-11-29 00"},"coordinates":[1264,6606]},{"type":"Point","properties":{"Station_ID":"MNSM4","Station_Nam":"MUNISING","Latitude":"46.41210","Longitude":"-86.66250","Snowdepth":"7.000","Units":"in","Rept_Date":"2019-11-28 11"},"coordinates":[3333,7364]},{"type":"Point","properties":{"Station_ID":"MN-SL-18","Station_Nam":"DULUTH 1.4 NNW, MN","Latitude":"46.80321","Longitude":"-92.11240","Snowdepth":"7.000","Units":"in","Rept_Date":"2019-11-28 14"},"coordinates":[1615,7558]},{"type":"Point","properties":{"Station_ID":"MN-DK-44","Station_Nam":"ROSEMOUNT 4.5 WSW, MN","Latitude":"44.72079","Longitude":"-93.14970","Snowdepth":"7.000","Units":"in","Rept_Date":"2019-11-28 13"},"coordinates":[1288,6526]},{"type":"Point","properties":{"Station_ID":"MLCM5","Station_Nam":"MILACA","Latitude":"45.75320","Longitude":"-93.66170","Snowdepth":"7.000","Units":"in","Rept_Date":"2019-11-28 13"},"coordinates":[1127,7038]},{"type":"Point","properties":{"Station_ID":"LADW3","Station_Nam":"LADYSMITH WTP","Latitude":"45.44290","Longitude":"-91.08970","Snowdepth":"7.000","Units":"in","Rept_Date":"2019-11-28 13"},"coordinates":[1938,6884]},{"type":"Point","properties":{"Station_ID":"KMSP","Station_Nam":"MINNEAPOLIS-ST PAUL INTERNATIONAL","Latitude":"44.86666","Longitude":"-93.21666","Snowdepth":"7.000","Units":"in","Rept_Date":"2019-11-29 06"},"coordinates":[1267,6598]},{"type":"Point","properties":{"Station_ID":"JORM5","Station_Nam":"JORDAN 1SSW","Latitude":"44.65010","Longitude":"-93.63560","Snowdepth":"7.000","Units":"in","Rept_Date":"2019-11-28 11"},"coordinates":[1135,6491]},{"type":"Point","properties":{"Station_ID":"FISM1","Station_Nam":"FORT KENT COOP","Latitude":"47.23850","Longitude":"-68.61240","Snowdepth":"7.000","Units":"in","Rept_Date":"2019-11-28 12"},"coordinates":[9020,7774]},{"type":"Point","properties":{"Station_ID":"ELWW3","Station_Nam":"ELLSWORTH 1E","Latitude":"44.73030","Longitude":"-92.45860","Snowdepth":"7.000","Units":"in","Rept_Date":"2019-11-28 13"},"coordinates":[1506,6531]},{"type":"Point","properties":{"Station_ID":"COUW3","Station_Nam":"COUDERAY,WI","Latitude":"45.86670","Longitude":"-91.45000","Snowdepth":"7.000","Units":"in","Rept_Date":"2019-11-28 22"},"coordinates":[1824,7094]},{"type":"Point","properties":{"Station_ID":"CORM1","Station_Nam":"CORINNA","Latitude":"44.91980","Longitude":"-69.24180","Snowdepth":"7.000","Units":"in","Rept_Date":"2019-11-28 17"},"coordinates":[8822,6625]},{"type":"Point","properties":{"Station_ID":"CHPW3","Station_Nam":"CHIPPEWA FALLS","Latitude":"44.92770","Longitude":"-91.40810","Snowdepth":"7.000","Units":"in","Rept_Date":"2019-11-28 14"},"coordinates":[1837,6629]},{"type":"Point","properties":{"Station_ID":"CAN-NB-11","Station_Nam":"MIRAMICHI 3.3 S, CAN","Latitude":"46.99343","Longitude":"-65.50690","Snowdepth":"7.000","Units":"in","Rept_Date":"2019-11-28 10"},"coordinates":[9999,7653]},{"type":"Point","properties":{"Station_ID":"BRUM5","Station_Nam":"BRUNO,MN","Latitude":"46.28330","Longitude":"-92.50000","Snowdepth":"7.000","Units":"in","Rept_Date":"2019-11-28 14"},"coordinates":[1493,7301]},{"type":"Point","properties":{"Station_ID":"AWXW3","Station_Nam":"ASHLAND","Latitude":"46.58240","Longitude":"-90.88390","Snowdepth":"7.000","Units":"in","Rept_Date":"2019-11-28 13"},"coordinates":[2002,7449]},{"type":"Point","properties":{"Station_ID":"FTHQ6","Station_Nam":"FORT HOPE","Latitude":"51.55820","Longitude":"-87.90510","Snowdepth":"6.970","Units":"in","Rept_Date":"2019-11-29 06"},"coordinates":[2941,9915]},{"type":"Point","properties":{"Station_ID":"WI-EC-23","Station_Nam":"EAU CLAIRE 3.7 S, WI","Latitude":"44.76858","Longitude":"-91.49898","Snowdepth":"6.500","Units":"in","Rept_Date":"2019-11-28 14"},"coordinates":[1809,6550]},{"type":"Point","properties":{"Station_ID":"MN-SL-139","Station_Nam":"DULUTH 1.2 SE, MN","Latitude":"46.77000","Longitude":"-92.08826","Snowdepth":"6.500","Units":"in","Rept_Date":"2019-11-28 12"},"coordinates":[1623,7542]},{"type":"Point","properties":{"Station_ID":"KABQ6","Station_Nam":"CAB LAKE","Latitude":"49.59950","Longitude":"-89.17990","Snowdepth":"6.460","Units":"in","Rept_Date":"2019-11-29 06"},"coordinates":[2539,8944]},{"type":"Point","properties":{"Station_ID":"CAN-QC-47","Station_Nam":"SAINTE-FOY 1.8 ENE, CAN","Latitude":"46.76934","Longitude":"-71.27124","Snowdepth":"6.300","Units":"in","Rept_Date":"2019-11-28 12"},"coordinates":[8183,7541]},{"type":"Point","properties":{"Station_ID":"CAN-ON-526","Station_Nam":"HILTON BEACH 0.7 SW - MNRF, CAN","Latitude":"46.25357","Longitude":"-83.90014","Snowdepth":"6.300","Units":"in","Rept_Date":"2019-11-28 12"},"coordinates":[4203,7286]},{"type":"Point","properties":{"Station_ID":"WNNM5","Station_Nam":"WINNEBAGO","Latitude":"43.76920","Longitude":"-94.18730","Snowdepth":"6.000","Units":"in","Rept_Date":"2019-11-28 14"},"coordinates":[962,6054]},{"type":"Point","properties":{"Station_ID":"WMRM5","Station_Nam":"WILLMAR 5N","Latitude":"45.19010","Longitude":"-95.05860","Snowdepth":"6.000","Units":"in","Rept_Date":"2019-11-28 12"},"coordinates":[687,6759]},{"type":"Point","properties":{"Station_ID":"WI-WB-2","Station_Nam":"STONE LAKE 2.0 NW, WI","Latitude":"45.85960","Longitude":"-91.57710","Snowdepth":"6.000","Units":"in","Rept_Date":"2019-11-28 11"},"coordinates":[1784,7090]},{"type":"Point","properties":{"Station_ID":"WI-SC-21","Station_Nam":"CLEAR LAKE 4.0 S, WI","Latitude":"45.19250","Longitude":"-92.27860","Snowdepth":"6.000","Units":"in","Rept_Date":"2019-11-28 15"},"coordinates":[1563,6760]},{"type":"Point","properties":{"Station_ID":"WDOM5","Station_Nam":"WINDOM","Latitude":"43.87700","Longitude":"-95.11590","Snowdepth":"6.000","Units":"in","Rept_Date":"2019-11-28 14"},"coordinates":[669,6108]},{"type":"Point","properties":{"Station_ID":"TOGM5","Station_Nam":"CELINA 2E","Latitude":"47.86630","Longitude":"-93.02660","Snowdepth":"6.000","Units":"in","Rept_Date":"2019-11-28 16"},"coordinates":[1327,8085]},{"type":"Point","properties":{"Station_ID":"SWTW3","Station_Nam":"SUPERIOR WWTP","Latitude":"46.72700","Longitude":"-92.07200","Snowdepth":"6.000","Units":"in","Rept_Date":"2019-11-29 06"},"coordinates":[1628,7520]},{"type":"Point","properties":{"Station_ID":"SSMM4","Station_Nam":"SAULT STE MARIE","Latitude":"46.48660","Longitude":"-84.40250","Snowdepth":"6.000","Units":"in","Rept_Date":"2019-11-28 13"},"coordinates":[4045,7401]},{"type":"Point","properties":{"Station_ID":"SIBI4","Station_Nam":"SIBLEY","Latitude":"43.40470","Longitude":"-95.74830","Snowdepth":"6.000","Units":"in","Rept_Date":"2019-11-28 13"},"coordinates":[470,5874]},{"type":"Point","properties":{"Station_ID":"SANI4","Station_Nam":"ST ANSGAR","Latitude":"43.38170","Longitude":"-92.92320","Snowdepth":"6.000","Units":"in","Rept_Date":"2019-11-28 12"},"coordinates":[1360,5862]},{"type":"Point","properties":{"Station_ID":"RRLW3","Station_Nam":"MERRILL,WI","Latitude":"45.17860","Longitude":"-89.66170","Snowdepth":"6.000","Units":"in","Rept_Date":"2019-11-28 14"},"coordinates":[2388,6753]},{"type":"Point","properties":{"Station_ID":"PRDM4","Station_Nam":"PARADISE","Latitude":"46.60380","Longitude":"-85.03960","Snowdepth":"6.000","Units":"in","Rept_Date":"2019-11-28 11"},"coordinates":[3844,7459]},{"type":"Point","properties":{"Station_ID":"OWAM5","Station_Nam":"OWATONNA","Latitude":"44.09760","Longitude":"-93.23180","Snowdepth":"6.000","Units":"in","Rept_Date":"2019-11-28 13"},"coordinates":[1263,6217]},{"type":"Point","properties":{"Station_ID":"MNHZK4CP","Station_Nam":"WATERTOWN 0.8 NW","Latitude":"44.97073","Longitude":"-93.85906","Snowdepth":"6.000","Units":"in","Rept_Date":"2019-11-28 13"},"coordinates":[1065,6650]},{"type":"Point","properties":{"Station_ID":"MNG0GYSN","Station_Nam":"LONSDALE 1.1 SSW","Latitude":"44.46445","Longitude":"-93.43293","Snowdepth":"6.000","Units":"in","Rept_Date":"2019-11-28 12"},"coordinates":[1199,6399]},{"type":"Point","properties":{"Station_ID":"MN0GWSNW","Station_Nam":"LAKE ELMO 2.9 SE","Latitude":"44.97220","Longitude":"-92.83065","Snowdepth":"6.000","Units":"in","Rept_Date":"2019-11-28 13"},"coordinates":[1389,6651]},{"type":"Point","properties":{"Station_ID":"MN-SH-10","Station_Nam":"BIG LAKE 5.6 NNE, MN","Latitude":"45.41409","Longitude":"-93.69190","Snowdepth":"6.000","Units":"in","Rept_Date":"2019-11-28 13"},"coordinates":[1118,6870]},{"type":"Point","properties":{"Station_ID":"MN-RM-54","Station_Nam":"SAINT PAUL 5.1 SW, MN","Latitude":"44.90390","Longitude":"-93.18820","Snowdepth":"6.000","Units":"in","Rept_Date":"2019-11-28 13"},"coordinates":[1276,6617]},{"type":"Point","properties":{"Station_ID":"MN-RM-2","Station_Nam":"NORTH SAINT PAUL 1.0 NNW, MN","Latitude":"45.02629","Longitude":"-93.00790","Snowdepth":"6.000","Units":"in","Rept_Date":"2019-11-28 12"},"coordinates":[1333,6677]},{"type":"Point","properties":{"Station_ID":"MN-RM-15","Station_Nam":"ROSEVILLE 2.1 NW, MN","Latitude":"45.03502","Longitude":"-93.18620","Snowdepth":"6.000","Units":"in","Rept_Date":"2019-11-28 12"},"coordinates":[1277,6682]},{"type":"Point","properties":{"Station_ID":"MN-RC-1","Station_Nam":"MONTGOMERY 3.2 ENE, MN","Latitude":"44.46400","Longitude":"-93.51980","Snowdepth":"6.000","Units":"in","Rept_Date":"2019-11-28 12"},"coordinates":[1172,6399]},{"type":"Point","properties":{"Station_ID":"MN-MT-6","Station_Nam":"FAIRMONT 0.7 E, MN","Latitude":"43.64501","Longitude":"-94.44860","Snowdepth":"6.000","Units":"in","Rept_Date":"2019-11-28 13"},"coordinates":[879,5993]},{"type":"Point","properties":{"Station_ID":"MN-HN-78","Station_Nam":"RICHFIELD 1.9 WNW, MN","Latitude":"44.89129","Longitude":"-93.31410","Snowdepth":"6.000","Units":"in","Rept_Date":"2019-11-28 11"},"coordinates":[1237,6610]},{"type":"Point","properties":{"Station_ID":"MN-HN-30","Station_Nam":"PLYMOUTH 2.4 ENE, MN","Latitude":"45.04063","Longitude":"-93.41950","Snowdepth":"6.000","Units":"in","Rept_Date":"2019-11-28 13"},"coordinates":[1203,6685]},{"type":"Point","properties":{"Station_ID":"MN-HN-110","Station_Nam":"EDINA 1.9 SSE, MN","Latitude":"44.86875","Longitude":"-93.33940","Snowdepth":"6.000","Units":"in","Rept_Date":"2019-11-28 13"},"coordinates":[1229,6599]},{"type":"Point","properties":{"Station_ID":"MN-DK-70","Station_Nam":"EAGAN 2.0 NNW, MN","Latitude":"44.84322","Longitude":"-93.17899","Snowdepth":"6.000","Units":"in","Rept_Date":"2019-11-28 15"},"coordinates":[1279,6587]},{"type":"Point","properties":{"Station_ID":"MN-CV-8","Station_Nam":"WATERTOWN 0.5 NNW, MN","Latitude":"44.96631","Longitude":"-93.84890","Snowdepth":"6.000","Units":"in","Rept_Date":"2019-11-28 11"},"coordinates":[1068,6648]},{"type":"Point","properties":{"Station_ID":"MN-CV-22","Station_Nam":"VICTORIA 1.6 WSW, MN","Latitude":"44.85670","Longitude":"-93.68640","Snowdepth":"6.000","Units":"in","Rept_Date":"2019-11-28 13"},"coordinates":[1119,6593]},{"type":"Point","properties":{"Station_ID":"MN-CV-1","Station_Nam":"CARVER 0.7 W, MN","Latitude":"44.75728","Longitude":"-93.64160","Snowdepth":"6.000","Units":"in","Rept_Date":"2019-11-28 13"},"coordinates":[1133,6544]},{"type":"Point","properties":{"Station_ID":"MN-CK-3","Station_Nam":"TOFTE 4.9 NE, MN","Latitude":"47.62394","Longitude":"-90.76100","Snowdepth":"6.000","Units":"in","Rept_Date":"2019-11-28 13"},"coordinates":[2041,7965]},{"type":"Point","properties":{"Station_ID":"ME-FR-22","Station_Nam":"FARMINGTON 4.8 NNW, ME","Latitude":"44.73396","Longitude":"-70.18007","Snowdepth":"6.000","Units":"in","Rept_Date":"2019-11-28 14"},"coordinates":[8526,6532]},{"type":"Point","properties":{"Station_ID":"LKFM5","Station_Nam":"LAKEFIELD,MN","Latitude":"43.68330","Longitude":"-95.18330","Snowdepth":"6.000","Units":"in","Rept_Date":"2019-11-28 13"},"coordinates":[648,6012]},{"type":"Point","properties":{"Station_ID":"LEIM5","Station_Nam":"ORR 3E","Latitude":"48.05810","Longitude":"-92.75220","Snowdepth":"6.000","Units":"in","Rept_Date":"2019-11-28 12"},"coordinates":[1414,8180]},{"type":"Point","properties":{"Station_ID":"JIMW3","Station_Nam":"JIM FALLS 3NW","Latitude":"45.08270","Longitude":"-91.33130","Snowdepth":"6.000","Units":"in","Rept_Date":"2019-11-28 12"},"coordinates":[1861,6705]},{"type":"Point","properties":{"Station_ID":"ILIM5","Station_Nam":"ISLAND LAKE","Latitude":"47.02400","Longitude":"-92.07000","Snowdepth":"6.000","Units":"in","Rept_Date":"2019-11-28 15"},"coordinates":[1629,7668]},{"type":"Point","properties":{"Station_ID":"FORM5","Station_Nam":"FOREST LAKE 5NE","Latitude":"45.33170","Longitude":"-92.89820","Snowdepth":"6.000","Units":"in","Rept_Date":"2019-11-28 13"},"coordinates":[1368,6829]},{"type":"Point","properties":{"Station_ID":"ELRW3","Station_Nam":"EAU CLAIRE 3SW","Latitude":"44.78780","Longitude":"-91.51650","Snowdepth":"6.000","Units":"in","Rept_Date":"2019-11-29 06"},"coordinates":[1803,6559]},{"type":"Point","properties":{"Station_ID":"E0729_MADIS","Station_Nam":"EW0729 ROCHESTER","Latitude":"44.03983","Longitude":"-92.43770","Snowdepth":"6.000","Units":"in","Rept_Date":"2019-11-29 06"},"coordinates":[1513,6188]},{"type":"Point","properties":{"Station_ID":"DLHM5","Station_Nam":"DULUTH NWS","Latitude":"46.83680","Longitude":"-92.21080","Snowdepth":"6.000","Units":"in","Rept_Date":"2019-11-29 06"},"coordinates":[1584,7575]},{"type":"Point","properties":{"Station_ID":"DLH","Station_Nam":"DULUTH, MN","Latitude":"46.83690","Longitude":"-92.21030","Snowdepth":"6.000","Units":"in","Rept_Date":"2019-11-29 00"},"coordinates":[1584,7575]},{"type":"Point","properties":{"Station_ID":"COKM5","Station_Nam":"COOK","Latitude":"47.85060","Longitude":"-92.69250","Snowdepth":"6.000","Units":"in","Rept_Date":"2019-11-28 12"},"coordinates":[1433,8077]},{"type":"Point","properties":{"Station_ID":"ANJM4","Station_Nam":"SNOW PAID OBSERVER FOR KANJ","Latitude":"46.48670","Longitude":"-84.40260","Snowdepth":"6.000","Units":"in","Rept_Date":"2019-11-28 18"},"coordinates":[4045,7401]},{"type":"Point","properties":{"Station_ID":"ANJ","Station_Nam":"SAULT STE MARIE","Latitude":"46.46670","Longitude":"-84.36670","Snowdepth":"6.000","Units":"in","Rept_Date":"2019-11-29 00"},"coordinates":[4056,7391]},{"type":"Point","properties":{"Station_ID":"SOCQ6","Station_Nam":"SOCKET LAKE","Latitude":"50.77870","Longitude":"-91.79300","Snowdepth":"5.980","Units":"in","Rept_Date":"2019-11-29 06"},"coordinates":[1716,9529]},{"type":"Point","properties":{"Station_ID":"CATQ6","Station_Nam":"CAT LAKE","Latitude":"51.72690","Longitude":"-91.82210","Snowdepth":"5.550","Units":"in","Rept_Date":"2019-11-29 06"},"coordinates":[1707,9999]},{"type":"Point","properties":{"Station_ID":"WI-DN-5","Station_Nam":"ELK MOUND 1.3 NE, WI","Latitude":"44.88627","Longitude":"-91.66680","Snowdepth":"5.500","Units":"in","Rept_Date":"2019-11-28 13"},"coordinates":[1756,6608]},{"type":"Point","properties":{"Station_ID":"VT-CL-3","Station_Nam":"GROTON 4.4 WSW, VT","Latitude":"44.19440","Longitude":"-72.28240","Snowdepth":"5.500","Units":"in","Rept_Date":"2019-11-28 13"},"coordinates":[7864,6265]},{"type":"Point","properties":{"Station_ID":"MN-WR-25","Station_Nam":"SAINT MICHAEL 2.0 ENE, MN","Latitude":"45.20820","Longitude":"-93.65280","Snowdepth":"5.500","Units":"in","Rept_Date":"2019-11-28 12"},"coordinates":[1130,6768]},{"type":"Point","properties":{"Station_ID":"MN-HN-240","Station_Nam":"BLOOMINGTON 3.1 E, MN","Latitude":"44.83704","Longitude":"-93.25318","Snowdepth":"5.500","Units":"in","Rept_Date":"2019-11-28 14"},"coordinates":[1256,6584]},{"type":"Point","properties":{"Station_ID":"MN-HN-19","Station_Nam":"EDINA 1.3 SW, MN","Latitude":"44.87830","Longitude":"-93.37890","Snowdepth":"5.500","Units":"in","Rept_Date":"2019-11-28 13"},"coordinates":[1216,6604]},{"type":"Point","properties":{"Station_ID":"MN-FM-10","Station_Nam":"WYKOFF 3.1 NW, MN","Latitude":"43.74340","Longitude":"-92.30650","Snowdepth":"5.500","Units":"in","Rept_Date":"2019-11-28 13"},"coordinates":[1554,6041]},{"type":"Point","properties":{"Station_ID":"MN-CK-18","Station_Nam":"GRAND MARAIS 4.4 WSW, MN","Latitude":"47.74462","Longitude":"-90.43796","Snowdepth":"5.500","Units":"in","Rept_Date":"2019-11-28 13"},"coordinates":[2143,8025]},{"type":"Point","properties":{"Station_ID":"MN-AA-76","Station_Nam":"NOWTHEN 2.9 SSE, MN","Latitude":"45.30360","Longitude":"-93.42620","Snowdepth":"5.500","Units":"in","Rept_Date":"2019-11-28 13"},"coordinates":[1201,6815]},{"type":"Point","properties":{"Station_ID":"MN-MC-16","Station_Nam":"HUTCHINSON 0.1 ENE, MN","Latitude":"44.88633","Longitude":"-94.37503","Snowdepth":"5.300","Units":"in","Rept_Date":"2019-11-28 13"},"coordinates":[902,6608]},{"type":"Point","properties":{"Station_ID":"WUNW3","Station_Nam":"WAUSAU-NORTHEAST","Latitude":"44.97310","Longitude":"-89.61690","Snowdepth":"5.000","Units":"in","Rept_Date":"2019-11-28 11"},"coordinates":[2402,6651]},{"type":"Point","properties":{"Station_ID":"WPTN1","Station_Nam":"WEST POINT,NE","Latitude":"41.83330","Longitude":"-96.71670","Snowdepth":"5.000","Units":"in","Rept_Date":"2019-11-28 14"},"coordinates":[164,5095]},{"type":"Point","properties":{"Station_ID":"WLKW3","Station_Nam":"WHITE LAKE 1 SE","Latitude":"45.14520","Longitude":"-88.74160","Snowdepth":"5.000","Units":"in","Rept_Date":"2019-11-28 14"},"coordinates":[2678,6736]},{"type":"Point","properties":{"Station_ID":"WI-PC-5","Station_Nam":"RIVER FALLS 1.2 SSW, WI","Latitude":"44.84032","Longitude":"-92.63500","Snowdepth":"5.000","Units":"in","Rept_Date":"2019-11-28 13"},"coordinates":[1451,6585]},{"type":"Point","properties":{"Station_ID":"WI-DN-15","Station_Nam":"MENOMONIE 0.9 NW, WI","Latitude":"44.89832","Longitude":"-91.92398","Snowdepth":"5.000","Units":"in","Rept_Date":"2019-11-28 14"},"coordinates":[1675,6614]},{"type":"Point","properties":{"Station_ID":"TOHM5","Station_Nam":"TWO HARBORS WWTP","Latitude":"47.01760","Longitude":"-91.66480","Snowdepth":"5.000","Units":"in","Rept_Date":"2019-11-28 13"},"coordinates":[1756,7665]},{"type":"Point","properties":{"Station_ID":"SXGI4","Station_Nam":"ANG BASE","Latitude":"42.39640","Longitude":"-96.37780","Snowdepth":"5.000","Units":"in","Rept_Date":"2019-11-28 12"},"coordinates":[271,5374]},{"type":"Point","properties":{"Station_ID":"SUXI4","Station_Nam":"SNOW PAID FOR KSUX","Latitude":"42.40530","Longitude":"-96.36000","Snowdepth":"5.000","Units":"in","Rept_Date":"2019-11-28 12"},"coordinates":[277,5378]},{"type":"Point","properties":{"Station_ID":"SUX","Station_Nam":"SIOUX GATEWAY AIRPORT","Latitude":"42.40390","Longitude":"-96.38330","Snowdepth":"5.000","Units":"in","Rept_Date":"2019-11-28 13"},"coordinates":[270,5377]},{"type":"Point","properties":{"Station_ID":"SPGM5","Station_Nam":"SPRING VALLEY","Latitude":"43.69330","Longitude":"-92.39260","Snowdepth":"5.000","Units":"in","Rept_Date":"2019-11-28 13"},"coordinates":[1527,6017]},{"type":"Point","properties":{"Station_ID":"SCSM5","Station_Nam":"ST CLOUD STATE","Latitude":"45.55100","Longitude":"-94.14950","Snowdepth":"5.000","Units":"in","Rept_Date":"2019-11-28 12"},"coordinates":[973,6938]},{"type":"Point","properties":{"Station_ID":"RST","Station_Nam":"ROCHESTER INTERNATIONAL ARPT","Latitude":"43.90890","Longitude":"-92.49780","Snowdepth":"5.000","Units":"in","Rept_Date":"2019-11-29 00"},"coordinates":[1494,6123]},{"type":"Point","properties":{"Station_ID":"RSRM5","Station_Nam":"ROCHESTER AP 2NE","Latitude":"43.92810","Longitude":"-92.47580","Snowdepth":"5.000","Units":"in","Rept_Date":"2019-11-28 12"},"coordinates":[1501,6133]},{"type":"Point","properties":{"Station_ID":"RMSI4","Station_Nam":"REMSEN NO. 2","Latitude":"42.81050","Longitude":"-95.97530","Snowdepth":"5.000","Units":"in","Rept_Date":"2019-11-28 17"},"coordinates":[398,5579]},{"type":"Point","properties":{"Station_ID":"NH-CS-4","Station_Nam":"PITTSBURG 6.1 NE, NH","Latitude":"45.11060","Longitude":"-71.29760","Snowdepth":"5.000","Units":"in","Rept_Date":"2019-11-28 12"},"coordinates":[8174,6719]},{"type":"Point","properties":{"Station_ID":"MPXM5","Station_Nam":"CHANHASSEN WSFO","Latitude":"44.84960","Longitude":"-93.56440","Snowdepth":"5.000","Units":"in","Rept_Date":"2019-11-29 06"},"coordinates":[1158,6590]},{"type":"Point","properties":{"Station_ID":"MN6JKRHL","Station_Nam":"TOFTE 0.6 SSW","Latitude":"47.56557","Longitude":"-90.84117","Snowdepth":"5.000","Units":"in","Rept_Date":"2019-11-28 13"},"coordinates":[2016,7936]},{"type":"Point","properties":{"Station_ID":"MN228YHJ","Station_Nam":"RICE 2.8 ESE","Latitude":"45.73609","Longitude":"-94.17230","Snowdepth":"5.000","Units":"in","Rept_Date":"2019-11-28 13"},"coordinates":[966,7029]},{"type":"Point","properties":{"Station_ID":"MN0HS1SL","Station_Nam":"NORTH SAINT PAUL 1.6 NW","Latitude":"45.02800","Longitude":"-93.01506","Snowdepth":"5.000","Units":"in","Rept_Date":"2019-11-28 13"},"coordinates":[1331,6678]},{"type":"Point","properties":{"Station_ID":"MN-WG-74","Station_Nam":"OAKDALE 0.4 S, MN","Latitude":"44.98208","Longitude":"-92.96510","Snowdepth":"5.000","Units":"in","Rept_Date":"2019-11-28 13"},"coordinates":[1347,6655]},{"type":"Point","properties":{"Station_ID":"MN-SR-24","Station_Nam":"PAYNESVILLE 1.9 SSW, MN","Latitude":"45.35170","Longitude":"-94.73120","Snowdepth":"5.000","Units":"in","Rept_Date":"2019-11-28 13"},"coordinates":[790,6839]},{"type":"Point","properties":{"Station_ID":"MN-SL-15","Station_Nam":"CHISHOLM 0.4 WSW, MN","Latitude":"47.48557","Longitude":"-92.88690","Snowdepth":"5.000","Units":"in","Rept_Date":"2019-11-28 13"},"coordinates":[1371,7897]},{"type":"Point","properties":{"Station_ID":"MN-SL-143","Station_Nam":"CANYON 4.6 NNE, MN","Latitude":"47.09800","Longitude":"-92.42170","Snowdepth":"5.000","Units":"in","Rept_Date":"2019-11-28 13"},"coordinates":[1518,7704]},{"type":"Point","properties":{"Station_ID":"MN-SH-985","Station_Nam":"PRINCETON 3.3 WSW, MN","Latitude":"45.55211","Longitude":"-93.64481","Snowdepth":"5.000","Units":"in","Rept_Date":"2019-11-28 14"},"coordinates":[1132,6938]},{"type":"Point","properties":{"Station_ID":"MN-SE-2","Station_Nam":"OWATONNA 0.8 E, MN","Latitude":"44.09170","Longitude":"-93.21380","Snowdepth":"5.000","Units":"in","Rept_Date":"2019-11-28 13"},"coordinates":[1268,6214]},{"type":"Point","properties":{"Station_ID":"MN-SC-33","Station_Nam":"SHAKOPEE 2.6 W, MN","Latitude":"44.78173","Longitude":"-93.52868","Snowdepth":"5.000","Units":"in","Rept_Date":"2019-11-28 14"},"coordinates":[1169,6556]},{"type":"Point","properties":{"Station_ID":"MN-RM-63","Station_Nam":"NORTH SAINT PAUL 1.0 NW, MN","Latitude":"45.02410","Longitude":"-93.01400","Snowdepth":"5.000","Units":"in","Rept_Date":"2019-11-28 13"},"coordinates":[1331,6676]},{"type":"Point","properties":{"Station_ID":"MN-MR-4","Station_Nam":"LITTLE FALLS 1.2 SW, MN","Latitude":"45.96886","Longitude":"-94.37720","Snowdepth":"5.000","Units":"in","Rept_Date":"2019-11-28 13"},"coordinates":[902,7145]},{"type":"Point","properties":{"Station_ID":"MN-GH-28","Station_Nam":"CANNON FALLS 0.5 SE, MN","Latitude":"44.50866","Longitude":"-92.89526","Snowdepth":"5.000","Units":"in","Rept_Date":"2019-11-28 14"},"coordinates":[1369,6421]},{"type":"Point","properties":{"Station_ID":"MI-MQ-2","Station_Nam":"MARQUETTE 6.5 SSE, MI","Latitude":"46.46461","Longitude":"-87.34064","Snowdepth":"5.000","Units":"in","Rept_Date":"2019-11-28 13"},"coordinates":[3119,7390]},{"type":"Point","properties":{"Station_ID":"MEDW3","Station_Nam":"MEDFORD","Latitude":"45.13080","Longitude":"-90.34390","Snowdepth":"5.000","Units":"in","Rept_Date":"2019-11-28 14"},"coordinates":[2173,6729]},{"type":"Point","properties":{"Station_ID":"ME-SM-10","Station_Nam":"NORTH NEW PORTLAND 0.3 WSW, ME","Latitude":"44.92353","Longitude":"-70.02788","Snowdepth":"5.000","Units":"in","Rept_Date":"2019-11-28 12"},"coordinates":[8574,6626]},{"type":"Point","properties":{"Station_ID":"MCWI4","Station_Nam":"WINNEBAGO RIVER","Latitude":"43.15000","Longitude":"-93.19250","Snowdepth":"5.000","Units":"in","Rept_Date":"2019-11-28 13"},"coordinates":[1275,5747]},{"type":"Point","properties":{"Station_ID":"LSXI4","Station_Nam":"LITTLE SIOUX,IA","Latitude":"41.81670","Longitude":"-96.01670","Snowdepth":"5.000","Units":"in","Rept_Date":"2019-11-28 13"},"coordinates":[385,5086]},{"type":"Point","properties":{"Station_ID":"LBKV1","Station_Nam":"LYE BROOK","Latitude":"43.05000","Longitude":"-73.03330","Snowdepth":"5.000","Units":"in","Rept_Date":"2019-11-29 06"},"coordinates":[7627,5698]},{"type":"Point","properties":{"Station_ID":"LAKM5","Station_Nam":"LAKE CITY","Latitude":"44.43630","Longitude":"-92.27930","Snowdepth":"5.000","Units":"in","Rept_Date":"2019-11-28 13"},"coordinates":[1563,6385]},{"type":"Point","properties":{"Station_ID":"JEFN3","Station_Nam":"JEFFERSON","Latitude":"44.41690","Longitude":"-71.50080","Snowdepth":"5.000","Units":"in","Rept_Date":"2019-11-28 12"},"coordinates":[8110,6375]},{"type":"Point","properties":{"Station_ID":"ISEM5","Station_Nam":"ISLE 12N","Latitude":"46.31970","Longitude":"-93.50140","Snowdepth":"5.000","Units":"in","Rept_Date":"2019-11-28 14"},"coordinates":[1178,7319]},{"type":"Point","properties":{"Station_ID":"GLDM4","Station_Nam":"GLADSTONE NO. 2","Latitude":"45.84330","Longitude":"-87.03910","Snowdepth":"5.000","Units":"in","Rept_Date":"2019-11-28 12"},"coordinates":[3214,7082]},{"type":"Point","properties":{"Station_ID":"EVYI4","Station_Nam":"EVERLY,IA","Latitude":"43.18330","Longitude":"-95.36670","Snowdepth":"5.000","Units":"in","Rept_Date":"2019-11-28 13"},"coordinates":[590,5764]},{"type":"Point","properties":{"Station_ID":"EMBM5","Station_Nam":"EMBARASS,MN","Latitude":"47.65810","Longitude":"-92.19580","Snowdepth":"5.000","Units":"in","Rept_Date":"2019-11-28 13"},"coordinates":[1589,7982]},{"type":"Point","properties":{"Station_ID":"EGNM5","Station_Nam":"ELGIN 2SSW","Latitude":"44.09700","Longitude":"-92.27010","Snowdepth":"5.000","Units":"in","Rept_Date":"2019-11-28 13"},"coordinates":[1566,6217]},{"type":"Point","properties":{"Station_ID":"CLDM5","Station_Nam":"CALEDONIA","Latitude":"43.63090","Longitude":"-91.50270","Snowdepth":"5.000","Units":"in","Rept_Date":"2019-11-28 15"},"coordinates":[1807,5986]},{"type":"Point","properties":{"Station_ID":"CAN-NB-2","Station_Nam":"GRAFTON 2.7 NNE, CA","Latitude":"46.17062","Longitude":"-67.55330","Snowdepth":"5.000","Units":"in","Rept_Date":"2019-11-28 11"},"coordinates":[9354,7245]},{"type":"Point","properties":{"Station_ID":"CAN-NB-64","Station_Nam":"KESWICK RIDGE 4.0 SE, CAN","Latitude":"45.97014","Longitude":"-66.85538","Snowdepth":"4.700","Units":"in","Rept_Date":"2019-11-28 12"},"coordinates":[9574,7145]},{"type":"Point","properties":{"Station_ID":"WI-BT-14","Station_Nam":"OAKLAND 9.0 ENE, WI","Latitude":"45.95184","Longitude":"-92.21653","Snowdepth":"4.500","Units":"in","Rept_Date":"2019-11-28 13"},"coordinates":[1583,7136]},{"type":"Point","properties":{"Station_ID":"VT-OL-12","Station_Nam":"GREENSBORO 3.9 NNE, VT","Latitude":"44.63100","Longitude":"-72.28000","Snowdepth":"4.500","Units":"in","Rept_Date":"2019-11-28 11"},"coordinates":[7865,6481]},{"type":"Point","properties":{"Station_ID":"MN-SL-108","Station_Nam":"IRON JUNCTION 3.4 NNW, MN","Latitude":"47.46150","Longitude":"-92.63130","Snowdepth":"4.500","Units":"in","Rept_Date":"2019-11-28 12"},"coordinates":[1452,7885]},{"type":"Point","properties":{"Station_ID":"WRIM5","Station_Nam":"WRIGHT 3E","Latitude":"46.68040","Longitude":"-92.95420","Snowdepth":"4.000","Units":"in","Rept_Date":"2019-11-28 12"},"coordinates":[1350,7497]},{"type":"Point","properties":{"Station_ID":"WIDM5","Station_Nam":"WINONA DAM 5A","Latitude":"44.08750","Longitude":"-91.67030","Snowdepth":"4.000","Units":"in","Rept_Date":"2019-11-28 14"},"coordinates":[1755,6212]},{"type":"Point","properties":{"Station_ID":"WACM5","Station_Nam":"WACONIA","Latitude":"44.85330","Longitude":"-93.80260","Snowdepth":"4.000","Units":"in","Rept_Date":"2019-11-28 12"},"coordinates":[1083,6592]},{"type":"Point","properties":{"Station_ID":"WABM5","Station_Nam":"WABASHA","Latitude":"44.38500","Longitude":"-92.04860","Snowdepth":"4.000","Units":"in","Rept_Date":"2019-11-28 13"},"coordinates":[1635,6359]},{"type":"Point","properties":{"Station_ID":"VQAW3","Station_Nam":"VIROQUA","Latitude":"43.55970","Longitude":"-90.87560","Snowdepth":"4.000","Units":"in","Rept_Date":"2019-11-28 13"},"coordinates":[2005,5950]},{"type":"Point","properties":{"Station_ID":"THLM5","Station_Nam":"THEILMAN 1SSW","Latitude":"44.28130","Longitude":"-92.19430","Snowdepth":"4.000","Units":"in","Rept_Date":"2019-11-28 13"},"coordinates":[1590,6308]},{"type":"Point","properties":{"Station_ID":"STIM5","Station_Nam":"STILLWATER 2SW","Latitude":"45.04540","Longitude":"-92.85220","Snowdepth":"4.000","Units":"in","Rept_Date":"2019-11-28 14"},"coordinates":[1382,6687]},{"type":"Point","properties":{"Station_ID":"SPCW3","Station_Nam":"SPENCER-WWTP","Latitude":"44.75390","Longitude":"-90.28920","Snowdepth":"4.000","Units":"in","Rept_Date":"2019-11-28 13"},"coordinates":[2190,6542]},{"type":"Point","properties":{"Station_ID":"SHDI4","Station_Nam":"SHELDON,IA","Latitude":"43.18080","Longitude":"-95.85280","Snowdepth":"4.000","Units":"in","Rept_Date":"2019-11-28 13"},"coordinates":[437,5763]},{"type":"Point","properties":{"Station_ID":"SD-UN-2","Station_Nam":"ELK POINT 5.6 NNE, SD","Latitude":"42.76126","Longitude":"-96.65320","Snowdepth":"4.000","Units":"in","Rept_Date":"2019-11-28 15"},"coordinates":[184,5555]},{"type":"Point","properties":{"Station_ID":"SD-MH-41","Station_Nam":"SIOUX FALLS 3.9 SW, SD","Latitude":"43.50475","Longitude":"-96.78660","Snowdepth":"4.000","Units":"in","Rept_Date":"2019-11-28 13"},"coordinates":[142,5923]},{"type":"Point","properties":{"Station_ID":"RFDM5","Station_Nam":"ROCKFORD","Latitude":"45.08960","Longitude":"-93.73990","Snowdepth":"4.000","Units":"in","Rept_Date":"2019-11-28 13"},"coordinates":[1102,6709]},{"type":"Point","properties":{"Station_ID":"REWM5","Station_Nam":"REDWOOD FALLS","Latitude":"44.54850","Longitude":"-95.09980","Snowdepth":"4.000","Units":"in","Rept_Date":"2019-11-28 13"},"coordinates":[674,6441]},{"type":"Point","properties":{"Station_ID":"NWSM1","Station_Nam":"NEW SHARON","Latitude":"44.63520","Longitude":"-70.00020","Snowdepth":"4.000","Units":"in","Rept_Date":"2019-11-28 12"},"coordinates":[8583,6484]},{"type":"Point","properties":{"Station_ID":"NUMM5","Station_Nam":"NEW ULM 3SE","Latitude":"44.29450","Longitude":"-94.40840","Snowdepth":"4.000","Units":"in","Rept_Date":"2019-11-28 11"},"coordinates":[892,6315]},{"type":"Point","properties":{"Station_ID":"MSCM5","Station_Nam":"MINNESOTA CITY","Latitude":"44.16000","Longitude":"-91.81220","Snowdepth":"4.000","Units":"in","Rept_Date":"2019-11-28 14"},"coordinates":[1710,6248]},{"type":"Point","properties":{"Station_ID":"MONS2","Station_Nam":"SIOUX FALLS-26MI.WNW","Latitude":"43.70190","Longitude":"-97.18330","Snowdepth":"4.000","Units":"in","Rept_Date":"2019-11-28 14"},"coordinates":[17,6021]},{"type":"Point","properties":{"Station_ID":"MNE9SLWI","Station_Nam":"LEAVENWORTH 5.4 S","Latitude":"44.14481","Longitude":"-94.78882","Snowdepth":"4.000","Units":"in","Rept_Date":"2019-11-28 13"},"coordinates":[772,6240]},{"type":"Point","properties":{"Station_ID":"MNDMBBNN","Station_Nam":"OWATONNA 3.5 W","Latitude":"44.08801","Longitude":"-93.29623","Snowdepth":"4.000","Units":"in","Rept_Date":"2019-11-28 13"},"coordinates":[1242,6212]},{"type":"Point","properties":{"Station_ID":"MN-SL-115","Station_Nam":"COTTON 5.7 ESE, MN","Latitude":"47.15142","Longitude":"-92.35772","Snowdepth":"4.000","Units":"in","Rept_Date":"2019-11-28 14"},"coordinates":[1538,7731]},{"type":"Point","properties":{"Station_ID":"MN-MW-8","Station_Nam":"AUSTIN 2.4 W, MN","Latitude":"43.67190","Longitude":"-93.02280","Snowdepth":"4.000","Units":"in","Rept_Date":"2019-11-28 13"},"coordinates":[1328,6006]},{"type":"Point","properties":{"Station_ID":"MN-KD-1","Station_Nam":"BELGRADE 8.0 ESE, MN","Latitude":"45.40705","Longitude":"-94.84660","Snowdepth":"4.000","Units":"in","Rept_Date":"2019-11-28 13"},"coordinates":[754,6866]},{"type":"Point","properties":{"Station_ID":"MN-HN-6","Station_Nam":"LONG LAKE 0.2 WSW, MN","Latitude":"44.98290","Longitude":"-93.57360","Snowdepth":"4.000","Units":"in","Rept_Date":"2019-11-28 13"},"coordinates":[1155,6656]},{"type":"Point","properties":{"Station_ID":"MN-CW-22","Station_Nam":"FORT RIPLEY 0.8 N, MN","Latitude":"46.18089","Longitude":"-94.36510","Snowdepth":"4.000","Units":"in","Rept_Date":"2019-11-28 13"},"coordinates":[905,7250]},{"type":"Point","properties":{"Station_ID":"MN-CK-6","Station_Nam":"GRAND MARAIS 4.4 W, MN","Latitude":"47.74865","Longitude":"-90.43760","Snowdepth":"4.000","Units":"in","Rept_Date":"2019-11-28 12"},"coordinates":[2143,8027]},{"type":"Point","properties":{"Station_ID":"MMLM5","Station_Nam":"DIVERSION","Latitude":"44.47060","Longitude":"-95.80000","Snowdepth":"4.000","Units":"in","Rept_Date":"2019-11-28 14"},"coordinates":[453,6402]},{"type":"Point","properties":{"Station_ID":"MLRM5","Station_Nam":"MELROSE","Latitude":"45.67710","Longitude":"-94.80200","Snowdepth":"4.000","Units":"in","Rept_Date":"2019-11-28 13"},"coordinates":[768,7000]},{"type":"Point","properties":{"Station_ID":"ME-FR-4","Station_Nam":"NEW SHARON 2.0 NW, ME","Latitude":"44.66582","Longitude":"-70.02720","Snowdepth":"4.000","Units":"in","Rept_Date":"2019-11-28 12"},"coordinates":[8575,6499]},{"type":"Point","properties":{"Station_ID":"MABM5","Station_Nam":"MABEL","Latitude":"43.52410","Longitude":"-91.76160","Snowdepth":"4.000","Units":"in","Rept_Date":"2019-11-28 13"},"coordinates":[1726,5933]},{"type":"Point","properties":{"Station_ID":"LUCW3","Station_Nam":"LUCK","Latitude":"45.57330","Longitude":"-92.48520","Snowdepth":"4.000","Units":"in","Rept_Date":"2019-11-28 17"},"coordinates":[1498,6949]},{"type":"Point","properties":{"Station_ID":"LNGM5","Station_Nam":"LONG PRAIRIE","Latitude":"45.96460","Longitude":"-94.88920","Snowdepth":"4.000","Units":"in","Rept_Date":"2019-11-28 12"},"coordinates":[740,7143]},{"type":"Point","properties":{"Station_ID":"INL","Station_Nam":"FALLS INTERNATIONAL ARPT","Latitude":"48.56640","Longitude":"-93.40310","Snowdepth":"4.000","Units":"in","Rept_Date":"2019-11-29 00"},"coordinates":[1209,8432]},{"type":"Point","properties":{"Station_ID":"HSTM5","Station_Nam":"HASTINGS DAM 2","Latitude":"44.75970","Longitude":"-92.86890","Snowdepth":"4.000","Units":"in","Rept_Date":"2019-11-28 12"},"coordinates":[1377,6545]},{"type":"Point","properties":{"Station_ID":"HSTI4","Station_Nam":"HOLSTEIN,IA","Latitude":"42.48920","Longitude":"-95.53330","Snowdepth":"4.000","Units":"in","Rept_Date":"2019-11-28 13"},"coordinates":[537,5420]},{"type":"Point","properties":{"Station_ID":"FARM1","Station_Nam":"FARMINGTON","Latitude":"44.68930","Longitude":"-70.15640","Snowdepth":"4.000","Units":"in","Rept_Date":"2019-11-28 12"},"coordinates":[8534,6510]},{"type":"Point","properties":{"Station_ID":"ETTW3","Station_Nam":"ETTRICK 4WNW","Latitude":"44.19000","Longitude":"-91.34240","Snowdepth":"4.000","Units":"in","Rept_Date":"2019-11-28 13"},"coordinates":[1858,6263]},{"type":"Point","properties":{"Station_ID":"EPTW3","Station_Nam":"EAU PLEINE TENDER","Latitude":"44.77220","Longitude":"-89.76720","Snowdepth":"4.000","Units":"in","Rept_Date":"2019-11-28 13"},"coordinates":[2354,6551]},{"type":"Point","properties":{"Station_ID":"EMMI4","Station_Nam":"EMMETSBURG,IA","Latitude":"43.10000","Longitude":"-94.68330","Snowdepth":"4.000","Units":"in","Rept_Date":"2019-11-28 17"},"coordinates":[805,5722]},{"type":"Point","properties":{"Station_ID":"EAU","Station_Nam":"CHIPPEWA VALLEY REGIONAL AIRPORT","Latitude":"44.86650","Longitude":"-91.48790","Snowdepth":"4.000","Units":"in","Rept_Date":"2019-11-29 00"},"coordinates":[1812,6598]},{"type":"Point","properties":{"Station_ID":"CRVW3","Station_Nam":"CRIVITZ HIGH FALLS","Latitude":"45.35750","Longitude":"-88.19190","Snowdepth":"4.000","Units":"in","Rept_Date":"2019-11-28 13"},"coordinates":[2851,6842]},{"type":"Point","properties":{"Station_ID":"COTM5","Station_Nam":"COTTON","Latitude":"47.16870","Longitude":"-92.46290","Snowdepth":"4.000","Units":"in","Rept_Date":"2019-11-28 13"},"coordinates":[1505,7739]},{"type":"Point","properties":{"Station_ID":"CAN-NB-18","Station_Nam":"MCLEOD HILL 1.1 ENE, CA","Latitude":"46.02725","Longitude":"-66.67460","Snowdepth":"4.000","Units":"in","Rept_Date":"2019-11-28 12"},"coordinates":[9631,7174]},{"type":"Point","properties":{"Station_ID":"BTHM5","Station_Nam":"BLUE EARTH 1S","Latitude":"43.62370","Longitude":"-94.09470","Snowdepth":"4.000","Units":"in","Rept_Date":"2019-11-28 14"},"coordinates":[991,5982]},{"type":"Point","properties":{"Station_ID":"BRLN3","Station_Nam":"BERLIN","Latitude":"44.45350","Longitude":"-71.18540","Snowdepth":"4.000","Units":"in","Rept_Date":"2019-11-28 14"},"coordinates":[8210,6393]},{"type":"Point","properties":{"Station_ID":"BRAM5","Station_Nam":"BRAINERD","Latitude":"46.34320","Longitude":"-94.20900","Snowdepth":"4.000","Units":"in","Rept_Date":"2019-11-28 13"},"coordinates":[955,7330]},{"type":"Point","properties":{"Station_ID":"BMRW3","Station_Nam":"BLOOMER","Latitude":"45.09070","Longitude":"-91.48640","Snowdepth":"4.000","Units":"in","Rept_Date":"2019-11-28 14"},"coordinates":[1813,6709]},{"type":"Point","properties":{"Station_ID":"ASXW3","Station_Nam":"ASHLAND,WI","Latitude":"46.55220","Longitude":"-90.91610","Snowdepth":"4.000","Units":"in","Rept_Date":"2019-11-28 14"},"coordinates":[1992,7434]},{"type":"Point","properties":{"Station_ID":"ASTW3","Station_Nam":"ATHELSTANE","Latitude":"45.42500","Longitude":"-88.05750","Snowdepth":"4.000","Units":"in","Rept_Date":"2019-11-28 12"},"coordinates":[2893,6875]},{"type":"Point","properties":{"Station_ID":"MN-PN-17","Station_Nam":"BROOK PARK 3.9 S, MN","Latitude":"45.89189","Longitude":"-93.06306","Snowdepth":"3.800","Units":"in","Rept_Date":"2019-11-28 13"},"coordinates":[1316,7106]},{"type":"Point","properties":{"Station_ID":"WI-PT-8","Station_Nam":"RUDOLPH 2.1 NNE, WI","Latitude":"44.52553","Longitude":"-89.78677","Snowdepth":"3.500","Units":"in","Rept_Date":"2019-11-28 11"},"coordinates":[2348,6429]},{"type":"Point","properties":{"Station_ID":"MN-WG-33","Station_Nam":"COTTAGE GROVE 1.6 NNW, MN","Latitude":"44.83821","Longitude":"-92.93590","Snowdepth":"3.500","Units":"in","Rept_Date":"2019-11-28 13"},"coordinates":[1356,6584]},{"type":"Point","properties":{"Station_ID":"MN-MR-13","Station_Nam":"LITTLE FALLS 8.0 NE, MN","Latitude":"46.06785","Longitude":"-94.24789","Snowdepth":"3.500","Units":"in","Rept_Date":"2019-11-28 13"},"coordinates":[942,7194]},{"type":"Point","properties":{"Station_ID":"MN-BW-8","Station_Nam":"COMFREY 6.5 ENE, MN","Latitude":"44.15109","Longitude":"-94.78516","Snowdepth":"3.500","Units":"in","Rept_Date":"2019-11-28 13"},"coordinates":[773,6244]},{"type":"Point","properties":{"Station_ID":"MN-AT-5","Station_Nam":"TAMARACK 1.4 SW, MN","Latitude":"46.63760","Longitude":"-93.14554","Snowdepth":"3.500","Units":"in","Rept_Date":"2019-11-28 11"},"coordinates":[1290,7476]},{"type":"Point","properties":{"Station_ID":"IA-KS-4","Station_Nam":"ALGONA 0.7 SE, IA","Latitude":"43.06627","Longitude":"-94.22214","Snowdepth":"3.500","Units":"in","Rept_Date":"2019-11-28 13"},"coordinates":[951,5706]},{"type":"Point","properties":{"Station_ID":"CAN-ON-757","Station_Nam":"SAULT STE. MARIE 2.8 ESE - GLFC, CAN","Latitude":"46.50300","Longitude":"-84.30300","Snowdepth":"3.300","Units":"in","Rept_Date":"2019-11-28 13"},"coordinates":[4076,7409]},{"type":"Point","properties":{"Station_ID":"WI-PC-10","Station_Nam":"RIVER FALLS 1.4 S, WI","Latitude":"44.83580","Longitude":"-92.62100","Snowdepth":"3.000","Units":"in","Rept_Date":"2019-11-28 13"},"coordinates":[1455,6583]},{"type":"Point","properties":{"Station_ID":"WI-MT-14","Station_Nam":"MOSINEE 2.7 WSW, WI","Latitude":"44.77240","Longitude":"-89.73441","Snowdepth":"3.000","Units":"in","Rept_Date":"2019-11-28 13"},"coordinates":[2365,6552]},{"type":"Point","properties":{"Station_ID":"WESN1","Station_Nam":"WESTON 3NW","Latitude":"41.22110","Longitude":"-96.77750","Snowdepth":"3.000","Units":"in","Rept_Date":"2019-11-28 14"},"coordinates":[145,4791]},{"type":"Point","properties":{"Station_ID":"VT-WS-7","Station_Nam":"MIDDLESEX 3.1 ENE, VT","Latitude":"44.31799","Longitude":"-72.62650","Snowdepth":"3.000","Units":"in","Rept_Date":"2019-11-28 13"},"coordinates":[7756,6326]},{"type":"Point","properties":{"Station_ID":"SD-MH-8","Station_Nam":"HARTFORD 6.4 S, SD","Latitude":"43.53128","Longitude":"-96.95020","Snowdepth":"3.000","Units":"in","Rept_Date":"2019-11-28 14"},"coordinates":[91,5936]},{"type":"Point","properties":{"Station_ID":"SAUW3","Station_Nam":"WAUSAU WSAW TV","Latitude":"44.94630","Longitude":"-89.62220","Snowdepth":"3.000","Units":"in","Rept_Date":"2019-11-29 05"},"coordinates":[2400,6638]},{"type":"Point","properties":{"Station_ID":"RWGM5","Station_Nam":"RED WING","Latitude":"44.57120","Longitude":"-92.52830","Snowdepth":"3.000","Units":"in","Rept_Date":"2019-11-28 14"},"coordinates":[1484,6452]},{"type":"Point","properties":{"Station_ID":"RSTW3","Station_Nam":"ROSHOLT","Latitude":"44.62710","Longitude":"-89.30600","Snowdepth":"3.000","Units":"in","Rept_Date":"2019-11-28 14"},"coordinates":[2500,6480]},{"type":"Point","properties":{"Station_ID":"RCEM5","Station_Nam":"RICE","Latitude":"45.75760","Longitude":"-94.20720","Snowdepth":"3.000","Units":"in","Rept_Date":"2019-11-28 13"},"coordinates":[955,7040]},{"type":"Point","properties":{"Station_ID":"PBAN8","Station_Nam":"SITE 1-3MI.N","Latitude":"48.97420","Longitude":"-97.23860","Snowdepth":"3.000","Units":"in","Rept_Date":"2019-11-28 13"},"coordinates":[0,8634]},{"type":"Point","properties":{"Station_ID":"ORCI4","Station_Nam":"ORANGE CITY","Latitude":"43.00080","Longitude":"-96.05390","Snowdepth":"3.000","Units":"in","Rept_Date":"2019-11-28 13"},"coordinates":[373,5673]},{"type":"Point","properties":{"Station_ID":"NUMN3","Station_Nam":"NORTHUMBERLAND","Latitude":"44.52830","Longitude":"-71.50440","Snowdepth":"3.000","Units":"in","Rept_Date":"2019-11-28 13"},"coordinates":[8109,6431]},{"type":"Point","properties":{"Station_ID":"NEWN1","Station_Nam":"NEWCASTLE","Latitude":"42.65300","Longitude":"-96.87750","Snowdepth":"3.000","Units":"in","Rept_Date":"2019-11-28 12"},"coordinates":[114,5501]},{"type":"Point","properties":{"Station_ID":"NESN1","Station_Nam":"CONCORD","Latitude":"42.38440","Longitude":"-96.98830","Snowdepth":"3.000","Units":"in","Rept_Date":"2019-11-28 23"},"coordinates":[79,5368]},{"type":"Point","properties":{"Station_ID":"MRFS2","Station_Nam":"MADISON,SD","Latitude":"44.00000","Longitude":"-97.23330","Snowdepth":"3.000","Units":"in","Rept_Date":"2019-11-28 15"},"coordinates":[2,6169]},{"type":"Point","properties":{"Station_ID":"MRAM4","Station_Nam":"MORAN","Latitude":"45.99030","Longitude":"-84.83610","Snowdepth":"3.000","Units":"in","Rept_Date":"2019-11-28 13"},"coordinates":[3908,7155]},{"type":"Point","properties":{"Station_ID":"MNV905PW","Station_Nam":"ROOSEVELT 5.3 N","Latitude":"48.87933","Longitude":"-95.08224","Snowdepth":"3.000","Units":"in","Rept_Date":"2019-11-28 13"},"coordinates":[679,8587]},{"type":"Point","properties":{"Station_ID":"MNEY8CTB","Station_Nam":"MIDLAND JUNCTION 2.2 ENE","Latitude":"44.33041","Longitude":"-91.95891","Snowdepth":"3.000","Units":"in","Rept_Date":"2019-11-28 14"},"coordinates":[1664,6332]},{"type":"Point","properties":{"Station_ID":"MN-RC-11","Station_Nam":"NEW PRAGUE 4.8 ESE, MN","Latitude":"44.51999","Longitude":"-93.48470","Snowdepth":"3.000","Units":"in","Rept_Date":"2019-11-28 11"},"coordinates":[1183,6426]},{"type":"Point","properties":{"Station_ID":"MN-CW-28","Station_Nam":"AITKIN 8.4 NW, MN","Latitude":"46.62532","Longitude":"-93.81460","Snowdepth":"3.000","Units":"in","Rept_Date":"2019-11-28 11"},"coordinates":[1079,7470]},{"type":"Point","properties":{"Station_ID":"MN-CG-16","Station_Nam":"NORTH BRANCH 1.3 NNW, MN","Latitude":"45.53121","Longitude":"-92.97110","Snowdepth":"3.000","Units":"in","Rept_Date":"2019-11-28 12"},"coordinates":[1345,6928]},{"type":"Point","properties":{"Station_ID":"MI-DL-1","Station_Nam":"GARDEN CORNERS 0.8 NW, MI","Latitude":"45.89815","Longitude":"-86.54850","Snowdepth":"3.000","Units":"in","Rept_Date":"2019-11-28 13"},"coordinates":[3369,7110]},{"type":"Point","properties":{"Station_ID":"MI-CP-14","Station_Nam":"SAULT STE. MARIE 2.2 E, MI","Latitude":"46.48933","Longitude":"-84.31971","Snowdepth":"3.000","Units":"in","Rept_Date":"2019-11-28 13"},"coordinates":[4071,7403]},{"type":"Point","properties":{"Station_ID":"LPLN6","Station_Nam":"LAKE PLACID 2 S","Latitude":"44.30420","Longitude":"-73.98390","Snowdepth":"3.000","Units":"in","Rept_Date":"2019-11-28 13"},"coordinates":[7328,6319]},{"type":"Point","properties":{"Station_ID":"KINM1","Station_Nam":"KINGFIELD","Latitude":"44.95950","Longitude":"-70.17530","Snowdepth":"3.000","Units":"in","Rept_Date":"2019-11-28 13"},"coordinates":[8528,6644]},{"type":"Point","properties":{"Station_ID":"ISLV1","Station_Nam":"ISLAND POND","Latitude":"44.81280","Longitude":"-71.89020","Snowdepth":"3.000","Units":"in","Rept_Date":"2019-11-28 13"},"coordinates":[7988,6572]},{"type":"Point","properties":{"Station_ID":"HPTI4","Station_Nam":"HAMPTON,IA","Latitude":"42.75000","Longitude":"-93.20000","Snowdepth":"3.000","Units":"in","Rept_Date":"2019-11-28 13"},"coordinates":[1273,5549]},{"type":"Point","properties":{"Station_ID":"GDCM4","Station_Nam":"GARDEN CORNERS","Latitude":"45.89830","Longitude":"-86.54850","Snowdepth":"3.000","Units":"in","Rept_Date":"2019-11-28 13"},"coordinates":[3369,7110]},{"type":"Point","properties":{"Station_ID":"FMTN1","Station_Nam":"FREMONT,NE","Latitude":"41.43330","Longitude":"-96.48330","Snowdepth":"3.000","Units":"in","Rept_Date":"2019-11-28 13"},"coordinates":[238,4896]},{"type":"Point","properties":{"Station_ID":"DEMS2","Station_Nam":"SIOUX FALLS 5SE FSD ARPT","Latitude":"43.52690","Longitude":"-96.66830","Snowdepth":"3.000","Units":"in","Rept_Date":"2019-11-28 13"},"coordinates":[180,5934]},{"type":"Point","properties":{"Station_ID":"CRCI4","Station_Nam":"CRESCO 1NE","Latitude":"43.38940","Longitude":"-92.09380","Snowdepth":"3.000","Units":"in","Rept_Date":"2019-11-28 13"},"coordinates":[1621,5866]},{"type":"Point","properties":{"Station_ID":"CANM5","Station_Nam":"CANBY","Latitude":"44.71840","Longitude":"-96.26960","Snowdepth":"3.000","Units":"in","Rept_Date":"2019-11-28 14"},"coordinates":[305,6525]},{"type":"Point","properties":{"Station_ID":"BROS2","Station_Nam":"BROOKINGS,SD","Latitude":"44.31670","Longitude":"-96.76670","Snowdepth":"3.000","Units":"in","Rept_Date":"2019-11-28 14"},"coordinates":[149,6326]},{"type":"Point","properties":{"Station_ID":"BETM1","Station_Nam":"BETHEL 6 SSE","Latitude":"44.32000","Longitude":"-70.75680","Snowdepth":"3.000","Units":"in","Rept_Date":"2019-11-28 12"},"coordinates":[8345,6327]},{"type":"Point","properties":{"Station_ID":"AUW","Station_Nam":"WAUSAU MUNICIPAL AIRPORT","Latitude":"44.92580","Longitude":"-89.62560","Snowdepth":"3.000","Units":"in","Rept_Date":"2019-11-28 12"},"coordinates":[2399,6628]},{"type":"Point","properties":{"Station_ID":"ALGI4","Station_Nam":"ALGONA,IA","Latitude":"43.06670","Longitude":"-94.30610","Snowdepth":"3.000","Units":"in","Rept_Date":"2019-11-28 13"},"coordinates":[924,5706]},{"type":"Point","properties":{"Station_ID":"ABGW3","Station_Nam":"AMBERG 9 E","Latitude":"45.48250","Longitude":"-87.81190","Snowdepth":"3.000","Units":"in","Rept_Date":"2019-11-28 12"},"coordinates":[2970,6904]},{"type":"Point","properties":{"Station_ID":"VT-WS-30","Station_Nam":"WOODBURY 3.4 NNW, VT","Latitude":"44.48825","Longitude":"-72.43258","Snowdepth":"2.500","Units":"in","Rept_Date":"2019-11-28 12"},"coordinates":[7817,6411]},{"type":"Point","properties":{"Station_ID":"VT-WS-15","Station_Nam":"EAST CALAIS 1.5 SW, VT","Latitude":"44.35523","Longitude":"-72.45540","Snowdepth":"2.500","Units":"in","Rept_Date":"2019-11-28 12"},"coordinates":[7809,6345]},{"type":"Point","properties":{"Station_ID":"VT-ES-3","Station_Nam":"LUNENBURG 2.3 NNW, VT","Latitude":"44.49324","Longitude":"-71.70446","Snowdepth":"2.500","Units":"in","Rept_Date":"2019-11-28 09"},"coordinates":[8046,6413]},{"type":"Point","properties":{"Station_ID":"VT-CL-40","Station_Nam":"LYNDONVILLE 4.2 NNW, VT","Latitude":"44.59440","Longitude":"-72.02389","Snowdepth":"2.500","Units":"in","Rept_Date":"2019-11-28 13"},"coordinates":[7945,6463]},{"type":"Point","properties":{"Station_ID":"SD-MH-1","Station_Nam":"SIOUX FALLS 5.0 SE ARPT, SD","Latitude":"43.52360","Longitude":"-96.66780","Snowdepth":"2.500","Units":"in","Rept_Date":"2019-11-28 13"},"coordinates":[180,5932]},{"type":"Point","properties":{"Station_ID":"NH-GR-47","Station_Nam":"LITTLETON 7.3 W, NH","Latitude":"44.31847","Longitude":"-71.91086","Snowdepth":"2.500","Units":"in","Rept_Date":"2019-11-28 13"},"coordinates":[7981,6327]},{"type":"Point","properties":{"Station_ID":"MN-PS-6","Station_Nam":"EDGERTON 0.2 WSW, MN","Latitude":"43.87444","Longitude":"-96.13328","Snowdepth":"2.500","Units":"in","Rept_Date":"2019-11-28 12"},"coordinates":[348,6106]},{"type":"Point","properties":{"Station_ID":"CAN-NB-1","Station_Nam":"FREDERICTON 4.0 SSE, CA","Latitude":"45.92897","Longitude":"-66.62830","Snowdepth":"2.400","Units":"in","Rept_Date":"2019-11-28 11"},"coordinates":[9646,7125]},{"type":"Point","properties":{"Station_ID":"MN-IT-7","Station_Nam":"GRAND RAPIDS 6.2 SSW, MN","Latitude":"47.13687","Longitude":"-93.56660","Snowdepth":"2.300","Units":"in","Rept_Date":"2019-11-28 12"},"coordinates":[1157,7724]},{"type":"Point","properties":{"Station_ID":"VT-OL-5","Station_Nam":"DERBY CENTER 1.8 NW, VT","Latitude":"44.97200","Longitude":"-72.14780","Snowdepth":"2.100","Units":"in","Rept_Date":"2019-11-28 12"},"coordinates":[7906,6650]},{"type":"Point","properties":{"Station_ID":"NE-LA-22","Station_Nam":"RAYMOND 7.3 WNW, NE","Latitude":"40.99820","Longitude":"-96.90930","Snowdepth":"2.100","Units":"in","Rept_Date":"2019-11-28 13"},"coordinates":[104,4681]},{"type":"Point","properties":{"Station_ID":"ZNOM4","Station_Nam":"NORWAY","Latitude":"45.77810","Longitude":"-87.89560","Snowdepth":"2.000","Units":"in","Rept_Date":"2019-11-28 13"},"coordinates":[2944,7050]},{"type":"Point","properties":{"Station_ID":"WSLW3","Station_Nam":"WEST SALEM","Latitude":"43.89670","Longitude":"-91.08570","Snowdepth":"2.000","Units":"in","Rept_Date":"2019-11-28 13"},"coordinates":[1939,6117]},{"type":"Point","properties":{"Station_ID":"WRUM5","Station_Nam":"WARROAD 4W","Latitude":"48.89600","Longitude":"-95.40700","Snowdepth":"2.000","Units":"in","Rept_Date":"2019-11-29 04"},"coordinates":[577,8596]},{"type":"Point","properties":{"Station_ID":"WRNM5","Station_Nam":"WORTHINGTON,MN","Latitude":"43.65440","Longitude":"-95.57920","Snowdepth":"2.000","Units":"in","Rept_Date":"2019-11-28 13"},"coordinates":[523,5997]},{"type":"Point","properties":{"Station_ID":"WMTI4","Station_Nam":"FORT DODGE,IA","Latitude":"42.50610","Longitude":"-94.20110","Snowdepth":"2.000","Units":"in","Rept_Date":"2019-11-28 15"},"coordinates":[957,5428]},{"type":"Point","properties":{"Station_ID":"WI-PK-4","Station_Nam":"DRESSER 6.1 ESE, WI","Latitude":"45.32436","Longitude":"-92.52080","Snowdepth":"2.000","Units":"in","Rept_Date":"2019-11-28 14"},"coordinates":[1487,6825]},{"type":"Point","properties":{"Station_ID":"WI-LC-1","Station_Nam":"WEST SALEM 0.7 W, WI","Latitude":"43.89817","Longitude":"-91.09548","Snowdepth":"2.000","Units":"in","Rept_Date":"2019-11-28 13"},"coordinates":[1936,6118]},{"type":"Point","properties":{"Station_ID":"VT-WR-2","Station_Nam":"POMFRET 2.6 N, VT","Latitude":"43.74230","Longitude":"-72.52550","Snowdepth":"2.000","Units":"in","Rept_Date":"2019-11-28 12"},"coordinates":[7787,6041]},{"type":"Point","properties":{"Station_ID":"VT-OL-9","Station_Nam":"GREENSBORO 2.1 NNW, VT","Latitude":"44.60528","Longitude":"-72.30940","Snowdepth":"2.000","Units":"in","Rept_Date":"2019-11-28 12"},"coordinates":[7855,6469]},{"type":"Point","properties":{"Station_ID":"TX-LT-2","Station_Nam":"MEXIA 9.4 SSE, TX","Latitude":"31.55614","Longitude":"-96.42510","Snowdepth":"2.000","Units":"in","Rept_Date":"2019-11-28 11"},"coordinates":[256,0]},{"type":"Point","properties":{"Station_ID":"SWEI4","Station_Nam":"SWEA CITY,IA","Latitude":"43.38530","Longitude":"-94.25000","Snowdepth":"2.000","Units":"in","Rept_Date":"2019-11-28 12"},"coordinates":[942,5864]},{"type":"Point","properties":{"Station_ID":"SUTV1","Station_Nam":"SUTTON","Latitude":"44.61220","Longitude":"-72.04810","Snowdepth":"2.000","Units":"in","Rept_Date":"2019-11-28 13"},"coordinates":[7938,6472]},{"type":"Point","properties":{"Station_ID":"STRW3","Station_Nam":"STRATFORD 1NW","Latitude":"44.81750","Longitude":"-90.08990","Snowdepth":"2.000","Units":"in","Rept_Date":"2019-11-28 12"},"coordinates":[2253,6574]},{"type":"Point","properties":{"Station_ID":"SJBV1","Station_Nam":"SAINT JOHNSBURY","Latitude":"44.42000","Longitude":"-72.01940","Snowdepth":"2.000","Units":"in","Rept_Date":"2019-11-28 21"},"coordinates":[7947,6377]},{"type":"Point","properties":{"Station_ID":"RKWI4","Station_Nam":"ROCKWELL CITY,IA","Latitude":"42.40000","Longitude":"-94.61670","Snowdepth":"2.000","Units":"in","Rept_Date":"2019-11-28 13"},"coordinates":[826,5375]},{"type":"Point","properties":{"Station_ID":"PTBN3","Station_Nam":"DAM WITHIN","Latitude":"45.05000","Longitude":"-71.38330","Snowdepth":"2.000","Units":"in","Rept_Date":"2019-11-28 12"},"coordinates":[8147,6689]},{"type":"Point","properties":{"Station_ID":"PLOW3","Station_Nam":"PLOVER","Latitude":"44.44280","Longitude":"-89.54530","Snowdepth":"2.000","Units":"in","Rept_Date":"2019-11-28 13"},"coordinates":[2424,6388]},{"type":"Point","properties":{"Station_ID":"PLFV1","Station_Nam":"PLAINFIELD","Latitude":"44.27610","Longitude":"-72.41500","Snowdepth":"2.000","Units":"in","Rept_Date":"2019-11-28 12"},"coordinates":[7822,6306]},{"type":"Point","properties":{"Station_ID":"NY-WR-10","Station_Nam":"WARRENSBURG 2.1 WNW, NY","Latitude":"43.51784","Longitude":"-73.81069","Snowdepth":"2.000","Units":"in","Rept_Date":"2019-11-28 13"},"coordinates":[7382,5930]},{"type":"Point","properties":{"Station_ID":"NY-SR-22","Station_Nam":"GREENFIELD CENTER 1.6 W, NY","Latitude":"43.12684","Longitude":"-73.87860","Snowdepth":"2.000","Units":"in","Rept_Date":"2019-11-28 13"},"coordinates":[7361,5736]},{"type":"Point","properties":{"Station_ID":"NE-DD-3","Station_Nam":"FREMONT 0.6 S, NE","Latitude":"41.43141","Longitude":"-96.49210","Snowdepth":"2.000","Units":"in","Rept_Date":"2019-11-28 13"},"coordinates":[235,4895]},{"type":"Point","properties":{"Station_ID":"MRQM4","Station_Nam":"MARQUETTE WFP","Latitude":"46.54580","Longitude":"-87.37950","Snowdepth":"2.000","Units":"in","Rept_Date":"2019-11-28 13"},"coordinates":[3107,7431]},{"type":"Point","properties":{"Station_ID":"MPTI4","Station_Nam":"NO.2","Latitude":"42.16670","Longitude":"-95.78330","Snowdepth":"2.000","Units":"in","Rept_Date":"2019-11-28 13"},"coordinates":[459,5260]},{"type":"Point","properties":{"Station_ID":"MN-GH-3","Station_Nam":"LAKE CITY 1.2 NNW, MN","Latitude":"44.45597","Longitude":"-92.29070","Snowdepth":"2.000","Units":"in","Rept_Date":"2019-11-28 13"},"coordinates":[1559,6395]},{"type":"Point","properties":{"Station_ID":"MIAM5","Station_Nam":"MILAN 1NW","Latitude":"45.12190","Longitude":"-95.92690","Snowdepth":"2.000","Units":"in","Rept_Date":"2019-11-29 00"},"coordinates":[413,6725]},{"type":"Point","properties":{"Station_ID":"MATW3","Station_Nam":"MATHER 3NW","Latitude":"44.17460","Longitude":"-90.34820","Snowdepth":"2.000","Units":"in","Rept_Date":"2019-11-28 13"},"coordinates":[2171,6255]},{"type":"Point","properties":{"Station_ID":"LSNW3","Station_Nam":"LA CROSSE SNOW","Latitude":"43.86220","Longitude":"-91.26660","Snowdepth":"2.000","Units":"in","Rept_Date":"2019-11-28 18"},"coordinates":[1882,6100]},{"type":"Point","properties":{"Station_ID":"LSE","Station_Nam":"LA CROSSE MUNICIPAL AIRPORT","Latitude":"43.87920","Longitude":"-91.25610","Snowdepth":"2.000","Units":"in","Rept_Date":"2019-11-29 00"},"coordinates":[1885,6109]},{"type":"Point","properties":{"Station_ID":"LBRM5","Station_Nam":"LAKE BRONSON DAM","Latitude":"48.72410","Longitude":"-96.62180","Snowdepth":"2.000","Units":"in","Rept_Date":"2019-11-28 14"},"coordinates":[194,8510]},{"type":"Point","properties":{"Station_ID":"HOKM5","Station_Nam":"HOKAH 4NW","Latitude":"43.79560","Longitude":"-91.42640","Snowdepth":"2.000","Units":"in","Rept_Date":"2019-11-28 13"},"coordinates":[1831,6067]},{"type":"Point","properties":{"Station_ID":"GRBM5","Station_Nam":"GRAND RAPIDS 12N","Latitude":"47.39800","Longitude":"-93.51330","Snowdepth":"2.000","Units":"in","Rept_Date":"2019-11-28 14"},"coordinates":[1174,7853]},{"type":"Point","properties":{"Station_ID":"GILV1","Station_Nam":"GILMAN","Latitude":"44.41120","Longitude":"-71.71860","Snowdepth":"2.000","Units":"in","Rept_Date":"2019-11-28 12"},"coordinates":[8042,6372]},{"type":"Point","properties":{"Station_ID":"GENW3","Station_Nam":"GENOA DAM 8","Latitude":"43.57050","Longitude":"-91.22950","Snowdepth":"2.000","Units":"in","Rept_Date":"2019-11-28 14"},"coordinates":[1894,5956]},{"type":"Point","properties":{"Station_ID":"FLDM5","Station_Nam":"FLOODWOOD,MN","Latitude":"47.00000","Longitude":"-92.91670","Snowdepth":"2.000","Units":"in","Rept_Date":"2019-11-28 14"},"coordinates":[1362,7656]},{"type":"Point","properties":{"Station_ID":"ELMI4","Station_Nam":"ELMA IOWA","Latitude":"43.24190","Longitude":"-92.44330","Snowdepth":"2.000","Units":"in","Rept_Date":"2019-11-28 13"},"coordinates":[1511,5793]},{"type":"Point","properties":{"Station_ID":"DGTM4","Station_Nam":"DAGGETT","Latitude":"45.46800","Longitude":"-87.68360","Snowdepth":"2.000","Units":"in","Rept_Date":"2019-11-28 13"},"coordinates":[3011,6896]},{"type":"Point","properties":{"Station_ID":"DAKI4","Station_Nam":"RIVER","Latitude":"42.72390","Longitude":"-94.19170","Snowdepth":"2.000","Units":"in","Rept_Date":"2019-11-28 14"},"coordinates":[960,5536]},{"type":"Point","properties":{"Station_ID":"CORV1","Station_Nam":"CORINTH","Latitude":"44.00690","Longitude":"-72.31940","Snowdepth":"2.000","Units":"in","Rept_Date":"2019-11-28 12"},"coordinates":[7852,6172]},{"type":"Point","properties":{"Station_ID":"CAN-MB-63","Station_Nam":"STEINBACH 0.8 SSE, CA","Latitude":"49.51964","Longitude":"-96.67940","Snowdepth":"2.000","Units":"in","Rept_Date":"2019-11-28 13"},"coordinates":[176,8905]},{"type":"Point","properties":{"Station_ID":"BRCM5","Station_Nam":"BRICELYN","Latitude":"43.54400","Longitude":"-93.84230","Snowdepth":"2.000","Units":"in","Rept_Date":"2019-11-28 13"},"coordinates":[1070,5943]},{"type":"Point","properties":{"Station_ID":"ALMW3","Station_Nam":"ALMA DAM 4","Latitude":"44.32710","Longitude":"-91.91940","Snowdepth":"2.000","Units":"in","Rept_Date":"2019-11-28 14"},"coordinates":[1676,6331]},{"type":"Point","properties":{"Station_ID":"WI-VR-6","Station_Nam":"STODDARD 0.1 SW, WI","Latitude":"43.66050","Longitude":"-91.21930","Snowdepth":"1.500","Units":"in","Rept_Date":"2019-11-28 13"},"coordinates":[1897,6000]},{"type":"Point","properties":{"Station_ID":"VT-WS-19","Station_Nam":"WATERBURY 3.0 NW, VT","Latitude":"44.36060","Longitude":"-72.80770","Snowdepth":"1.500","Units":"in","Rept_Date":"2019-11-28 11"},"coordinates":[7698,6347]},{"type":"Point","properties":{"Station_ID":"VT-OG-11","Station_Nam":"VERSHIRE 1.5 ESE, VT","Latitude":"43.96138","Longitude":"-72.29777","Snowdepth":"1.500","Units":"in","Rept_Date":"2019-11-28 10"},"coordinates":[7859,6150]},{"type":"Point","properties":{"Station_ID":"MN-IT-11","Station_Nam":"NASHWAUK 11.5 N, MN","Latitude":"47.54496","Longitude":"-93.19420","Snowdepth":"1.500","Units":"in","Rept_Date":"2019-11-28 13"},"coordinates":[1274,7926]},{"type":"Point","properties":{"Station_ID":"MN-IT-1","Station_Nam":"GRAND RAPIDS 2.0 E, MN","Latitude":"47.22266","Longitude":"-93.49600","Snowdepth":"1.500","Units":"in","Rept_Date":"2019-11-28 15"},"coordinates":[1179,7766]},{"type":"Point","properties":{"Station_ID":"MN-BM-15","Station_Nam":"BEMIDJI 7.8 ENE, MN","Latitude":"47.52043","Longitude":"-94.72121","Snowdepth":"1.500","Units":"in","Rept_Date":"2019-11-28 13"},"coordinates":[793,7914]},{"type":"Point","properties":{"Station_ID":"LANC007","Station_Nam":"DAVEY 1.2 NNW, NE","Latitude":"41.00320","Longitude":"-96.67630","Snowdepth":"1.500","Units":"in","Rept_Date":"2019-11-28 13"},"coordinates":[177,4683]},{"type":"Point","properties":{"Station_ID":"CAN-NB-98","Station_Nam":"HOYT 4.2 S, CAN","Latitude":"45.54763","Longitude":"-66.55440","Snowdepth":"1.300","Units":"in","Rept_Date":"2019-11-28 10"},"coordinates":[9669,6936]},{"type":"Point","properties":{"Station_ID":"CAN-NB-5","Station_Nam":"OAK POINT 0.9 SSW, CA","Latitude":"45.50752","Longitude":"-66.09860","Snowdepth":"1.200","Units":"in","Rept_Date":"2019-11-28 13"},"coordinates":[9813,6916]},{"type":"Point","properties":{"Station_ID":"WIRW3","Station_Nam":"WIS RAPIDS GRAND AV B","Latitude":"44.39940","Longitude":"-89.83050","Snowdepth":"1.000","Units":"in","Rept_Date":"2019-11-28 13"},"coordinates":[2334,6367]},{"type":"Point","properties":{"Station_ID":"WI-VR-2","Station_Nam":"VIROQUA 0.8 ESE, WI","Latitude":"43.55304","Longitude":"-90.87100","Snowdepth":"1.000","Units":"in","Rept_Date":"2019-11-28 13"},"coordinates":[2007,5947]},{"type":"Point","properties":{"Station_ID":"WEBI4","Station_Nam":"WEBSTER CITY,IA","Latitude":"42.46670","Longitude":"-93.80000","Snowdepth":"1.000","Units":"in","Rept_Date":"2019-11-28 13"},"coordinates":[1084,5409]},{"type":"Point","properties":{"Station_ID":"VT-OL-2","Station_Nam":"BARTON 3.0 ENE, VT","Latitude":"44.75863","Longitude":"-72.11680","Snowdepth":"1.000","Units":"in","Rept_Date":"2019-11-28 12"},"coordinates":[7916,6545]},{"type":"Point","properties":{"Station_ID":"VT-LM-7","Station_Nam":"HYDE PARK 2.9 NE, VT","Latitude":"44.62080","Longitude":"-72.57250","Snowdepth":"1.000","Units":"in","Rept_Date":"2019-11-28 13"},"coordinates":[7773,6476]},{"type":"Point","properties":{"Station_ID":"VT-CL-18","Station_Nam":"WHEELOCK 1.6 S, VT","Latitude":"44.56491","Longitude":"-72.08830","Snowdepth":"1.000","Units":"in","Rept_Date":"2019-11-28 12"},"coordinates":[7925,6449]},{"type":"Point","properties":{"Station_ID":"VT-CH-4","Station_Nam":"UNDERHILL 4.4 NNE, VT","Latitude":"44.58774","Longitude":"-72.92250","Snowdepth":"1.000","Units":"in","Rept_Date":"2019-11-28 12"},"coordinates":[7662,6460]},{"type":"Point","properties":{"Station_ID":"VT-CH-38","Station_Nam":"WILLISTON 0.2 WSW, VT","Latitude":"44.43669","Longitude":"-73.07154","Snowdepth":"1.000","Units":"in","Rept_Date":"2019-11-28 13"},"coordinates":[7615,6385]},{"type":"Point","properties":{"Station_ID":"VT-CH-13","Station_Nam":"RICHMOND 3.4 SSE, VT","Latitude":"44.36084","Longitude":"-72.96400","Snowdepth":"1.000","Units":"in","Rept_Date":"2019-11-28 12"},"coordinates":[7649,6348]},{"type":"Point","properties":{"Station_ID":"VT-CH-11","Station_Nam":"UNDERHILL 5.1 NNE, VT","Latitude":"44.59811","Longitude":"-72.91880","Snowdepth":"1.000","Units":"in","Rept_Date":"2019-11-28 13"},"coordinates":[7663,6465]},{"type":"Point","properties":{"Station_ID":"VT-AD-20","Station_Nam":"HANCOCK 0.3 S, VT","Latitude":"43.92166","Longitude":"-72.84042","Snowdepth":"1.000","Units":"in","Rept_Date":"2019-11-28 12"},"coordinates":[7688,6130]},{"type":"Point","properties":{"Station_ID":"TREW3","Station_Nam":"DAM 6","Latitude":"43.99970","Longitude":"-91.43580","Snowdepth":"1.000","Units":"in","Rept_Date":"2019-11-28 14"},"coordinates":[1829,6168]},{"type":"Point","properties":{"Station_ID":"STDW3","Station_Nam":"STODDARD","Latitude":"43.66020","Longitude":"-91.21930","Snowdepth":"1.000","Units":"in","Rept_Date":"2019-11-28 13"},"coordinates":[1897,6000]},{"type":"Point","properties":{"Station_ID":"SRTW3","Station_Nam":"SPARTA","Latitude":"43.93650","Longitude":"-90.81630","Snowdepth":"1.000","Units":"in","Rept_Date":"2019-11-28 14"},"coordinates":[2024,6137]},{"type":"Point","properties":{"Station_ID":"SEBM5","Station_Nam":"SEBEKA","Latitude":"46.62540","Longitude":"-95.09670","Snowdepth":"1.000","Units":"in","Rept_Date":"2019-11-28 13"},"coordinates":[675,7470]},{"type":"Point","properties":{"Station_ID":"PITW3","Station_Nam":"PITTSVILLE-WWTP","Latitude":"44.43690","Longitude":"-90.13170","Snowdepth":"1.000","Units":"in","Rept_Date":"2019-11-28 13"},"coordinates":[2239,6385]},{"type":"Point","properties":{"Station_ID":"ORAN3","Station_Nam":"ORANGE","Latitude":"43.66880","Longitude":"-71.94830","Snowdepth":"1.000","Units":"in","Rept_Date":"2019-11-28 12"},"coordinates":[7969,6004]},{"type":"Point","properties":{"Station_ID":"OAXN1","Station_Nam":"VALLEY 1WNW","Latitude":"41.31970","Longitude":"-96.36720","Snowdepth":"1.000","Units":"in","Rept_Date":"2019-11-29 06"},"coordinates":[275,4840]},{"type":"Point","properties":{"Station_ID":"OAX","Station_Nam":"OMAHA, NE","Latitude":"41.32000","Longitude":"-96.36670","Snowdepth":"1.000","Units":"in","Rept_Date":"2019-11-29 00"},"coordinates":[275,4840]},{"type":"Point","properties":{"Station_ID":"NY-FK-9","Station_Nam":"GABRIELS 1.3 SE, NY","Latitude":"44.41934","Longitude":"-74.16194","Snowdepth":"1.000","Units":"in","Rept_Date":"2019-11-28 12"},"coordinates":[7272,6377]},{"type":"Point","properties":{"Station_ID":"NY-DL-28","Station_Nam":"FLEISCHMANNS 5.7 N, NY","Latitude":"42.23779","Longitude":"-74.52335","Snowdepth":"1.000","Units":"in","Rept_Date":"2019-11-28 12"},"coordinates":[7158,5295]},{"type":"Point","properties":{"Station_ID":"NVLV1","Station_Nam":"NASHVILLE","Latitude":"44.44970","Longitude":"-72.92640","Snowdepth":"1.000","Units":"in","Rept_Date":"2019-11-28 12"},"coordinates":[7661,6392]},{"type":"Point","properties":{"Station_ID":"NUNV1","Station_Nam":"NORTH UNDERHILL","Latitude":"44.58760","Longitude":"-72.92150","Snowdepth":"1.000","Units":"in","Rept_Date":"2019-11-28 12"},"coordinates":[7663,6460]},{"type":"Point","properties":{"Station_ID":"NE-WS-4","Station_Nam":"BLAIR 0.9 NNW, NE","Latitude":"41.55589","Longitude":"-96.14612","Snowdepth":"1.000","Units":"in","Rept_Date":"2019-11-28 14"},"coordinates":[344,4957]},{"type":"Point","properties":{"Station_ID":"MTQM4","Station_Nam":"MANISTIQUE WWTP","Latitude":"45.95120","Longitude":"-86.25130","Snowdepth":"1.000","Units":"in","Rept_Date":"2019-11-28 12"},"coordinates":[3462,7136]},{"type":"Point","properties":{"Station_ID":"MN-IT-10","Station_Nam":"DEER RIVER 3.7 W, MN","Latitude":"47.33564","Longitude":"-93.87514","Snowdepth":"1.000","Units":"in","Rept_Date":"2019-11-28 14"},"coordinates":[1060,7822]},{"type":"Point","properties":{"Station_ID":"MI-BZ-1","Station_Nam":"BENZONIA 5.3 S, MI","Latitude":"44.53976","Longitude":"-86.10650","Snowdepth":"1.000","Units":"in","Rept_Date":"2019-11-28 12"},"coordinates":[3508,6436]},{"type":"Point","properties":{"Station_ID":"ME-WL-8","Station_Nam":"WINTERPORT 2.9 N, ME","Latitude":"44.69369","Longitude":"-68.84800","Snowdepth":"1.000","Units":"in","Rept_Date":"2019-11-28 12"},"coordinates":[8946,6513]},{"type":"Point","properties":{"Station_ID":"MAUW3","Station_Nam":"MAUSTON 1SE","Latitude":"43.78990","Longitude":"-90.05970","Snowdepth":"1.000","Units":"in","Rept_Date":"2019-11-28 14"},"coordinates":[2262,6064]},{"type":"Point","properties":{"Station_ID":"MALN6","Station_Nam":"MALONE","Latitude":"44.84180","Longitude":"-74.30600","Snowdepth":"1.000","Units":"in","Rept_Date":"2019-11-28 12"},"coordinates":[7226,6586]},{"type":"Point","properties":{"Station_ID":"LOGI4","Station_Nam":"LOGAN,IA","Latitude":"41.63330","Longitude":"-95.81670","Snowdepth":"1.000","Units":"in","Rept_Date":"2019-11-28 13"},"coordinates":[448,4995]},{"type":"Point","properties":{"Station_ID":"LNK","Station_Nam":"LINCOLN MUNICIPAL AIRPORT","Latitude":"40.85080","Longitude":"-96.75920","Snowdepth":"1.000","Units":"in","Rept_Date":"2019-11-29 00"},"coordinates":[151,4608]},{"type":"Point","properties":{"Station_ID":"LCRM5","Station_Nam":"LA CRESCENT DAM 7","Latitude":"43.86560","Longitude":"-91.31000","Snowdepth":"1.000","Units":"in","Rept_Date":"2019-11-28 14"},"coordinates":[1868,6102]},{"type":"Point","properties":{"Station_ID":"LCFW3","Station_Nam":"LA CROSSE 4NNW","Latitude":"43.86690","Longitude":"-91.27250","Snowdepth":"1.000","Units":"in","Rept_Date":"2019-11-28 13"},"coordinates":[1880,6103]},{"type":"Point","properties":{"Station_ID":"LAFW3","Station_Nam":"LA FARGE","Latitude":"43.57340","Longitude":"-90.63200","Snowdepth":"1.000","Units":"in","Rept_Date":"2019-11-28 13"},"coordinates":[2082,5957]},{"type":"Point","properties":{"Station_ID":"KBTV","Station_Nam":"BURLINGTON INTERNATIONAL","Latitude":"44.46666","Longitude":"-73.15000","Snowdepth":"1.000","Units":"in","Rept_Date":"2019-11-29 05"},"coordinates":[7591,6400]},{"type":"Point","properties":{"Station_ID":"KBGR","Station_Nam":"BANGOR INTL AIRPORT","Latitude":"44.80000","Longitude":"-68.81666","Snowdepth":"1.000","Units":"in","Rept_Date":"2019-11-29 00"},"coordinates":[8956,6565]},{"type":"Point","properties":{"Station_ID":"JOHV1","Station_Nam":"JOHNSON 2 N","Latitude":"44.65790","Longitude":"-72.67850","Snowdepth":"1.000","Units":"in","Rept_Date":"2019-11-28 12"},"coordinates":[7739,6495]},{"type":"Point","properties":{"Station_ID":"IWAI4","Station_Nam":"IOWA FALLS,IA","Latitude":"42.53330","Longitude":"-93.26670","Snowdepth":"1.000","Units":"in","Rept_Date":"2019-11-28 13"},"coordinates":[1252,5442]},{"type":"Point","properties":{"Station_ID":"IONI4","Station_Nam":"IONIA 2W","Latitude":"43.03360","Longitude":"-92.50180","Snowdepth":"1.000","Units":"in","Rept_Date":"2019-11-28 13"},"coordinates":[1493,5690]},{"type":"Point","properties":{"Station_ID":"IA-WH-1","Station_Nam":"DECORAH 7.9 ENE, IA","Latitude":"43.34391","Longitude":"-91.64430","Snowdepth":"1.000","Units":"in","Rept_Date":"2019-11-28 14"},"coordinates":[1763,5843]},{"type":"Point","properties":{"Station_ID":"IA-HR-16","Station_Nam":"LOGAN 0.8 WNW, IA","Latitude":"41.65000","Longitude":"-95.80577","Snowdepth":"1.000","Units":"in","Rept_Date":"2019-11-28 13"},"coordinates":[452,5004]},{"type":"Point","properties":{"Station_ID":"HYTS2","Station_Nam":"HAYTI 1W","Latitude":"44.66330","Longitude":"-97.22670","Snowdepth":"1.000","Units":"in","Rept_Date":"2019-11-28 14"},"coordinates":[4,6497]},{"type":"Point","properties":{"Station_ID":"HRTM1","Station_Nam":"HARTFORD","Latitude":"44.37440","Longitude":"-70.31620","Snowdepth":"1.000","Units":"in","Rept_Date":"2019-11-28 12"},"coordinates":[8484,6354]},{"type":"Point","properties":{"Station_ID":"GRAN1","Station_Nam":"GRETNA,NE","Latitude":"41.20000","Longitude":"-96.20000","Snowdepth":"1.000","Units":"in","Rept_Date":"2019-11-28 13"},"coordinates":[327,4781]},{"type":"Point","properties":{"Station_ID":"FSDS2","Station_Nam":"SIOUX FALLS NWS WFO AP","Latitude":"43.58780","Longitude":"-96.73000","Snowdepth":"1.000","Units":"in","Rept_Date":"2019-11-29 06"},"coordinates":[160,5964]},{"type":"Point","properties":{"Station_ID":"FSD","Station_Nam":"SIOUX FALLS, SD","Latitude":"43.58750","Longitude":"-96.72940","Snowdepth":"1.000","Units":"in","Rept_Date":"2019-11-28 13"},"coordinates":[160,5964]},{"type":"Point","properties":{"Station_ID":"FRSW3","Station_Nam":"FRIENDSHIP","Latitude":"43.97500","Longitude":"-89.83080","Snowdepth":"1.000","Units":"in","Rept_Date":"2019-11-28 13"},"coordinates":[2334,6156]},{"type":"Point","properties":{"Station_ID":"FLAM4","Station_Nam":"FIFE LAKE 2WNW","Latitude":"44.58480","Longitude":"-85.36530","Snowdepth":"1.000","Units":"in","Rept_Date":"2019-11-28 12"},"coordinates":[3741,6459]},{"type":"Point","properties":{"Station_ID":"DWSM5","Station_Nam":"DAWSON","Latitude":"44.93180","Longitude":"-96.04500","Snowdepth":"1.000","Units":"in","Rept_Date":"2019-11-28 13"},"coordinates":[376,6631]},{"type":"Point","properties":{"Station_ID":"DHMM1","Station_Nam":"DEDHAM","Latitude":"44.67880","Longitude":"-68.63560","Snowdepth":"1.000","Units":"in","Rept_Date":"2019-11-28 12"},"coordinates":[9013,6505]},{"type":"Point","properties":{"Station_ID":"DCRI4","Station_Nam":"DECORAH","Latitude":"43.30430","Longitude":"-91.79520","Snowdepth":"1.000","Units":"in","Rept_Date":"2019-11-29 00"},"coordinates":[1715,5824]},