{"type":"Topology","objects":{"snowdepth_geo":{"type":"GeometryCollection","name":"snowdepth","crs":{"type":"name","properties":{"name":"urn:ogc:def:crs:OGC:1.3:CRS84"}},"geometries":[{"type":"Point","properties":{"Station_ID":"PRKM4","Station_Nam":"MUNISING EAST","Latitude":"46.42580","Longitude":"-86.62000","Snowdepth":"76.500","Units":"in","Rept_Date":"2020-01-23 06"},"coordinates":[2492,6953]},{"type":"Point","properties":{"Station_ID":"OGIQ6","Station_Nam":"OGOKI CAMP","Latitude":"50.76680","Longitude":"-87.85820","Snowdepth":"61.100","Units":"in","Rept_Date":"2020-01-23 06"},"coordinates":[2202,9447]},{"type":"Point","properties":{"Station_ID":"PDLM4","Station_Nam":"PAINESDALE","Latitude":"47.04160","Longitude":"-88.67170","Snowdepth":"47.000","Units":"in","Rept_Date":"2020-01-22 13"},"coordinates":[2011,7307]},{"type":"Point","properties":{"Station_ID":"KSGM4","Station_Nam":"KEARSARGE","Latitude":"47.27520","Longitude":"-88.41700","Snowdepth":"45.000","Units":"in","Rept_Date":"2020-01-22 13"},"coordinates":[2070,7441]},{"type":"Point","properties":{"Station_ID":"WLFM5","Station_Nam":"WOLF RIDGE ENVIRON LEARNING CENTER","Latitude":"47.38240","Longitude":"-91.19730","Snowdepth":"44.000","Units":"in","Rept_Date":"2020-01-22 13"},"coordinates":[1418,7502]},{"type":"Point","properties":{"Station_ID":"TTCM5","Station_Nam":"TETTEGOUCHE CAMP","Latitude":"47.34710","Longitude":"-91.26090","Snowdepth":"42.000","Units":"in","Rept_Date":"2020-01-22 14"},"coordinates":[1403,7482]},{"type":"Point","properties":{"Station_ID":"HTLN3","Station_Nam":"HERMIT LAKE SNOWPLOT","Latitude":"44.26130","Longitude":"-71.28330","Snowdepth":"41.000","Units":"in","Rept_Date":"2020-01-22 10"},"coordinates":[6092,5709]},{"type":"Point","properties":{"Station_ID":"MMNV1","Station_Nam":"MT. MANSFIELD","Latitude":"44.52480","Longitude":"-72.81540","Snowdepth":"40.000","Units":"in","Rept_Date":"2020-01-22 21"},"coordinates":[5732,5860]},{"type":"Point","properties":{"Station_ID":"IBLM5","Station_Nam":"ISABELLA 14W","Latitude":"47.59360","Longitude":"-91.65140","Snowdepth":"40.000","Units":"in","Rept_Date":"2020-01-22 15"},"coordinates":[1311,7624]},{"type":"Point","properties":{"Station_ID":"ILIM5","Station_Nam":"ISLAND LAKE","Latitude":"47.02400","Longitude":"-92.07000","Snowdepth":"34.000","Units":"in","Rept_Date":"2020-01-22 15"},"coordinates":[1213,7296]},{"type":"Point","properties":{"Station_ID":"QGO","Station_Nam":"QGO","Latitude":"48.85500","Longitude":"-74.20640","Snowdepth":"33.386","Units":"in","Rept_Date":"2020-01-22 12"},"coordinates":[5405,8349]},{"type":"Point","properties":{"Station_ID":"QNCM4","Station_Nam":"QUINCY HILL","Latitude":"47.13640","Longitude":"-88.57950","Snowdepth":"33.000","Units":"in","Rept_Date":"2020-01-22 12"},"coordinates":[2032,7361]},{"type":"Point","properties":{"Station_ID":"MQT","Station_Nam":"MARQUETTE, MI","Latitude":"46.53140","Longitude":"-87.54920","Snowdepth":"33.000","Units":"in","Rept_Date":"2020-01-23 06"},"coordinates":[2274,7013]},{"type":"Point","properties":{"Station_ID":"HVCN3","Station_Nam":"HARVARD CABIN SNOWPLOT","Latitude":"44.26630","Longitude":"-71.27790","Snowdepth":"32.000","Units":"in","Rept_Date":"2020-01-22 11"},"coordinates":[6093,5712]},{"type":"Point","properties":{"Station_ID":"MI-BG-3","Station_Nam":"L'ANSE 17.8 SE, MI","Latitude":"46.55730","Longitude":"-88.20770","Snowdepth":"31.500","Units":"in","Rept_Date":"2020-01-22 13"},"coordinates":[2119,7028]},{"type":"Point","properties":{"Station_ID":"MAIW3","Station_Nam":"MADELINE ISLAND","Latitude":"46.78330","Longitude":"-90.76670","Snowdepth":"31.000","Units":"in","Rept_Date":"2020-01-22 14"},"coordinates":[1519,7158]},{"type":"Point","properties":{"Station_ID":"QOU","Station_Nam":"QOU","Latitude":"50.79250","Longitude":"-69.67470","Snowdepth":"30.984","Units":"in","Rept_Date":"2020-01-22 12"},"coordinates":[6469,9462]},{"type":"Point","properties":{"Station_ID":"CAN-NL-82","Station_Nam":"GANDER 2.7 NW, CAN","Latitude":"48.97737","Longitude":"-54.63396","Snowdepth":"30.700","Units":"in","Rept_Date":"2020-01-22 10"},"coordinates":[9999,8419]},{"type":"Point","properties":{"Station_ID":"QWE","Station_Nam":"QWE","Latitude":"47.84610","Longitude":"-73.80670","Snowdepth":"30.236","Units":"in","Rept_Date":"2020-01-22 12"},"coordinates":[5499,7769]},{"type":"Point","properties":{"Station_ID":"TOGM5","Station_Nam":"CELINA 2E","Latitude":"47.86630","Longitude":"-93.02660","Snowdepth":"30.000","Units":"in","Rept_Date":"2020-01-22 14"},"coordinates":[989,7781]},{"type":"Point","properties":{"Station_ID":"LVDW3","Station_Nam":"LAC VIEUX DESERT","Latitude":"46.12110","Longitude":"-89.07580","Snowdepth":"30.000","Units":"in","Rept_Date":"2020-01-22 14"},"coordinates":[1916,6778]},{"type":"Point","properties":{"Station_ID":"BABM5","Station_Nam":"BABBITT","Latitude":"47.71210","Longitude":"-91.95330","Snowdepth":"30.000","Units":"in","Rept_Date":"2020-01-22 13"},"coordinates":[1240,7692]},{"type":"Point","properties":{"Station_ID":"MN-SL-15","Station_Nam":"CHISHOLM 0.4 WSW, MN","Latitude":"47.48557","Longitude":"-92.88690","Snowdepth":"29.500","Units":"in","Rept_Date":"2020-01-22 13"},"coordinates":[1021,7562]},{"type":"Point","properties":{"Station_ID":"MN-CK-6","Station_Nam":"GRAND MARAIS 4.4 W, MN","Latitude":"47.74865","Longitude":"-90.43760","Snowdepth":"29.500","Units":"in","Rept_Date":"2020-01-22 13"},"coordinates":[1596,7713]},{"type":"Point","properties":{"Station_ID":"QCU","Station_Nam":"QCU","Latitude":"47.82750","Longitude":"-76.59830","Snowdepth":"29.055","Units":"in","Rept_Date":"2020-01-22 12"},"coordinates":[4844,7758]},{"type":"Point","properties":{"Station_ID":"NOHM5","Station_Nam":"NORTHOME","Latitude":"47.83590","Longitude":"-94.25550","Snowdepth":"29.000","Units":"in","Rept_Date":"2020-01-22 13"},"coordinates":[700,7763]},{"type":"Point","properties":{"Station_ID":"BBEM4","Station_Nam":"BIG BAY 9SW","Latitude":"46.74620","Longitude":"-87.88160","Snowdepth":"29.000","Units":"in","Rept_Date":"2020-01-22 13"},"coordinates":[2196,7137]},{"type":"Point","properties":{"Station_ID":"MLZ","Station_Nam":"MLZ","Latitude":"50.66170","Longitude":"-68.82360","Snowdepth":"28.976","Units":"in","Rept_Date":"2020-01-22 12"},"coordinates":[6669,9387]},{"type":"Point","properties":{"Station_ID":"MN-IT-23","Station_Nam":"BOVEY 13.4 N, MN","Latitude":"47.48855","Longitude":"-93.43497","Snowdepth":"28.500","Units":"in","Rept_Date":"2020-01-22 13"},"coordinates":[893,7563]},{"type":"Point","properties":{"Station_ID":"WTRW3","Station_Nam":"WINTER","Latitude":"45.79920","Longitude":"-90.99470","Snowdepth":"28.000","Units":"in","Rept_Date":"2020-01-22 15"},"coordinates":[1465,6593]},{"type":"Point","properties":{"Station_ID":"WRSM5","Station_Nam":"WRENSHALL","Latitude":"46.61550","Longitude":"-92.38380","Snowdepth":"28.000","Units":"in","Rept_Date":"2020-01-22 14"},"coordinates":[1139,7062]},{"type":"Point","properties":{"Station_ID":"STGW3","Station_Nam":"ST GERMAIN","Latitude":"45.91550","Longitude":"-89.48940","Snowdepth":"28.000","Units":"in","Rept_Date":"2020-01-22 12"},"coordinates":[1819,6659]},{"type":"Point","properties":{"Station_ID":"MNSM4","Station_Nam":"MUNISING","Latitude":"46.41210","Longitude":"-86.66250","Snowdepth":"28.000","Units":"in","Rept_Date":"2020-01-22 11"},"coordinates":[2482,6945]},{"type":"Point","properties":{"Station_ID":"MI-HG-6","Station_Nam":"CALUMET 5.8 ENE, MI","Latitude":"47.27200","Longitude":"-88.33400","Snowdepth":"28.000","Units":"in","Rept_Date":"2020-01-22 11"},"coordinates":[2090,7439]},{"type":"Point","properties":{"Station_ID":"LNOW3","Station_Nam":"LAND O LAKES","Latitude":"46.19000","Longitude":"-89.45700","Snowdepth":"28.000","Units":"in","Rept_Date":"2020-01-22 13"},"coordinates":[1826,6817]},{"type":"Point","properties":{"Station_ID":"HURW3","Station_Nam":"HURLEY","Latitude":"46.46250","Longitude":"-90.19550","Snowdepth":"28.000","Units":"in","Rept_Date":"2020-01-22 14"},"coordinates":[1653,6974]},{"type":"Point","properties":{"Station_ID":"CLQM5","Station_Nam":"CLOQUET","Latitude":"46.70470","Longitude":"-92.52530","Snowdepth":"28.000","Units":"in","Rept_Date":"2020-01-22 14"},"coordinates":[1106,7113]},{"type":"Point","properties":{"Station_ID":"QGD","Station_Nam":"QGD","Latitude":"51.11140","Longitude":"-67.13940","Snowdepth":"27.992","Units":"in","Rept_Date":"2020-01-22 12"},"coordinates":[7064,9645]},{"type":"Point","properties":{"Station_ID":"WI-VL-9","Station_Nam":"LAND O' LAKES 11.7 W, WI","Latitude":"46.19023","Longitude":"-89.45790","Snowdepth":"27.500","Units":"in","Rept_Date":"2020-01-22 13"},"coordinates":[1826,6817]},{"type":"Point","properties":{"Station_ID":"STEM4","Station_Nam":"STEUBEN","Latitude":"46.18530","Longitude":"-86.46410","Snowdepth":"27.000","Units":"in","Rept_Date":"2020-01-22 14"},"coordinates":[2529,6815]},{"type":"Point","properties":{"Station_ID":"MN-BM-14","Station_Nam":"SOLWAY 2.1 S, MN","Latitude":"47.49069","Longitude":"-95.12177","Snowdepth":"27.000","Units":"in","Rept_Date":"2020-01-22 14"},"coordinates":[497,7565]},{"type":"Point","properties":{"Station_ID":"MI-MQ-19","Station_Nam":"ISHPEMING 7.2 SW, MI","Latitude":"46.40550","Longitude":"-87.75670","Snowdepth":"27.000","Units":"in","Rept_Date":"2020-01-22 11"},"coordinates":[2225,6941]},{"type":"Point","properties":{"Station_ID":"ME-AR-18","Station_Nam":"NEW SWEDEN 4.9 NNW, ME","Latitude":"47.01080","Longitude":"-68.14390","Snowdepth":"27.000","Units":"in","Rept_Date":"2020-01-22 12"},"coordinates":[6828,7289]},{"type":"Point","properties":{"Station_ID":"KABM5","Station_Nam":"KABETOGAMA LAKE VISITOR CTR","Latitude":"48.40880","Longitude":"-93.04840","Snowdepth":"27.000","Units":"in","Rept_Date":"2020-01-22 13"},"coordinates":[983,8092]},{"type":"Point","properties":{"Station_ID":"ELYM5","Station_Nam":"ELY","Latitude":"47.90560","Longitude":"-91.82830","Snowdepth":"27.000","Units":"in","Rept_Date":"2020-01-22 16"},"coordinates":[1270,7803]},{"type":"Point","properties":{"Station_ID":"ELVM5","Station_Nam":"EVELETH,MN","Latitude":"47.46670","Longitude":"-92.56670","Snowdepth":"27.000","Units":"in","Rept_Date":"2020-01-22 13"},"coordinates":[1096,7551]},{"type":"Point","properties":{"Station_ID":"DLH","Station_Nam":"DULUTH, MN","Latitude":"46.83690","Longitude":"-92.21030","Snowdepth":"27.000","Units":"in","Rept_Date":"2020-01-23 00"},"coordinates":[1180,7189]},{"type":"Point","properties":{"Station_ID":"QLB","Station_Nam":"QLB","Latitude":"50.72360","Longitude":"-75.10000","Snowdepth":"26.811","Units":"in","Rept_Date":"2020-01-22 12"},"coordinates":[5196,9422]},{"type":"Point","properties":{"Station_ID":"WTRM4","Station_Nam":"WATERSMEET 12WSW","Latitude":"46.22310","Longitude":"-89.40850","Snowdepth":"26.000","Units":"in","Rept_Date":"2020-01-22 12"},"coordinates":[1838,6836]},{"type":"Point","properties":{"Station_ID":"WI-WB-2","Station_Nam":"STONE LAKE 2.0 NW, WI","Latitude":"45.85960","Longitude":"-91.57710","Snowdepth":"26.000","Units":"in","Rept_Date":"2020-01-22 13"},"coordinates":[1329,6627]},{"type":"Point","properties":{"Station_ID":"WI-BY-14","Station_Nam":"ASHLAND 9.8 W, WI","Latitude":"46.59742","Longitude":"-91.07856","Snowdepth":"26.000","Units":"in","Rept_Date":"2020-01-22 12"},"coordinates":[1446,7051]},{"type":"Point","properties":{"Station_ID":"PDGM4","Station_Nam":"PAULDING","Latitude":"46.39760","Longitude":"-89.17940","Snowdepth":"26.000","Units":"in","Rept_Date":"2020-01-22 14"},"coordinates":[1891,6937]},{"type":"Point","properties":{"Station_ID":"MN-CK-18","Station_Nam":"GRAND MARAIS 4.4 WSW, MN","Latitude":"47.74462","Longitude":"-90.43796","Snowdepth":"26.000","Units":"in","Rept_Date":"2020-01-22 13"},"coordinates":[1596,7711]},{"type":"Point","properties":{"Station_ID":"GMRM5","Station_Nam":"GRAND MARIAS WATER TREATMENT PLANT","Latitude":"47.75180","Longitude":"-90.32820","Snowdepth":"26.000","Units":"in","Rept_Date":"2020-01-22 14"},"coordinates":[1622,7715]},{"type":"Point","properties":{"Station_ID":"DLHM5","Station_Nam":"DULUTH NWS","Latitude":"46.83680","Longitude":"-92.21080","Snowdepth":"26.000","Units":"in","Rept_Date":"2020-01-23 06"},"coordinates":[1180,7189]},{"type":"Point","properties":{"Station_ID":"CGPM4","Station_Nam":"DOLLAR BAY","Latitude":"47.11670","Longitude":"-88.51370","Snowdepth":"26.000","Units":"in","Rept_Date":"2020-01-22 13"},"coordinates":[2048,7350]},{"type":"Point","properties":{"Station_ID":"BNDM5","Station_Nam":"ELY 25E","Latitude":"47.97190","Longitude":"-91.44860","Snowdepth":"26.000","Units":"in","Rept_Date":"2020-01-22 13"},"coordinates":[1359,7841]},{"type":"Point","properties":{"Station_ID":"PTLQ6","Station_Nam":"PORTAGE LAKE","Latitude":"49.06950","Longitude":"-86.65940","Snowdepth":"25.590","Units":"in","Rept_Date":"2020-01-23 06"},"coordinates":[2483,8472]},{"type":"Point","properties":{"Station_ID":"SVBQ6","Station_Nam":"SAVANT BASE","Latitude":"50.28730","Longitude":"-90.65670","Snowdepth":"25.040","Units":"in","Rept_Date":"2020-01-23 06"},"coordinates":[1545,9172]},{"type":"Point","properties":{"Station_ID":"SUAW3","Station_Nam":"SUAMICO","Latitude":"44.60190","Longitude":"-88.09780","Snowdepth":"25.000","Units":"in","Rept_Date":"2020-01-22 12"},"coordinates":[2145,5905]},{"type":"Point","properties":{"Station_ID":"NYMM5","Station_Nam":"NEW YORK MILLS","Latitude":"46.50920","Longitude":"-95.37990","Snowdepth":"25.000","Units":"in","Rept_Date":"2020-01-22 13"},"coordinates":[436,7001]},{"type":"Point","properties":{"Station_ID":"MN-IT-1","Station_Nam":"GRAND RAPIDS 2.0 E, MN","Latitude":"47.22266","Longitude":"-93.49600","Snowdepth":"25.000","Units":"in","Rept_Date":"2020-01-22 12"},"coordinates":[878,7411]},{"type":"Point","properties":{"Station_ID":"MN-BK-6","Station_Nam":"LAKE PARK 6.0 S, MN","Latitude":"46.79850","Longitude":"-96.12180","Snowdepth":"25.000","Units":"in","Rept_Date":"2020-01-22 13"},"coordinates":[262,7167]},{"type":"Point","properties":{"Station_ID":"MI-HG-1","Station_Nam":"HOUGHTON 1.6 ESE, MI","Latitude":"47.10774","Longitude":"-88.52940","Snowdepth":"25.000","Units":"in","Rept_Date":"2020-01-22 13"},"coordinates":[2044,7345]},{"type":"Point","properties":{"Station_ID":"INL","Station_Nam":"FALLS INTERNATIONAL ARPT","Latitude":"48.56640","Longitude":"-93.40310","Snowdepth":"25.000","Units":"in","Rept_Date":"2020-01-23 00"},"coordinates":[900,8183]},{"type":"Point","properties":{"Station_ID":"IFSM5","Station_Nam":"INTERNATIONAL FALLS SNOW","Latitude":"48.57780","Longitude":"-93.39640","Snowdepth":"25.000","Units":"in","Rept_Date":"2020-01-23 06"},"coordinates":[902,8189]},{"type":"Point","properties":{"Station_ID":"HERM4","Station_Nam":"HERMAN,MI","Latitude":"46.65000","Longitude":"-88.33330","Snowdepth":"25.000","Units":"in","Rept_Date":"2020-01-22 13"},"coordinates":[2090,7082]},{"type":"Point","properties":{"Station_ID":"EVRW3","Station_Nam":"EAGLE RIVER-4 E","Latitude":"45.91890","Longitude":"-89.15280","Snowdepth":"25.000","Units":"in","Rept_Date":"2020-01-22 12"},"coordinates":[1898,6661]},{"type":"Point","properties":{"Station_ID":"EMBM5","Station_Nam":"EMBARASS,MN","Latitude":"47.65810","Longitude":"-92.19580","Snowdepth":"25.000","Units":"in","Rept_Date":"2020-01-22 12"},"coordinates":[1184,7661]},{"type":"Point","properties":{"Station_ID":"CSLM5","Station_Nam":"CASS LAKE,MN","Latitude":"47.38470","Longitude":"-94.61470","Snowdepth":"25.000","Units":"in","Rept_Date":"2020-01-22 14"},"coordinates":[616,7504]},{"type":"Point","properties":{"Station_ID":"BRSW3","Station_Nam":"BRULE,WI","Latitude":"46.53780","Longitude":"-91.59190","Snowdepth":"25.000","Units":"in","Rept_Date":"2020-01-22 16"},"coordinates":[1325,7017]},{"type":"Point","properties":{"Station_ID":"KABQ6","Station_Nam":"CAB LAKE","Latitude":"49.59950","Longitude":"-89.17990","Snowdepth":"24.090","Units":"in","Rept_Date":"2020-01-23 06"},"coordinates":[1891,8776]},{"type":"Point","properties":{"Station_ID":"WI-BY-2","Station_Nam":"MELLEN 18.6 SW, WI","Latitude":"46.16937","Longitude":"-90.98090","Snowdepth":"24.000","Units":"in","Rept_Date":"2020-01-22 13"},"coordinates":[1469,6805]},{"type":"Point","properties":{"Station_ID":"TOHM5","Station_Nam":"TWO HARBORS WWTP","Latitude":"47.01760","Longitude":"-91.66480","Snowdepth":"24.000","Units":"in","Rept_Date":"2020-01-22 13"},"coordinates":[1308,7293]},{"type":"Point","properties":{"Station_ID":"PRDM4","Station_Nam":"PARADISE","Latitude":"46.60380","Longitude":"-85.03960","Snowdepth":"24.000","Units":"in","Rept_Date":"2020-01-22 11"},"coordinates":[2863,7055]},{"type":"Point","properties":{"Station_ID":"MI-GG-4","Station_Nam":"WATERSMEET 5.0 SE, MI","Latitude":"46.20333","Longitude":"-89.13170","Snowdepth":"24.000","Units":"in","Rept_Date":"2020-01-22 14"},"coordinates":[1903,6825]},{"type":"Point","properties":{"Station_ID":"MCLN8","Station_Nam":"MC LEOD,ND","Latitude":"46.40250","Longitude":"-97.23810","Snowdepth":"24.000","Units":"in","Rept_Date":"2020-01-22 15"},"coordinates":[0,6939]},{"type":"Point","properties":{"Station_ID":"HRVM4","Station_Nam":"HARVEY","Latitude":"46.49080","Longitude":"-87.35470","Snowdepth":"24.000","Units":"in","Rept_Date":"2020-01-22 12"},"coordinates":[2320,6990]},{"type":"Point","properties":{"Station_ID":"GLDM4","Station_Nam":"GLADSTONE NO. 2","Latitude":"45.84330","Longitude":"-87.03910","Snowdepth":"24.000","Units":"in","Rept_Date":"2020-01-22 12"},"coordinates":[2394,6618]},{"type":"Point","properties":{"Station_ID":"FLNW3","Station_Nam":"FLORENCE","Latitude":"45.93360","Longitude":"-88.25830","Snowdepth":"24.000","Units":"in","Rept_Date":"2020-01-22 13"},"coordinates":[2108,6670]},{"type":"Point","properties":{"Station_ID":"CRNM5","Station_Nam":"NW EXPERIMENT STN","Latitude":"47.80360","Longitude":"-96.61670","Snowdepth":"24.000","Units":"in","Rept_Date":"2020-01-22 14"},"coordinates":[146,7744]},{"type":"Point","properties":{"Station_ID":"CRLM5","Station_Nam":"CROSS LAKE DAM","Latitude":"46.66930","Longitude":"-94.11060","Snowdepth":"24.000","Units":"in","Rept_Date":"2020-01-22 14"},"coordinates":[734,7093]},{"type":"Point","properties":{"Station_ID":"CMKW3","Station_Nam":"CLAM LAKE 4W","Latitude":"46.16940","Longitude":"-90.98080","Snowdepth":"24.000","Units":"in","Rept_Date":"2020-01-22 13"},"coordinates":[1469,6805]},{"type":"Point","properties":{"Station_ID":"CAN-NS-39","Station_Nam":"ST. ANNS 2.8 NW, CA","Latitude":"46.25082","Longitude":"-60.64340","Snowdepth":"24.000","Units":"in","Rept_Date":"2020-01-22 11"},"coordinates":[8589,6852]},{"type":"Point","properties":{"Station_ID":"CAN-NB-105","Station_Nam":"SISSON BROOK 3.8 E, CAN","Latitude":"46.98305","Longitude":"-67.32532","Snowdepth":"24.000","Units":"in","Rept_Date":"2020-01-22 12"},"coordinates":[7020,7273]},{"type":"Point","properties":{"Station_ID":"DVLQ6","Station_Nam":"DEVIOUS LAKE","Latitude":"49.19890","Longitude":"-87.76440","Snowdepth":"23.620","Units":"in","Rept_Date":"2020-01-23 06"},"coordinates":[2224,8546]},{"type":"Point","properties":{"Station_ID":"QFT","Station_Nam":"QFT","Latitude":"50.83280","Longitude":"-74.40390","Snowdepth":"23.307","Units":"in","Rept_Date":"2020-01-22 12"},"coordinates":[5359,9485]},{"type":"Point","properties":{"Station_ID":"QTV","Station_Nam":"QTV","Latitude":"49.66000","Longitude":"-69.35690","Snowdepth":"23.268","Units":"in","Rept_Date":"2020-01-22 12"},"coordinates":[6544,8811]},{"type":"Point","properties":{"Station_ID":"WI-VL-14","Station_Nam":"BOULDER JUNCTION 1.4 NE, WI","Latitude":"46.12840","Longitude":"-89.62470","Snowdepth":"23.000","Units":"in","Rept_Date":"2020-01-22 13"},"coordinates":[1787,6782]},{"type":"Point","properties":{"Station_ID":"WI-DG-20","Station_Nam":"SOLON SPRINGS 1.2 W, WI","Latitude":"46.35217","Longitude":"-91.84405","Snowdepth":"23.000","Units":"in","Rept_Date":"2020-01-22 13"},"coordinates":[1266,6910]},{"type":"Point","properties":{"Station_ID":"RLWM5","Station_Nam":"CAMP NORRIS DNR","Latitude":"48.61000","Longitude":"-95.18170","Snowdepth":"23.000","Units":"in","Rept_Date":"2020-01-22 13"},"coordinates":[483,8208]},{"type":"Point","properties":{"Station_ID":"MN7TCHCK","Station_Nam":"COOK 0.2 ENE","Latitude":"47.85225","Longitude":"-92.68378","Snowdepth":"23.000","Units":"in","Rept_Date":"2020-01-22 12"},"coordinates":[1069,7772]},{"type":"Point","properties":{"Station_ID":"MN-SL-108","Station_Nam":"IRON JUNCTION 3.4 NNW, MN","Latitude":"47.46150","Longitude":"-92.63130","Snowdepth":"23.000","Units":"in","Rept_Date":"2020-01-22 13"},"coordinates":[1081,7548]},{"type":"Point","properties":{"Station_ID":"FEDM5","Station_Nam":"LEECH LAKE DAM","Latitude":"47.24670","Longitude":"-94.22280","Snowdepth":"23.000","Units":"in","Rept_Date":"2020-01-22 14"},"coordinates":[708,7424]},{"type":"Point","properties":{"Station_ID":"CRVW3","Station_Nam":"CRIVITZ HIGH FALLS","Latitude":"45.35750","Longitude":"-88.19190","Snowdepth":"23.000","Units":"in","Rept_Date":"2020-01-22 13"},"coordinates":[2123,6339]},{"type":"Point","properties":{"Station_ID":"COKM5","Station_Nam":"COOK","Latitude":"47.85060","Longitude":"-92.69250","Snowdepth":"23.000","Units":"in","Rept_Date":"2020-01-22 12"},"coordinates":[1067,7771]},{"type":"Point","properties":{"Station_ID":"MN-IT-7","Station_Nam":"GRAND RAPIDS 6.2 SSW, MN","Latitude":"47.13687","Longitude":"-93.56660","Snowdepth":"22.800","Units":"in","Rept_Date":"2020-01-22 12"},"coordinates":[862,7361]},{"type":"Point","properties":{"Station_ID":"QYR","Station_Nam":"QYR","Latitude":"48.87220","Longitude":"-75.61470","Snowdepth":"22.716","Units":"in","Rept_Date":"2020-01-22 12"},"coordinates":[5075,8359]},{"type":"Point","properties":{"Station_ID":"AUDQ6","Station_Nam":"AUDEN","Latitude":"48.52600","Longitude":"-82.57570","Snowdepth":"22.560","Units":"in","Rept_Date":"2020-01-23 06"},"coordinates":[3441,8160]},{"type":"Point","properties":{"Station_ID":"QMD","Station_Nam":"QMD","Latitude":"49.29060","Longitude":"-75.84500","Snowdepth":"22.244","Units":"in","Rept_Date":"2020-01-22 12"},"coordinates":[5021,8599]},{"type":"Point","properties":{"Station_ID":"QCX","Station_Nam":"QCX","Latitude":"51.32830","Longitude":"-70.08060","Snowdepth":"22.244","Units":"in","Rept_Date":"2020-01-22 12"},"coordinates":[6374,9770]},{"type":"Point","properties":{"Station_ID":"SBNM5","Station_Nam":"SABIN","Latitude":"46.77690","Longitude":"-96.65610","Snowdepth":"22.000","Units":"in","Rept_Date":"2020-01-22 13"},"coordinates":[137,7154]},{"type":"Point","properties":{"Station_ID":"ND-CS-1","Station_Nam":"WEST FARGO 3.8 SSE, ND","Latitude":"46.82750","Longitude":"-96.85280","Snowdepth":"22.000","Units":"in","Rept_Date":"2020-01-22 13"},"coordinates":[91,7184]},{"type":"Point","properties":{"Station_ID":"LNCM1","Station_Nam":"LINCOLN WATER DISTRICT","Latitude":"45.32410","Longitude":"-68.58300","Snowdepth":"22.000","Units":"in","Rept_Date":"2020-01-22 14"},"coordinates":[6725,6320]},{"type":"Point","properties":{"Station_ID":"IRMM4","Station_Nam":"WWTP","Latitude":"46.46670","Longitude":"-90.18330","Snowdepth":"22.000","Units":"in","Rept_Date":"2020-01-22 13"},"coordinates":[1656,6976]},{"type":"Point","properties":{"Station_ID":"FLDM5","Station_Nam":"FLOODWOOD,MN","Latitude":"47.00000","Longitude":"-92.91670","Snowdepth":"22.000","Units":"in","Rept_Date":"2020-01-22 14"},"coordinates":[1014,7283]},{"type":"Point","properties":{"Station_ID":"EGRW3","Station_Nam":"EAGLE RIVER-SOUTH","Latitude":"45.91360","Longitude":"-89.24360","Snowdepth":"22.000","Units":"in","Rept_Date":"2020-01-22 13"},"coordinates":[1876,6658]},{"type":"Point","properties":{"Station_ID":"CLKM4","Station_Nam":"CLARKSBURG","Latitude":"46.49910","Longitude":"-87.84500","Snowdepth":"22.000","Units":"in","Rept_Date":"2020-01-22 12"},"coordinates":[2205,6995]},{"type":"Point","properties":{"Station_ID":"CAN-NB-18","Station_Nam":"MCLEOD HILL 1.1 ENE, CA","Latitude":"46.02725","Longitude":"-66.67460","Snowdepth":"22.000","Units":"in","Rept_Date":"2020-01-22 12"},"coordinates":[7173,6724]},{"type":"Point","properties":{"Station_ID":"BFHW3","Station_Nam":"BAYFIELD FISH HATCHERY","Latitude":"46.78670","Longitude":"-90.86420","Snowdepth":"22.000","Units":"in","Rept_Date":"2020-01-22 14"},"coordinates":[1496,7160]},{"type":"Point","properties":{"Station_ID":"ANTW3","Station_Nam":"ANTIGO,WI","Latitude":"45.13330","Longitude":"-89.15000","Snowdepth":"22.000","Units":"in","Rept_Date":"2020-01-22 14"},"coordinates":[1898,6210]},{"type":"Point","properties":{"Station_ID":"TRIQ6","Station_Nam":"TRIO LAKE","Latitude":"49.22880","Longitude":"-87.22920","Snowdepth":"21.770","Units":"in","Rept_Date":"2020-01-23 06"},"coordinates":[2349,8563]},{"type":"Point","properties":{"Station_ID":"QGA","Station_Nam":"QGA","Latitude":"47.25640","Longitude":"-73.73810","Snowdepth":"21.693","Units":"in","Rept_Date":"2020-01-22 12"},"coordinates":[5515,7430]},{"type":"Point","properties":{"Station_ID":"WI-BY-1","Station_Nam":"BAYFIELD 8.8 N, WI","Latitude":"46.93855","Longitude":"-90.83490","Snowdepth":"21.500","Units":"in","Rept_Date":"2020-01-22 13"},"coordinates":[1503,7247]},{"type":"Point","properties":{"Station_ID":"MN-BM-15","Station_Nam":"BEMIDJI 7.8 ENE, MN","Latitude":"47.52043","Longitude":"-94.72121","Snowdepth":"21.500","Units":"in","Rept_Date":"2020-01-22 13"},"coordinates":[591,7582]},{"type":"Point","properties":{"Station_ID":"WI-ON-8","Station_Nam":"HAZELHURST 2.1 SSE, WI","Latitude":"45.78186","Longitude":"-89.70330","Snowdepth":"21.000","Units":"in","Rept_Date":"2020-01-22 13"},"coordinates":[1768,6583]},{"type":"Point","properties":{"Station_ID":"RHIW3","Station_Nam":"RHINELANDER","Latitude":"45.59860","Longitude":"-89.45080","Snowdepth":"21.000","Units":"in","Rept_Date":"2020-01-22 13"},"coordinates":[1828,6477]},{"type":"Point","properties":{"Station_ID":"IMNM4","Station_Nam":"IRON MOUTAIN 5N","Latitude":"45.87580","Longitude":"-88.04030","Snowdepth":"21.000","Units":"in","Rept_Date":"2020-01-23 01"},"coordinates":[2159,6637]},{"type":"Point","properties":{"Station_ID":"GGRM4","Station_Nam":"GREEN GARDEN NO.2","Latitude":"46.45330","Longitude":"-87.30380","Snowdepth":"21.000","Units":"in","Rept_Date":"2020-01-22 11"},"coordinates":[2332,6969]},{"type":"Point","properties":{"Station_ID":"COTM5","Station_Nam":"COTTON","Latitude":"47.16870","Longitude":"-92.46290","Snowdepth":"21.000","Units":"in","Rept_Date":"2020-01-22 13"},"coordinates":[1121,7380]},{"type":"Point","properties":{"Station_ID":"BRAM5","Station_Nam":"BRAINERD","Latitude":"46.34320","Longitude":"-94.20900","Snowdepth":"21.000","Units":"in","Rept_Date":"2020-01-22 13"},"coordinates":[711,6905]},{"type":"Point","properties":{"Station_ID":"QMA","Station_Nam":"QMA","Latitude":"50.10330","Longitude":"-70.47190","Snowdepth":"20.512","Units":"in","Rept_Date":"2020-01-22 12"},"coordinates":[6282,9066]},{"type":"Point","properties":{"Station_ID":"SOCQ6","Station_Nam":"SOCKET LAKE","Latitude":"50.77870","Longitude":"-91.79300","Snowdepth":"20.510","Units":"in","Rept_Date":"2020-01-23 06"},"coordinates":[1278,9454]},{"type":"Point","properties":{"Station_ID":"MN-CW-22","Station_Nam":"FORT RIPLEY 0.8 N, MN","Latitude":"46.18089","Longitude":"-94.36510","Snowdepth":"20.500","Units":"in","Rept_Date":"2020-01-22 13"},"coordinates":[674,6812]},{"type":"Point","properties":{"Station_ID":"CAN-NB-11","Station_Nam":"MIRAMICHI 3.3 S, CAN","Latitude":"46.99343","Longitude":"-65.50690","Snowdepth":"20.500","Units":"in","Rept_Date":"2020-01-22 12"},"coordinates":[7447,7279]},{"type":"Point","properties":{"Station_ID":"CATQ6","Station_Nam":"CAT LAKE","Latitude":"51.72690","Longitude":"-91.82210","Snowdepth":"20.080","Units":"in","Rept_Date":"2020-01-23 06"},"coordinates":[1271,9999]},{"type":"Point","properties":{"Station_ID":"QLP","Station_Nam":"QLP","Latitude":"48.13920","Longitude":"-72.63830","Snowdepth":"20.039","Units":"in","Rept_Date":"2020-01-22 12"},"coordinates":[5774,7937]},{"type":"Point","properties":{"Station_ID":"RLKW3","Station_Nam":"REST LAKE","Latitude":"46.12220","Longitude":"-89.87720","Snowdepth":"20.000","Units":"in","Rept_Date":"2020-01-22 14"},"coordinates":[1728,6778]},{"type":"Point","properties":{"Station_ID":"OTTM5","Station_Nam":"OTTERTAIL,MN","Latitude":"46.41670","Longitude":"-95.56670","Snowdepth":"20.000","Units":"in","Rept_Date":"2020-01-22 12"},"coordinates":[392,6948]},{"type":"Point","properties":{"Station_ID":"MI-OT-17","Station_Nam":"GAYLORD 4.1 S, MI","Latitude":"44.96388","Longitude":"-84.68467","Snowdepth":"20.000","Units":"in","Rept_Date":"2020-01-22 12"},"coordinates":[2946,6113]},{"type":"Point","properties":{"Station_ID":"JAYV1","Station_Nam":"JAY PEAK","Latitude":"44.93830","Longitude":"-72.50490","Snowdepth":"20.000","Units":"in","Rept_Date":"2020-01-22 17"},"coordinates":[5805,6098]},{"type":"Point","properties":{"Station_ID":"INDM5","Station_Nam":"INDUS,MN","Latitude":"48.61670","Longitude":"-93.90000","Snowdepth":"20.000","Units":"in","Rept_Date":"2020-01-22 14"},"coordinates":[784,8212]},{"type":"Point","properties":{"Station_ID":"HWLM4","Station_Nam":"HALFWAY LAKE","Latitude":"46.47480","Longitude":"-85.59250","Snowdepth":"20.000","Units":"in","Rept_Date":"2020-01-22 14"},"coordinates":[2733,6981]},{"type":"Point","properties":{"Station_ID":"CLGM5","Station_Nam":"COLLEGEVILLE ST JOHN","Latitude":"45.57940","Longitude":"-94.39200","Snowdepth":"20.000","Units":"in","Rept_Date":"2020-01-23 00"},"coordinates":[668,6466]},{"type":"Point","properties":{"Station_ID":"CARM1","Station_Nam":"CARIBOU WFO","Latitude":"46.86810","Longitude":"-68.01250","Snowdepth":"20.000","Units":"in","Rept_Date":"2020-01-22 18"},"coordinates":[6859,7207]},{"type":"Point","properties":{"Station_ID":"CAR","Station_Nam":"CARIBOU, ME","Latitude":"46.86830","Longitude":"-68.01360","Snowdepth":"20.000","Units":"in","Rept_Date":"2020-01-22 12"},"coordinates":[6859,7207]},{"type":"Point","properties":{"Station_ID":"BRVM5","Station_Nam":"BROWNS VALLEY,MN","Latitude":"45.61670","Longitude":"-96.83330","Snowdepth":"20.000","Units":"in","Rept_Date":"2020-01-22 11"},"coordinates":[95,6488]},{"type":"Point","properties":{"Station_ID":"BRDM1","Station_Nam":"BRIDGEWATER","Latitude":"46.42870","Longitude":"-67.84370","Snowdepth":"20.000","Units":"in","Rept_Date":"2020-01-22 23"},"coordinates":[6899,6954]},{"type":"Point","properties":{"Station_ID":"AROM4","Station_Nam":"ARNOLD,MI","Latitude":"46.06670","Longitude":"-87.48330","Snowdepth":"20.000","Units":"in","Rept_Date":"2020-01-22 13"},"coordinates":[2290,6746]},{"type":"Point","properties":{"Station_ID":"AMAM4","Station_Nam":"AMASA 1W","Latitude":"46.23470","Longitude":"-88.45440","Snowdepth":"20.000","Units":"in","Rept_Date":"2020-01-22 14"},"coordinates":[2062,6843]},{"type":"Point","properties":{"Station_ID":"CAN-QC-47","Station_Nam":"SAINTE-FOY 1.8 ENE, CAN","Latitude":"46.76934","Longitude":"-71.27124","Snowdepth":"19.900","Units":"in","Rept_Date":"2020-01-22 12"},"coordinates":[6094,7150]},{"type":"Point","properties":{"Station_ID":"WI-CK-3","Station_Nam":"COLBY 5.9 WSW, WI","Latitude":"44.87209","Longitude":"-90.42463","Snowdepth":"19.500","Units":"in","Rept_Date":"2020-01-23 01"},"coordinates":[1599,6060]},{"type":"Point","properties":{"Station_ID":"WI-AS-4","Station_Nam":"ASHLAND 0.5 WNW, WI","Latitude":"46.58240","Longitude":"-90.88390","Snowdepth":"19.500","Units":"in","Rept_Date":"2020-01-22 13"},"coordinates":[1491,7043]},{"type":"Point","properties":{"Station_ID":"QLM","Station_Nam":"QLM","Latitude":"48.92030","Longitude":"-70.25280","Snowdepth":"19.291","Units":"in","Rept_Date":"2020-01-22 12"},"coordinates":[6333,8386]},{"type":"Point","properties":{"Station_ID":"WI-SR-1","Station_Nam":"HAYWARD 9.2 NNE, WI","Latitude":"46.13255","Longitude":"-91.40500","Snowdepth":"19.000","Units":"in","Rept_Date":"2020-01-22 12"},"coordinates":[1369,6784]},{"type":"Point","properties":{"Station_ID":"WI-OC-1","Station_Nam":"MOUNTAIN 1.1 SW, WI","Latitude":"45.17239","Longitude":"-88.48990","Snowdepth":"19.000","Units":"in","Rept_Date":"2020-01-22 13"},"coordinates":[2053,6232]},{"type":"Point","properties":{"Station_ID":"VANM1","Station_Nam":"VAN BUREN","Latitude":"47.16600","Longitude":"-67.93900","Snowdepth":"19.000","Units":"in","Rept_Date":"2020-01-22 13"},"coordinates":[6876,7378]},{"type":"Point","properties":{"Station_ID":"SUTV1","Station_Nam":"SUTTON","Latitude":"44.61220","Longitude":"-72.04810","Snowdepth":"19.000","Units":"in","Rept_Date":"2020-01-22 13"},"coordinates":[5912,5911]},{"type":"Point","properties":{"Station_ID":"RPDM4","Station_Nam":"RAPID RIVER 4SSE","Latitude":"45.87270","Longitude":"-86.94960","Snowdepth":"19.000","Units":"in","Rept_Date":"2020-01-22 14"},"coordinates":[2415,6635]},{"type":"Point","properties":{"Station_ID":"NH-CS-10","Station_Nam":"RANDOLPH 1.4 NE, NH","Latitude":"44.38824","Longitude":"-71.26950","Snowdepth":"19.000","Units":"in","Rept_Date":"2020-01-22 12"},"coordinates":[6095,5782]},{"type":"Point","properties":{"Station_ID":"MTQM4","Station_Nam":"MANISTIQUE WWTP","Latitude":"45.95120","Longitude":"-86.25130","Snowdepth":"19.000","Units":"in","Rept_Date":"2020-01-22 12"},"coordinates":[2579,6680]},{"type":"Point","properties":{"Station_ID":"MOUW3","Station_Nam":"MOUNTAIN 1 SW","Latitude":"45.17220","Longitude":"-88.49390","Snowdepth":"19.000","Units":"in","Rept_Date":"2020-01-22 13"},"coordinates":[2052,6232]},{"type":"Point","properties":{"Station_ID":"MN7M8EBJ","Station_Nam":"LUTSEN 15.7 NNW","Latitude":"47.85324","Longitude":"-89.92908","Snowdepth":"19.000","Units":"in","Rept_Date":"2020-01-22 14"},"coordinates":[1715,7773]},{"type":"Point","properties":{"Station_ID":"MIEM4","Station_Nam":"MICHIGAMME 3WNW","Latitude":"46.54530","Longitude":"-88.18000","Snowdepth":"19.000","Units":"in","Rept_Date":"2020-01-22 13"},"coordinates":[2126,7021]},{"type":"Point","properties":{"Station_ID":"LTMW3","Station_Nam":"LAKE TOMAHAWK 2 SE","Latitude":"45.80750","Longitude":"-89.55830","Snowdepth":"19.000","Units":"in","Rept_Date":"2020-01-22 12"},"coordinates":[1803,6597]},{"type":"Point","properties":{"Station_ID":"KGFK","Station_Nam":"GRAND FORKS INTERNATIONAL","Latitude":"47.95000","Longitude":"-97.18333","Snowdepth":"19.000","Units":"in","Rept_Date":"2020-01-23 06"},"coordinates":[13,7829]},{"type":"Point","properties":{"Station_ID":"GFK","Station_Nam":"GRAND FORKS INTERNATIONAL AIRPORT","Latitude":"47.94920","Longitude":"-97.17610","Snowdepth":"19.000","Units":"in","Rept_Date":"2020-01-23 00"},"coordinates":[15,7828]},{"type":"Point","properties":{"Station_ID":"FDRN8","Station_Nam":"FARGO 3S","Latitude":"46.82930","Longitude":"-96.79620","Snowdepth":"19.000","Units":"in","Rept_Date":"2020-01-23 01"},"coordinates":[104,7185]},{"type":"Point","properties":{"Station_ID":"FAR","Station_Nam":"HECTOR INTERNATIONAL ARPT","Latitude":"46.91560","Longitude":"-96.81440","Snowdepth":"19.000","Units":"in","Rept_Date":"2020-01-22 13"},"coordinates":[100,7234]},{"type":"Point","properties":{"Station_ID":"EDEV1","Station_Nam":"EDEN","Latitude":"44.71110","Longitude":"-72.54920","Snowdepth":"19.000","Units":"in","Rept_Date":"2020-01-22 17"},"coordinates":[5794,5967]},{"type":"Point","properties":{"Station_ID":"AWXW3","Station_Nam":"ASHLAND","Latitude":"46.58240","Longitude":"-90.88390","Snowdepth":"19.000","Units":"in","Rept_Date":"2020-01-22 13"},"coordinates":[1491,7043]},{"type":"Point","properties":{"Station_ID":"QIQ","Station_Nam":"QIQ","Latitude":"49.82390","Longitude":"-68.54310","Snowdepth":"18.937","Units":"in","Rept_Date":"2020-01-22 12"},"coordinates":[6735,8905]},{"type":"Point","properties":{"Station_ID":"QTM","Station_Nam":"QTM","Latitude":"51.05780","Longitude":"-72.57190","Snowdepth":"18.701","Units":"in","Rept_Date":"2020-01-22 12"},"coordinates":[5789,9615]},{"type":"Point","properties":{"Station_ID":"VT-OL-1","Station_Nam":"WESTFIELD 0.7 WNW, VT","Latitude":"44.89160","Longitude":"-72.44350","Snowdepth":"18.500","Units":"in","Rept_Date":"2020-01-22 12"},"coordinates":[5819,6071]},{"type":"Point","properties":{"Station_ID":"QLI","Station_Nam":"QLI","Latitude":"50.27080","Longitude":"-73.92280","Snowdepth":"18.386","Units":"in","Rept_Date":"2020-01-22 12"},"coordinates":[5472,9162]},{"type":"Point","properties":{"Station_ID":"QCO","Station_Nam":"QCO","Latitude":"51.45280","Longitude":"-72.20110","Snowdepth":"18.268","Units":"in","Rept_Date":"2020-01-22 12"},"coordinates":[5876,9841]},{"type":"Point","properties":{"Station_ID":"WI-PR-8","Station_Nam":"PHILLIPS 0.4 SSW, WI","Latitude":"45.69086","Longitude":"-90.40200","Snowdepth":"18.000","Units":"in","Rept_Date":"2020-01-22 13"},"coordinates":[1605,6530]},{"type":"Point","properties":{"Station_ID":"WI-ON-6","Station_Nam":"RHINELANDER 5.2 N, WI","Latitude":"45.71388","Longitude":"-89.42150","Snowdepth":"18.000","Units":"in","Rept_Date":"2020-01-22 13"},"coordinates":[1835,6544]},{"type":"Point","properties":{"Station_ID":"STMM4","Station_Nam":"STAMBAUGH 2SSE","Latitude":"46.05550","Longitude":"-88.62780","Snowdepth":"18.000","Units":"in","Rept_Date":"2020-01-22 13"},"coordinates":[2021,6740]},{"type":"Point","properties":{"Station_ID":"PA-BR-7","Station_Nam":"FLEETWOOD 2.0 ESE, PA","Latitude":"40.44292","Longitude":"-75.78720","Snowdepth":"18.000","Units":"in","Rept_Date":"2020-01-22 13"},"coordinates":[5034,3515]},{"type":"Point","properties":{"Station_ID":"MNV905PW","Station_Nam":"ROOSEVELT 5.3 N","Latitude":"48.87933","Longitude":"-95.08224","Snowdepth":"18.000","Units":"in","Rept_Date":"2020-01-22 13"},"coordinates":[506,8363]},{"type":"Point","properties":{"Station_ID":"MN-AT-5","Station_Nam":"TAMARACK 1.4 SW, MN","Latitude":"46.63760","Longitude":"-93.14554","Snowdepth":"18.000","Units":"in","Rept_Date":"2020-01-22 11"},"coordinates":[961,7074]},{"type":"Point","properties":{"Station_ID":"ME-AR-15","Station_Nam":"PRESQUE ISLE 1.3 WSW, ME","Latitude":"46.67960","Longitude":"-68.01270","Snowdepth":"18.000","Units":"in","Rept_Date":"2020-01-22 12"},"coordinates":[6859,7099]},{"type":"Point","properties":{"Station_ID":"LUCW3","Station_Nam":"LUCK","Latitude":"45.57330","Longitude":"-92.48520","Snowdepth":"18.000","Units":"in","Rept_Date":"2020-01-22 22"},"coordinates":[1116,6463]},{"type":"Point","properties":{"Station_ID":"JCBM4","Station_Nam":"JACOBSVILLE","Latitude":"47.00830","Longitude":"-88.43180","Snowdepth":"18.000","Units":"in","Rept_Date":"2020-01-22 12"},"coordinates":[2067,7287]},{"type":"Point","properties":{"Station_ID":"GRFN8","Station_Nam":"UNIVERSITY","Latitude":"47.93330","Longitude":"-97.08330","Snowdepth":"18.000","Units":"in","Rept_Date":"2020-01-23 06"},"coordinates":[36,7819]},{"type":"Point","properties":{"Station_ID":"ASTW3","Station_Nam":"ATHELSTANE","Latitude":"45.42500","Longitude":"-88.05750","Snowdepth":"18.000","Units":"in","Rept_Date":"2020-01-22 12"},"coordinates":[2155,6378]},{"type":"Point","properties":{"Station_ID":"APPV1","Station_Nam":"APPALACHIAN GAP","Latitude":"44.21060","Longitude":"-72.93170","Snowdepth":"18.000","Units":"in","Rept_Date":"2020-01-22 21"},"coordinates":[5705,5680]},{"type":"Point","properties":{"Station_ID":"AGNW3","Station_Nam":"ARGONNE-1.5 NW","Latitude":"45.67360","Longitude":"-88.90380","Snowdepth":"18.000","Units":"in","Rept_Date":"2020-01-22 14"},"coordinates":[1956,6520]},{"type":"Point","properties":{"Station_ID":"CAN-PE-43","Station_Nam":"GLENCOE 0.3 W, CAN","Latitude":"46.20115","Longitude":"-62.81740","Snowdepth":"17.900","Units":"in","Rept_Date":"2020-01-22 12"},"coordinates":[8078,6824]},{"type":"Point","properties":{"Station_ID":"QWG","Station_Nam":"QWG","Latitude":"48.48890","Longitude":"-73.45940","Snowdepth":"17.598","Units":"in","Rept_Date":"2020-01-22 12"},"coordinates":[5581,8138]},{"type":"Point","properties":{"Station_ID":"WI-PR-2","Station_Nam":"BUTTERNUT 5.9 SW, WI","Latitude":"45.96501","Longitude":"-90.59750","Snowdepth":"17.500","Units":"in","Rept_Date":"2020-01-22 12"},"coordinates":[1559,6688]},{"type":"Point","properties":{"Station_ID":"MN-BK-10","Station_Nam":"DETROIT LAKES 5.7 N, MN","Latitude":"46.88666","Longitude":"-95.84444","Snowdepth":"17.500","Units":"in","Rept_Date":"2020-01-22 14"},"coordinates":[327,7218]},{"type":"Point","properties":{"Station_ID":"ME-PN-45","Station_Nam":"MILLINOCKET 2.7 ESE, ME","Latitude":"45.65002","Longitude":"-68.64472","Snowdepth":"17.500","Units":"in","Rept_Date":"2020-01-22 12"},"coordinates":[6711,6507]},{"type":"Point","properties":{"Station_ID":"MFU","Station_Nam":"MFU","Latitude":"51.52170","Longitude":"-66.91110","Snowdepth":"17.480","Units":"in","Rept_Date":"2020-01-22 12"},"coordinates":[7118,9881]},{"type":"Point","properties":{"Station_ID":"ZNOM4","Station_Nam":"NORWAY","Latitude":"45.77810","Longitude":"-87.89560","Snowdepth":"17.000","Units":"in","Rept_Date":"2020-01-23 01"},"coordinates":[2193,6581]},{"type":"Point","properties":{"Station_ID":"WI-PR-6","Station_Nam":"PHILLIPS 1.3 S, WI","Latitude":"45.67677","Longitude":"-90.39543","Snowdepth":"17.000","Units":"in","Rept_Date":"2020-01-22 12"},"coordinates":[1606,6522]},{"type":"Point","properties":{"Station_ID":"SULW3","Station_Nam":"SUMMIT LAKE","Latitude":"45.37880","Longitude":"-89.19410","Snowdepth":"17.000","Units":"in","Rept_Date":"2020-01-22 17"},"coordinates":[1888,6351]},{"type":"Point","properties":{"Station_ID":"RHRW3","Station_Nam":"RHINELANDER WJFW TV-12","Latitude":"45.62220","Longitude":"-89.41000","Snowdepth":"17.000","Units":"in","Rept_Date":"2020-01-23 04"},"coordinates":[1837,6491]},{"type":"Point","properties":{"Station_ID":"RHLW3","Station_Nam":"RHINELANDER 4NE","Latitude":"45.65270","Longitude":"-89.30740","Snowdepth":"17.000","Units":"in","Rept_Date":"2020-01-22 12"},"coordinates":[1861,6508]},{"type":"Point","properties":{"Station_ID":"RARM4","Station_Nam":"RAPID RIVER 1 SW","Latitude":"45.91500","Longitude":"-86.98800","Snowdepth":"17.000","Units":"in","Rept_Date":"2020-01-22 12"},"coordinates":[2406,6659]},{"type":"Point","properties":{"Station_ID":"PKFW3","Station_Nam":"PARK FALLS,WI","Latitude":"45.93360","Longitude":"-90.45060","Snowdepth":"17.000","Units":"in","Rept_Date":"2020-01-22 14"},"coordinates":[1593,6670]},{"type":"Point","properties":{"Station_ID":"NUMN3","Station_Nam":"NORTHUMBERLAND","Latitude":"44.52830","Longitude":"-71.50440","Snowdepth":"17.000","Units":"in","Rept_Date":"2020-01-22 13"},"coordinates":[6040,5862]},{"type":"Point","properties":{"Station_ID":"MI-DL-1","Station_Nam":"GARDEN CORNERS 0.8 NW, MI","Latitude":"45.89815","Longitude":"-86.54850","Snowdepth":"17.000","Units":"in","Rept_Date":"2020-01-22 13"},"coordinates":[2509,6650]},{"type":"Point","properties":{"Station_ID":"HOLW3","Station_Nam":"HOLCOMBE","Latitude":"45.22370","Longitude":"-91.12700","Snowdepth":"17.000","Units":"in","Rept_Date":"2020-01-22 13"},"coordinates":[1434,6262]},{"type":"Point","properties":{"Station_ID":"GDCM4","Station_Nam":"GARDEN CORNERS","Latitude":"45.89830","Longitude":"-86.54850","Snowdepth":"17.000","Units":"in","Rept_Date":"2020-01-22 13"},"coordinates":[2509,6650]},{"type":"Point","properties":{"Station_ID":"FISM1","Station_Nam":"FORT KENT COOP","Latitude":"47.23850","Longitude":"-68.61240","Snowdepth":"17.000","Units":"in","Rept_Date":"2020-01-22 12"},"coordinates":[6718,7420]},{"type":"Point","properties":{"Station_ID":"CORV1","Station_Nam":"CORINTH","Latitude":"44.00690","Longitude":"-72.31940","Snowdepth":"17.000","Units":"in","Rept_Date":"2020-01-22 12"},"coordinates":[5848,5563]},{"type":"Point","properties":{"Station_ID":"CLBW3","Station_Nam":"COLBY 6SW","Latitude":"44.87080","Longitude":"-90.42480","Snowdepth":"17.000","Units":"in","Rept_Date":"2020-01-23 03"},"coordinates":[1599,6059]},{"type":"Point","properties":{"Station_ID":"CAN-NB-2","Station_Nam":"GRAFTON 2.7 NNE, CA","Latitude":"46.17062","Longitude":"-67.55330","Snowdepth":"17.000","Units":"in","Rept_Date":"2020-01-22 11"},"coordinates":[6967,6806]},{"type":"Point","properties":{"Station_ID":"ALXM5","Station_Nam":"ALEXANDRIA","Latitude":"45.87820","Longitude":"-95.38270","Snowdepth":"17.000","Units":"in","Rept_Date":"2020-01-22 12"},"coordinates":[436,6638]},{"type":"Point","properties":{"Station_ID":"WI-SR-5","Station_Nam":"HAYWARD 9.7 NE, WI","Latitude":"46.12030","Longitude":"-91.35370","Snowdepth":"16.500","Units":"in","Rept_Date":"2020-01-22 14"},"coordinates":[1381,6777]},{"type":"Point","properties":{"Station_ID":"MN-PK-15","Station_Nam":"MENTOR 2.5 SSW, MN","Latitude":"47.66625","Longitude":"-96.17328","Snowdepth":"16.500","Units":"in","Rept_Date":"2020-01-22 13"},"coordinates":[250,7666]},{"type":"Point","properties":{"Station_ID":"MN-CW-29","Station_Nam":"BRAINERD 7.7 SSE, MN","Latitude":"46.24996","Longitude":"-94.14576","Snowdepth":"16.500","Units":"in","Rept_Date":"2020-01-22 13"},"coordinates":[726,6852]},{"type":"Point","properties":{"Station_ID":"CAN-NS-163","Station_Nam":"SYDNEY MINES 2.2 WNW, CAN","Latitude":"46.24851","Longitude":"-60.25161","Snowdepth":"16.500","Units":"in","Rept_Date":"2020-01-22 12"},"coordinates":[8681,6851]},{"type":"Point","properties":{"Station_ID":"MRL","Station_Nam":"MRL","Latitude":"51.28330","Longitude":"-68.84060","Snowdepth":"16.220","Units":"in","Rept_Date":"2020-01-22 12"},"coordinates":[6665,9744]},{"type":"Point","properties":{"Station_ID":"WTNM4","Station_Nam":"WATTON 2WSW","Latitude":"46.52660","Longitude":"-88.64240","Snowdepth":"16.000","Units":"in","Rept_Date":"2020-01-22 13"},"coordinates":[2017,7011]},{"type":"Point","properties":{"Station_ID":"WRTS2","Station_Nam":"WATERTOWN,SD","Latitude":"44.90280","Longitude":"-97.11360","Snowdepth":"16.000","Units":"in","Rept_Date":"2020-01-22 15"},"coordinates":[29,6078]},{"type":"Point","properties":{"Station_ID":"WI-DN-1","Station_Nam":"BOYCEVILLE 3.3 N, WI","Latitude":"45.08913","Longitude":"-92.02760","Snowdepth":"16.000","Units":"in","Rept_Date":"2020-01-22 13"},"coordinates":[1223,6185]},{"type":"Point","properties":{"Station_ID":"SIBI4","Station_Nam":"SIBLEY","Latitude":"43.40470","Longitude":"-95.74830","Snowdepth":"16.000","Units":"in","Rept_Date":"2020-01-22 13"},"coordinates":[350,5217]},{"type":"Point","properties":{"Station_ID":"RRVM4","Station_Nam":"RAPID RIVER 9S","Latitude":"45.78750","Longitude":"-86.93920","Snowdepth":"16.000","Units":"in","Rept_Date":"2020-01-22 16"},"coordinates":[2417,6586]},{"type":"Point","properties":{"Station_ID":"ROXV1","Station_Nam":"ROXBURY GAP","Latitude":"44.10950","Longitude":"-72.78750","Snowdepth":"16.000","Units":"in","Rept_Date":"2020-01-22 21"},"coordinates":[5739,5622]},{"type":"Point","properties":{"Station_ID":"RCEM5","Station_Nam":"RICE","Latitude":"45.75760","Longitude":"-94.20720","Snowdepth":"16.000","Units":"in","Rept_Date":"2020-01-22 13"},"coordinates":[711,6569]},{"type":"Point","properties":{"Station_ID":"PRNW3","Station_Nam":"PRENTICE,WI","Latitude":"45.54780","Longitude":"-90.30000","Snowdepth":"16.000","Units":"in","Rept_Date":"2020-01-22 14"},"coordinates":[1628,6448]},{"type":"Point","properties":{"Station_ID":"MQRW3","Station_Nam":"MINOCQUA","Latitude":"45.88630","Longitude":"-89.73220","Snowdepth":"16.000","Units":"in","Rept_Date":"2020-01-22 12"},"coordinates":[1762,6643]},{"type":"Point","properties":{"Station_ID":"MN-MR-4","Station_Nam":"LITTLE FALLS 1.2 SW, MN","Latitude":"45.96886","Longitude":"-94.37720","Snowdepth":"16.000","Units":"in","Rept_Date":"2020-01-22 13"},"coordinates":[672,6690]},{"type":"Point","properties":{"Station_ID":"MLBS2","Station_Nam":"MILBANK","Latitude":"45.22040","Longitude":"-96.62530","Snowdepth":"16.000","Units":"in","Rept_Date":"2020-01-22 13"},"coordinates":[144,6260]},{"type":"Point","properties":{"Station_ID":"ME-CM-125","Station_Nam":"CUMBERLAND CENTER 4.4 NW, ME","Latitude":"43.84640","Longitude":"-70.31340","Snowdepth":"16.000","Units":"in","Rept_Date":"2020-01-22 12"},"coordinates":[6319,5470]},{"type":"Point","properties":{"Station_ID":"LNGM5","Station_Nam":"LONG PRAIRIE","Latitude":"45.96460","Longitude":"-94.88920","Snowdepth":"16.000","Units":"in","Rept_Date":"2020-01-22 12"},"coordinates":[551,6688]},{"type":"Point","properties":{"Station_ID":"LGRN8","Station_Nam":"LIDGERWOOD,ND","Latitude":"46.06670","Longitude":"-97.16670","Snowdepth":"16.000","Units":"in","Rept_Date":"2020-01-22 13"},"coordinates":[17,6746]},{"type":"Point","properties":{"Station_ID":"KSEM4","Station_Nam":"KALKASKA 11SE","Latitude":"44.58970","Longitude":"-85.04860","Snowdepth":"16.000","Units":"in","Rept_Date":"2020-01-22 13"},"coordinates":[2861,5898]},{"type":"Point","properties":{"Station_ID":"ISEM5","Station_Nam":"ISLE 12N","Latitude":"46.31970","Longitude":"-93.50140","Snowdepth":"16.000","Units":"in","Rept_Date":"2020-01-22 14"},"coordinates":[877,6892]},{"type":"Point","properties":{"Station_ID":"GLWM5","Station_Nam":"GLENWOOD 1N","Latitude":"45.66580","Longitude":"-95.38690","Snowdepth":"16.000","Units":"in","Rept_Date":"2020-01-22 13"},"coordinates":[435,6516]},{"type":"Point","properties":{"Station_ID":"ESAM4","Station_Nam":"ESCANABA","Latitude":"45.74380","Longitude":"-87.04060","Snowdepth":"16.000","Units":"in","Rept_Date":"2020-01-22 12"},"coordinates":[2393,6561]},{"type":"Point","properties":{"Station_ID":"EJNM4","Station_Nam":"EAST JORDAN 2NW","Latitude":"45.18630","Longitude":"-85.14770","Snowdepth":"16.000","Units":"in","Rept_Date":"2020-01-22 13"},"coordinates":[2838,6240]},{"type":"Point","properties":{"Station_ID":"DFXM1","Station_Nam":"DOVER-FOXCROFT","Latitude":"45.18720","Longitude":"-69.18350","Snowdepth":"16.000","Units":"in","Rept_Date":"2020-01-22 12"},"coordinates":[6584,6241]},{"type":"Point","properties":{"Station_ID":"CEFM4","Station_Nam":"EXPERIMENT FARM #2","Latitude":"46.33330","Longitude":"-86.91670","Snowdepth":"16.000","Units":"in","Rept_Date":"2020-01-22 13"},"coordinates":[2422,6900]},{"type":"Point","properties":{"Station_ID":"CAN-NB-13","Station_Nam":"BATHURST 3.8 NW, CAN","Latitude":"47.64212","Longitude":"-65.68756","Snowdepth":"16.000","Units":"in","Rept_Date":"2020-01-22 11"},"coordinates":[7405,7652]},{"type":"Point","properties":{"Station_ID":"BROS2","Station_Nam":"BROOKINGS,SD","Latitude":"44.31670","Longitude":"-96.76670","Snowdepth":"16.000","Units":"in","Rept_Date":"2020-01-22 14"},"coordinates":[111,5741]},{"type":"Point","properties":{"Station_ID":"AVLV1","Station_Nam":"AVERILL","Latitude":"45.00570","Longitude":"-71.69030","Snowdepth":"16.000","Units":"in","Rept_Date":"2020-01-22 13"},"coordinates":[5996,6137]},{"type":"Point","properties":{"Station_ID":"ATY","Station_Nam":"WATERTOWN MUNICIPAL AIRPORT","Latitude":"44.91420","Longitude":"-97.15440","Snowdepth":"16.000","Units":"in","Rept_Date":"2020-01-22 12"},"coordinates":[20,6084]},{"type":"Point","properties":{"Station_ID":"ANJM4","Station_Nam":"SNOW PAID OBSERVER FOR KANJ","Latitude":"46.48670","Longitude":"-84.40260","Snowdepth":"16.000","Units":"in","Rept_Date":"2020-01-23 06"},"coordinates":[3013,6988]},{"type":"Point","properties":{"Station_ID":"ANJ","Station_Nam":"SAULT STE MARIE","Latitude":"46.46670","Longitude":"-84.36670","Snowdepth":"16.000","Units":"in","Rept_Date":"2020-01-23 00"},"coordinates":[3021,6976]},{"type":"Point","properties":{"Station_ID":"ABGW3","Station_Nam":"AMBERG 9 E","Latitude":"45.48250","Longitude":"-87.81190","Snowdepth":"16.000","Units":"in","Rept_Date":"2020-01-22 12"},"coordinates":[2212,6411]},{"type":"Point","properties":{"Station_ID":"CAN-PE-19","Station_Nam":"CHARLOTTETOWN 6.5 NNW, CAN","Latitude":"46.29235","Longitude":"-63.17271","Snowdepth":"15.900","Units":"in","Rept_Date":"2020-01-22 12"},"coordinates":[7995,6876]},{"type":"Point","properties":{"Station_ID":"MI-CX-7","Station_Nam":"EAST JORDAN 2.1 NNW, MI","Latitude":"45.18639","Longitude":"-85.14750","Snowdepth":"15.500","Units":"in","Rept_Date":"2020-01-22 13"},"coordinates":[2838,6241]},{"type":"Point","properties":{"Station_ID":"WVRV1","Station_Nam":"WRIGHTSVILLE DETENTION RESERVOIR","Latitude":"44.31060","Longitude":"-72.57530","Snowdepth":"15.000","Units":"in","Rept_Date":"2020-01-22 21"},"coordinates":[5788,5737]},{"type":"Point","properties":{"Station_ID":"WLKW3","Station_Nam":"WHITE LAKE 1 SE","Latitude":"45.14520","Longitude":"-88.74160","Snowdepth":"15.000","Units":"in","Rept_Date":"2020-01-22 14"},"coordinates":[1994,6217]},{"type":"Point","properties":{"Station_ID":"WLDM5","Station_Nam":"WILD RIVER STATE PARK","Latitude":"45.52310","Longitude":"-92.74890","Snowdepth":"15.000","Units":"in","Rept_Date":"2020-01-22 14"},"coordinates":[1054,6434]},{"type":"Point","properties":{"Station_ID":"WI-LN-2","Station_Nam":"MERRILL 7.0 W, WI","Latitude":"45.17746","Longitude":"-89.84820","Snowdepth":"15.000","Units":"in","Rept_Date":"2020-01-22 12"},"coordinates":[1734,6235]},{"type":"Point","properties":{"Station_ID":"WI-CH-3","Station_Nam":"CORNELL 4.1 W, WI","Latitude":"45.17024","Longitude":"-91.23610","Snowdepth":"15.000","Units":"in","Rept_Date":"2020-01-22 14"},"coordinates":[1409,6231]},{"type":"Point","properties":{"Station_ID":"VT-OG-11","Station_Nam":"VERSHIRE 1.5 ESE, VT","Latitude":"43.96138","Longitude":"-72.29777","Snowdepth":"15.000","Units":"in","Rept_Date":"2020-01-22 13"},"coordinates":[5853,5537]},{"type":"Point","properties":{"Station_ID":"SSMM4","Station_Nam":"SAULT STE MARIE","Latitude":"46.48660","Longitude":"-84.40250","Snowdepth":"15.000","Units":"in","Rept_Date":"2020-01-22 13"},"coordinates":[3013,6988]},{"type":"Point","properties":{"Station_ID":"SD-RB-4","Station_Nam":"SISSETON 10.4 ENE, SD","Latitude":"45.69480","Longitude":"-96.83480","Snowdepth":"15.000","Units":"in","Rept_Date":"2020-01-22 13"},"coordinates":[95,6533]},{"type":"Point","properties":{"Station_ID":"SAUW3","Station_Nam":"WAUSAU WSAW TV","Latitude":"44.94630","Longitude":"-89.62220","Snowdepth":"15.000","Units":"in","Rept_Date":"2020-01-23 06"},"coordinates":[1788,6103]},{"type":"Point","properties":{"Station_ID":"RHI","Station_Nam":"RHINELANDER-ONEIDA COUNTY AIRPORT","Latitude":"45.63080","Longitude":"-89.46530","Snowdepth":"15.000","Units":"in","Rept_Date":"2020-01-22 12"},"coordinates":[1824,6496]},{"type":"Point","properties":{"Station_ID":"MRAM4","Station_Nam":"MORAN","Latitude":"45.99030","Longitude":"-84.83610","Snowdepth":"15.000","Units":"in","Rept_Date":"2020-01-22 13"},"coordinates":[2911,6702]},{"type":"Point","properties":{"Station_ID":"MN76ACVS","Station_Nam":"GRAND MARAIS 3.0 WNW","Latitude":"47.76602","Longitude":"-90.26427","Snowdepth":"15.000","Units":"in","Rept_Date":"2020-01-22 13"},"coordinates":[1637,7723]},{"type":"Point","properties":{"Station_ID":"MN-MR-13","Station_Nam":"LITTLE FALLS 8.0 NE, MN","Latitude":"46.06785","Longitude":"-94.24789","Snowdepth":"15.000","Units":"in","Rept_Date":"2020-01-22 13"},"coordinates":[702,6747]},{"type":"Point","properties":{"Station_ID":"MLLW3","Station_Nam":"MERRILL 8W","Latitude":"45.17810","Longitude":"-89.84810","Snowdepth":"15.000","Units":"in","Rept_Date":"2020-01-22 12"},"coordinates":[1735,6236]},{"type":"Point","properties":{"Station_ID":"MLCM5","Station_Nam":"MILACA","Latitude":"45.75320","Longitude":"-93.66170","Snowdepth":"15.000","Units":"in","Rept_Date":"2020-01-22 13"},"coordinates":[839,6566]},{"type":"Point","properties":{"Station_ID":"ME-YK-3","Station_Nam":"HOLLIS CENTER 5.4 NW, ME","Latitude":"43.64750","Longitude":"-70.67510","Snowdepth":"15.000","Units":"in","Rept_Date":"2020-01-22 12"},"coordinates":[6234,5356]},{"type":"Point","properties":{"Station_ID":"ME-FR-4","Station_Nam":"NEW SHARON 2.0 NW, ME","Latitude":"44.66582","Longitude":"-70.02720","Snowdepth":"15.000","Units":"in","Rept_Date":"2020-01-22 12"},"coordinates":[6386,5941]},{"type":"Point","properties":{"Station_ID":"ME-CM-18","Station_Nam":"PORTLAND 5.5 WNW, ME","Latitude":"43.70288","Longitude":"-70.30550","Snowdepth":"15.000","Units":"in","Rept_Date":"2020-01-22 12"},"coordinates":[6321,5388]},{"type":"Point","properties":{"Station_ID":"LILM1","Station_Nam":"LILLE","Latitude":"47.27770","Longitude":"-68.10520","Snowdepth":"15.000","Units":"in","Rept_Date":"2020-01-22 12"},"coordinates":[6837,7442]},{"type":"Point","properties":{"Station_ID":"LBRM5","Station_Nam":"LAKE BRONSON DAM","Latitude":"48.72410","Longitude":"-96.62180","Snowdepth":"15.000","Units":"in","Rept_Date":"2020-01-22 14"},"coordinates":[145,8273]},{"type":"Point","properties":{"Station_ID":"HOLM1","Station_Nam":"HOLLIS","Latitude":"43.64750","Longitude":"-70.67490","Snowdepth":"15.000","Units":"in","Rept_Date":"2020-01-22 12"},"coordinates":[6234,5356]},{"type":"Point","properties":{"Station_ID":"FARM1","Station_Nam":"FARMINGTON","Latitude":"44.68930","Longitude":"-70.15640","Snowdepth":"15.000","Units":"in","Rept_Date":"2020-01-22 12"},"coordinates":[6356,5955]},{"type":"Point","properties":{"Station_ID":"CANM5","Station_Nam":"CANBY","Latitude":"44.71840","Longitude":"-96.26960","Snowdepth":"15.000","Units":"in","Rept_Date":"2020-01-22 14"},"coordinates":[227,5972]},{"type":"Point","properties":{"Station_ID":"CAN-PE-20","Station_Nam":"BONSHAW 6.6 NNE, CAN","Latitude":"46.25082","Longitude":"-63.33409","Snowdepth":"15.000","Units":"in","Rept_Date":"2020-01-22 12"},"coordinates":[7957,6852]},{"type":"Point","properties":{"Station_ID":"CAN-MB-32","Station_Nam":"PINAWA 1.0 SW, CA","Latitude":"50.14747","Longitude":"-95.89020","Snowdepth":"15.000","Units":"in","Rept_Date":"2020-01-22 13"},"coordinates":[316,9091]},{"type":"Point","properties":{"Station_ID":"AUW","Station_Nam":"WAUSAU MUNICIPAL AIRPORT","Latitude":"44.92580","Longitude":"-89.62560","Snowdepth":"15.000","Units":"in","Rept_Date":"2020-01-22 12"},"coordinates":[1787,6091]},{"type":"Point","properties":{"Station_ID":"CAN-PE-7","Station_Nam":"MORELL 1.4 NNW, CA","Latitude":"46.42741","Longitude":"-62.70870","Snowdepth":"14.800","Units":"in","Rept_Date":"2020-01-22 12"},"coordinates":[8104,6954]},{"type":"Point","properties":{"Station_ID":"VT-OL-9","Station_Nam":"GREENSBORO 2.1 NNW, VT","Latitude":"44.60528","Longitude":"-72.30940","Snowdepth":"14.500","Units":"in","Rept_Date":"2020-01-22 12"},"coordinates":[5851,5907]},{"type":"Point","properties":{"Station_ID":"VT-CL-18","Station_Nam":"WHEELOCK 1.6 S, VT","Latitude":"44.56491","Longitude":"-72.08830","Snowdepth":"14.500","Units":"in","Rept_Date":"2020-01-22 12"},"coordinates":[5903,5883]},{"type":"Point","properties":{"Station_ID":"FTHQ6","Station_Nam":"FORT HOPE","Latitude":"51.55820","Longitude":"-87.90510","Snowdepth":"14.290","Units":"in","Rept_Date":"2020-01-23 06"},"coordinates":[2191,9902]},{"type":"Point","properties":{"Station_ID":"VT-WS-7","Station_Nam":"MIDDLESEX 3.1 ENE, VT","Latitude":"44.31799","Longitude":"-72.62650","Snowdepth":"14.000","Units":"in","Rept_Date":"2020-01-22 13"},"coordinates":[5776,5741]},{"type":"Point","properties":{"Station_ID":"VT-CL-14","Station_Nam":"LYNDONVILLE 1.1 W, VT","Latitude":"44.53582","Longitude":"-72.02867","Snowdepth":"14.000","Units":"in","Rept_Date":"2020-01-22 13"},"coordinates":[5917,5867]},{"type":"Point","properties":{"Station_ID":"VANM4","Station_Nam":"VANDERBILT 11ENE","Latitude":"45.17020","Longitude":"-84.43970","Snowdepth":"14.000","Units":"in","Rept_Date":"2020-01-22 13"},"coordinates":[3004,6231]},{"type":"Point","properties":{"Station_ID":"TAKW3","Station_Nam":"RICE RESERVOIR NO. 2","Latitude":"45.53770","Longitude":"-89.73220","Snowdepth":"14.000","Units":"in","Rept_Date":"2020-01-22 13"},"coordinates":[1762,6442]},{"type":"Point","properties":{"Station_ID":"SD-CD-30","Station_Nam":"WATERTOWN 2.3 E, SD","Latitude":"44.91604","Longitude":"-97.11925","Snowdepth":"14.000","Units":"in","Rept_Date":"2020-01-22 13"},"coordinates":[28,6085]},{"type":"Point","properties":{"Station_ID":"RKWM1","Station_Nam":"MOOSEHEAD LAKE","Latitude":"45.58330","Longitude":"-69.71670","Snowdepth":"14.000","Units":"in","Rept_Date":"2020-01-22 12"},"coordinates":[6459,6469]},{"type":"Point","properties":{"Station_ID":"RGNM1","Station_Nam":"RANGELEY 2NW","Latitude":"44.98940","Longitude":"-70.67220","Snowdepth":"14.000","Units":"in","Rept_Date":"2020-01-22 11"},"coordinates":[6235,6127]},{"type":"Point","properties":{"Station_ID":"PRGN6","Station_Nam":"PERRYSBURG","Latitude":"42.46470","Longitude":"-79.00310","Snowdepth":"14.000","Units":"in","Rept_Date":"2020-01-22 12"},"coordinates":[4280,4676]},{"type":"Point","properties":{"Station_ID":"NH-CS-4","Station_Nam":"PITTSBURG 6.1 NE, NH","Latitude":"45.11060","Longitude":"-71.29760","Snowdepth":"14.000","Units":"in","Rept_Date":"2020-01-22 12"},"coordinates":[6088,6197]},{"type":"Point","properties":{"Station_ID":"NH-CR-11","Station_Nam":"NORTH CONWAY 1.4 SSW, NH","Latitude":"44.03556","Longitude":"-71.14010","Snowdepth":"14.000","Units":"in","Rept_Date":"2020-01-22 12"},"coordinates":[6125,5579]},{"type":"Point","properties":{"Station_ID":"MI-OT-4","Station_Nam":"GAYLORD 1.7 WNW, MI","Latitude":"45.03280","Longitude":"-84.71090","Snowdepth":"14.000","Units":"in","Rept_Date":"2020-01-22 13"},"coordinates":[2940,6152]},{"type":"Point","properties":{"Station_ID":"ME-CM-3","Station_Nam":"NEW GLOUCESTER 3.0 SE, ME","Latitude":"43.92372","Longitude":"-70.25790","Snowdepth":"14.000","Units":"in","Rept_Date":"2020-01-22 12"},"coordinates":[6332,5515]},{"type":"Point","properties":{"Station_ID":"JSRN6","Station_Nam":"JERRY SAVARIE ROAD","Latitude":"43.73690","Longitude":"-74.28610","Snowdepth":"14.000","Units":"in","Rept_Date":"2020-01-22 17"},"coordinates":[5387,5408]},{"type":"Point","properties":{"Station_ID":"GRBM5","Station_Nam":"GRAND RAPIDS 12N","Latitude":"47.39800","Longitude":"-93.51330","Snowdepth":"14.000","Units":"in","Rept_Date":"2020-01-22 13"},"coordinates":[874,7511]},{"type":"Point","properties":{"Station_ID":"GAYM4","Station_Nam":"GAYLORD","Latitude":"45.03320","Longitude":"-84.71130","Snowdepth":"14.000","Units":"in","Rept_Date":"2020-01-22 13"},"coordinates":[2940,6152]},{"type":"Point","properties":{"Station_ID":"FLAM4","Station_Nam":"FIFE LAKE 2WNW","Latitude":"44.58480","Longitude":"-85.36530","Snowdepth":"14.000","Units":"in","Rept_Date":"2020-01-22 12"},"coordinates":[2787,5895]},{"type":"Point","properties":{"Station_ID":"ESGM1","Station_Nam":"EAST SANGERVILLE","Latitude":"45.13690","Longitude":"-69.28060","Snowdepth":"14.000","Units":"in","Rept_Date":"2020-01-22 12"},"coordinates":[6562,6212]},{"type":"Point","properties":{"Station_ID":"CHRM4","Station_Nam":"CHARLEVOIX","Latitude":"45.31720","Longitude":"-85.26720","Snowdepth":"14.000","Units":"in","Rept_Date":"2020-01-22 13"},"coordinates":[2810,6316]},{"type":"Point","properties":{"Station_ID":"CAN-NB-97","Station_Nam":"NEW MARYLAND 0.6 NW, CAN","Latitude":"45.90112","Longitude":"-66.68739","Snowdepth":"14.000","Units":"in","Rept_Date":"2020-01-22 11"},"coordinates":[7170,6651]},{"type":"Point","properties":{"Station_ID":"BRAM1","Station_Nam":"BRASSUA DAM","Latitude":"45.66020","Longitude":"-69.81190","Snowdepth":"14.000","Units":"in","Rept_Date":"2020-01-22 12"},"coordinates":[6437,6513]},{"type":"Point","properties":{"Station_ID":"BAGM4","Station_Nam":"BARAGA 7NW","Latitude":"46.82100","Longitude":"-88.60590","Snowdepth":"14.000","Units":"in","Rept_Date":"2020-01-22 13"},"coordinates":[2026,7180]},{"type":"Point","properties":{"Station_ID":"ARTM5","Station_Nam":"ARTICHOKE LAKE 1 E","Latitude":"45.38560","Longitude":"-96.12570","Snowdepth":"14.000","Units":"in","Rept_Date":"2020-01-23 00"},"coordinates":[261,6355]},{"type":"Point","properties":{"Station_ID":"APXM4","Station_Nam":"GAYLORD 9SSW","Latitude":"44.90720","Longitude":"-84.71880","Snowdepth":"14.000","Units":"in","Rept_Date":"2020-01-23 06"},"coordinates":[2938,6080]},{"type":"Point","properties":{"Station_ID":"CAN-NS-159","Station_Nam":"NORTHPORT 0.1 NE, CAN","Latitude":"45.93299","Longitude":"-63.86711","Snowdepth":"13.800","Units":"in","Rept_Date":"2020-01-22 11"},"coordinates":[7832,6670]},{"type":"Point","properties":{"Station_ID":"NH-GR-49","Station_Nam":"PLYMOUTH 3.7 N, NH","Latitude":"43.79048","Longitude":"-71.68413","Snowdepth":"13.500","Units":"in","Rept_Date":"2020-01-22 12"},"coordinates":[5997,5438]},{"type":"Point","properties":{"Station_ID":"NH-CR-15","Station_Nam":"JACKSON 3.7 NW, NH","Latitude":"44.19069","Longitude":"-71.22598","Snowdepth":"13.500","Units":"in","Rept_Date":"2020-01-22 12"},"coordinates":[6105,5668]},{"type":"Point","properties":{"Station_ID":"MI-DL-4","Station_Nam":"GLADSTONE 2.1 SW, MI","Latitude":"45.83218","Longitude":"-87.05727","Snowdepth":"13.500","Units":"in","Rept_Date":"2020-01-22 12"},"coordinates":[2389,6612]},{"type":"Point","properties":{"Station_ID":"MI-CP-14","Station_Nam":"SAULT STE. MARIE 2.2 E, MI","Latitude":"46.48933","Longitude":"-84.31971","Snowdepth":"13.500","Units":"in","Rept_Date":"2020-01-22 12"},"coordinates":[3032,6989]},{"type":"Point","properties":{"Station_ID":"ME-AN-32","Station_Nam":"WINTHROP 9.4 W, ME","Latitude":"44.30476","Longitude":"-70.15835","Snowdepth":"13.500","Units":"in","Rept_Date":"2020-01-22 12"},"coordinates":[6356,5734]},{"type":"Point","properties":{"Station_ID":"CAN-PE-3","Station_Nam":"WELLINGTON 1.6 NE, CA","Latitude":"46.46672","Longitude":"-63.98920","Snowdepth":"13.500","Units":"in","Rept_Date":"2020-01-22 11"},"coordinates":[7803,6976]},{"type":"Point","properties":{"Station_ID":"CAN-ON-245","Station_Nam":"PHELPSTON 3.1 ESE, CAN","Latitude":"44.50564","Longitude":"-79.81035","Snowdepth":"13.500","Units":"in","Rept_Date":"2020-01-22 14"},"coordinates":[4090,5849]},{"type":"Point","properties":{"Station_ID":"CAN-NS-103","Station_Nam":"TRAFALGAR 4.9 WSW, CAN","Latitude":"45.26217","Longitude":"-62.72285","Snowdepth":"13.500","Units":"in","Rept_Date":"2020-01-22 11"},"coordinates":[8101,6284]},{"type":"Point","properties":{"Station_ID":"TOPM1","Station_Nam":"TOPSFIELD","Latitude":"45.43470","Longitude":"-67.72020","Snowdepth":"13.000","Units":"in","Rept_Date":"2020-01-22 12"},"coordinates":[6928,6383]},{"type":"Point","properties":{"Station_ID":"SD-BK-7","Station_Nam":"BROOKINGS 0.2 SSW, SD","Latitude":"44.30389","Longitude":"-96.78780","Snowdepth":"13.000","Units":"in","Rept_Date":"2020-01-22 13"},"coordinates":[106,5733]},{"type":"Point","properties":{"Station_ID":"RSTW3","Station_Nam":"ROSHOLT","Latitude":"44.62710","Longitude":"-89.30600","Snowdepth":"13.000","Units":"in","Rept_Date":"2020-01-22 13"},"coordinates":[1862,5919]},{"type":"Point","properties":{"Station_ID":"PBAN8","Station_Nam":"SITE 1-3MI.N","Latitude":"48.97420","Longitude":"-97.23860","Snowdepth":"13.000","Units":"in","Rept_Date":"2020-01-22 13"},"coordinates":[0,8417]},{"type":"Point","properties":{"Station_ID":"NH-CR-26","Station_Nam":"CENTER SANDWICH 4.9 E, NH","Latitude":"43.80976","Longitude":"-71.34150","Snowdepth":"13.000","Units":"in","Rept_Date":"2020-01-22 12"},"coordinates":[6078,5449]},{"type":"Point","properties":{"Station_ID":"NCON3","Station_Nam":"NORTH CONWAY","Latitude":"44.05620","Longitude":"-71.12970","Snowdepth":"13.000","Units":"in","Rept_Date":"2020-01-22 12"},"coordinates":[6128,5591]},{"type":"Point","properties":{"Station_ID":"MRQM4","Station_Nam":"MARQUETTE WFP","Latitude":"46.54580","Longitude":"-87.37950","Snowdepth":"13.000","Units":"in","Rept_Date":"2020-01-22 13"},"coordinates":[2314,7022]},{"type":"Point","properties":{"Station_ID":"MRAM5","Station_Nam":"MORA","Latitude":"45.87760","Longitude":"-93.31470","Snowdepth":"13.000","Units":"in","Rept_Date":"2020-01-22 13"},"coordinates":[921,6638]},{"type":"Point","properties":{"Station_ID":"MNEY8CTB","Station_Nam":"MIDLAND JUNCTION 2.2 ENE","Latitude":"44.33041","Longitude":"-91.95891","Snowdepth":"13.000","Units":"in","Rept_Date":"2020-01-22 14"},"coordinates":[1239,5749]},{"type":"Point","properties":{"Station_ID":"MN228YHJ","Station_Nam":"RICE 2.8 ESE","Latitude":"45.73609","Longitude":"-94.17230","Snowdepth":"13.000","Units":"in","Rept_Date":"2020-01-22 13"},"coordinates":[720,6556]},{"type":"Point","properties":{"Station_ID":"MN-SH-985","Station_Nam":"PRINCETON 3.3 WSW, MN","Latitude":"45.55211","Longitude":"-93.64481","Snowdepth":"13.000","Units":"in","Rept_Date":"2020-01-22 10"},"coordinates":[843,6451]},{"type":"Point","properties":{"Station_ID":"MN-SH-10","Station_Nam":"BIG LAKE 5.6 NNE, MN","Latitude":"45.41409","Longitude":"-93.69190","Snowdepth":"13.000","Units":"in","Rept_Date":"2020-01-22 13"},"coordinates":[832,6371]},{"type":"Point","properties":{"Station_ID":"MN-DK-49","Station_Nam":"LAKEVILLE 2.1 SW, MN","Latitude":"44.65694","Longitude":"-93.28390","Snowdepth":"13.000","Units":"in","Rept_Date":"2020-01-22 14"},"coordinates":[928,5936]},{"type":"Point","properties":{"Station_ID":"MEDW3","Station_Nam":"MEDFORD","Latitude":"45.13080","Longitude":"-90.34390","Snowdepth":"13.000","Units":"in","Rept_Date":"2020-01-22 14"},"coordinates":[1618,6209]},{"type":"Point","properties":{"Station_ID":"LNKM1","Station_Nam":"LINCOLN SANITARY DISTRICT/WTP","Latitude":"45.37520","Longitude":"-68.50820","Snowdepth":"13.000","Units":"in","Rept_Date":"2020-01-22 12"},"coordinates":[6743,6349]},{"type":"Point","properties":{"Station_ID":"LADW3","Station_Nam":"LADYSMITH WTP","Latitude":"45.44290","Longitude":"-91.08970","Snowdepth":"13.000","Units":"in","Rept_Date":"2020-01-22 13"},"coordinates":[1443,6388]},{"type":"Point","properties":{"Station_ID":"KLKM4","Station_Nam":"KALKASKA","Latitude":"44.72800","Longitude":"-85.17270","Snowdepth":"13.000","Units":"in","Rept_Date":"2020-01-22 13"},"coordinates":[2832,5977]},{"type":"Point","properties":{"Station_ID":"JEFN3","Station_Nam":"JEFFERSON","Latitude":"44.41690","Longitude":"-71.50080","Snowdepth":"13.000","Units":"in","Rept_Date":"2020-01-22 12"},"coordinates":[6040,5798]},{"type":"Point","properties":{"Station_ID":"ISLV1","Station_Nam":"ISLAND POND","Latitude":"44.81280","Longitude":"-71.89020","Snowdepth":"13.000","Units":"in","Rept_Date":"2020-01-22 16"},"coordinates":[5949,6026]},{"type":"Point","properties":{"Station_ID":"HRTM1","Station_Nam":"HARTFORD","Latitude":"44.37440","Longitude":"-70.31620","Snowdepth":"13.000","Units":"in","Rept_Date":"2020-01-22 12"},"coordinates":[6318,5774]},{"type":"Point","properties":{"Station_ID":"ESDN3","Station_Nam":"EAST SANDWICH","Latitude":"43.80990","Longitude":"-71.34250","Snowdepth":"13.000","Units":"in","Rept_Date":"2020-01-22 11"},"coordinates":[6078,5450]},{"type":"Point","properties":{"Station_ID":"EPTW3","Station_Nam":"EAU PLEINE TENDER","Latitude":"44.77220","Longitude":"-89.76720","Snowdepth":"13.000","Units":"in","Rept_Date":"2020-01-22 13"},"coordinates":[1753,6002]},{"type":"Point","properties":{"Station_ID":"ENFV1","Station_Nam":"ENOSBURG FALLS 2","Latitude":"44.90960","Longitude":"-72.81370","Snowdepth":"13.000","Units":"in","Rept_Date":"2020-01-22 10"},"coordinates":[5732,6081]},{"type":"Point","properties":{"Station_ID":"CAN-NS-60","Station_Nam":"SYDNEY FORKS, CAN","Latitude":"46.05645","Longitude":"-60.31510","Snowdepth":"13.000","Units":"in","Rept_Date":"2020-01-22 13"},"coordinates":[8666,6740]},{"type":"Point","properties":{"Station_ID":"BALW3","Station_Nam":"BALDWIN","Latitude":"44.96330","Longitude":"-92.39050","Snowdepth":"13.000","Units":"in","Rept_Date":"2020-01-22 13"},"coordinates":[1138,6112]},{"type":"Point","properties":{"Station_ID":"ASXW3","Station_Nam":"ASHLAND,WI","Latitude":"46.55220","Longitude":"-90.91610","Snowdepth":"13.000","Units":"in","Rept_Date":"2020-01-22 14"},"coordinates":[1484,7025]},{"type":"Point","properties":{"Station_ID":"CAN-NB-1","Station_Nam":"FREDERICTON 4.0 SSE, CA","Latitude":"45.92897","Longitude":"-66.62830","Snowdepth":"12.600","Units":"in","Rept_Date":"2020-01-22 11"},"coordinates":[7184,6667]},{"type":"Point","properties":{"Station_ID":"WI-CH-7","Station_Nam":"CHIPPEWA FALLS 1.2 E, WI","Latitude":"44.92920","Longitude":"-91.36730","Snowdepth":"12.500","Units":"in","Rept_Date":"2020-01-22 13"},"coordinates":[1378,6093]},{"type":"Point","properties":{"Station_ID":"ME-YK-67","Station_Nam":"CORNISH 5.6 ESE, ME","Latitude":"43.78308","Longitude":"-70.69539","Snowdepth":"12.500","Units":"in","Rept_Date":"2020-01-22 12"},"coordinates":[6230,5434]},{"type":"Point","properties":{"Station_ID":"WUNW3","Station_Nam":"WAUSAU-NORTHEAST","Latitude":"44.97310","Longitude":"-89.61690","Snowdepth":"12.000","Units":"in","Rept_Date":"2020-01-22 12"},"coordinates":[1789,6118]},{"type":"Point","properties":{"Station_ID":"WSKW3","Station_Nam":"WAUSAUKEE","Latitude":"45.38020","Longitude":"-87.95660","Snowdepth":"12.000","Units":"in","Rept_Date":"2020-01-22 14"},"coordinates":[2178,6352]},{"type":"Point","properties":{"Station_ID":"WNDM1","Station_Nam":"WINDHAM 2NW","Latitude":"43.85670","Longitude":"-70.46630","Snowdepth":"12.000","Units":"in","Rept_Date":"2020-01-22 12"},"coordinates":[6283,5476]},{"type":"Point","properties":{"Station_ID":"WMRM5","Station_Nam":"WILLMAR 5N","Latitude":"45.19010","Longitude":"-95.05860","Snowdepth":"12.000","Units":"in","Rept_Date":"2020-01-22 12"},"coordinates":[512,6243]},{"type":"Point","properties":{"Station_ID":"WLKM5","Station_Nam":"AH-GWAH-CHING","Latitude":"47.15000","Longitude":"-94.65000","Snowdepth":"12.000","Units":"in","Rept_Date":"2020-01-22 12"},"coordinates":[608,7369]},{"type":"Point","properties":{"Station_ID":"WI-BR-2","Station_Nam":"CHETEK 2.0 SE, WI","Latitude":"45.29427","Longitude":"-91.62470","Snowdepth":"12.000","Units":"in","Rept_Date":"2020-01-22 13"},"coordinates":[1318,6303]},{"type":"Point","properties":{"Station_ID":"VT-WS-15","Station_Nam":"EAST CALAIS 1.5 SW, VT","Latitude":"44.35523","Longitude":"-72.45540","Snowdepth":"12.000","Units":"in","Rept_Date":"2020-01-22 12"},"coordinates":[5816,5763]},{"type":"Point","properties":{"Station_ID":"TCEM4","Station_Nam":"TRAVERSE CITY 5ESE","Latitude":"44.73370","Longitude":"-85.51180","Snowdepth":"12.000","Units":"in","Rept_Date":"2020-01-22 12"},"coordinates":[2752,5980]},{"type":"Point","properties":{"Station_ID":"STRW3","Station_Nam":"STRATFORD 1NW","Latitude":"44.81750","Longitude":"-90.08990","Snowdepth":"12.000","Units":"in","Rept_Date":"2020-01-22 13"},"coordinates":[1678,6029]},{"type":"Point","properties":{"Station_ID":"SRYN6","Station_Nam":"STRYKERSVILLE SNOW","Latitude":"42.69520","Longitude":"-78.44980","Snowdepth":"12.000","Units":"in","Rept_Date":"2020-01-22 17"},"coordinates":[4410,4809]},{"type":"Point","properties":{"Station_ID":"SPCW3","Station_Nam":"SPENCER-WWTP","Latitude":"44.75390","Longitude":"-90.28920","Snowdepth":"12.000","Units":"in","Rept_Date":"2020-01-22 13"},"coordinates":[1631,5992]},{"type":"Point","properties":{"Station_ID":"RRLW3","Station_Nam":"MERRILL,WI","Latitude":"45.17860","Longitude":"-89.66170","Snowdepth":"12.000","Units":"in","Rept_Date":"2020-01-22 14"},"coordinates":[1778,6236]},{"type":"Point","properties":{"Station_ID":"PTBN3","Station_Nam":"PITTSBURG RESERVOIR","Latitude":"45.04690","Longitude":"-71.38300","Snowdepth":"12.000","Units":"in","Rept_Date":"2020-01-22 12"},"coordinates":[6068,6160]},{"type":"Point","properties":{"Station_ID":"POLM1","Station_Nam":"POLAND","Latitude":"44.00700","Longitude":"-70.36140","Snowdepth":"12.000","Units":"in","Rept_Date":"2020-01-22 12"},"coordinates":[6308,5563]},{"type":"Point","properties":{"Station_ID":"NY-FK-7","Station_Nam":"SARANAC LAKE 6.2 N, NY","Latitude":"44.41359","Longitude":"-74.15211","Snowdepth":"12.000","Units":"in","Rept_Date":"2020-01-22 12"},"coordinates":[5418,5796]},{"type":"Point","properties":{"Station_ID":"NPTV1","Station_Nam":"NEWPORT","Latitude":"44.94900","Longitude":"-72.19120","Snowdepth":"12.000","Units":"in","Rept_Date":"2020-01-22 12"},"coordinates":[5878,6104]},{"type":"Point","properties":{"Station_ID":"MYOM4","Station_Nam":"MIO WWTP","Latitude":"44.64660","Longitude":"-84.11580","Snowdepth":"12.000","Units":"in","Rept_Date":"2020-01-22 13"},"coordinates":[3080,5930]},{"type":"Point","properties":{"Station_ID":"MONS2","Station_Nam":"SIOUX FALLS-26MI.WNW","Latitude":"43.70190","Longitude":"-97.18330","Snowdepth":"12.000","Units":"in","Rept_Date":"2020-01-22 14"},"coordinates":[13,5387]},{"type":"Point","properties":{"Station_ID":"MLRM5","Station_Nam":"MELROSE","Latitude":"45.67710","Longitude":"-94.80200","Snowdepth":"12.000","Units":"in","Rept_Date":"2020-01-22 13"},"coordinates":[572,6522]},{"type":"Point","properties":{"Station_ID":"MIAM5","Station_Nam":"MILAN 1NW","Latitude":"45.12190","Longitude":"-95.92690","Snowdepth":"12.000","Units":"in","Rept_Date":"2020-01-23 00"},"coordinates":[308,6203]},{"type":"Point","properties":{"Station_ID":"MI-GT-25","Station_Nam":"TRAVERSE CITY 4.7 ESE, MI","Latitude":"44.73370","Longitude":"-85.51189","Snowdepth":"12.000","Units":"in","Rept_Date":"2020-01-22 12"},"coordinates":[2752,5980]},{"type":"Point","properties":{"Station_ID":"HTLM4","Station_Nam":"SNOW PAID OBSERVER FOR KHTL","Latitude":"44.34470","Longitude":"-84.67730","Snowdepth":"12.000","Units":"in","Rept_Date":"2020-01-22 18"},"coordinates":[2948,5757]},{"type":"Point","properties":{"Station_ID":"HTL","Station_Nam":"ROSCOMMON COUNTY AIRPORT","Latitude":"44.35000","Longitude":"-84.66670","Snowdepth":"12.000","Units":"in","Rept_Date":"2020-01-23 00"},"coordinates":[2951,5760]},{"type":"Point","properties":{"Station_ID":"GYX","Station_Nam":"PORTLAND, ME","Latitude":"43.89250","Longitude":"-70.25500","Snowdepth":"12.000","Units":"in","Rept_Date":"2020-01-22 12"},"coordinates":[6333,5497]},{"type":"Point","properties":{"Station_ID":"GHMN3","Station_Nam":"PINKHAM NOTCH","Latitude":"44.25800","Longitude":"-71.25250","Snowdepth":"12.000","Units":"in","Rept_Date":"2020-01-22 10"},"coordinates":[6099,5707]},{"type":"Point","properties":{"Station_ID":"FORM5","Station_Nam":"FOREST LAKE 5NE","Latitude":"45.33170","Longitude":"-92.89820","Snowdepth":"12.000","Units":"in","Rept_Date":"2020-01-22 13"},"coordinates":[1019,6324]},{"type":"Point","properties":{"Station_ID":"FFLN3","Station_Nam":"FRANKLIN FALLS DAM","Latitude":"43.47030","Longitude":"-71.65370","Snowdepth":"12.000","Units":"in","Rept_Date":"2020-01-22 12"},"coordinates":[6005,5254]},{"type":"Point","properties":{"Station_ID":"ERB19","Station_Nam":"CEBF STRYKERSVILLE","Latitude":"42.70000","Longitude":"-78.45000","Snowdepth":"12.000","Units":"in","Rept_Date":"2020-01-22 17"},"coordinates":[4410,4812]},{"type":"Point","properties":{"Station_ID":"ENGM4","Station_Nam":"ENGADINE MDOT","Latitude":"46.12800","Longitude":"-85.56960","Snowdepth":"12.000","Units":"in","Rept_Date":"2020-01-22 12"},"coordinates":[2739,6782]},{"type":"Point","properties":{"Station_ID":"EAU","Station_Nam":"CHIPPEWA VALLEY REGIONAL AIRPORT","Latitude":"44.86650","Longitude":"-91.48790","Snowdepth":"12.000","Units":"in","Rept_Date":"2020-01-23 00"},"coordinates":[1350,6057]},{"type":"Point","properties":{"Station_ID":"DURM1","Station_Nam":"DURHAM","Latitude":"43.99960","Longitude":"-70.09630","Snowdepth":"12.000","Units":"in","Rept_Date":"2020-01-22 12"},"coordinates":[6370,5559]},{"type":"Point","properties":{"Station_ID":"DTVM4","Station_Nam":"DETOUR VILLAGE","Latitude":"45.99830","Longitude":"-83.90130","Snowdepth":"12.000","Units":"in","Rept_Date":"2020-01-22 13"},"coordinates":[3130,6707]},{"type":"Point","properties":{"Station_ID":"CHES2","Station_Nam":"CHESTER 2N","Latitude":"43.92830","Longitude":"-96.93160","Snowdepth":"12.000","Units":"in","Rept_Date":"2020-01-22 13"},"coordinates":[72,5518]},{"type":"Point","properties":{"Station_ID":"CAN-PE-10","Station_Nam":"NEW LONDON 1.6 ENE, CA","Latitude":"46.46985","Longitude":"-63.49200","Snowdepth":"12.000","Units":"in","Rept_Date":"2020-01-22 12"},"coordinates":[7920,6978]},{"type":"Point","properties":{"Station_ID":"CAN-ON-757","Station_Nam":"SAULT STE. MARIE 2.8 ESE - GLFC, CAN","Latitude":"46.50300","Longitude":"-84.30300","Snowdepth":"12.000","Units":"in","Rept_Date":"2020-01-22 13"},"coordinates":[3036,6997]},{"type":"Point","properties":{"Station_ID":"CAN-ON-208","Station_Nam":"PAKENHAM 7.8 NNW, CAN","Latitude":"45.39166","Longitude":"-76.34111","Snowdepth":"12.000","Units":"in","Rept_Date":"2020-01-22 12"},"coordinates":[4904,6358]},{"type":"Point","properties":{"Station_ID":"BTLN3","Station_Nam":"BARTLETT","Latitude":"44.08380","Longitude":"-71.29340","Snowdepth":"12.000","Units":"in","Rept_Date":"2020-01-22 12"},"coordinates":[6089,5607]},{"type":"Point","properties":{"Station_ID":"BREW3","Station_Nam":"SURING","Latitude":"44.99580","Longitude":"-88.37860","Snowdepth":"12.000","Units":"in","Rept_Date":"2020-01-22 13"},"coordinates":[2079,6131]},{"type":"Point","properties":{"Station_ID":"BENN6","Station_Nam":"BENNETTS BRIDGE","Latitude":"43.53180","Longitude":"-75.95260","Snowdepth":"12.000","Units":"in","Rept_Date":"2020-01-22 12"},"coordinates":[4996,5290]},{"type":"Point","properties":{"Station_ID":"ME-CM-54","Station_Nam":"WINDHAM 3.9 NW, ME","Latitude":"43.85787","Longitude":"-70.46200","Snowdepth":"11.700","Units":"in","Rept_Date":"2020-01-22 12"},"coordinates":[6284,5477]},{"type":"Point","properties":{"Station_ID":"CAN-QC-51","Station_Nam":"BELOEIL 0.7 NW, CAN","Latitude":"45.58049","Longitude":"-73.21218","Snowdepth":"11.200","Units":"in","Rept_Date":"2020-01-22 12"},"coordinates":[5639,6467]},{"type":"Point","properties":{"Station_ID":"WORV1","Station_Nam":"WORCESTER 2 W","Latitude":"44.37470","Longitude":"-72.58220","Snowdepth":"11.000","Units":"in","Rept_Date":"2020-01-22 12"},"coordinates":[5787,5774]},{"type":"Point","properties":{"Station_ID":"WOLN3","Station_Nam":"WOLFEBORO","Latitude":"43.59020","Longitude":"-71.20190","Snowdepth":"11.000","Units":"in","Rept_Date":"2020-01-22 12"},"coordinates":[6111,5323]},{"type":"Point","properties":{"Station_ID":"WNNM5","Station_Nam":"WINNEBAGO","Latitude":"43.76920","Longitude":"-94.18730","Snowdepth":"11.000","Units":"in","Rept_Date":"2020-01-22 14"},"coordinates":[716,5426]},{"type":"Point","properties":{"Station_ID":"WLSN6","Station_Nam":"WALES","Latitude":"42.73920","Longitude":"-78.58780","Snowdepth":"11.000","Units":"in","Rept_Date":"2020-01-22 12"},"coordinates":[4377,4834]},{"type":"Point","properties":{"Station_ID":"WENN3","Station_Nam":"P.O. BOX 197 WENTWORTH, NH","Latitude":"43.95190","Longitude":"-71.91560","Snowdepth":"11.000","Units":"in","Rept_Date":"2020-01-22 12"},"coordinates":[5943,5531]},{"type":"Point","properties":{"Station_ID":"WDOM5","Station_Nam":"WINDOM","Latitude":"43.87700","Longitude":"-95.11590","Snowdepth":"11.000","Units":"in","Rept_Date":"2020-01-22 14"},"coordinates":[498,5488]},{"type":"Point","properties":{"Station_ID":"WASW3","Station_Nam":"WASHINGTON IS","Latitude":"45.35800","Longitude":"-86.89110","Snowdepth":"11.000","Units":"in","Rept_Date":"2020-01-22 13"},"coordinates":[2428,6339]},{"type":"Point","properties":{"Station_ID":"VT-WR-2","Station_Nam":"POMFRET 2.6 N, VT","Latitude":"43.74230","Longitude":"-72.52550","Snowdepth":"11.000","Units":"in","Rept_Date":"2020-01-22 12"},"coordinates":[5800,5411]},{"type":"Point","properties":{"Station_ID":"VT-OL-2","Station_Nam":"BARTON 3.0 ENE, VT","Latitude":"44.75863","Longitude":"-72.11680","Snowdepth":"11.000","Units":"in","Rept_Date":"2020-01-22 12"},"coordinates":[5896,5995]},{"type":"Point","properties":{"Station_ID":"SCSM5","Station_Nam":"ST CLOUD STATE","Latitude":"45.55100","Longitude":"-94.14950","Snowdepth":"11.000","Units":"in","Rept_Date":"2020-01-22 12"},"coordinates":[725,6450]},{"type":"Point","properties":{"Station_ID":"SCRW3","Station_Nam":"ST CROIX FALLS","Latitude":"45.41170","Longitude":"-92.64660","Snowdepth":"11.000","Units":"in","Rept_Date":"2020-01-22 13"},"coordinates":[1078,6370]},{"type":"Point","properties":{"Station_ID":"NY-FK-9","Station_Nam":"GABRIELS 1.3 SE, NY","Latitude":"44.41934","Longitude":"-74.16194","Snowdepth":"11.000","Units":"in","Rept_Date":"2020-01-22 12"},"coordinates":[5416,5800]},{"type":"Point","properties":{"Station_ID":"NY-ER-65","Station_Nam":"BOSTON 1.5 NE, NY","Latitude":"42.65470","Longitude":"-78.72010","Snowdepth":"11.000","Units":"in","Rept_Date":"2020-01-22 12"},"coordinates":[4346,4786]},{"type":"Point","properties":{"Station_ID":"NUMM5","Station_Nam":"NEW ULM 3SE","Latitude":"44.29450","Longitude":"-94.40840","Snowdepth":"11.000","Units":"in","Rept_Date":"2020-01-22 11"},"coordinates":[664,5728]},{"type":"Point","properties":{"Station_ID":"NH-GR-1","Station_Nam":"BRISTOL 0.4 SSE, NH","Latitude":"43.59490","Longitude":"-71.74140","Snowdepth":"11.000","Units":"in","Rept_Date":"2020-01-22 12"},"coordinates":[5984,5326]},{"type":"Point","properties":{"Station_ID":"NCBN6","Station_Nam":"NEWCOMB","Latitude":"43.97070","Longitude":"-74.22200","Snowdepth":"11.000","Units":"in","Rept_Date":"2020-01-22 13"},"coordinates":[5402,5542]},{"type":"Point","properties":{"Station_ID":"MNG0GYSN","Station_Nam":"LONSDALE 1.1 SSW","Latitude":"44.46445","Longitude":"-93.43293","Snowdepth":"11.000","Units":"in","Rept_Date":"2020-01-22 12"},"coordinates":[893,5826]},{"type":"Point","properties":{"Station_ID":"MNF74YNU","Station_Nam":"NEW ULM 3.3 ESE","Latitude":"44.29029","Longitude":"-94.40196","Snowdepth":"11.000","Units":"in","Rept_Date":"2020-01-22 10"},"coordinates":[666,5726]},{"type":"Point","properties":{"Station_ID":"MN-SL-139","Station_Nam":"DULUTH 1.2 SE, MN","Latitude":"46.77000","Longitude":"-92.08826","Snowdepth":"11.000","Units":"in","Rept_Date":"2020-01-22 12"},"coordinates":[1209,7151]},{"type":"Point","properties":{"Station_ID":"MN-MC-16","Station_Nam":"HUTCHINSON 0.1 ENE, MN","Latitude":"44.88633","Longitude":"-94.37503","Snowdepth":"11.000","Units":"in","Rept_Date":"2020-01-22 13"},"coordinates":[672,6068]},{"type":"Point","properties":{"Station_ID":"MN-CG-16","Station_Nam":"NORTH BRANCH 1.3 NNW, MN","Latitude":"45.53121","Longitude":"-92.97110","Snowdepth":"11.000","Units":"in","Rept_Date":"2020-01-22 12"},"coordinates":[1002,6439]},{"type":"Point","properties":{"Station_ID":"MI-BZ-1","Station_Nam":"BENZONIA 5.3 S, MI","Latitude":"44.53976","Longitude":"-86.10650","Snowdepth":"11.000","Units":"in","Rept_Date":"2020-01-22 14"},"coordinates":[2613,5869]},{"type":"Point","properties":{"Station_ID":"ME-FR-22","Station_Nam":"FARMINGTON 4.8 NNW, ME","Latitude":"44.73396","Longitude":"-70.18007","Snowdepth":"11.000","Units":"in","Rept_Date":"2020-01-22 14"},"coordinates":[6350,5981]},{"type":"Point","properties":{"Station_ID":"ME-AN-41","Station_Nam":"AUBURN 2.1 NNW, ME","Latitude":"44.11275","Longitude":"-70.26452","Snowdepth":"11.000","Units":"in","Rept_Date":"2020-01-22 12"},"coordinates":[6331,5624]},{"type":"Point","properties":{"Station_ID":"MALN6","Station_Nam":"MALONE","Latitude":"44.84180","Longitude":"-74.30600","Snowdepth":"11.000","Units":"in","Rept_Date":"2020-01-22 12"},"coordinates":[5382,6042]},{"type":"Point","properties":{"Station_ID":"LPLN6","Station_Nam":"LAKE PLACID 2 S","Latitude":"44.30420","Longitude":"-73.98390","Snowdepth":"11.000","Units":"in","Rept_Date":"2020-01-22 13"},"coordinates":[5458,5734]},{"type":"Point","properties":{"Station_ID":"LBKV1","Station_Nam":"LYE BROOK","Latitude":"43.05000","Longitude":"-73.03330","Snowdepth":"11.000","Units":"in","Rept_Date":"2020-01-23 06"},"coordinates":[5681,5013]},{"type":"Point","properties":{"Station_ID":"LACN3","Station_Nam":"LACONIA","Latitude":"43.53010","Longitude":"-71.46260","Snowdepth":"11.000","Units":"in","Rept_Date":"2020-01-22 12"},"coordinates":[6049,5289]},{"type":"Point","properties":{"Station_ID":"JIMW3","Station_Nam":"JIM FALLS 3NW","Latitude":"45.08270","Longitude":"-91.33130","Snowdepth":"11.000","Units":"in","Rept_Date":"2020-01-22 12"},"coordinates":[1386,6181]},{"type":"Point","properties":{"Station_ID":"HYTS2","Station_Nam":"HAYTI 1W","Latitude":"44.66330","Longitude":"-97.22670","Snowdepth":"11.000","Units":"in","Rept_Date":"2020-01-22 14"},"coordinates":[3,5940]},{"type":"Point","properties":{"Station_ID":"HMYM1","Station_Nam":"HARMONY","Latitude":"44.94660","Longitude":"-69.54560","Snowdepth":"11.000","Units":"in","Rept_Date":"2020-01-22 12"},"coordinates":[6499,6103]},{"type":"Point","properties":{"Station_ID":"EJDM4","Station_Nam":"EAST JORDAN","Latitude":"45.15190","Longitude":"-85.13220","Snowdepth":"11.000","Units":"in","Rept_Date":"2020-01-22 13"},"coordinates":[2841,6221]},{"type":"Point","properties":{"Station_ID":"DWSM5","Station_Nam":"DAWSON","Latitude":"44.93180","Longitude":"-96.04500","Snowdepth":"11.000","Units":"in","Rept_Date":"2020-01-22 13"},"coordinates":[280,6094]},{"type":"Point","properties":{"Station_ID":"CAN-PE-50","Station_Nam":"BEDFORD CORNER 3.9 WNW, CAN","Latitude":"46.34628","Longitude":"-63.06157","Snowdepth":"11.000","Units":"in","Rept_Date":"2020-01-22 11"},"coordinates":[8021,6907]},{"type":"Point","properties":{"Station_ID":"BRLN3","Station_Nam":"BERLIN","Latitude":"44.45350","Longitude":"-71.18540","Snowdepth":"11.000","Units":"in","Rept_Date":"2020-01-22 12"},"coordinates":[6115,5819]},{"type":"Point","properties":{"Station_ID":"8D3","Station_Nam":"SISSETON MUNICIPAL AP","Latitude":"45.67080","Longitude":"-96.99610","Snowdepth":"11.000","Units":"in","Rept_Date":"2020-01-22 12"},"coordinates":[57,6519]},{"type":"Point","properties":{"Station_ID":"CAN-ON-491","Station_Nam":"MILVERTON 1.1 ESE- CANWARN, CAN","Latitude":"43.56074","Longitude":"-80.90887","Snowdepth":"10.900","Units":"in","Rept_Date":"2020-01-22 11"},"coordinates":[3832,5306]},{"type":"Point","properties":{"Station_ID":"WI-WS-5","Station_Nam":"JACKSON 0.2 WSW, WI","Latitude":"43.32007","Longitude":"-88.16820","Snowdepth":"10.500","Units":"in","Rept_Date":"2020-01-22 12"},"coordinates":[2129,5168]},{"type":"Point","properties":{"Station_ID":"VT-WS-30","Station_Nam":"WOODBURY 3.4 NNW, VT","Latitude":"44.48825","Longitude":"-72.43258","Snowdepth":"10.500","Units":"in","Rept_Date":"2020-01-22 12"},"coordinates":[5822,5839]},{"type":"Point","properties":{"Station_ID":"VT-ES-3","Station_Nam":"LUNENBURG 2.3 NNW, VT","Latitude":"44.49324","Longitude":"-71.70446","Snowdepth":"10.500","Units":"in","Rept_Date":"2020-01-22 12"},"coordinates":[5993,5842]},{"type":"Point","properties":{"Station_ID":"VRBN6","Station_Nam":"VARYSBURG W (20) SNOW","Latitude":"42.76250","Longitude":"-78.33640","Snowdepth":"10.500","Units":"in","Rept_Date":"2020-01-22 17"},"coordinates":[4436,4848]},{"type":"Point","properties":{"Station_ID":"NY-ES-6","Station_Nam":"OLMSTEDVILLE 4.6 NNE, NY","Latitude":"43.83350","Longitude":"-73.89780","Snowdepth":"10.500","Units":"in","Rept_Date":"2020-01-22 13"},"coordinates":[5478,5463]},{"type":"Point","properties":{"Station_ID":"NY-ER-166","Station_Nam":"BOSTON 2.5 NE, NY","Latitude":"42.65480","Longitude":"-78.70300","Snowdepth":"10.500","Units":"in","Rept_Date":"2020-01-22 12"},"coordinates":[4350,4786]},{"type":"Point","properties":{"Station_ID":"ME-LN-21","Station_Nam":"WESTPORT ISLAND 2.2 SSW, ME","Latitude":"43.88806","Longitude":"-69.70890","Snowdepth":"10.500","Units":"in","Rept_Date":"2020-01-22 13"},"coordinates":[6461,5494]},{"type":"Point","properties":{"Station_ID":"FOTN6","Station_Nam":"FOOTES - CONCORD SNOW","Latitude":"42.57950","Longitude":"-78.64480","Snowdepth":"10.500","Units":"in","Rept_Date":"2020-01-22 17"},"coordinates":[4364,4742]},{"type":"Point","properties":{"Station_ID":"ERB20","Station_Nam":"CEBF VARYSBURG 1W","Latitude":"42.77000","Longitude":"-78.33000","Snowdepth":"10.500","Units":"in","Rept_Date":"2020-01-22 17"},"coordinates":[4438,4852]},{"type":"Point","properties":{"Station_ID":"ERB12","Station_Nam":"CEBF FOOTES","Latitude":"42.60000","Longitude":"-78.65000","Snowdepth":"10.500","Units":"in","Rept_Date":"2020-01-22 17"},"coordinates":[4363,4754]},{"type":"Point","properties":{"Station_ID":"CAN-NB-16","Station_Nam":"DORCHESTER 1.0 SSE, CAN","Latitude":"45.89160","Longitude":"-64.51269","Snowdepth":"10.200","Units":"in","Rept_Date":"2020-01-22 12"},"coordinates":[7681,6646]},{"type":"Point","properties":{"Station_ID":"WMTI4","Station_Nam":"FORT DODGE,IA","Latitude":"42.50610","Longitude":"-94.20110","Snowdepth":"10.000","Units":"in","Rept_Date":"2020-01-22 14"},"coordinates":[713,4700]},{"type":"Point","properties":{"Station_ID":"WI-PT-8","Station_Nam":"RUDOLPH 2.1 NNE, WI","Latitude":"44.52553","Longitude":"-89.78677","Snowdepth":"10.000","Units":"in","Rept_Date":"2020-01-22 11"},"coordinates":[1749,5861]},{"type":"Point","properties":{"Station_ID":"WHTM5","Station_Nam":"WHEATON,MN","Latitude":"45.80000","Longitude":"-96.48330","Snowdepth":"10.000","Units":"in","Rept_Date":"2020-01-22 14"},"coordinates":[177,6593]},{"type":"Point","properties":{"Station_ID":"VT-WS-19","Station_Nam":"WATERBURY 3.0 NW, VT","Latitude":"44.36060","Longitude":"-72.80770","Snowdepth":"10.000","Units":"in","Rept_Date":"2020-01-22 11"},"coordinates":[5734,5766]},{"type":"Point","properties":{"Station_ID":"VT-BN-12","Station_Nam":"STAMFORD 5.0 NNE, VT","Latitude":"42.82000","Longitude":"-73.02000","Snowdepth":"10.000","Units":"in","Rept_Date":"2020-01-22 21"},"coordinates":[5684,4881]},{"type":"Point","properties":{"Station_ID":"TURM1","Station_Nam":"TURNER","Latitude":"44.28220","Longitude":"-70.25610","Snowdepth":"10.000","Units":"in","Rept_Date":"2020-01-22 12"},"coordinates":[6333,5721]},{"type":"Point","properties":{"Station_ID":"THLM5","Station_Nam":"THEILMAN 1SSW","Latitude":"44.28130","Longitude":"-92.19430","Snowdepth":"10.000","Units":"in","Rept_Date":"2020-01-22 13"},"coordinates":[1184,5720]},{"type":"Point","properties":{"Station_ID":"STIM4","Station_Nam":"ST IGNACE","Latitude":"45.86080","Longitude":"-84.71960","Snowdepth":"10.000","Units":"in","Rept_Date":"2020-01-22 12"},"coordinates":[2938,6628]},{"type":"Point","properties":{"Station_ID":"SSSS2","Station_Nam":"MILBANK-36MI.NW","Latitude":"45.66670","Longitude":"-97.00000","Snowdepth":"10.000","Units":"in","Rept_Date":"2020-01-23 04"},"coordinates":[56,6517]},{"type":"Point","properties":{"Station_ID":"SPRI4","Station_Nam":"SPIRIT LAKE","Latitude":"43.42310","Longitude":"-95.10000","Snowdepth":"10.000","Units":"in","Rept_Date":"2020-01-22 13"},"coordinates":[502,5227]},{"type":"Point","properties":{"Station_ID":"SHIW3","Station_Nam":"SHIOCTON","Latitude":"44.43890","Longitude":"-88.58390","Snowdepth":"10.000","Units":"in","Rept_Date":"2020-01-22 14"},"coordinates":[2031,5811]},{"type":"Point","properties":{"Station_ID":"SANI4","Station_Nam":"ST ANSGAR","Latitude":"43.38170","Longitude":"-92.92320","Snowdepth":"10.000","Units":"in","Rept_Date":"2020-01-22 12"},"coordinates":[1013,5203]},{"type":"Point","properties":{"Station_ID":"RILW3","Station_Nam":"RICE LAKE","Latitude":"45.41660","Longitude":"-91.77240","Snowdepth":"10.000","Units":"in","Rept_Date":"2020-01-22 14"},"coordinates":[1283,6373]},{"type":"Point","properties":{"Station_ID":"NY-SL-6","Station_Nam":"HANNAWA FALLS 0.1 SW, NY","Latitude":"44.61154","Longitude":"-74.97190","Snowdepth":"10.000","Units":"in","Rept_Date":"2020-01-22 12"},"coordinates":[5226,5910]},{"type":"Point","properties":{"Station_ID":"NY-ER-158","Station_Nam":"EAST AURORA 2.7 SSE, NY","Latitude":"42.72936","Longitude":"-78.60561","Snowdepth":"10.000","Units":"in","Rept_Date":"2020-01-22 12"},"coordinates":[4373,4829]},{"type":"Point","properties":{"Station_ID":"NH-MR-41","Station_Nam":"NEWBURY 1.6 NW, NH","Latitude":"43.33667","Longitude":"-72.06060","Snowdepth":"10.000","Units":"in","Rept_Date":"2020-01-22 12"},"coordinates":[5909,5178]},{"type":"Point","properties":{"Station_ID":"NH-CS-7","Station_Nam":"LANCASTER 0.5 N, NH","Latitude":"44.49611","Longitude":"-71.57640","Snowdepth":"10.000","Units":"in","Rept_Date":"2020-01-22 12"},"coordinates":[6023,5844]},{"type":"Point","properties":{"Station_ID":"NH-CR-9","Station_Nam":"MADISON 1.7 SE, NH","Latitude":"43.87928","Longitude":"-71.12660","Snowdepth":"10.000","Units":"in","Rept_Date":"2020-01-22 12"},"coordinates":[6128,5489]},{"type":"Point","properties":{"Station_ID":"MRRN6","Station_Nam":"MORRISVILLE 6 SW","Latitude":"42.84160","Longitude":"-75.72630","Snowdepth":"10.000","Units":"in","Rept_Date":"2020-01-22 12"},"coordinates":[5049,4893]},{"type":"Point","properties":{"Station_ID":"MRFS2","Station_Nam":"MADISON,SD","Latitude":"44.00000","Longitude":"-97.23330","Snowdepth":"10.000","Units":"in","Rept_Date":"2020-01-22 15"},"coordinates":[1,5559]},{"type":"Point","properties":{"Station_ID":"MN-SR-24","Station_Nam":"PAYNESVILLE 1.9 SSW, MN","Latitude":"45.35170","Longitude":"-94.73120","Snowdepth":"10.000","Units":"in","Rept_Date":"2020-01-22 13"},"coordinates":[588,6336]},{"type":"Point","properties":{"Station_ID":"MN-RC-1","Station_Nam":"MONTGOMERY 3.2 ENE, MN","Latitude":"44.46400","Longitude":"-93.51980","Snowdepth":"10.000","Units":"in","Rept_Date":"2020-01-22 11"},"coordinates":[873,5825]},{"type":"Point","properties":{"Station_ID":"MI-MC-4","Station_Nam":"ST. IGNACE 0.5SE, MI","Latitude":"45.86057","Longitude":"-84.71980","Snowdepth":"10.000","Units":"in","Rept_Date":"2020-01-22 12"},"coordinates":[2938,6628]},{"type":"Point","properties":{"Station_ID":"MFDW3","Station_Nam":"MARSHFIELD EXP FARM","Latitude":"44.64110","Longitude":"-90.13330","Snowdepth":"10.000","Units":"in","Rept_Date":"2020-01-22 13"},"coordinates":[1668,5927]},{"type":"Point","properties":{"Station_ID":"ME-YK-28","Station_Nam":"BIDDEFORD 1.5 NNE, ME","Latitude":"43.48679","Longitude":"-70.43470","Snowdepth":"10.000","Units":"in","Rept_Date":"2020-01-22 12"},"coordinates":[6291,5264]},{"type":"Point","properties":{"Station_ID":"ME-WL-27","Station_Nam":"PROSPECT 2.6 W, ME","Latitude":"44.55719","Longitude":"-68.91732","Snowdepth":"10.000","Units":"in","Rept_Date":"2020-01-22 12"},"coordinates":[6647,5879]},{"type":"Point","properties":{"Station_ID":"ME-SG-1","Station_Nam":"BATH 1.1 WSW, ME","Latitude":"43.93063","Longitude":"-69.85730","Snowdepth":"10.000","Units":"in","Rept_Date":"2020-01-22 12"},"coordinates":[6426,5519]},{"type":"Point","properties":{"Station_ID":"MAPM4","Station_Nam":"MAPLE CITY 1E","Latitude":"44.85500","Longitude":"-85.83520","Snowdepth":"10.000","Units":"in","Rept_Date":"2020-01-22 23"},"coordinates":[2676,6050]},{"type":"Point","properties":{"Station_ID":"MA-HS-7","Station_Nam":"PLAINFIELD 2.2 SW, MA","Latitude":"42.49272","Longitude":"-72.94540","Snowdepth":"10.000","Units":"in","Rept_Date":"2020-01-22 13"},"coordinates":[5701,4693]},{"type":"Point","properties":{"Station_ID":"LKPN3","Station_Nam":"LAKEPORT 2","Latitude":"43.54910","Longitude":"-71.46450","Snowdepth":"10.000","Units":"in","Rept_Date":"2020-01-22 13"},"coordinates":[6049,5300]},{"type":"Point","properties":{"Station_ID":"LAMM5","Station_Nam":"LAMBERTON SW RESEARCH AND OUTREACH CENTER","Latitude":"44.23950","Longitude":"-95.31520","Snowdepth":"10.000","Units":"in","Rept_Date":"2020-01-22 14"},"coordinates":[451,5696]},{"type":"Point","properties":{"Station_ID":"JACW3","Station_Nam":"JACKSON","Latitude":"43.31940","Longitude":"-88.16810","Snowdepth":"10.000","Units":"in","Rept_Date":"2020-01-22 12"},"coordinates":[2129,5168]},{"type":"Point","properties":{"Station_ID":"INDN6","Station_Nam":"INDIAN LAKE","Latitude":"43.75500","Longitude":"-74.27560","Snowdepth":"10.000","Units":"in","Rept_Date":"2020-01-22 17"},"coordinates":[5389,5418]},{"type":"Point","properties":{"Station_ID":"ILEW3","Station_Nam":"STILES 1S","Latitude":"44.84190","Longitude":"-88.05420","Snowdepth":"10.000","Units":"in","Rept_Date":"2020-01-22 13"},"coordinates":[2156,6043]},{"type":"Point","properties":{"Station_ID":"ETTW3","Station_Nam":"ETTRICK 4WNW","Latitude":"44.19000","Longitude":"-91.34240","Snowdepth":"10.000","Units":"in","Rept_Date":"2020-01-22 14"},"coordinates":[1384,5668]},{"type":"Point","properties":{"Station_ID":"ERI27","Station_Nam":"NMPA INDIAN LAKE (NEAR)","Latitude":"43.75000","Longitude":"-74.27000","Snowdepth":"10.000","Units":"in","Rept_Date":"2020-01-22 17"},"coordinates":[5391,5415]},{"type":"Point","properties":{"Station_ID":"EMRV1","Station_Nam":"LAKE ELMORE RAWS","Latitude":"44.54310","Longitude":"-72.52940","Snowdepth":"10.000","Units":"in","Rept_Date":"2020-01-22 21"},"coordinates":[5799,5871]},{"type":"Point","properties":{"Station_ID":"EBKV1","Station_Nam":"MISSISQUOI RIVER","Latitude":"44.96000","Longitude":"-72.69690","Snowdepth":"10.000","Units":"in","Rept_Date":"2020-01-22 17"},"coordinates":[5760,6110]},{"type":"Point","properties":{"Station_ID":"CNNS2","Station_Nam":"CANTON","Latitude":"43.31120","Longitude":"-96.58770","Snowdepth":"10.000","Units":"in","Rept_Date":"2020-01-22 12"},"coordinates":[153,5163]},