{"type":"Topology","objects":{"snowdepth_geo":{"type":"GeometryCollection","name":"snowdepth","crs":{"type":"name","properties":{"name":"urn:ogc:def:crs:OGC:1.3:CRS84"}},"geometries":[{"type":"Point","properties":{"Station_ID":"PRKM4","Station_Nam":"MUNISING EAST","Latitude":"46.42580","Longitude":"-86.62000","Snowdepth":"76.500","Units":"in","Rept_Date":"2020-03-04 06"},"coordinates":[2389,6701]},{"type":"Point","properties":{"Station_ID":"MMNV1","Station_Nam":"MT. MANSFIELD","Latitude":"44.52480","Longitude":"-72.81540","Snowdepth":"74.000","Units":"in","Rept_Date":"2020-03-03 21"},"coordinates":[5495,5518]},{"type":"Point","properties":{"Station_ID":"HTLN3","Station_Nam":"HERMIT LAKE SNOWPLOT","Latitude":"44.26130","Longitude":"-71.28330","Snowdepth":"68.000","Units":"in","Rept_Date":"2020-03-03 10"},"coordinates":[5840,5354]},{"type":"Point","properties":{"Station_ID":"OGIQ6","Station_Nam":"OGOKI CAMP","Latitude":"50.76680","Longitude":"-87.85820","Snowdepth":"61.100","Units":"in","Rept_Date":"2020-03-04 06"},"coordinates":[2111,9402]},{"type":"Point","properties":{"Station_ID":"HVCN3","Station_Nam":"HARVARD CABIN SNOWPLOT","Latitude":"44.26630","Longitude":"-71.27790","Snowdepth":"57.000","Units":"in","Rept_Date":"2020-03-03 11"},"coordinates":[5841,5357]},{"type":"Point","properties":{"Station_ID":"CAN-NL-11","Station_Nam":"MOUNT PEARL 2.1 SSE, CA","Latitude":"47.50347","Longitude":"-52.79730","Snowdepth":"47.600","Units":"in","Rept_Date":"2020-03-03 10"},"coordinates":[9999,7371]},{"type":"Point","properties":{"Station_ID":"PDLM4","Station_Nam":"PAINESDALE","Latitude":"47.04160","Longitude":"-88.67170","Snowdepth":"46.000","Units":"in","Rept_Date":"2020-03-03 13"},"coordinates":[1928,7084]},{"type":"Point","properties":{"Station_ID":"DVLQ6","Station_Nam":"DEVIOUS LAKE","Latitude":"49.19890","Longitude":"-87.76440","Snowdepth":"43.460","Units":"in","Rept_Date":"2020-03-04 06"},"coordinates":[2132,8426]},{"type":"Point","properties":{"Station_ID":"CAN-NS-39","Station_Nam":"ST. ANNS 2.8 NW, CA","Latitude":"46.25082","Longitude":"-60.64340","Snowdepth":"40.000","Units":"in","Rept_Date":"2020-03-03 11"},"coordinates":[8234,6592]},{"type":"Point","properties":{"Station_ID":"QCU","Station_Nam":"QCU","Latitude":"47.82750","Longitude":"-76.59830","Snowdepth":"38.858","Units":"in","Rept_Date":"2020-03-03 12"},"coordinates":[4644,7573]},{"type":"Point","properties":{"Station_ID":"QGO","Station_Nam":"QGO","Latitude":"48.85500","Longitude":"-74.20640","Snowdepth":"38.583","Units":"in","Rept_Date":"2020-03-03 12"},"coordinates":[5182,8212]},{"type":"Point","properties":{"Station_ID":"QWE","Station_Nam":"QWE","Latitude":"47.84610","Longitude":"-73.80670","Snowdepth":"38.031","Units":"in","Rept_Date":"2020-03-03 12"},"coordinates":[5272,7585]},{"type":"Point","properties":{"Station_ID":"NH-CS-10","Station_Nam":"RANDOLPH 1.4 NE, NH","Latitude":"44.38824","Longitude":"-71.26950","Snowdepth":"37.000","Units":"in","Rept_Date":"2020-03-03 12"},"coordinates":[5843,5433]},{"type":"Point","properties":{"Station_ID":"QGD","Station_Nam":"QGD","Latitude":"51.11140","Longitude":"-67.13940","Snowdepth":"36.968","Units":"in","Rept_Date":"2020-03-03 12"},"coordinates":[6772,9616]},{"type":"Point","properties":{"Station_ID":"QOU","Station_Nam":"QOU","Latitude":"50.79250","Longitude":"-69.67470","Snowdepth":"36.181","Units":"in","Rept_Date":"2020-03-03 12"},"coordinates":[6202,9418]},{"type":"Point","properties":{"Station_ID":"WLFM5","Station_Nam":"WOLF RIDGE ENVIRON LEARNING CENTER","Latitude":"47.38240","Longitude":"-91.19730","Snowdepth":"36.000","Units":"in","Rept_Date":"2020-03-03 13"},"coordinates":[1359,7296]},{"type":"Point","properties":{"Station_ID":"CAN-NB-11","Station_Nam":"MIRAMICHI 3.3 S, CAN","Latitude":"46.99343","Longitude":"-65.50690","Snowdepth":"36.000","Units":"in","Rept_Date":"2020-03-03 10"},"coordinates":[7139,7054]},{"type":"Point","properties":{"Station_ID":"MLZ","Station_Nam":"MLZ","Latitude":"50.66170","Longitude":"-68.82360","Snowdepth":"34.764","Units":"in","Rept_Date":"2020-03-03 12"},"coordinates":[6393,9336]},{"type":"Point","properties":{"Station_ID":"CAN-QC-47","Station_Nam":"SAINTE-FOY 1.8 ENE, CAN","Latitude":"46.76934","Longitude":"-71.27124","Snowdepth":"34.400","Units":"in","Rept_Date":"2020-03-03 12"},"coordinates":[5842,6915]},{"type":"Point","properties":{"Station_ID":"CAN-NL-82","Station_Nam":"GANDER 2.7 NW, CAN","Latitude":"48.97737","Longitude":"-54.63396","Snowdepth":"34.300","Units":"in","Rept_Date":"2020-03-03 10"},"coordinates":[9586,8288]},{"type":"Point","properties":{"Station_ID":"NWCM4","Station_Nam":"NEWBERRY CITY","Latitude":"46.35720","Longitude":"-85.51780","Snowdepth":"34.000","Units":"in","Rept_Date":"2020-03-03 12"},"coordinates":[2637,6658]},{"type":"Point","properties":{"Station_ID":"MNSM4","Station_Nam":"MUNISING","Latitude":"46.41210","Longitude":"-86.66250","Snowdepth":"34.000","Units":"in","Rept_Date":"2020-03-03 11"},"coordinates":[2380,6692]},{"type":"Point","properties":{"Station_ID":"QLB","Station_Nam":"QLB","Latitude":"50.72360","Longitude":"-75.10000","Snowdepth":"33.937","Units":"in","Rept_Date":"2020-03-03 12"},"coordinates":[4981,9375]},{"type":"Point","properties":{"Station_ID":"ME-AR-23","Station_Nam":"MADAWASKA 2.5 E, ME","Latitude":"47.34933","Longitude":"-68.28141","Snowdepth":"33.000","Units":"in","Rept_Date":"2020-03-03 12"},"coordinates":[6515,7276]},{"type":"Point","properties":{"Station_ID":"QNCM4","Station_Nam":"QUINCY HILL","Latitude":"47.13640","Longitude":"-88.57950","Snowdepth":"32.000","Units":"in","Rept_Date":"2020-03-03 12"},"coordinates":[1948,7143]},{"type":"Point","properties":{"Station_ID":"MQT","Station_Nam":"MARQUETTE, MI","Latitude":"46.53140","Longitude":"-87.54920","Snowdepth":"32.000","Units":"in","Rept_Date":"2020-03-04 06"},"coordinates":[2180,6767]},{"type":"Point","properties":{"Station_ID":"BRAM1","Station_Nam":"BRASSUA DAM","Latitude":"45.66020","Longitude":"-69.81190","Snowdepth":"32.000","Units":"in","Rept_Date":"2020-03-03 12"},"coordinates":[6171,6225]},{"type":"Point","properties":{"Station_ID":"CAN-NB-105","Station_Nam":"SISSON BROOK 3.8 E, CAN","Latitude":"46.98305","Longitude":"-67.32532","Snowdepth":"31.500","Units":"in","Rept_Date":"2020-03-03 12"},"coordinates":[6730,7048]},{"type":"Point","properties":{"Station_ID":"VT-OL-12","Station_Nam":"GREENSBORO 3.9 NNE, VT","Latitude":"44.63100","Longitude":"-72.28000","Snowdepth":"31.000","Units":"in","Rept_Date":"2020-03-03 12"},"coordinates":[5616,5584]},{"type":"Point","properties":{"Station_ID":"RKWM1","Station_Nam":"MOOSEHEAD LAKE","Latitude":"45.58330","Longitude":"-69.71670","Snowdepth":"31.000","Units":"in","Rept_Date":"2020-03-03 12"},"coordinates":[6192,6177]},{"type":"Point","properties":{"Station_ID":"MI-BG-3","Station_Nam":"L'ANSE 17.8 SE, MI","Latitude":"46.55730","Longitude":"-88.20770","Snowdepth":"31.000","Units":"in","Rept_Date":"2020-03-03 13"},"coordinates":[2032,6783]},{"type":"Point","properties":{"Station_ID":"QFT","Station_Nam":"QFT","Latitude":"50.83280","Longitude":"-74.40390","Snowdepth":"30.039","Units":"in","Rept_Date":"2020-03-03 12"},"coordinates":[5138,9443]},{"type":"Point","properties":{"Station_ID":"STEM4","Station_Nam":"STEUBEN","Latitude":"46.18530","Longitude":"-86.46410","Snowdepth":"30.000","Units":"in","Rept_Date":"2020-03-03 14"},"coordinates":[2424,6551]},{"type":"Point","properties":{"Station_ID":"IBLM5","Station_Nam":"ISABELLA 14W","Latitude":"47.59360","Longitude":"-91.65140","Snowdepth":"30.000","Units":"in","Rept_Date":"2020-03-03 15"},"coordinates":[1257,7428]},{"type":"Point","properties":{"Station_ID":"CAR","Station_Nam":"CARIBOU, ME","Latitude":"46.86830","Longitude":"-68.01360","Snowdepth":"30.000","Units":"in","Rept_Date":"2020-03-03 12"},"coordinates":[6575,6976]},{"type":"Point","properties":{"Station_ID":"QGA","Station_Nam":"QGA","Latitude":"47.25640","Longitude":"-73.73810","Snowdepth":"29.567","Units":"in","Rept_Date":"2020-03-03 12"},"coordinates":[5287,7218]},{"type":"Point","properties":{"Station_ID":"CAN-NL-65","Station_Nam":"KIPPENS 0.7 NE, CA","Latitude":"48.55436","Longitude":"-58.61850","Snowdepth":"29.500","Units":"in","Rept_Date":"2020-03-03 12"},"coordinates":[8689,8025]},{"type":"Point","properties":{"Station_ID":"QLM","Station_Nam":"QLM","Latitude":"48.92030","Longitude":"-70.25280","Snowdepth":"29.331","Units":"in","Rept_Date":"2020-03-03 12"},"coordinates":[6072,8253]},{"type":"Point","properties":{"Station_ID":"CAN-NB-13","Station_Nam":"BATHURST 3.8 NW, CAN","Latitude":"47.64212","Longitude":"-65.68756","Snowdepth":"29.000","Units":"in","Rept_Date":"2020-03-03 11"},"coordinates":[7099,7458]},{"type":"Point","properties":{"Station_ID":"PTLQ6","Station_Nam":"PORTAGE LAKE","Latitude":"49.06950","Longitude":"-86.65940","Snowdepth":"28.580","Units":"in","Rept_Date":"2020-03-04 06"},"coordinates":[2380,8346]},{"type":"Point","properties":{"Station_ID":"QTV","Station_Nam":"QTV","Latitude":"49.66000","Longitude":"-69.35690","Snowdepth":"28.386","Units":"in","Rept_Date":"2020-03-03 12"},"coordinates":[6273,8713]},{"type":"Point","properties":{"Station_ID":"SVBQ6","Station_Nam":"SAVANT BASE","Latitude":"50.28730","Longitude":"-90.65670","Snowdepth":"28.110","Units":"in","Rept_Date":"2020-03-04 06"},"coordinates":[1481,9103]},{"type":"Point","properties":{"Station_ID":"ME-PN-45","Station_Nam":"MILLINOCKET 2.7 ESE, ME","Latitude":"45.65002","Longitude":"-68.64472","Snowdepth":"28.000","Units":"in","Rept_Date":"2020-03-03 12"},"coordinates":[6433,6218]},{"type":"Point","properties":{"Station_ID":"CNRM1","Station_Nam":"CONNOR TWP","Latitude":"46.95830","Longitude":"-68.03330","Snowdepth":"28.000","Units":"in","Rept_Date":"2020-03-03 12"},"coordinates":[6571,7032]},{"type":"Point","properties":{"Station_ID":"CAN-NB-96","Station_Nam":"SAINT-IGNACE 2.6 NE, CAN","Latitude":"46.71424","Longitude":"-65.05609","Snowdepth":"28.000","Units":"in","Rept_Date":"2020-03-03 11"},"coordinates":[7241,6880]},{"type":"Point","properties":{"Station_ID":"CAN-PE-19","Station_Nam":"CHARLOTTETOWN 6.5 NNW, CAN","Latitude":"46.29235","Longitude":"-63.17271","Snowdepth":"27.600","Units":"in","Rept_Date":"2020-03-03 12"},"coordinates":[7665,6618]},{"type":"Point","properties":{"Station_ID":"AUDQ6","Station_Nam":"AUDEN","Latitude":"48.52600","Longitude":"-82.57570","Snowdepth":"27.480","Units":"in","Rept_Date":"2020-03-04 06"},"coordinates":[3299,8008]},{"type":"Point","properties":{"Station_ID":"QCX","Station_Nam":"QCX","Latitude":"51.32830","Longitude":"-70.08060","Snowdepth":"27.126","Units":"in","Rept_Date":"2020-03-03 12"},"coordinates":[6110,9751]},{"type":"Point","properties":{"Station_ID":"VANM1","Station_Nam":"VAN BUREN","Latitude":"47.16600","Longitude":"-67.93900","Snowdepth":"27.000","Units":"in","Rept_Date":"2020-03-03 12"},"coordinates":[6592,7161]},{"type":"Point","properties":{"Station_ID":"ME-AR-15","Station_Nam":"PRESQUE ISLE 1.3 WSW, ME","Latitude":"46.67960","Longitude":"-68.01270","Snowdepth":"27.000","Units":"in","Rept_Date":"2020-03-03 12"},"coordinates":[6576,6859]},{"type":"Point","properties":{"Station_ID":"KISM4","Station_Nam":"K.I. SAWYER WWTP","Latitude":"46.33410","Longitude":"-87.37790","Snowdepth":"27.000","Units":"in","Rept_Date":"2020-03-03 13"},"coordinates":[2219,6644]},{"type":"Point","properties":{"Station_ID":"CARM1","Station_Nam":"CARIBOU WFO","Latitude":"46.86810","Longitude":"-68.01250","Snowdepth":"27.000","Units":"in","Rept_Date":"2020-03-04 04"},"coordinates":[6576,6976]},{"type":"Point","properties":{"Station_ID":"QYR","Station_Nam":"QYR","Latitude":"48.87220","Longitude":"-75.61470","Snowdepth":"26.024","Units":"in","Rept_Date":"2020-03-03 12"},"coordinates":[4865,8223]},{"type":"Point","properties":{"Station_ID":"WRPW3","Station_Nam":"WATER PURIFICATION PLANT","Latitude":"44.38800","Longitude":"-89.80550","Snowdepth":"26.000","Units":"in","Rept_Date":"2020-03-03 18"},"coordinates":[1672,5433]},{"type":"Point","properties":{"Station_ID":"VT-OL-1","Station_Nam":"WESTFIELD 0.7 WNW, VT","Latitude":"44.89160","Longitude":"-72.44350","Snowdepth":"26.000","Units":"in","Rept_Date":"2020-03-03 12"},"coordinates":[5579,5746]},{"type":"Point","properties":{"Station_ID":"VT-CL-40","Station_Nam":"LYNDONVILLE 4.2 NNW, VT","Latitude":"44.59440","Longitude":"-72.02389","Snowdepth":"26.000","Units":"in","Rept_Date":"2020-03-03 12"},"coordinates":[5673,5562]},{"type":"Point","properties":{"Station_ID":"RANM1","Station_Nam":"RANGELEY","Latitude":"44.98910","Longitude":"-70.67190","Snowdepth":"26.000","Units":"in","Rept_Date":"2020-03-03 11"},"coordinates":[5977,5807]},{"type":"Point","properties":{"Station_ID":"HURW3","Station_Nam":"HURLEY","Latitude":"46.46250","Longitude":"-90.19550","Snowdepth":"26.000","Units":"in","Rept_Date":"2020-03-03 14"},"coordinates":[1585,6724]},{"type":"Point","properties":{"Station_ID":"HERM4","Station_Nam":"HERMAN,MI","Latitude":"46.65000","Longitude":"-88.33330","Snowdepth":"26.000","Units":"in","Rept_Date":"2020-03-03 13"},"coordinates":[2004,6840]},{"type":"Point","properties":{"Station_ID":"GHMN3","Station_Nam":"PINKHAM NOTCH","Latitude":"44.25800","Longitude":"-71.25250","Snowdepth":"26.000","Units":"in","Rept_Date":"2020-03-03 11"},"coordinates":[5847,5352]},{"type":"Point","properties":{"Station_ID":"FISM1","Station_Nam":"FORT KENT COOP","Latitude":"47.23850","Longitude":"-68.61240","Snowdepth":"26.000","Units":"in","Rept_Date":"2020-03-03 12"},"coordinates":[6441,7207]},{"type":"Point","properties":{"Station_ID":"CAN-NB-18","Station_Nam":"MCLEOD HILL 1.1 ENE, CA","Latitude":"46.02725","Longitude":"-66.67460","Snowdepth":"26.000","Units":"in","Rept_Date":"2020-03-03 12"},"coordinates":[6877,6453]},{"type":"Point","properties":{"Station_ID":"WI-VL-10","Station_Nam":"LAND O LAKES 4.3 WNW, WI","Latitude":"46.17440","Longitude":"-89.30380","Snowdepth":"25.500","Units":"in","Rept_Date":"2020-03-03 13"},"coordinates":[1785,6545]},{"type":"Point","properties":{"Station_ID":"VT-CL-3","Station_Nam":"GROTON 4.4 WSW, VT","Latitude":"44.19440","Longitude":"-72.28240","Snowdepth":"25.500","Units":"in","Rept_Date":"2020-03-03 11"},"coordinates":[5615,5313]},{"type":"Point","properties":{"Station_ID":"QLP","Station_Nam":"QLP","Latitude":"48.13920","Longitude":"-72.63830","Snowdepth":"25.354","Units":"in","Rept_Date":"2020-03-03 12"},"coordinates":[5535,7767]},{"type":"Point","properties":{"Station_ID":"TRIQ6","Station_Nam":"TRIO LAKE","Latitude":"49.22880","Longitude":"-87.22920","Snowdepth":"25.310","Units":"in","Rept_Date":"2020-03-04 06"},"coordinates":[2252,8445]},{"type":"Point","properties":{"Station_ID":"UPSW3","Station_Nam":"UPSON,WI","Latitude":"46.36780","Longitude":"-90.41220","Snowdepth":"25.000","Units":"in","Rept_Date":"2020-03-04 00"},"coordinates":[1536,6665]},{"type":"Point","properties":{"Station_ID":"TUPN6","Station_Nam":"TUPPER LAKE SNOW COURSE","Latitude":"44.10560","Longitude":"-74.53440","Snowdepth":"25.000","Units":"in","Rept_Date":"2020-03-03 20"},"coordinates":[5108,5257]},{"type":"Point","properties":{"Station_ID":"RGNM1","Station_Nam":"RANGELEY 2NW","Latitude":"44.98940","Longitude":"-70.67220","Snowdepth":"25.000","Units":"in","Rept_Date":"2020-03-03 11"},"coordinates":[5977,5807]},{"type":"Point","properties":{"Station_ID":"IWOM4","Station_Nam":"IRONWOOD#2","Latitude":"46.46520","Longitude":"-90.13820","Snowdepth":"25.000","Units":"in","Rept_Date":"2020-03-03 13"},"coordinates":[1598,6725]},{"type":"Point","properties":{"Station_ID":"ERG36","Station_Nam":"NMPS TUPPER LAKE","Latitude":"44.12000","Longitude":"-74.55000","Snowdepth":"25.000","Units":"in","Rept_Date":"2020-03-03 17"},"coordinates":[5105,5266]},{"type":"Point","properties":{"Station_ID":"WI-VL-9","Station_Nam":"LAND O' LAKES 11.7 W, WI","Latitude":"46.19023","Longitude":"-89.45790","Snowdepth":"24.000","Units":"in","Rept_Date":"2020-03-03 13"},"coordinates":[1751,6554]},{"type":"Point","properties":{"Station_ID":"SUTV1","Station_Nam":"SUTTON","Latitude":"44.61220","Longitude":"-72.04810","Snowdepth":"24.000","Units":"in","Rept_Date":"2020-03-03 13"},"coordinates":[5668,5573]},{"type":"Point","properties":{"Station_ID":"LNOW3","Station_Nam":"LAND O LAKES","Latitude":"46.19000","Longitude":"-89.45700","Snowdepth":"24.000","Units":"in","Rept_Date":"2020-03-03 13"},"coordinates":[1751,6554]},{"type":"Point","properties":{"Station_ID":"HRSN6","Station_Nam":"HORSESHOE LAKE SNOW COURSE","Latitude":"44.13920","Longitude":"-74.57000","Snowdepth":"24.000","Units":"in","Rept_Date":"2020-03-03 20"},"coordinates":[5100,5278]},{"type":"Point","properties":{"Station_ID":"ERG18","Station_Nam":"NMPS HORSESHOE LAKE","Latitude":"44.15000","Longitude":"-74.60000","Snowdepth":"24.000","Units":"in","Rept_Date":"2020-03-03 17"},"coordinates":[5094,5285]},{"type":"Point","properties":{"Station_ID":"DFXM1","Station_Nam":"DOVER-FOXCROFT","Latitude":"45.18720","Longitude":"-69.18350","Snowdepth":"24.000","Units":"in","Rept_Date":"2020-03-03 12"},"coordinates":[6312,5930]},{"type":"Point","properties":{"Station_ID":"CRVW3","Station_Nam":"CRIVITZ HIGH FALLS","Latitude":"45.35750","Longitude":"-88.19190","Snowdepth":"24.000","Units":"in","Rept_Date":"2020-03-03 13"},"coordinates":[2035,6036]},{"type":"Point","properties":{"Station_ID":"CLQM5","Station_Nam":"CLOQUET","Latitude":"46.70470","Longitude":"-92.52530","Snowdepth":"24.000","Units":"in","Rept_Date":"2020-03-03 14"},"coordinates":[1060,6874]},{"type":"Point","properties":{"Station_ID":"CAN-NS-60","Station_Nam":"SYDNEY FORKS, CAN","Latitude":"46.05645","Longitude":"-60.31510","Snowdepth":"24.000","Units":"in","Rept_Date":"2020-03-03 12"},"coordinates":[8308,6471]},{"type":"Point","properties":{"Station_ID":"AVLV1","Station_Nam":"AVERILL","Latitude":"45.00570","Longitude":"-71.69030","Snowdepth":"24.000","Units":"in","Rept_Date":"2020-03-03 13"},"coordinates":[5748,5817]},{"type":"Point","properties":{"Station_ID":"SOCQ6","Station_Nam":"SOCKET LAKE","Latitude":"50.77870","Longitude":"-91.79300","Snowdepth":"23.940","Units":"in","Rept_Date":"2020-03-04 06"},"coordinates":[1225,9409]},{"type":"Point","properties":{"Station_ID":"QMD","Station_Nam":"QMD","Latitude":"49.29060","Longitude":"-75.84500","Snowdepth":"23.819","Units":"in","Rept_Date":"2020-03-03 12"},"coordinates":[4813,8483]},{"type":"Point","properties":{"Station_ID":"MI-HG-1","Station_Nam":"HOUGHTON 1.6 ESE, MI","Latitude":"47.10774","Longitude":"-88.52940","Snowdepth":"23.500","Units":"in","Rept_Date":"2020-03-03 13"},"coordinates":[1960,7125]},{"type":"Point","properties":{"Station_ID":"QIQ","Station_Nam":"QIQ","Latitude":"49.82390","Longitude":"-68.54310","Snowdepth":"23.465","Units":"in","Rept_Date":"2020-03-03 12"},"coordinates":[6456,8815]},{"type":"Point","properties":{"Station_ID":"STGW3","Station_Nam":"ST GERMAIN","Latitude":"45.91550","Longitude":"-89.48940","Snowdepth":"23.000","Units":"in","Rept_Date":"2020-03-03 18"},"coordinates":[1744,6383]},{"type":"Point","properties":{"Station_ID":"LVDW3","Station_Nam":"LAC VIEUX DESERT","Latitude":"46.12110","Longitude":"-89.07580","Snowdepth":"23.000","Units":"in","Rept_Date":"2020-03-03 13"},"coordinates":[1837,6511]},{"type":"Point","properties":{"Station_ID":"KINM1","Station_Nam":"KINGFIELD","Latitude":"44.95950","Longitude":"-70.17530","Snowdepth":"23.000","Units":"in","Rept_Date":"2020-03-03 13"},"coordinates":[6089,5789]},{"type":"Point","properties":{"Station_ID":"EVRW3","Station_Nam":"EAGLE RIVER-4 E","Latitude":"45.91890","Longitude":"-89.15280","Snowdepth":"23.000","Units":"in","Rept_Date":"2020-03-03 12"},"coordinates":[1819,6386]},{"type":"Point","properties":{"Station_ID":"KABQ6","Station_Nam":"CAB LAKE","Latitude":"49.59950","Longitude":"-89.17990","Snowdepth":"22.870","Units":"in","Rept_Date":"2020-03-04 06"},"coordinates":[1813,8675]},{"type":"Point","properties":{"Station_ID":"QTM","Station_Nam":"QTM","Latitude":"51.05780","Longitude":"-72.57190","Snowdepth":"22.795","Units":"in","Rept_Date":"2020-03-03 12"},"coordinates":[5550,9583]},{"type":"Point","properties":{"Station_ID":"VT-ES-1","Station_Nam":"GRANBY 1.4 NW, VT","Latitude":"44.58330","Longitude":"-71.77870","Snowdepth":"22.500","Units":"in","Rept_Date":"2020-03-03 13"},"coordinates":[5728,5555]},{"type":"Point","properties":{"Station_ID":"MN-CK-18","Station_Nam":"GRAND MARAIS 4.4 WSW, MN","Latitude":"47.74462","Longitude":"-90.43796","Snowdepth":"22.500","Units":"in","Rept_Date":"2020-03-03 13"},"coordinates":[1530,7521]},{"type":"Point","properties":{"Station_ID":"CAN-NS-103","Station_Nam":"TRAFALGAR 4.9 WSW, CAN","Latitude":"45.26217","Longitude":"-62.72285","Snowdepth":"22.500","Units":"in","Rept_Date":"2020-03-03 12"},"coordinates":[7766,5977]},{"type":"Point","properties":{"Station_ID":"QLI","Station_Nam":"QLI","Latitude":"50.27080","Longitude":"-73.92280","Snowdepth":"22.480","Units":"in","Rept_Date":"2020-03-03 12"},"coordinates":[5246,9093]},{"type":"Point","properties":{"Station_ID":"SUAW3","Station_Nam":"SUAMICO","Latitude":"44.60190","Longitude":"-88.09780","Snowdepth":"22.000","Units":"in","Rept_Date":"2020-03-03 18"},"coordinates":[2057,5566]},{"type":"Point","properties":{"Station_ID":"SSMM4","Station_Nam":"SAULT STE MARIE","Latitude":"46.48660","Longitude":"-84.40250","Snowdepth":"22.000","Units":"in","Rept_Date":"2020-03-03 13"},"coordinates":[2888,6739]},{"type":"Point","properties":{"Station_ID":"PRDM4","Station_Nam":"PARADISE","Latitude":"46.60380","Longitude":"-85.03960","Snowdepth":"22.000","Units":"in","Rept_Date":"2020-03-03 11"},"coordinates":[2745,6812]},{"type":"Point","properties":{"Station_ID":"PDGM4","Station_Nam":"PAULDING","Latitude":"46.39760","Longitude":"-89.17940","Snowdepth":"22.000","Units":"in","Rept_Date":"2020-03-03 14"},"coordinates":[1813,6683]},{"type":"Point","properties":{"Station_ID":"NOHM5","Station_Nam":"NORTHOME","Latitude":"47.83590","Longitude":"-94.25550","Snowdepth":"22.000","Units":"in","Rept_Date":"2020-03-03 13"},"coordinates":[671,7578]},{"type":"Point","properties":{"Station_ID":"JKMM1","Station_Nam":"JACKMAN","Latitude":"45.62600","Longitude":"-70.24600","Snowdepth":"22.000","Units":"in","Rept_Date":"2020-03-03 12"},"coordinates":[6073,6203]},{"type":"Point","properties":{"Station_ID":"GLDM4","Station_Nam":"GLADSTONE NO. 2","Latitude":"45.84330","Longitude":"-87.03910","Snowdepth":"22.000","Units":"in","Rept_Date":"2020-03-03 12"},"coordinates":[2295,6339]},{"type":"Point","properties":{"Station_ID":"ERG06","Station_Nam":"NMPS CARRY FALLS","Latitude":"42.43000","Longitude":"-74.75000","Snowdepth":"22.000","Units":"in","Rept_Date":"2020-03-03 17"},"coordinates":[5060,4215]},{"type":"Point","properties":{"Station_ID":"DLHM5","Station_Nam":"DULUTH NWS","Latitude":"46.83680","Longitude":"-92.21080","Snowdepth":"22.000","Units":"in","Rept_Date":"2020-03-04 06"},"coordinates":[1131,6957]},{"type":"Point","properties":{"Station_ID":"DLH","Station_Nam":"DULUTH, MN","Latitude":"46.83690","Longitude":"-92.21030","Snowdepth":"22.000","Units":"in","Rept_Date":"2020-03-04 00"},"coordinates":[1131,6957]},{"type":"Point","properties":{"Station_ID":"CAFN6","Station_Nam":"CARRY FALLS RESERVOIR SNOW COURSE","Latitude":"44.34640","Longitude":"-74.72720","Snowdepth":"22.000","Units":"in","Rept_Date":"2020-03-03 20"},"coordinates":[5065,5407]},{"type":"Point","properties":{"Station_ID":"BBEM4","Station_Nam":"BIG BAY 9SW","Latitude":"46.74620","Longitude":"-87.88160","Snowdepth":"22.000","Units":"in","Rept_Date":"2020-03-03 13"},"coordinates":[2105,6900]},{"type":"Point","properties":{"Station_ID":"BABM5","Station_Nam":"BABBITT","Latitude":"47.71210","Longitude":"-91.95330","Snowdepth":"22.000","Units":"in","Rept_Date":"2020-03-03 13"},"coordinates":[1189,7501]},{"type":"Point","properties":{"Station_ID":"ANJM4","Station_Nam":"SNOW PAID OBSERVER FOR KANJ","Latitude":"46.48670","Longitude":"-84.40260","Snowdepth":"22.000","Units":"in","Rept_Date":"2020-03-04 00"},"coordinates":[2888,6739]},{"type":"Point","properties":{"Station_ID":"ANJ","Station_Nam":"SAULT STE MARIE","Latitude":"46.46670","Longitude":"-84.36670","Snowdepth":"22.000","Units":"in","Rept_Date":"2020-03-04 00"},"coordinates":[2896,6726]},{"type":"Point","properties":{"Station_ID":"CAN-ON-491","Station_Nam":"MILVERTON 1.1 ESE- CANWARN, CAN","Latitude":"43.56074","Longitude":"-80.90887","Snowdepth":"21.800","Units":"in","Rept_Date":"2020-03-03 11"},"coordinates":[3674,4918]},{"type":"Point","properties":{"Station_ID":"MN-IT-23","Station_Nam":"BOVEY 13.4 N, MN","Latitude":"47.48855","Longitude":"-93.43497","Snowdepth":"21.500","Units":"in","Rept_Date":"2020-03-03 13"},"coordinates":[856,7362]},{"type":"Point","properties":{"Station_ID":"TWCN6","Station_Nam":"TWITCHELL","Latitude":"43.99940","Longitude":"-74.91920","Snowdepth":"21.300","Units":"in","Rept_Date":"2020-03-03 17"},"coordinates":[5022,5191]},{"type":"Point","properties":{"Station_ID":"MFU","Station_Nam":"MFU","Latitude":"51.52170","Longitude":"-66.91110","Snowdepth":"21.181","Units":"in","Rept_Date":"2020-03-03 12"},"coordinates":[6823,9871]},{"type":"Point","properties":{"Station_ID":"WRSM5","Station_Nam":"WRENSHALL","Latitude":"46.61550","Longitude":"-92.38380","Snowdepth":"21.000","Units":"in","Rept_Date":"2020-03-03 14"},"coordinates":[1092,6819]},{"type":"Point","properties":{"Station_ID":"WI-WB-2","Station_Nam":"STONE LAKE 2.0 NW, WI","Latitude":"45.85960","Longitude":"-91.57710","Snowdepth":"21.000","Units":"in","Rept_Date":"2020-03-03 13"},"coordinates":[1274,6349]},{"type":"Point","properties":{"Station_ID":"WI-IR-3","Station_Nam":"PENCE 0.1 E, WI","Latitude":"46.41555","Longitude":"-90.27013","Snowdepth":"21.000","Units":"in","Rept_Date":"2020-03-03 13"},"coordinates":[1568,6695]},{"type":"Point","properties":{"Station_ID":"VT-OL-9","Station_Nam":"GREENSBORO 2.1 NNW, VT","Latitude":"44.60528","Longitude":"-72.30940","Snowdepth":"21.000","Units":"in","Rept_Date":"2020-03-03 12"},"coordinates":[5609,5568]},{"type":"Point","properties":{"Station_ID":"PTBN3","Station_Nam":"PITTSBURG RESERVOIR","Latitude":"45.04690","Longitude":"-71.38300","Snowdepth":"21.000","Units":"in","Rept_Date":"2020-03-03 12"},"coordinates":[5817,5843]},{"type":"Point","properties":{"Station_ID":"MN-SL-15","Station_Nam":"CHISHOLM 0.4 WSW, MN","Latitude":"47.48557","Longitude":"-92.88690","Snowdepth":"21.000","Units":"in","Rept_Date":"2020-03-03 13"},"coordinates":[979,7360]},{"type":"Point","properties":{"Station_ID":"MI-GG-4","Station_Nam":"WATERSMEET 5.0 SE, MI","Latitude":"46.20333","Longitude":"-89.13170","Snowdepth":"21.000","Units":"in","Rept_Date":"2020-03-03 14"},"coordinates":[1824,6563]},{"type":"Point","properties":{"Station_ID":"LPLN6","Station_Nam":"LAKE PLACID 2 S","Latitude":"44.30420","Longitude":"-73.98390","Snowdepth":"21.000","Units":"in","Rept_Date":"2020-03-03 13"},"coordinates":[5232,5381]},{"type":"Point","properties":{"Station_ID":"HRVM4","Station_Nam":"HARVEY","Latitude":"46.49080","Longitude":"-87.35470","Snowdepth":"21.000","Units":"in","Rept_Date":"2020-03-03 12"},"coordinates":[2224,6741]},{"type":"Point","properties":{"Station_ID":"GALN6","Station_Nam":"GALE SNOW COURSE","Latitude":"44.27220","Longitude":"-74.62970","Snowdepth":"21.000","Units":"in","Rept_Date":"2020-03-03 20"},"coordinates":[5087,5361]},{"type":"Point","properties":{"Station_ID":"ERG16","Station_Nam":"NMPS GALE","Latitude":"44.27000","Longitude":"-74.63000","Snowdepth":"21.000","Units":"in","Rept_Date":"2020-03-03 17"},"coordinates":[5087,5360]},{"type":"Point","properties":{"Station_ID":"BRDM1","Station_Nam":"BRIDGEWATER","Latitude":"46.42870","Longitude":"-67.84370","Snowdepth":"21.000","Units":"in","Rept_Date":"2020-03-03 23"},"coordinates":[6614,6703]},{"type":"Point","properties":{"Station_ID":"BNDM5","Station_Nam":"ELY 25E","Latitude":"47.97190","Longitude":"-91.44860","Snowdepth":"21.000","Units":"in","Rept_Date":"2020-03-03 13"},"coordinates":[1303,7663]},{"type":"Point","properties":{"Station_ID":"WI-VL-14","Station_Nam":"BOULDER JUNCTION 1.4 NE, WI","Latitude":"46.12840","Longitude":"-89.62470","Snowdepth":"20.500","Units":"in","Rept_Date":"2020-03-03 13"},"coordinates":[1713,6516]},{"type":"Point","properties":{"Station_ID":"MN-IT-17","Station_Nam":"GRAND RAPIDS 6.1 N, MN","Latitude":"47.31165","Longitude":"-93.55036","Snowdepth":"20.500","Units":"in","Rept_Date":"2020-03-03 13"},"coordinates":[830,7252]},{"type":"Point","properties":{"Station_ID":"MMSN6","Station_Nam":"MCCAULEY MOUNTAIN","Latitude":"43.69720","Longitude":"-74.96500","Snowdepth":"20.300","Units":"in","Rept_Date":"2020-03-03 17"},"coordinates":[5011,5003]},{"type":"Point","properties":{"Station_ID":"QMA","Station_Nam":"QMA","Latitude":"50.10330","Longitude":"-70.47190","Snowdepth":"20.236","Units":"in","Rept_Date":"2020-03-03 12"},"coordinates":[6022,8989]},{"type":"Point","properties":{"Station_ID":"WI-BY-2","Station_Nam":"MELLEN 18.6 SW, WI","Latitude":"46.16937","Longitude":"-90.98090","Snowdepth":"20.000","Units":"in","Rept_Date":"2020-03-03 13"},"coordinates":[1408,6541]},{"type":"Point","properties":{"Station_ID":"WI-BY-14","Station_Nam":"ASHLAND 9.8 W, WI","Latitude":"46.59742","Longitude":"-91.07856","Snowdepth":"20.000","Units":"in","Rept_Date":"2020-03-03 12"},"coordinates":[1386,6808]},{"type":"Point","properties":{"Station_ID":"VT-WS-7","Station_Nam":"MIDDLESEX 3.1 ENE, VT","Latitude":"44.31799","Longitude":"-72.62650","Snowdepth":"20.000","Units":"in","Rept_Date":"2020-03-03 13"},"coordinates":[5538,5390]},{"type":"Point","properties":{"Station_ID":"VT-OL-2","Station_Nam":"BARTON 3.0 ENE, VT","Latitude":"44.75863","Longitude":"-72.11680","Snowdepth":"20.000","Units":"in","Rept_Date":"2020-03-03 12"},"coordinates":[5652,5664]},{"type":"Point","properties":{"Station_ID":"VT-CL-14","Station_Nam":"LYNDONVILLE 1.1 W, VT","Latitude":"44.53582","Longitude":"-72.02867","Snowdepth":"20.000","Units":"in","Rept_Date":"2020-03-03 13"},"coordinates":[5672,5525]},{"type":"Point","properties":{"Station_ID":"SWSN6","Station_Nam":"STILLWATER RESERVOIR AREA","Latitude":"43.90000","Longitude":"-75.03330","Snowdepth":"20.000","Units":"in","Rept_Date":"2020-03-03 17"},"coordinates":[4996,5130]},{"type":"Point","properties":{"Station_ID":"RQLN6","Station_Nam":"RAQUETTE LAKE","Latitude":"43.80000","Longitude":"-74.66670","Snowdepth":"20.000","Units":"in","Rept_Date":"2020-03-03 20"},"coordinates":[5079,5067]},{"type":"Point","properties":{"Station_ID":"NY-FK-7","Station_Nam":"SARANAC LAKE 6.2 N, NY","Latitude":"44.41359","Longitude":"-74.15211","Snowdepth":"20.000","Units":"in","Rept_Date":"2020-03-03 13"},"coordinates":[5194,5449]},{"type":"Point","properties":{"Station_ID":"ISLV1","Station_Nam":"ISLAND POND","Latitude":"44.81280","Longitude":"-71.89020","Snowdepth":"20.000","Units":"in","Rept_Date":"2020-03-03 16"},"coordinates":[5703,5697]},{"type":"Point","properties":{"Station_ID":"IRMM4","Station_Nam":"WWTP","Latitude":"46.46670","Longitude":"-90.18330","Snowdepth":"20.000","Units":"in","Rept_Date":"2020-03-03 13"},"coordinates":[1587,6726]},{"type":"Point","properties":{"Station_ID":"INDN6","Station_Nam":"INDIAN LAKE","Latitude":"43.75500","Longitude":"-74.27560","Snowdepth":"20.000","Units":"in","Rept_Date":"2020-03-03 13"},"coordinates":[5167,5039]},{"type":"Point","properties":{"Station_ID":"GGRM4","Station_Nam":"GREEN GARDEN NO.2","Latitude":"46.45330","Longitude":"-87.30380","Snowdepth":"20.000","Units":"in","Rept_Date":"2020-03-03 11"},"coordinates":[2235,6718]},{"type":"Point","properties":{"Station_ID":"ESGM1","Station_Nam":"EAST SANGERVILLE","Latitude":"45.13690","Longitude":"-69.28060","Snowdepth":"20.000","Units":"in","Rept_Date":"2020-03-03 12"},"coordinates":[6290,5899]},{"type":"Point","properties":{"Station_ID":"ERG29","Station_Nam":"NMPS RAQUETTE LAKE","Latitude":"44.23000","Longitude":"-74.75000","Snowdepth":"20.000","Units":"in","Rept_Date":"2020-03-03 17"},"coordinates":[5060,5335]},{"type":"Point","properties":{"Station_ID":"ERG11","Station_Nam":"NMPS CONIFER","Latitude":"44.22000","Longitude":"-74.62000","Snowdepth":"20.000","Units":"in","Rept_Date":"2020-03-03 17"},"coordinates":[5089,5329]},{"type":"Point","properties":{"Station_ID":"ERF27","Station_Nam":"BRRD STILLWATER RES N/S","Latitude":"43.90000","Longitude":"-75.05000","Snowdepth":"20.000","Units":"in","Rept_Date":"2020-03-03 17"},"coordinates":[4992,5130]},{"type":"Point","properties":{"Station_ID":"CSLM5","Station_Nam":"CASS LAKE,MN","Latitude":"47.38470","Longitude":"-94.61470","Snowdepth":"20.000","Units":"in","Rept_Date":"2020-03-03 14"},"coordinates":[590,7298]},{"type":"Point","properties":{"Station_ID":"CNFN6","Station_Nam":"CONIFER SNOW COURSE","Latitude":"44.21670","Longitude":"-74.61670","Snowdepth":"20.000","Units":"in","Rept_Date":"2020-03-03 20"},"coordinates":[5090,5327]},{"type":"Point","properties":{"Station_ID":"CMKW3","Station_Nam":"CLAM LAKE 4W","Latitude":"46.16940","Longitude":"-90.98080","Snowdepth":"20.000","Units":"in","Rept_Date":"2020-03-03 13"},"coordinates":[1408,6541]},{"type":"Point","properties":{"Station_ID":"CAN-NB-2","Station_Nam":"GRAFTON 2.7 NNE, CA","Latitude":"46.17062","Longitude":"-67.55330","Snowdepth":"20.000","Units":"in","Rept_Date":"2020-03-03 11"},"coordinates":[6679,6542]},{"type":"Point","properties":{"Station_ID":"VT-WS-15","Station_Nam":"EAST CALAIS 1.5 SW, VT","Latitude":"44.35523","Longitude":"-72.45540","Snowdepth":"19.500","Units":"in","Rept_Date":"2020-03-03 12"},"coordinates":[5576,5413]},{"type":"Point","properties":{"Station_ID":"VT-BN-12","Station_Nam":"STAMFORD 5.0 NNE, VT","Latitude":"42.82000","Longitude":"-73.02000","Snowdepth":"19.500","Units":"in","Rept_Date":"2020-03-03 21"},"coordinates":[5449,4458]},{"type":"Point","properties":{"Station_ID":"CAN-PE-3","Station_Nam":"WELLINGTON 1.6 NE, CA","Latitude":"46.46672","Longitude":"-63.98920","Snowdepth":"19.500","Units":"in","Rept_Date":"2020-03-03 11"},"coordinates":[7481,6726]},{"type":"Point","properties":{"Station_ID":"NY-HR-18","Station_Nam":"SALISBURY CENTER 1.8 NW, NY","Latitude":"43.16260","Longitude":"-74.80880","Snowdepth":"19.300","Units":"in","Rept_Date":"2020-03-03 11"},"coordinates":[5047,4671]},{"type":"Point","properties":{"Station_ID":"CAN-NS-4","Station_Nam":"JIMTOWN 0.2 WNW, CAN","Latitude":"45.70861","Longitude":"-61.90238","Snowdepth":"19.300","Units":"in","Rept_Date":"2020-03-03 12"},"coordinates":[7950,6255]},{"type":"Point","properties":{"Station_ID":"QCO","Station_Nam":"QCO","Latitude":"51.45280","Longitude":"-72.20110","Snowdepth":"19.213","Units":"in","Rept_Date":"2020-03-03 12"},"coordinates":[5633,9828]},{"type":"Point","properties":{"Station_ID":"WI-ON-8","Station_Nam":"HAZELHURST 2.1 SSE, WI","Latitude":"45.78186","Longitude":"-89.70330","Snowdepth":"19.000","Units":"in","Rept_Date":"2020-03-03 13"},"coordinates":[1695,6300]},{"type":"Point","properties":{"Station_ID":"WI-DG-20","Station_Nam":"SOLON SPRINGS 1.2 W, WI","Latitude":"46.35217","Longitude":"-91.84405","Snowdepth":"19.000","Units":"in","Rept_Date":"2020-03-03 13"},"coordinates":[1214,6655]},{"type":"Point","properties":{"Station_ID":"TOGM5","Station_Nam":"CELINA 2E","Latitude":"47.86630","Longitude":"-93.02660","Snowdepth":"19.000","Units":"in","Rept_Date":"2020-03-03 14"},"coordinates":[948,7597]},{"type":"Point","properties":{"Station_ID":"MWTM1","Station_Nam":"MILLINOCKET WWTP","Latitude":"45.64030","Longitude":"-68.67480","Snowdepth":"19.000","Units":"in","Rept_Date":"2020-03-03 11"},"coordinates":[6427,6212]},{"type":"Point","properties":{"Station_ID":"MWN","Station_Nam":"MOUNT WASHINGTON","Latitude":"44.26670","Longitude":"-71.30000","Snowdepth":"19.000","Units":"in","Rept_Date":"2020-03-04 05"},"coordinates":[5836,5358]},{"type":"Point","properties":{"Station_ID":"MN-CK-6","Station_Nam":"GRAND MARAIS 4.4 W, MN","Latitude":"47.74865","Longitude":"-90.43760","Snowdepth":"19.000","Units":"in","Rept_Date":"2020-03-03 13"},"coordinates":[1530,7524]},{"type":"Point","properties":{"Station_ID":"LTPN6","Station_Nam":"LITTLE TUPPER LAKE","Latitude":"44.06670","Longitude":"-74.63330","Snowdepth":"19.000","Units":"in","Rept_Date":"2020-03-03 20"},"coordinates":[5086,5233]},{"type":"Point","properties":{"Station_ID":"LILM1","Station_Nam":"LILLE","Latitude":"47.27770","Longitude":"-68.10520","Snowdepth":"19.000","Units":"in","Rept_Date":"2020-03-03 12"},"coordinates":[6555,7231]},{"type":"Point","properties":{"Station_ID":"LEIM5","Station_Nam":"ORR 3E","Latitude":"48.05810","Longitude":"-92.75220","Snowdepth":"19.000","Units":"in","Rept_Date":"2020-03-03 12"},"coordinates":[1009,7716]},{"type":"Point","properties":{"Station_ID":"KMWN","Station_Nam":"MOUNT WASHINGTON","Latitude":"44.26666","Longitude":"-71.30000","Snowdepth":"19.000","Units":"in","Rept_Date":"2020-03-04 06"},"coordinates":[5836,5358]},{"type":"Point","properties":{"Station_ID":"ERG19","Station_Nam":"NMPS LITTLE TUPPER LAKE","Latitude":"44.07000","Longitude":"-74.63000","Snowdepth":"19.000","Units":"in","Rept_Date":"2020-03-03 17"},"coordinates":[5087,5235]},{"type":"Point","properties":{"Station_ID":"EMBM5","Station_Nam":"EMBARASS,MN","Latitude":"47.65810","Longitude":"-92.19580","Snowdepth":"19.000","Units":"in","Rept_Date":"2020-03-03 12"},"coordinates":[1135,7468]},{"type":"Point","properties":{"Station_ID":"ELYM5","Station_Nam":"ELY","Latitude":"47.90560","Longitude":"-91.82830","Snowdepth":"19.000","Units":"in","Rept_Date":"2020-03-03 14"},"coordinates":[1217,7622]},{"type":"Point","properties":{"Station_ID":"CEFM4","Station_Nam":"EXPERIMENT FARM #2","Latitude":"46.33330","Longitude":"-86.91670","Snowdepth":"19.000","Units":"in","Rept_Date":"2020-03-03 13"},"coordinates":[2322,6643]},{"type":"Point","properties":{"Station_ID":"CAN-ON-245","Station_Nam":"PHELPSTON 3.1 ESE, CAN","Latitude":"44.50564","Longitude":"-79.81035","Snowdepth":"19.000","Units":"in","Rept_Date":"2020-03-03 13"},"coordinates":[3921,5506]},{"type":"Point","properties":{"Station_ID":"CAN-ON-92","Station_Nam":"DUNROBIN 1.9 W - MVCA, CAN","Latitude":"45.42318","Longitude":"-76.04525","Snowdepth":"18.700","Units":"in","Rept_Date":"2020-03-03 12"},"coordinates":[4768,6077]},{"type":"Point","properties":{"Station_ID":"VT-WS-30","Station_Nam":"WOODBURY 3.4 NNW, VT","Latitude":"44.48825","Longitude":"-72.43258","Snowdepth":"18.500","Units":"in","Rept_Date":"2020-03-03 12"},"coordinates":[5581,5496]},{"type":"Point","properties":{"Station_ID":"MN-SL-108","Station_Nam":"IRON JUNCTION 3.4 NNW, MN","Latitude":"47.46150","Longitude":"-92.63130","Snowdepth":"18.500","Units":"in","Rept_Date":"2020-03-03 13"},"coordinates":[1037,7345]},{"type":"Point","properties":{"Station_ID":"MN-BK-6","Station_Nam":"LAKE PARK 6.0 S, MN","Latitude":"46.79850","Longitude":"-96.12180","Snowdepth":"18.500","Units":"in","Rept_Date":"2020-03-03 13"},"coordinates":[251,6933]},{"type":"Point","properties":{"Station_ID":"CAN-ON-5","Station_Nam":"OWEN SOUND 1.5 NW - GSCA, CAN","Latitude":"44.57837","Longitude":"-80.95461","Snowdepth":"18.500","Units":"in","Rept_Date":"2020-03-03 13"},"coordinates":[3664,5552]},{"type":"Point","properties":{"Station_ID":"CAN-NB-64","Station_Nam":"KESWICK RIDGE 4.0 SE, CAN","Latitude":"45.97014","Longitude":"-66.85538","Snowdepth":"18.500","Units":"in","Rept_Date":"2020-03-03 13"},"coordinates":[6836,6417]},{"type":"Point","properties":{"Station_ID":"ERF05","Station_Nam":"LLBOONVILLE 2SSW (J HILL)","Latitude":"43.43000","Longitude":"-75.35000","Snowdepth":"18.300","Units":"in","Rept_Date":"2020-03-03 17"},"coordinates":[4925,4837]},{"type":"Point","properties":{"Station_ID":"BONN6","Station_Nam":"BOONVILLE SNOW","Latitude":"43.43330","Longitude":"-75.35000","Snowdepth":"18.300","Units":"in","Rept_Date":"2020-03-03 17"},"coordinates":[4925,4839]},{"type":"Point","properties":{"Station_ID":"CATQ6","Station_Nam":"CAT LAKE","Latitude":"51.72690","Longitude":"-91.82210","Snowdepth":"18.190","Units":"in","Rept_Date":"2020-03-04 06"},"coordinates":[1219,9999]},{"type":"Point","properties":{"Station_ID":"WHFN6","Station_Nam":"WILMINGTON 2W","Latitude":"44.39310","Longitude":"-73.85890","Snowdepth":"18.000","Units":"in","Rept_Date":"2020-03-03 13"},"coordinates":[5260,5436]},{"type":"Point","properties":{"Station_ID":"RLWM5","Station_Nam":"CAMP NORRIS DNR","Latitude":"48.61000","Longitude":"-95.18170","Snowdepth":"18.000","Units":"in","Rept_Date":"2020-03-03 14"},"coordinates":[463,8060]},{"type":"Point","properties":{"Station_ID":"MN-IT-11","Station_Nam":"NASHWAUK 11.5 N, MN","Latitude":"47.54496","Longitude":"-93.19420","Snowdepth":"18.000","Units":"in","Rept_Date":"2020-03-03 13"},"coordinates":[910,7397]},{"type":"Point","properties":{"Station_ID":"MI-OT-17","Station_Nam":"GAYLORD 4.1 S, MI","Latitude":"44.96388","Longitude":"-84.68467","Snowdepth":"18.000","Units":"in","Rept_Date":"2020-03-03 12"},"coordinates":[2825,5791]},{"type":"Point","properties":{"Station_ID":"ME-FR-4","Station_Nam":"NEW SHARON 2.0 NW, ME","Latitude":"44.66582","Longitude":"-70.02720","Snowdepth":"18.000","Units":"in","Rept_Date":"2020-03-03 12"},"coordinates":[6122,5606]},{"type":"Point","properties":{"Station_ID":"LBKV1","Station_Nam":"LYE BROOK","Latitude":"43.05000","Longitude":"-73.03330","Snowdepth":"18.000","Units":"in","Rept_Date":"2020-03-04 06"},"coordinates":[5446,4601]},{"type":"Point","properties":{"Station_ID":"KABM5","Station_Nam":"KABETOGAMA LAKE VISITOR CTR","Latitude":"48.40880","Longitude":"-93.04840","Snowdepth":"18.000","Units":"in","Rept_Date":"2020-03-03 13"},"coordinates":[943,7935]},{"type":"Point","properties":{"Station_ID":"CRLM5","Station_Nam":"CROSS LAKE DAM","Latitude":"46.66930","Longitude":"-94.11060","Snowdepth":"18.000","Units":"in","Rept_Date":"2020-03-03 14"},"coordinates":[704,6852]},{"type":"Point","properties":{"Station_ID":"CAN-NB-16","Station_Nam":"DORCHESTER 1.0 SSE, CAN","Latitude":"45.89160","Longitude":"-64.51269","Snowdepth":"18.000","Units":"in","Rept_Date":"2020-03-03 11"},"coordinates":[7363,6369]},{"type":"Point","properties":{"Station_ID":"AURW3","Station_Nam":"AURORA","Latitude":"45.77000","Longitude":"-88.11810","Snowdepth":"18.000","Units":"in","Rept_Date":"2020-03-03 13"},"coordinates":[2052,6293]},{"type":"Point","properties":{"Station_ID":"CAN-ON-452","Station_Nam":"CHATSWORTH 1.8 ENE - GSCA, CAN","Latitude":"44.46118","Longitude":"-80.87506","Snowdepth":"17.700","Units":"in","Rept_Date":"2020-03-03 12"},"coordinates":[3682,5479]},{"type":"Point","properties":{"Station_ID":"NY-FK-9","Station_Nam":"GABRIELS 1.3 SE, NY","Latitude":"44.41934","Longitude":"-74.16194","Snowdepth":"17.500","Units":"in","Rept_Date":"2020-03-03 12"},"coordinates":[5192,5453]},{"type":"Point","properties":{"Station_ID":"WTRM4","Station_Nam":"WATERSMEET 12WSW","Latitude":"46.22310","Longitude":"-89.40850","Snowdepth":"17.000","Units":"in","Rept_Date":"2020-03-03 12"},"coordinates":[1762,6575]},{"type":"Point","properties":{"Station_ID":"WI-BY-22","Station_Nam":"MASON 11.5 WNW, WI","Latitude":"46.50198","Longitude":"-91.28339","Snowdepth":"17.000","Units":"in","Rept_Date":"2020-03-03 14"},"coordinates":[1340,6748]},{"type":"Point","properties":{"Station_ID":"SEVN6","Station_Nam":"SEVEY SNOW COURSE","Latitude":"44.25670","Longitude":"-74.75030","Snowdepth":"17.000","Units":"in","Rept_Date":"2020-03-03 20"},"coordinates":[5060,5351]},{"type":"Point","properties":{"Station_ID":"RSTW3","Station_Nam":"ROSHOLT","Latitude":"44.62710","Longitude":"-89.30600","Snowdepth":"17.000","Units":"in","Rept_Date":"2020-03-03 12"},"coordinates":[1785,5582]},{"type":"Point","properties":{"Station_ID":"RHIW3","Station_Nam":"RHINELANDER","Latitude":"45.59860","Longitude":"-89.45080","Snowdepth":"17.000","Units":"in","Rept_Date":"2020-03-03 13"},"coordinates":[1752,6186]},{"type":"Point","properties":{"Station_ID":"NY-ES-11","Station_Nam":"VERMONTVILLE 2.8 S, NY","Latitude":"44.41205","Longitude":"-74.06760","Snowdepth":"17.000","Units":"in","Rept_Date":"2020-03-03 12"},"coordinates":[5213,5448]},{"type":"Point","properties":{"Station_ID":"NCBN6","Station_Nam":"NEWCOMB","Latitude":"43.97070","Longitude":"-74.22200","Snowdepth":"17.000","Units":"in","Rept_Date":"2020-03-03 12"},"coordinates":[5179,5174]},{"type":"Point","properties":{"Station_ID":"MI-OT-16","Station_Nam":"GAYLORD 2.2 SSE, MI","Latitude":"44.99441","Longitude":"-84.65820","Snowdepth":"17.000","Units":"in","Rept_Date":"2020-03-03 13"},"coordinates":[2831,5810]},{"type":"Point","properties":{"Station_ID":"MI-DL-1","Station_Nam":"GARDEN CORNERS 0.8 NW, MI","Latitude":"45.89815","Longitude":"-86.54850","Snowdepth":"17.000","Units":"in","Rept_Date":"2020-03-03 13"},"coordinates":[2405,6373]},{"type":"Point","properties":{"Station_ID":"LNKM1","Station_Nam":"LINCOLN SANITARY DISTRICT/WTP","Latitude":"45.37520","Longitude":"-68.50820","Snowdepth":"17.000","Units":"in","Rept_Date":"2020-03-03 12"},"coordinates":[6464,6047]},{"type":"Point","properties":{"Station_ID":"LNCM1","Station_Nam":"LINCOLN WATER DISTRICT","Latitude":"45.32410","Longitude":"-68.58300","Snowdepth":"17.000","Units":"in","Rept_Date":"2020-03-03 13"},"coordinates":[6447,6016]},{"type":"Point","properties":{"Station_ID":"LLKN6","Station_Nam":"LONG LAKE","Latitude":"43.98330","Longitude":"-74.45000","Snowdepth":"17.000","Units":"in","Rept_Date":"2020-03-03 20"},"coordinates":[5127,5181]},{"type":"Point","properties":{"Station_ID":"INL","Station_Nam":"FALLS INTERNATIONAL ARPT","Latitude":"48.56640","Longitude":"-93.40310","Snowdepth":"17.000","Units":"in","Rept_Date":"2020-03-04 00"},"coordinates":[863,8033]},{"type":"Point","properties":{"Station_ID":"INDM5","Station_Nam":"INDUS,MN","Latitude":"48.61670","Longitude":"-93.90000","Snowdepth":"17.000","Units":"in","Rept_Date":"2020-03-03 14"},"coordinates":[751,8064]},{"type":"Point","properties":{"Station_ID":"IFSM5","Station_Nam":"INTERNATIONAL FALLS SNOW","Latitude":"48.57780","Longitude":"-93.39640","Snowdepth":"17.000","Units":"in","Rept_Date":"2020-03-04 06"},"coordinates":[864,8040]},{"type":"Point","properties":{"Station_ID":"GDCM4","Station_Nam":"GARDEN CORNERS","Latitude":"45.89830","Longitude":"-86.54850","Snowdepth":"17.000","Units":"in","Rept_Date":"2020-03-03 13"},"coordinates":[2405,6373]},{"type":"Point","properties":{"Station_ID":"ERG32","Station_Nam":"NMPS SEVEY","Latitude":"44.30000","Longitude":"-74.72000","Snowdepth":"17.000","Units":"in","Rept_Date":"2020-03-03 17"},"coordinates":[5067,5378]},{"type":"Point","properties":{"Station_ID":"ERG20","Station_Nam":"NMPS LONG LAKE","Latitude":"43.98000","Longitude":"-74.45000","Snowdepth":"17.000","Units":"in","Rept_Date":"2020-03-03 17"},"coordinates":[5127,5179]},{"type":"Point","properties":{"Station_ID":"ERG13","Station_Nam":"NMPS CRANBERRY LAKE","Latitude":"44.22000","Longitude":"-74.85000","Snowdepth":"17.000","Units":"in","Rept_Date":"2020-03-03 17"},"coordinates":[5037,5329]},{"type":"Point","properties":{"Station_ID":"CRBN6","Station_Nam":"CRANBERRY LAKE SNOW COURSE","Latitude":"44.21810","Longitude":"-74.85360","Snowdepth":"17.000","Units":"in","Rept_Date":"2020-03-03 20"},"coordinates":[5036,5327]},{"type":"Point","properties":{"Station_ID":"CORV1","Station_Nam":"CORINTH","Latitude":"44.00690","Longitude":"-72.31940","Snowdepth":"17.000","Units":"in","Rept_Date":"2020-03-03 12"},"coordinates":[5607,5196]},{"type":"Point","properties":{"Station_ID":"CLKM4","Station_Nam":"CLARKSBURG","Latitude":"46.49910","Longitude":"-87.84500","Snowdepth":"17.000","Units":"in","Rept_Date":"2020-03-03 12"},"coordinates":[2114,6747]},{"type":"Point","properties":{"Station_ID":"BTLN3","Station_Nam":"BARTLETT","Latitude":"44.08380","Longitude":"-71.29340","Snowdepth":"17.000","Units":"in","Rept_Date":"2020-03-03 12"},"coordinates":[5838,5244]},{"type":"Point","properties":{"Station_ID":"ASTW3","Station_Nam":"ATHELSTANE","Latitude":"45.42500","Longitude":"-88.05750","Snowdepth":"17.000","Units":"in","Rept_Date":"2020-03-03 18"},"coordinates":[2066,6078]},{"type":"Point","properties":{"Station_ID":"APXM4","Station_Nam":"GAYLORD 9SSW","Latitude":"44.90720","Longitude":"-84.71880","Snowdepth":"17.000","Units":"in","Rept_Date":"2020-03-04 06"},"coordinates":[2817,5756]},{"type":"Point","properties":{"Station_ID":"AMAM4","Station_Nam":"AMASA 1W","Latitude":"46.23470","Longitude":"-88.45440","Snowdepth":"17.000","Units":"in","Rept_Date":"2020-03-03 14"},"coordinates":[1976,6582]},{"type":"Point","properties":{"Station_ID":"AGNW3","Station_Nam":"ARGONNE-1.5 NW","Latitude":"45.67360","Longitude":"-88.90380","Snowdepth":"17.000","Units":"in","Rept_Date":"2020-03-03 13"},"coordinates":[1875,6233]},{"type":"Point","properties":{"Station_ID":"NH-CR-15","Station_Nam":"JACKSON 3.7 NW, NH","Latitude":"44.19069","Longitude":"-71.22598","Snowdepth":"16.500","Units":"in","Rept_Date":"2020-03-03 12"},"coordinates":[5853,5310]},{"type":"Point","properties":{"Station_ID":"HWKN6","Station_Nam":"HAWKINSVILLE","Latitude":"43.50000","Longitude":"-75.23330","Snowdepth":"16.300","Units":"in","Rept_Date":"2020-03-03 17"},"coordinates":[4951,4881]},{"type":"Point","properties":{"Station_ID":"ERF16","Station_Nam":"BRRD HASKINVILLE 2E","Latitude":"43.50000","Longitude":"-75.23000","Snowdepth":"16.300","Units":"in","Rept_Date":"2020-03-03 17"},"coordinates":[4952,4881]},{"type":"Point","properties":{"Station_ID":"CAN-PE-43","Station_Nam":"GLENCOE 0.3 W, CAN","Latitude":"46.20115","Longitude":"-62.81740","Snowdepth":"16.300","Units":"in","Rept_Date":"2020-03-03 12"},"coordinates":[7745,6561]},{"type":"Point","properties":{"Station_ID":"FTHQ6","Station_Nam":"FORT HOPE","Latitude":"51.55820","Longitude":"-87.90510","Snowdepth":"16.220","Units":"in","Rept_Date":"2020-03-04 06"},"coordinates":[2100,9894]},{"type":"Point","properties":{"Station_ID":"CAN-PE-7","Station_Nam":"MORELL 1.4 NNW, CA","Latitude":"46.42741","Longitude":"-62.70870","Snowdepth":"16.200","Units":"in","Rept_Date":"2020-03-03 11"},"coordinates":[7769,6702]},{"type":"Point","properties":{"Station_ID":"ZNOM4","Station_Nam":"NORWAY","Latitude":"45.77810","Longitude":"-87.89560","Snowdepth":"16.000","Units":"in","Rept_Date":"2020-03-04 02"},"coordinates":[2102,6298]},{"type":"Point","properties":{"Station_ID":"WTNM4","Station_Nam":"WATTON 2WSW","Latitude":"46.52660","Longitude":"-88.64240","Snowdepth":"16.000","Units":"in","Rept_Date":"2020-03-03 13"},"coordinates":[1934,6764]},{"type":"Point","properties":{"Station_ID":"WRTS2","Station_Nam":"WATERTOWN,SD","Latitude":"44.90280","Longitude":"-97.11360","Snowdepth":"16.000","Units":"in","Rept_Date":"2020-03-03 15"},"coordinates":[28,5753]},{"type":"Point","properties":{"Station_ID":"WLKW3","Station_Nam":"WHITE LAKE 1 SE","Latitude":"45.14520","Longitude":"-88.74160","Snowdepth":"16.000","Units":"in","Rept_Date":"2020-03-03 14"},"coordinates":[1912,5904]},{"type":"Point","properties":{"Station_ID":"WI-PR-2","Station_Nam":"BUTTERNUT 5.9 SW, WI","Latitude":"45.96501","Longitude":"-90.59750","Snowdepth":"16.000","Units":"in","Rept_Date":"2020-03-03 12"},"coordinates":[1494,6414]},{"type":"Point","properties":{"Station_ID":"WI-MT-14","Station_Nam":"MOSINEE 2.7 WSW, WI","Latitude":"44.77240","Longitude":"-89.73441","Snowdepth":"16.000","Units":"in","Rept_Date":"2020-03-03 14"},"coordinates":[1688,5672]},{"type":"Point","properties":{"Station_ID":"WI-BN-6","Station_Nam":"SUAMICO 4.4 WNW, WI","Latitude":"44.66111","Longitude":"-88.11780","Snowdepth":"16.000","Units":"in","Rept_Date":"2020-03-03 13"},"coordinates":[2052,5603]},{"type":"Point","properties":{"Station_ID":"THRM5","Station_Nam":"THORHULT,MN","Latitude":"48.21670","Longitude":"-95.25000","Snowdepth":"16.000","Units":"in","Rept_Date":"2020-03-03 23"},"coordinates":[447,7815]},{"type":"Point","properties":{"Station_ID":"TAKW3","Station_Nam":"RICE RESERVOIR NO. 2","Latitude":"45.53770","Longitude":"-89.73220","Snowdepth":"16.000","Units":"in","Rept_Date":"2020-03-03 13"},"coordinates":[1689,6148]},{"type":"Point","properties":{"Station_ID":"PEKN6","Station_Nam":"PECK LAKE","Latitude":"43.11500","Longitude":"-74.42360","Snowdepth":"16.000","Units":"in","Rept_Date":"2020-03-03 12"},"coordinates":[5133,4641]},{"type":"Point","properties":{"Station_ID":"NY-HM-8","Station_Nam":"LONG LAKE 1.2 N, NY","Latitude":"43.99070","Longitude":"-74.41880","Snowdepth":"16.000","Units":"in","Rept_Date":"2020-03-03 12"},"coordinates":[5134,5186]},{"type":"Point","properties":{"Station_ID":"NUMN3","Station_Nam":"NORTHUMBERLAND","Latitude":"44.52830","Longitude":"-71.50440","Snowdepth":"16.000","Units":"in","Rept_Date":"2020-03-03 12"},"coordinates":[5790,5520]},{"type":"Point","properties":{"Station_ID":"NH-CR-26","Station_Nam":"CENTER SANDWICH 4.9 E, NH","Latitude":"43.80976","Longitude":"-71.34150","Snowdepth":"16.000","Units":"in","Rept_Date":"2020-03-03 12"},"coordinates":[5827,5073]},{"type":"Point","properties":{"Station_ID":"NH-CR-11","Station_Nam":"NORTH CONWAY 1.4 SSW, NH","Latitude":"44.03556","Longitude":"-71.14010","Snowdepth":"16.000","Units":"in","Rept_Date":"2020-03-03 12"},"coordinates":[5872,5214]},{"type":"Point","properties":{"Station_ID":"MN-IT-1","Station_Nam":"GRAND RAPIDS 2.0 E, MN","Latitude":"47.22266","Longitude":"-93.49600","Snowdepth":"16.000","Units":"in","Rept_Date":"2020-03-03 12"},"coordinates":[842,7197]},{"type":"Point","properties":{"Station_ID":"MN-CW-22","Station_Nam":"FORT RIPLEY 0.8 N, MN","Latitude":"46.18089","Longitude":"-94.36510","Snowdepth":"16.000","Units":"in","Rept_Date":"2020-03-03 13"},"coordinates":[647,6549]},{"type":"Point","properties":{"Station_ID":"JEFV1","Station_Nam":"JEFFERSONVILLE","Latitude":"44.58430","Longitude":"-72.78700","Snowdepth":"16.000","Units":"in","Rept_Date":"2020-03-03 12"},"coordinates":[5501,5555]},{"type":"Point","properties":{"Station_ID":"JCBM4","Station_Nam":"JACOBSVILLE","Latitude":"47.00830","Longitude":"-88.43180","Snowdepth":"16.000","Units":"in","Rept_Date":"2020-03-03 12"},"coordinates":[1981,7063]},{"type":"Point","properties":{"Station_ID":"HUBN3","Station_Nam":"HUBBARD BROOK","Latitude":"43.93330","Longitude":"-71.71670","Snowdepth":"16.000","Units":"in","Rept_Date":"2020-03-04 06"},"coordinates":[5742,5150]},{"type":"Point","properties":{"Station_ID":"HOLW3","Station_Nam":"HOLCOMBE","Latitude":"45.22370","Longitude":"-91.12700","Snowdepth":"16.000","Units":"in","Rept_Date":"2020-03-03 13"},"coordinates":[1375,5953]},{"type":"Point","properties":{"Station_ID":"HGHN6","Station_Nam":"HIGHMARKET","Latitude":"43.57520","Longitude":"-75.52070","Snowdepth":"16.000","Units":"in","Rept_Date":"2020-03-03 11"},"coordinates":[4886,4927]},{"type":"Point","properties":{"Station_ID":"GLLM5","Station_Nam":"GULL LAKE DAM","Latitude":"46.41190","Longitude":"-94.35000","Snowdepth":"16.000","Units":"in","Rept_Date":"2020-03-03 14"},"coordinates":[650,6692]},{"type":"Point","properties":{"Station_ID":"FLNW3","Station_Nam":"FLORENCE","Latitude":"45.93360","Longitude":"-88.25830","Snowdepth":"16.000","Units":"in","Rept_Date":"2020-03-03 13"},"coordinates":[2021,6395]},{"type":"Point","properties":{"Station_ID":"ESDN3","Station_Nam":"EAST SANDWICH","Latitude":"43.80990","Longitude":"-71.34250","Snowdepth":"16.000","Units":"in","Rept_Date":"2020-03-03 11"},"coordinates":[5826,5074]},{"type":"Point","properties":{"Station_ID":"EJNM4","Station_Nam":"EAST JORDAN 2NW","Latitude":"45.18630","Longitude":"-85.14770","Snowdepth":"16.000","Units":"in","Rept_Date":"2020-03-03 13"},"coordinates":[2720,5930]},{"type":"Point","properties":{"Station_ID":"COKM5","Station_Nam":"COOK","Latitude":"47.85060","Longitude":"-92.69250","Snowdepth":"16.000","Units":"in","Rept_Date":"2020-03-03 12"},"coordinates":[1023,7587]},{"type":"Point","properties":{"Station_ID":"BOON6","Station_Nam":"BOONVILLE 4 SSW","Latitude":"43.43610","Longitude":"-75.36970","Snowdepth":"16.000","Units":"in","Rept_Date":"2020-03-03 12"},"coordinates":[4920,4841]},{"type":"Point","properties":{"Station_ID":"ATY","Station_Nam":"WATERTOWN MUNICIPAL AIRPORT","Latitude":"44.91420","Longitude":"-97.15440","Snowdepth":"16.000","Units":"in","Rept_Date":"2020-03-03 12"},"coordinates":[19,5761]},{"type":"Point","properties":{"Station_ID":"WI-SR-1","Station_Nam":"HAYWARD 9.2 NNE, WI","Latitude":"46.13255","Longitude":"-91.40500","Snowdepth":"15.500","Units":"in","Rept_Date":"2020-03-03 12"},"coordinates":[1313,6519]},{"type":"Point","properties":{"Station_ID":"WI-ON-6","Station_Nam":"RHINELANDER 5.2 N, WI","Latitude":"45.71388","Longitude":"-89.42150","Snowdepth":"15.500","Units":"in","Rept_Date":"2020-03-03 14"},"coordinates":[1759,6258]},{"type":"Point","properties":{"Station_ID":"MI-CX-7","Station_Nam":"EAST JORDAN 2.1 NNW, MI","Latitude":"45.18639","Longitude":"-85.14750","Snowdepth":"15.500","Units":"in","Rept_Date":"2020-03-03 13"},"coordinates":[2720,5930]},{"type":"Point","properties":{"Station_ID":"CAN-ON-132","Station_Nam":"ORANGEVILLE 5.1 SSW - CANWARN, CAN","Latitude":"43.87372","Longitude":"-80.13428","Snowdepth":"15.400","Units":"in","Rept_Date":"2020-03-03 14"},"coordinates":[3848,5113]},{"type":"Point","properties":{"Station_ID":"MN-IT-7","Station_Nam":"GRAND RAPIDS 6.2 SSW, MN","Latitude":"47.13687","Longitude":"-93.56660","Snowdepth":"15.100","Units":"in","Rept_Date":"2020-03-03 12"},"coordinates":[826,7143]},{"type":"Point","properties":{"Station_ID":"WI-PR-6","Station_Nam":"PHILLIPS 1.3 S, WI","Latitude":"45.67677","Longitude":"-90.39543","Snowdepth":"15.000","Units":"in","Rept_Date":"2020-03-03 12"},"coordinates":[1540,6235]},{"type":"Point","properties":{"Station_ID":"WAWN6","Station_Nam":"WAWBEEK","Latitude":"44.24440","Longitude":"-74.36060","Snowdepth":"15.000","Units":"in","Rept_Date":"2020-03-03 20"},"coordinates":[5147,5344]},{"type":"Point","properties":{"Station_ID":"SULW3","Station_Nam":"SUMMIT LAKE","Latitude":"45.37880","Longitude":"-89.19410","Snowdepth":"15.000","Units":"in","Rept_Date":"2020-03-03 17"},"coordinates":[1810,6050]},{"type":"Point","properties":{"Station_ID":"STAN6","Station_Nam":"STAR LAKE SNOW COURSE","Latitude":"44.16470","Longitude":"-75.04530","Snowdepth":"15.000","Units":"in","Rept_Date":"2020-03-03 20"},"coordinates":[4993,5294]},{"type":"Point","properties":{"Station_ID":"QWG","Station_Nam":"QWG","Latitude":"48.48890","Longitude":"-73.45940","Snowdepth":"15.000","Units":"in","Rept_Date":"2020-03-03 12"},"coordinates":[5350,7985]},{"type":"Point","properties":{"Station_ID":"NPTV1","Station_Nam":"NEWPORT","Latitude":"44.94900","Longitude":"-72.19120","Snowdepth":"15.000","Units":"in","Rept_Date":"2020-03-03 12"},"coordinates":[5636,5782]},{"type":"Point","properties":{"Station_ID":"NH-CR-41","Station_Nam":"ALBANY 2.8 SW, NH","Latitude":"43.92648","Longitude":"-71.21556","Snowdepth":"15.000","Units":"in","Rept_Date":"2020-03-03 13"},"coordinates":[5855,5146]},{"type":"Point","properties":{"Station_ID":"NCKN6","Station_Nam":"NORTH CREEK 5 SE","Latitude":"43.66110","Longitude":"-73.89690","Snowdepth":"15.000","Units":"in","Rept_Date":"2020-03-03 12"},"coordinates":[5252,4981]},{"type":"Point","properties":{"Station_ID":"MRAM4","Station_Nam":"MORAN","Latitude":"45.99030","Longitude":"-84.83610","Snowdepth":"15.000","Units":"in","Rept_Date":"2020-03-03 13"},"coordinates":[2790,6430]},{"type":"Point","properties":{"Station_ID":"MI-OT-4","Station_Nam":"GAYLORD 1.7 WNW, MI","Latitude":"45.03280","Longitude":"-84.71090","Snowdepth":"15.000","Units":"in","Rept_Date":"2020-03-03 13"},"coordinates":[2819,5834]},{"type":"Point","properties":{"Station_ID":"GAYM4","Station_Nam":"GAYLORD","Latitude":"45.03320","Longitude":"-84.71130","Snowdepth":"15.000","Units":"in","Rept_Date":"2020-03-03 13"},"coordinates":[2819,5835]},{"type":"Point","properties":{"Station_ID":"FEDM5","Station_Nam":"LEECH LAKE DAM","Latitude":"47.24670","Longitude":"-94.22280","Snowdepth":"15.000","Units":"in","Rept_Date":"2020-03-03 14"},"coordinates":[679,7212]},{"type":"Point","properties":{"Station_ID":"FARM1","Station_Nam":"FARMINGTON","Latitude":"44.68930","Longitude":"-70.15640","Snowdepth":"15.000","Units":"in","Rept_Date":"2020-03-03 12"},"coordinates":[6093,5621]},{"type":"Point","properties":{"Station_ID":"ERH20","Station_Nam":"NMPS WAWBEEK","Latitude":"44.25000","Longitude":"-74.33000","Snowdepth":"15.000","Units":"in","Rept_Date":"2020-03-03 17"},"coordinates":[5154,5347]},{"type":"Point","properties":{"Station_ID":"ERG34","Station_Nam":"NMPS STAR LAKE","Latitude":"44.17000","Longitude":"-75.05000","Snowdepth":"15.000","Units":"in","Rept_Date":"2020-03-03 17"},"coordinates":[4992,5298]},{"type":"Point","properties":{"Station_ID":"COUW3","Station_Nam":"COUDERAY,WI","Latitude":"45.86670","Longitude":"-91.45000","Snowdepth":"15.000","Units":"in","Rept_Date":"2020-03-03 22"},"coordinates":[1302,6353]},{"type":"Point","properties":{"Station_ID":"CAN-ON-208","Station_Nam":"PAKENHAM 7.8 NNW, CAN","Latitude":"45.39166","Longitude":"-76.34111","Snowdepth":"15.000","Units":"in","Rept_Date":"2020-03-03 12"},"coordinates":[4702,6058]},{"type":"Point","properties":{"Station_ID":"BRAM5","Station_Nam":"BRAINERD","Latitude":"46.34320","Longitude":"-94.20900","Snowdepth":"15.000","Units":"in","Rept_Date":"2020-03-03 13"},"coordinates":[682,6650]},{"type":"Point","properties":{"Station_ID":"WI-AS-4","Station_Nam":"ASHLAND 0.5 WNW, WI","Latitude":"46.58240","Longitude":"-90.88390","Snowdepth":"14.500","Units":"in","Rept_Date":"2020-03-03 13"},"coordinates":[1430,6798]},{"type":"Point","properties":{"Station_ID":"NH-CR-27","Station_Nam":"TAMWORTH 0.4 NNW, NH","Latitude":"43.86449","Longitude":"-71.26610","Snowdepth":"14.500","Units":"in","Rept_Date":"2020-03-03 12"},"coordinates":[5844,5107]},{"type":"Point","properties":{"Station_ID":"CAN-ON-757","Station_Nam":"SAULT STE. MARIE 2.8 ESE - GLFC, CAN","Latitude":"46.50300","Longitude":"-84.30300","Snowdepth":"14.300","Units":"in","Rept_Date":"2020-03-03 13"},"coordinates":[2910,6749]},{"type":"Point","properties":{"Station_ID":"WI-RS-1","Station_Nam":"LADYSMITH 2.8 WNW, WI","Latitude":"45.48180","Longitude":"-91.14680","Snowdepth":"14.000","Units":"in","Rept_Date":"2020-03-03 13"},"coordinates":[1371,6114]},{"type":"Point","properties":{"Station_ID":"WI-DN-1","Station_Nam":"BOYCEVILLE 3.3 N, WI","Latitude":"45.08913","Longitude":"-92.02760","Snowdepth":"14.000","Units":"in","Rept_Date":"2020-03-03 13"},"coordinates":[1172,5869]},{"type":"Point","properties":{"Station_ID":"VT-WS-33","Station_Nam":"WAITSFIELD 3.5 WNW, VT","Latitude":"44.20052","Longitude":"-72.89421","Snowdepth":"14.000","Units":"in","Rept_Date":"2020-03-03 13"},"coordinates":[5477,5317]},{"type":"Point","properties":{"Station_ID":"VT-ES-3","Station_Nam":"LUNENBURG 2.3 NNW, VT","Latitude":"44.49324","Longitude":"-71.70446","Snowdepth":"14.000","Units":"in","Rept_Date":"2020-03-03 12"},"coordinates":[5745,5499]},{"type":"Point","properties":{"Station_ID":"VT-BN-3","Station_Nam":"LANDGROVE 1.1 NNE, VT","Latitude":"43.29092","Longitude":"-72.83260","Snowdepth":"14.000","Units":"in","Rept_Date":"2020-03-03 12"},"coordinates":[5491,4751]},{"type":"Point","properties":{"Station_ID":"TOHM5","Station_Nam":"TWO HARBORS WWTP","Latitude":"47.01760","Longitude":"-91.66480","Snowdepth":"14.000","Units":"in","Rept_Date":"2020-03-03 13"},"coordinates":[1254,7069]},{"type":"Point","properties":{"Station_ID":"TMWN3","Station_Nam":"TAMWORTH 4","Latitude":"43.86390","Longitude":"-71.26610","Snowdepth":"14.000","Units":"in","Rept_Date":"2020-03-03 12"},"coordinates":[5844,5107]},{"type":"Point","properties":{"Station_ID":"STMM4","Station_Nam":"STAMBAUGH 2SSE","Latitude":"46.05550","Longitude":"-88.62780","Snowdepth":"14.000","Units":"in","Rept_Date":"2020-03-03 13"},"coordinates":[1937,6471]},{"type":"Point","properties":{"Station_ID":"RHLW3","Station_Nam":"RHINELANDER 4NE","Latitude":"45.65270","Longitude":"-89.30740","Snowdepth":"14.000","Units":"in","Rept_Date":"2020-03-03 18"},"coordinates":[1784,6220]},{"type":"Point","properties":{"Station_ID":"RDFN6","Station_Nam":"REDFIELD 8N","Latitude":"43.64130","Longitude":"-75.88400","Snowdepth":"14.000","Units":"in","Rept_Date":"2020-03-03 12"},"coordinates":[4805,4969]},{"type":"Point","properties":{"Station_ID":"PELW3","Station_Nam":"PELLA 3SE","Latitude":"44.73580","Longitude":"-88.73780","Snowdepth":"14.000","Units":"in","Rept_Date":"2020-03-03 17"},"coordinates":[1913,5650]},{"type":"Point","properties":{"Station_ID":"NSFN3","Station_Nam":"NORTH STRATFORD","Latitude":"44.68190","Longitude":"-71.58570","Snowdepth":"14.000","Units":"in","Rept_Date":"2020-03-03 12"},"coordinates":[5772,5616]},{"type":"Point","properties":{"Station_ID":"MN-PK-15","Station_Nam":"MENTOR 2.5 SSW, MN","Latitude":"47.66625","Longitude":"-96.17328","Snowdepth":"14.000","Units":"in","Rept_Date":"2020-03-03 13"},"coordinates":[240,7473]},{"type":"Point","properties":{"Station_ID":"MN-BK-10","Station_Nam":"DETROIT LAKES 5.7 N, MN","Latitude":"46.88666","Longitude":"-95.84444","Snowdepth":"14.000","Units":"in","Rept_Date":"2020-03-03 10"},"coordinates":[314,6988]},{"type":"Point","properties":{"Station_ID":"MIEM4","Station_Nam":"MICHIGAMME 3WNW","Latitude":"46.54530","Longitude":"-88.18000","Snowdepth":"14.000","Units":"in","Rept_Date":"2020-03-03 13"},"coordinates":[2038,6775]},{"type":"Point","properties":{"Station_ID":"MI-DL-4","Station_Nam":"GLADSTONE 2.1 SW, MI","Latitude":"45.83218","Longitude":"-87.05727","Snowdepth":"14.000","Units":"in","Rept_Date":"2020-03-03 12"},"coordinates":[2291,6332]},{"type":"Point","properties":{"Station_ID":"LBRM5","Station_Nam":"LAKE BRONSON DAM","Latitude":"48.72410","Longitude":"-96.62180","Snowdepth":"14.000","Units":"in","Rept_Date":"2020-03-03 14"},"coordinates":[139,8131]},{"type":"Point","properties":{"Station_ID":"GFDN6","Station_Nam":"CHASES LAKE","Latitude":"43.75920","Longitude":"-75.29980","Snowdepth":"14.000","Units":"in","Rept_Date":"2020-03-03 11"},"coordinates":[4936,5042]},{"type":"Point","properties":{"Station_ID":"CAN-ON-42","Station_Nam":"VANKLEEK HILL 3.4 S, CA","Latitude":"45.48987","Longitude":"-74.64570","Snowdepth":"14.000","Units":"in","Rept_Date":"2020-03-03 12"},"coordinates":[5083,6119]},{"type":"Point","properties":{"Station_ID":"BRLN3","Station_Nam":"BERLIN","Latitude":"44.45350","Longitude":"-71.18540","Snowdepth":"14.000","Units":"in","Rept_Date":"2020-03-03 12"},"coordinates":[5862,5474]},{"type":"Point","properties":{"Station_ID":"BREW3","Station_Nam":"SURING","Latitude":"44.99580","Longitude":"-88.37860","Snowdepth":"14.000","Units":"in","Rept_Date":"2020-03-03 13"},"coordinates":[1993,5811]},{"type":"Point","properties":{"Station_ID":"BFHW3","Station_Nam":"BAYFIELD FISH HATCHERY","Latitude":"46.78670","Longitude":"-90.86420","Snowdepth":"14.000","Units":"in","Rept_Date":"2020-03-03 14"},"coordinates":[1434,6926]},{"type":"Point","properties":{"Station_ID":"AWXW3","Station_Nam":"ASHLAND","Latitude":"46.58240","Longitude":"-90.88390","Snowdepth":"14.000","Units":"in","Rept_Date":"2020-03-03 13"},"coordinates":[1430,6798]},{"type":"Point","properties":{"Station_ID":"CAN-NB-98","Station_Nam":"HOYT 4.2 S, CAN","Latitude":"45.54763","Longitude":"-66.55440","Snowdepth":"13.800","Units":"in","Rept_Date":"2020-03-03 11"},"coordinates":[6904,6155]},{"type":"Point","properties":{"Station_ID":"CAN-MB-298","Station_Nam":"GARDENTON 4.2 W - SRRCD, CAN","Latitude":"49.09480","Longitude":"-96.75446","Snowdepth":"13.800","Units":"in","Rept_Date":"2020-03-03 14"},"coordinates":[109,8361]},{"type":"Point","properties":{"Station_ID":"WI-PR-8","Station_Nam":"PHILLIPS 0.4 SSW, WI","Latitude":"45.69086","Longitude":"-90.40200","Snowdepth":"13.500","Units":"in","Rept_Date":"2020-03-03 13"},"coordinates":[1538,6244]},{"type":"Point","properties":{"Station_ID":"VT-FR-21","Station_Nam":"FAIRFAX 4.9 WNW, VT","Latitude":"44.68880","Longitude":"-73.10340","Snowdepth":"13.500","Units":"in","Rept_Date":"2020-03-03 14"},"coordinates":[5430,5620]},{"type":"Point","properties":{"Station_ID":"NH-GR-49","Station_Nam":"PLYMOUTH 3.7 N, NH","Latitude":"43.79048","Longitude":"-71.68413","Snowdepth":"13.500","Units":"in","Rept_Date":"2020-03-03 12"},"coordinates":[5750,5061]},{"type":"Point","properties":{"Station_ID":"CAN-ON-46","Station_Nam":"WROXETER 0.3 WSW - MVCA, CAN","Latitude":"43.86365","Longitude":"-81.15225","Snowdepth":"13.400","Units":"in","Rept_Date":"2020-03-03 13"},"coordinates":[3619,5107]},{"type":"Point","properties":{"Station_ID":"WORV1","Station_Nam":"WORCESTER 2 W","Latitude":"44.37470","Longitude":"-72.58220","Snowdepth":"13.000","Units":"in","Rept_Date":"2020-03-03 12"},"coordinates":[5548,5425]},{"type":"Point","properties":{"Station_ID":"VT-WS-19","Station_Nam":"WATERBURY 3.0 NW, VT","Latitude":"44.36060","Longitude":"-72.80770","Snowdepth":"13.000","Units":"in","Rept_Date":"2020-03-03 11"},"coordinates":[5497,5416]},{"type":"Point","properties":{"Station_ID":"VT-OG-11","Station_Nam":"VERSHIRE 1.5 ESE, VT","Latitude":"43.96138","Longitude":"-72.29777","Snowdepth":"13.000","Units":"in","Rept_Date":"2020-03-03 13"},"coordinates":[5612,5168]},{"type":"Point","properties":{"Station_ID":"VT-CH-4","Station_Nam":"UNDERHILL 4.4 NNE, VT","Latitude":"44.58774","Longitude":"-72.92250","Snowdepth":"13.000","Units":"in","Rept_Date":"2020-03-03 12"},"coordinates":[5471,5557]},{"type":"Point","properties":{"Station_ID":"SD-BK-9","Station_Nam":"BRUCE 4.1 NE, SD","Latitude":"44.48479","Longitude":"-96.83750","Snowdepth":"13.000","Units":"in","Rept_Date":"2020-03-03 13"},"coordinates":[90,5493]},{"type":"Point","properties":{"Station_ID":"RHRW3","Station_Nam":"RHINELANDER WJFW TV-12","Latitude":"45.62220","Longitude":"-89.41000","Snowdepth":"13.000","Units":"in","Rept_Date":"2020-03-04 04"},"coordinates":[1761,6201]},{"type":"Point","properties":{"Station_ID":"RHI","Station_Nam":"RHINELANDER-ONEIDA COUNTY AIRPORT","Latitude":"45.63080","Longitude":"-89.46530","Snowdepth":"13.000","Units":"in","Rept_Date":"2020-03-03 12"},"coordinates":[1749,6206]},{"type":"Point","properties":{"Station_ID":"PERV1","Station_Nam":"PERU","Latitude":"43.26670","Longitude":"-72.90000","Snowdepth":"13.000","Units":"in","Rept_Date":"2020-03-03 12"},"coordinates":[5476,4736]},{"type":"Point","properties":{"Station_ID":"OCON6","Station_Nam":"OSCEOLA","Latitude":"43.49910","Longitude":"-75.71210","Snowdepth":"13.000","Units":"in","Rept_Date":"2020-03-03 12"},"coordinates":[4843,4880]},{"type":"Point","properties":{"Station_ID":"NY-OD-4","Station_Nam":"BOONVILLE 0.2 NW, NY","Latitude":"43.48333","Longitude":"-75.33330","Snowdepth":"13.000","Units":"in","Rept_Date":"2020-03-03 23"},"coordinates":[4929,4870]},{"type":"Point","properties":{"Station_ID":"NUNV1","Station_Nam":"NORTH UNDERHILL","Latitude":"44.58760","Longitude":"-72.92150","Snowdepth":"13.000","Units":"in","Rept_Date":"2020-03-03 12"},"coordinates":[5471,5557]},{"type":"Point","properties":{"Station_ID":"MQRW3","Station_Nam":"MINOCQUA","Latitude":"45.88630","Longitude":"-89.73220","Snowdepth":"13.000","Units":"in","Rept_Date":"2020-03-03 12"},"coordinates":[1689,6365]},{"type":"Point","properties":{"Station_ID":"ME-CM-98","Station_Nam":"SEBAGO 2.4 ESE, ME","Latitude":"43.88000","Longitude":"-70.63000","Snowdepth":"13.000","Units":"in","Rept_Date":"2020-03-03 15"},"coordinates":[5987,5117]},{"type":"Point","properties":{"Station_ID":"JEFN3","Station_Nam":"JEFFERSON","Latitude":"44.41690","Longitude":"-71.50080","Snowdepth":"13.000","Units":"in","Rept_Date":"2020-03-03 12"},"coordinates":[5791,5451]},{"type":"Point","properties":{"Station_ID":"HRTM1","Station_Nam":"HARTFORD","Latitude":"44.37440","Longitude":"-70.31620","Snowdepth":"13.000","Units":"in","Rept_Date":"2020-03-03 12"},"coordinates":[6057,5425]},{"type":"Point","properties":{"Station_ID":"GRFN8","Station_Nam":"UNIVERSITY","Latitude":"47.93330","Longitude":"-97.08330","Snowdepth":"13.000","Units":"in","Rept_Date":"2020-03-04 06"},"coordinates":[35,7639]},{"type":"Point","properties":{"Station_ID":"GRBM5","Station_Nam":"GRAND RAPIDS 12N","Latitude":"47.39800","Longitude":"-93.51330","Snowdepth":"13.000","Units":"in","Rept_Date":"2020-03-03 12"},"coordinates":[838,7306]},{"type":"Point","properties":{"Station_ID":"FLDM5","Station_Nam":"FLOODWOOD,MN","Latitude":"47.00000","Longitude":"-92.91670","Snowdepth":"13.000","Units":"in","Rept_Date":"2020-03-03 14"},"coordinates":[972,7058]},{"type":"Point","properties":{"Station_ID":"EPTW3","Station_Nam":"EAU PLEINE TENDER","Latitude":"44.77220","Longitude":"-89.76720","Snowdepth":"13.000","Units":"in","Rept_Date":"2020-03-03 13"},"coordinates":[1681,5672]},{"type":"Point","properties":{"Station_ID":"EGRW3","Station_Nam":"EAGLE RIVER-SOUTH","Latitude":"45.91360","Longitude":"-89.24360","Snowdepth":"13.000","Units":"in","Rept_Date":"2020-03-03 13"},"coordinates":[1799,6382]},{"type":"Point","properties":{"Station_ID":"COLN3","Station_Nam":"COLEBROOK 3SW","Latitude":"44.86100","Longitude":"-71.53920","Snowdepth":"13.000","Units":"in","Rept_Date":"2020-03-03 12"},"coordinates":[5782,5727]},{"type":"Point","properties":{"Station_ID":"CNNW3","Station_Nam":"CRANDON","Latitude":"45.55110","Longitude":"-88.89830","Snowdepth":"13.000","Units":"in","Rept_Date":"2020-03-03 18"},"coordinates":[1877,6157]},{"type":"Point","properties":{"Station_ID":"BETM1","Station_Nam":"BETHEL 6 SSE","Latitude":"44.32000","Longitude":"-70.75680","Snowdepth":"13.000","Units":"in","Rept_Date":"2020-03-03 19"},"coordinates":[5958,5391]},{"type":"Point","properties":{"Station_ID":"AMDW3","Station_Nam":"ALMOND-5 NE","Latitude":"44.30830","Longitude":"-89.34640","Snowdepth":"13.000","Units":"in","Rept_Date":"2020-03-03 14"},"coordinates":[1776,5384]},{"type":"Point","properties":{"Station_ID":"MN-WC-8","Station_Nam":"WASECA 2.0 N, MN","Latitude":"44.11194","Longitude":"-93.49972","Snowdepth":"12.500","Units":"in","Rept_Date":"2020-03-03 12"},"coordinates":[841,5261]},{"type":"Point","properties":{"Station_ID":"MN-MW-8","Station_Nam":"AUSTIN 2.4 W, MN","Latitude":"43.67190","Longitude":"-93.02280","Snowdepth":"12.500","Units":"in","Rept_Date":"2020-03-03 13"},"coordinates":[949,4988]},{"type":"Point","properties":{"Station_ID":"WUNW3","Station_Nam":"WAUSAU-NORTHEAST","Latitude":"44.97310","Longitude":"-89.61690","Snowdepth":"12.000","Units":"in","Rept_Date":"2020-03-03 18"},"coordinates":[1715,5797]},{"type":"Point","properties":{"Station_ID":"WRUM5","Station_Nam":"WARROAD 4W","Latitude":"48.89600","Longitude":"-95.40700","Snowdepth":"12.000","Units":"in","Rept_Date":"2020-03-04 04"},"coordinates":[412,8238]},{"type":"Point","properties":{"Station_ID":"WI-SR-5","Station_Nam":"HAYWARD 9.7 NE, WI","Latitude":"46.12030","Longitude":"-91.35370","Snowdepth":"12.000","Units":"in","Rept_Date":"2020-03-03 14"},"coordinates":[1324,6511]},{"type":"Point","properties":{"Station_ID":"WI-MT-1","Station_Nam":"SCHOFIELD 3.3 E, WI","Latitude":"44.91806","Longitude":"-89.54470","Snowdepth":"12.000","Units":"in","Rept_Date":"2020-03-03 13"},"coordinates":[1731,5763]},{"type":"Point","properties":{"Station_ID":"WI-DR-5","Station_Nam":"ELLISON BAY 2.2 E, WI","Latitude":"45.25750","Longitude":"-87.02670","Snowdepth":"12.000","Units":"in","Rept_Date":"2020-03-03 13"},"coordinates":[2298,5974]},{"type":"Point","properties":{"Station_ID":"WI-BT-14","Station_Nam":"OAKLAND 9.0 ENE, WI","Latitude":"45.95184","Longitude":"-92.21653","Snowdepth":"12.000","Units":"in","Rept_Date":"2020-03-03 13"},"coordinates":[1130,6406]},{"type":"Point","properties":{"Station_ID":"VT-WR-2","Station_Nam":"POMFRET 2.6 N, VT","Latitude":"43.74230","Longitude":"-72.52550","Snowdepth":"12.000","Units":"in","Rept_Date":"2020-03-03 12"},"coordinates":[5560,5031]},{"type":"Point","properties":{"Station_ID":"VT-WR-17","Station_Nam":"ROCHESTER 2.3 NE, VT","Latitude":"43.89418","Longitude":"-72.76992","Snowdepth":"12.000","Units":"in","Rept_Date":"2020-03-03 12"},"coordinates":[5505,5126]},{"type":"Point","properties":{"Station_ID":"VT-LM-1","Station_Nam":"STOWE 0.2 SW, VT","Latitude":"44.46399","Longitude":"-72.69070","Snowdepth":"12.000","Units":"in","Rept_Date":"2020-03-03 12"},"coordinates":[5523,5480]},{"type":"Point","properties":{"Station_ID":"STRW3","Station_Nam":"STRATFORD 1NW","Latitude":"44.81750","Longitude":"-90.08990","Snowdepth":"12.000","Units":"in","Rept_Date":"2020-03-03 13"},"coordinates":[1608,5700]},{"type":"Point","properties":{"Station_ID":"SBNM5","Station_Nam":"SABIN","Latitude":"46.77690","Longitude":"-96.65610","Snowdepth":"12.000","Units":"in","Rept_Date":"2020-03-03 14"},"coordinates":[131,6919]},{"type":"Point","properties":{"Station_ID":"SAUW3","Station_Nam":"WAUSAU WSAW TV","Latitude":"44.94630","Longitude":"-89.62220","Snowdepth":"12.000","Units":"in","Rept_Date":"2020-03-04 04"},"coordinates":[1714,5781]},{"type":"Point","properties":{"Station_ID":"RLKW3","Station_Nam":"REST LAKE","Latitude":"46.12220","Longitude":"-89.87720","Snowdepth":"12.000","Units":"in","Rept_Date":"2020-03-03 14"},"coordinates":[1656,6512]},{"type":"Point","properties":{"Station_ID":"PVRW3","Station_Nam":"PLOVER-2-E WATER TREATMENT PLANT","Latitude":"44.45920","Longitude":"-89.49530","Snowdepth":"12.000","Units":"in","Rept_Date":"2020-03-03 13"},"coordinates":[1742,5477]},{"type":"Point","properties":{"Station_ID":"NY-HR-12","Station_Nam":"DOLGEVILLE 1.9 NW, NY","Latitude":"43.12320","Longitude":"-74.79740","Snowdepth":"12.000","Units":"in","Rept_Date":"2020-03-03 12"},"coordinates":[5049,4646]},{"type":"Point","properties":{"Station_ID":"NH-MR-6","Station_Nam":"DANBURY 2.2 ESE, NH","Latitude":"43.52000","Longitude":"-71.81900","Snowdepth":"12.000","Units":"in","Rept_Date":"2020-03-03 13"},"coordinates":[5719,4893]},{"type":"Point","properties":{"Station_ID":"ND-CS-25","Station_Nam":"FARGO 2.1 N, ND","Latitude":"46.90816","Longitude":"-96.77937","Snowdepth":"12.000","Units":"in","Rept_Date":"2020-03-03 14"},"coordinates":[103,7001]},{"type":"Point","properties":{"Station_ID":"MTQM4","Station_Nam":"MANISTIQUE WWTP","Latitude":"45.95120","Longitude":"-86.25130","Snowdepth":"12.000","Units":"in","Rept_Date":"2020-03-03 12"},"coordinates":[2472,6406]},{"type":"Point","properties":{"Station_ID":"MLLW3","Station_Nam":"MERRILL 8W","Latitude":"45.17810","Longitude":"-89.84810","Snowdepth":"12.000","Units":"in","Rept_Date":"2020-03-03 18"},"coordinates":[1663,5925]},{"type":"Point","properties":{"Station_ID":"KSEM4","Station_Nam":"KALKASKA 11SE","Latitude":"44.58970","Longitude":"-85.04860","Snowdepth":"12.000","Units":"in","Rept_Date":"2020-03-03 13"},"coordinates":[2743,5559]},{"type":"Point","properties":{"Station_ID":"COTM5","Station_Nam":"COTTON","Latitude":"47.16870","Longitude":"-92.46290","Snowdepth":"12.000","Units":"in","Rept_Date":"2020-03-03 12"},"coordinates":[1075,7163]},{"type":"Point","properties":{"Station_ID":"CAN-PE-10","Station_Nam":"NEW LONDON 1.6 ENE, CA","Latitude":"46.46985","Longitude":"-63.49200","Snowdepth":"12.000","Units":"in","Rept_Date":"2020-03-03 12"},"coordinates":[7593,6728]},{"type":"Point","properties":{"Station_ID":"AUW","Station_Nam":"WAUSAU MUNICIPAL AIRPORT","Latitude":"44.92580","Longitude":"-89.62560","Snowdepth":"12.000","Units":"in","Rept_Date":"2020-03-03 12"},"coordinates":[1713,5768]},{"type":"Point","properties":{"Station_ID":"AROM4","Station_Nam":"ARNOLD,MI","Latitude":"46.06670","Longitude":"-87.48330","Snowdepth":"12.000","Units":"in","Rept_Date":"2020-03-03 13"},"coordinates":[2195,6478]},{"type":"Point","properties":{"Station_ID":"WI-LN-2","Station_Nam":"MERRILL 7.0 W, WI","Latitude":"45.17746","Longitude":"-89.84820","Snowdepth":"11.500","Units":"in","Rept_Date":"2020-03-03 12"},"coordinates":[1663,5924]},{"type":"Point","properties":{"Station_ID":"QGT","Station_Nam":"QGT","Latitude":"49.64720","Longitude":"-67.62640","Snowdepth":"11.102","Units":"in","Rept_Date":"2020-03-03 12"},"coordinates":[6663,8705]},{"type":"Point","properties":{"Station_ID":"WLKM5","Station_Nam":"AH-GWAH-CHING","Latitude":"47.15000","Longitude":"-94.65000","Snowdepth":"11.000","Units":"in","Rept_Date":"2020-03-03 12"},"coordinates":[582,7152]},{"type":"Point","properties":{"Station_ID":"WI-GN-5","Station_Nam":"MONTICELLO 2.2 SE, WI","Latitude":"42.71990","Longitude":"-89.56360","Snowdepth":"11.000","Units":"in","Rept_Date":"2020-03-03 13"},"coordinates":[1727,4395]},{"type":"Point","properties":{"Station_ID":"SD-CD-30","Station_Nam":"WATERTOWN 2.3 E, SD","Latitude":"44.91604","Longitude":"-97.11925","Snowdepth":"11.000","Units":"in","Rept_Date":"2020-03-03 14"},"coordinates":[27,5762]},{"type":"Point","properties":{"Station_ID":"RRVM4","Station_Nam":"RAPID RIVER 9S","Latitude":"45.78750","Longitude":"-86.93920","Snowdepth":"11.000","Units":"in","Rept_Date":"2020-03-03 16"},"coordinates":[2317,6304]},{"type":"Point","properties":{"Station_ID":"RRLW3","Station_Nam":"MERRILL,WI","Latitude":"45.17860","Longitude":"-89.66170","Snowdepth":"11.000","Units":"in","Rept_Date":"2020-03-03 14"},"coordinates":[1705,5925]},{"type":"Point","properties":{"Station_ID":"PKFW3","Station_Nam":"PARK FALLS,WI","Latitude":"45.93360","Longitude":"-90.45060","Snowdepth":"11.000","Units":"in","Rept_Date":"2020-03-03 14"},"coordinates":[1527,6395]},{"type":"Point","properties":{"Station_ID":"OTTM5","Station_Nam":"OTTERTAIL,MN","Latitude":"46.41670","Longitude":"-95.56670","Snowdepth":"11.000","Units":"in","Rept_Date":"2020-03-03 13"},"coordinates":[376,6695]},{"type":"Point","properties":{"Station_ID":"NY-OD-2","Station_Nam":"POINT ROCK 0.6 SE, NY","Latitude":"43.37335","Longitude":"-75.53840","Snowdepth":"11.000","Units":"in","Rept_Date":"2020-03-03 13"},"coordinates":[4882,4802]},{"type":"Point","properties":{"Station_ID":"NVLV1","Station_Nam":"NASHVILLE","Latitude":"44.44970","Longitude":"-72.92640","Snowdepth":"11.000","Units":"in","Rept_Date":"2020-03-03 12"},"coordinates":[5470,5472]},{"type":"Point","properties":{"Station_ID":"ND-CS-1","Station_Nam":"WEST FARGO 3.8 SSE, ND","Latitude":"46.82750","Longitude":"-96.85280","Snowdepth":"11.000","Units":"in","Rept_Date":"2020-03-03 13"},"coordinates":[87,6951]},{"type":"Point","properties":{"Station_ID":"NCON3","Station_Nam":"NORTH CONWAY","Latitude":"44.05620","Longitude":"-71.12970","Snowdepth":"11.000","Units":"in","Rept_Date":"2020-03-03 13"},"coordinates":[5874,5227]},{"type":"Point","properties":{"Station_ID":"MALN6","Station_Nam":"MALONE","Latitude":"44.84180","Longitude":"-74.30600","Snowdepth":"11.000","Units":"in","Rept_Date":"2020-03-03 12"},"coordinates":[5160,5715]},{"type":"Point","properties":{"Station_ID":"KGFK","Station_Nam":"GRAND FORKS INTERNATIONAL","Latitude":"47.95000","Longitude":"-97.18333","Snowdepth":"11.000","Units":"in","Rept_Date":"2020-03-04 06"},"coordinates":[12,7649]},{"type":"Point","properties":{"Station_ID":"JOHV1","Station_Nam":"JOHNSON 2 N","Latitude":"44.65790","Longitude":"-72.67850","Snowdepth":"11.000","Units":"in","Rept_Date":"2020-03-03 12"},"coordinates":[5526,5601]},{"type":"Point","properties":{"Station_ID":"GFK","Station_Nam":"GRAND FORKS INTERNATIONAL AIRPORT","Latitude":"47.94920","Longitude":"-97.17610","Snowdepth":"11.000","Units":"in","Rept_Date":"2020-03-04 00"},"coordinates":[14,7649]},{"type":"Point","properties":{"Station_ID":"FOTN6","Station_Nam":"FOOTES - CONCORD SNOW","Latitude":"42.57950","Longitude":"-78.64480","Snowdepth":"11.000","Units":"in","Rept_Date":"2020-03-03 17"},"coordinates":[4183,4308]},{"type":"Point","properties":{"Station_ID":"FLAM4","Station_Nam":"FIFE LAKE 2WNW","Latitude":"44.58480","Longitude":"-85.36530","Snowdepth":"11.000","Units":"in","Rept_Date":"2020-03-03 12"},"coordinates":[2671,5556]},{"type":"Point","properties":{"Station_ID":"ERB12","Station_Nam":"CEBF FOOTES","Latitude":"42.60000","Longitude":"-78.65000","Snowdepth":"11.000","Units":"in","Rept_Date":"2020-03-03 17"},"coordinates":[4182,4321]},{"type":"Point","properties":{"Station_ID":"ENGM4","Station_Nam":"ENGADINE MDOT","Latitude":"46.12800","Longitude":"-85.56960","Snowdepth":"11.000","Units":"in","Rept_Date":"2020-03-03 12"},"coordinates":[2625,6516]},{"type":"Point","properties":{"Station_ID":"CAN-ON-118","Station_Nam":"DURHAM 1.4 S, CAN","Latitude":"44.16525","Longitude":"-80.82064","Snowdepth":"11.000","Units":"in","Rept_Date":"2020-03-03 12"},"coordinates":[3694,5295]},{"type":"Point","properties":{"Station_ID":"BENN6","Station_Nam":"BENNETTS BRIDGE","Latitude":"43.53180","Longitude":"-75.95260","Snowdepth":"11.000","Units":"in","Rept_Date":"2020-03-03 12"},"coordinates":[4789,4900]},{"type":"Point","properties":{"Station_ID":"ABGW3","Station_Nam":"AMBERG 9 E","Latitude":"45.48250","Longitude":"-87.81190","Snowdepth":"11.000","Units":"in","Rept_Date":"2020-03-03 12"},"coordinates":[2121,6114]},{"type":"Point","properties":{"Station_ID":"WI-PT-8","Station_Nam":"RUDOLPH 2.1 NNE, WI","Latitude":"44.52553","Longitude":"-89.78677","Snowdepth":"10.500","Units":"in","Rept_Date":"2020-03-03 11"},"coordinates":[1677,5519]},{"type":"Point","properties":{"Station_ID":"MI-GT-21","Station_Nam":"KINGSLEY 2.7 ENE, MI","Latitude":"44.59871","Longitude":"-85.48426","Snowdepth":"10.500","Units":"in","Rept_Date":"2020-03-03 13"},"coordinates":[2645,5564]},{"type":"Point","properties":{"Station_ID":"MI-BZ-1","Station_Nam":"BENZONIA 5.3 S, MI","Latitude":"44.53976","Longitude":"-86.10650","Snowdepth":"10.500","Units":"in","Rept_Date":"2020-03-03 13"},"coordinates":[2505,5528]},{"type":"Point","properties":{"Station_ID":"WSFW3","Station_Nam":"TOWN OF WESTFORD","Latitude":"43.47190","Longitude":"-88.88250","Snowdepth":"10.000","Units":"in","Rept_Date":"2020-03-03 13"},"coordinates":[1880,4863]},{"type":"Point","properties":{"Station_ID":"WILW3","Station_Nam":"RESERVOIR","Latitude":"45.70000","Longitude":"-89.83330","Snowdepth":"10.000","Units":"in","Rept_Date":"2020-03-03 18"},"coordinates":[1666,6249]},{"type":"Point","properties":{"Station_ID":"WI-EC-23","Station_Nam":"EAU CLAIRE 3.7 S, WI","Latitude":"44.76858","Longitude":"-91.49898","Snowdepth":"10.000","Units":"in","Rept_Date":"2020-03-03 14"},"coordinates":[1291,5670]},{"type":"Point","properties":{"Station_ID":"WI-DD-16","Station_Nam":"BEAVER DAM 2.4 WNW, WI","Latitude":"43.47210","Longitude":"-88.88280","Snowdepth":"10.000","Units":"in","Rept_Date":"2020-03-03 13"},"coordinates":[1880,4863]},{"type":"Point","properties":{"Station_ID":"WI-CK-3","Station_Nam":"COLBY 5.9 WSW, WI","Latitude":"44.87209","Longitude":"-90.42463","Snowdepth":"10.000","Units":"in","Rept_Date":"2020-03-04 01"},"coordinates":[1533,5734]},{"type":"Point","properties":{"Station_ID":"WI-CH-7","Station_Nam":"CHIPPEWA FALLS 1.2 E, WI","Latitude":"44.92920","Longitude":"-91.36730","Snowdepth":"10.000","Units":"in","Rept_Date":"2020-03-03 13"},"coordinates":[1321,5770]},{"type":"Point","properties":{"Station_ID":"TOPM1","Station_Nam":"TOPSFIELD","Latitude":"45.43470","Longitude":"-67.72020","Snowdepth":"10.000","Units":"in","Rept_Date":"2020-03-03 12"},"coordinates":[6641,6084]},{"type":"Point","properties":{"Station_ID":"STPW3","Station_Nam":"STEVENS POINT","Latitude":"44.51130","Longitude":"-89.58550","Snowdepth":"10.000","Units":"in","Rept_Date":"2020-03-03 13"},"coordinates":[1722,5510]},{"type":"Point","properties":{"Station_ID":"ROWM3","Station_Nam":"ROWE 3NE","Latitude":"42.73500","Longitude":"-72.86920","Snowdepth":"10.000","Units":"in","Rept_Date":"2020-03-03 12"},"coordinates":[5483,4405]},{"type":"Point","properties":{"Station_ID":"RCEM5","Station_Nam":"RICE","Latitude":"45.75760","Longitude":"-94.20720","Snowdepth":"10.000","Units":"in","Rept_Date":"2020-03-03 13"},"coordinates":[682,6285]},{"type":"Point","properties":{"Station_ID":"PLFV1","Station_Nam":"PLAINFIELD","Latitude":"44.27610","Longitude":"-72.41500","Snowdepth":"10.000","Units":"in","Rept_Date":"2020-03-03 12"},"coordinates":[5585,5364]},{"type":"Point","properties":{"Station_ID":"PBAN8","Station_Nam":"SITE 1-3MI.N","Latitude":"48.97420","Longitude":"-97.23860","Snowdepth":"10.000","Units":"in","Rept_Date":"2020-03-03 13"},"coordinates":[0,8286]},{"type":"Point","properties":{"Station_ID":"NY-ER-166","Station_Nam":"BOSTON 2.5 NE, NY","Latitude":"42.65480","Longitude":"-78.70300","Snowdepth":"10.000","Units":"in","Rept_Date":"2020-03-03 12"},"coordinates":[4170,4355]},{"type":"Point","properties":{"Station_ID":"NH-CR-46","Station_Nam":"NORTH CONWAY 1.8 SSE, NH","Latitude":"44.02955","Longitude":"-71.11664","Snowdepth":"10.000","Units":"in","Rept_Date":"2020-03-03 15"},"coordinates":[5877,5210]},{"type":"Point","properties":{"Station_ID":"MRQM4","Station_Nam":"MARQUETTE WFP","Latitude":"46.54580","Longitude":"-87.37950","Snowdepth":"10.000","Units":"in","Rept_Date":"2020-03-03 13"},"coordinates":[2218,6776]},{"type":"Point","properties":{"Station_ID":"MNEY8CTB","Station_Nam":"MIDLAND JUNCTION 2.2 ENE","Latitude":"44.33041","Longitude":"-91.95891","Snowdepth":"10.000","Units":"in","Rept_Date":"2020-03-03 14"},"coordinates":[1188,5397]},{"type":"Point","properties":{"Station_ID":"MN-SH-10","Station_Nam":"BIG LAKE 5.6 NNE, MN","Latitude":"45.41409","Longitude":"-93.69190","Snowdepth":"10.000","Units":"in","Rept_Date":"2020-03-03 12"},"coordinates":[798,6072]},{"type":"Point","properties":{"Station_ID":"MN-MC-16","Station_Nam":"HUTCHINSON 0.1 ENE, MN","Latitude":"44.88633","Longitude":"-94.37503","Snowdepth":"10.000","Units":"in","Rept_Date":"2020-03-03 13"},"coordinates":[644,5743]},{"type":"Point","properties":{"Station_ID":"MN-CY-1","Station_Nam":"MOORHEAD 2.0 N, MN","Latitude":"46.88766","Longitude":"-96.74800","Snowdepth":"10.000","Units":"in","Rept_Date":"2020-03-03 14"},"coordinates":[110,6988]},{"type":"Point","properties":{"Station_ID":"MEDW3","Station_Nam":"MEDFORD","Latitude":"45.13080","Longitude":"-90.34390","Snowdepth":"10.000","Units":"in","Rept_Date":"2020-03-03 14"},"coordinates":[1551,5895]},{"type":"Point","properties":{"Station_ID":"MCLN8","Station_Nam":"MC LEOD,ND","Latitude":"46.40250","Longitude":"-97.23810","Snowdepth":"10.000","Units":"in","Rept_Date":"2020-03-03 14"},"coordinates":[0,6686]},{"type":"Point","properties":{"Station_ID":"LOWN6","Station_Nam":"LOWVILLE","Latitude":"43.79280","Longitude":"-75.48290","Snowdepth":"10.000","Units":"in","Rept_Date":"2020-03-03 12"},"coordinates":[4895,5063]},{"type":"Point","properties":{"Station_ID":"FDRN8","Station_Nam":"FARGO 3S","Latitude":"46.82930","Longitude":"-96.79620","Snowdepth":"10.000","Units":"in","Rept_Date":"2020-03-04 06"},"coordinates":[100,6952]},{"type":"Point","properties":{"Station_ID":"FAR","Station_Nam":"HECTOR INTERNATIONAL ARPT","Latitude":"46.91560","Longitude":"-96.81440","Snowdepth":"10.000","Units":"in","Rept_Date":"2020-03-04 00"},"coordinates":[95,7006]},{"type":"Point","properties":{"Station_ID":"ESAM4","Station_Nam":"ESCANABA","Latitude":"45.74380","Longitude":"-87.04060","Snowdepth":"10.000","Units":"in","Rept_Date":"2020-03-03 11"},"coordinates":[2294,6277]},{"type":"Point","properties":{"Station_ID":"CVZW3","Station_Nam":"WISCONSIN PUBLIC SERVICE","Latitude":"45.23530","Longitude":"-88.01360","Snowdepth":"10.000","Units":"in","Rept_Date":"2020-03-03 13"},"coordinates":[2076,5960]},{"type":"Point","properties":{"Station_ID":"CLGM5","Station_Nam":"COLLEGEVILLE ST JOHN","Latitude":"45.57940","Longitude":"-94.39200","Snowdepth":"10.000","Units":"in","Rept_Date":"2020-03-04 00"},"coordinates":[640,6174]},{"type":"Point","properties":{"Station_ID":"CAN-NS-159","Station_Nam":"NORTHPORT 0.1 NE, CAN","Latitude":"45.93299","Longitude":"-63.86711","Snowdepth":"10.000","Units":"in","Rept_Date":"2020-03-03 11"},"coordinates":[7508,6394]},{"type":"Point","properties":{"Station_ID":"WI-WN-9","Station_Nam":"NEENAH 1.1 ENE, WI","Latitude":"44.17370","Longitude":"-88.45130","Snowdepth":"9.500","Units":"in","Rept_Date":"2020-03-03 13"},"coordinates":[1977,5300]},{"type":"Point","properties":{"Station_ID":"NY-SR-22","Station_Nam":"GREENFIELD CENTER 1.6 W, NY","Latitude":"43.12684","Longitude":"-73.87860","Snowdepth":"9.500","Units":"in","Rept_Date":"2020-03-03 13"},"coordinates":[5256,4649]},{"type":"Point","properties":{"Station_ID":"MN-SH-985","Station_Nam":"PRINCETON 3.3 WSW, MN","Latitude":"45.55211","Longitude":"-93.64481","Snowdepth":"9.500","Units":"in","Rept_Date":"2020-03-03 09"},"coordinates":[809,6157]},{"type":"Point","properties":{"Station_ID":"ME-CM-125","Station_Nam":"CUMBERLAND CENTER 4.4 NW, ME","Latitude":"43.84640","Longitude":"-70.31340","Snowdepth":"9.500","Units":"in","Rept_Date":"2020-03-03 12"},"coordinates":[6058,5096]},{"type":"Point","properties":{"Station_ID":"MA-HS-7","Station_Nam":"PLAINFIELD 2.2 SW, MA","Latitude":"42.49272","Longitude":"-72.94540","Snowdepth":"9.500","Units":"in","Rept_Date":"2020-03-03 13"},"coordinates":[5466,4254]},{"type":"Point","properties":{"Station_ID":"ME-CM-54","Station_Nam":"WINDHAM 3.9 NW, ME","Latitude":"43.85787","Longitude":"-70.46200","Snowdepth":"9.200","Units":"in","Rept_Date":"2020-03-03 12"},"coordinates":[6025,5103]},{"type":"Point","properties":{"Station_ID":"VT-CL-23","Station_Nam":"RYEGATE 1.5 N, VT","Latitude":"44.23024","Longitude":"-72.10523","Snowdepth":"9.100","Units":"in","Rept_Date":"2020-03-03 12"},"coordinates":[5655,5335]},{"type":"Point","properties":{"Station_ID":"WSKW3","Station_Nam":"WAUSAUKEE","Latitude":"45.38020","Longitude":"-87.95660","Snowdepth":"9.000","Units":"in","Rept_Date":"2020-03-03 14"},"coordinates":[2088,6050]},{"type":"Point","properties":{"Station_ID":"WRSN6","Station_Nam":"WARSAW 6SW","Latitude":"42.68550","Longitude":"-78.22020","Snowdepth":"9.000","Units":"in","Rept_Date":"2020-03-03 12"},"coordinates":[4279,4374]},{"type":"Point","properties":{"Station_ID":"WPFN6","Station_Nam":"MARIPOSA 1NNW SNOW","Latitude":"42.73330","Longitude":"-75.81670","Snowdepth":"9.000","Units":"in","Rept_Date":"2020-03-03 13"},"coordinates":[4820,4404]},{"type":"Point","properties":{"Station_ID":"WNDM1","Station_Nam":"WINDHAM 2NW","Latitude":"43.85670","Longitude":"-70.46630","Snowdepth":"9.000","Units":"in","Rept_Date":"2020-03-03 12"},"coordinates":[6024,5103]},{"type":"Point","properties":{"Station_ID":"WLDM5","Station_Nam":"WILD RIVER STATE PARK","Latitude":"45.52310","Longitude":"-92.74890","Snowdepth":"9.000","Units":"in","Rept_Date":"2020-03-03 14"},"coordinates":[1010,6139]},{"type":"Point","properties":{"Station_ID":"WASW3","Station_Nam":"WASHINGTON IS","Latitude":"45.35800","Longitude":"-86.89110","Snowdepth":"9.000","Units":"in","Rept_Date":"2020-03-03 12"},"coordinates":[2328,6037]},{"type":"Point","properties":{"Station_ID":"WAIV1","Station_Nam":"WAITSFIELD","Latitude":"44.17560","Longitude":"-72.79610","Snowdepth":"9.000","Units":"in","Rept_Date":"2020-03-03 12"},"coordinates":[5499,5301]},{"type":"Point","properties":{"Station_ID":"VT-WS-11","Station_Nam":"WAITSFIELD 1.8 SE, VT","Latitude":"44.17551","Longitude":"-72.79540","Snowdepth":"9.000","Units":"in","Rept_Date":"2020-03-03 12"},"coordinates":[5500,5301]},{"type":"Point","properties":{"Station_ID":"TETM5","Station_Nam":"TETTEGOUCHE STATE PARK","Latitude":"47.33900","Longitude":"-91.19590","Snowdepth":"9.000","Units":"in","Rept_Date":"2020-03-03 14"},"coordinates":[1360,7269]},{"type":"Point","properties":{"Station_ID":"NY-ER-77","Station_Nam":"COLDEN 2.4 ENE, NY","Latitude":"42.65088","Longitude":"-78.61060","Snowdepth":"9.000","Units":"in","Rept_Date":"2020-03-03 13"},"coordinates":[4191,4352]},{"type":"Point","properties":{"Station_ID":"NWSM1","Station_Nam":"NEW SHARON","Latitude":"44.63520","Longitude":"-70.00020","Snowdepth":"9.000","Units":"in","Rept_Date":"2020-03-03 12"},"coordinates":[6128,5587]},{"type":"Point","properties":{"Station_ID":"NUMM5","Station_Nam":"NEW ULM 3SE","Latitude":"44.29450","Longitude":"-94.40840","Snowdepth":"9.000","Units":"in","Rept_Date":"2020-03-03 12"},"coordinates":[637,5375]},{"type":"Point","properties":{"Station_ID":"MNPV1","Station_Nam":"MONTPELIER 2","Latitude":"44.25530","Longitude":"-72.60060","Snowdepth":"9.000","Units":"in","Rept_Date":"2020-03-03 12"},"coordinates":[5543,5351]},{"type":"Point","properties":{"Station_ID":"MN-MR-4","Station_Nam":"LITTLE FALLS 1.2 SW, MN","Latitude":"45.96886","Longitude":"-94.37720","Snowdepth":"9.000","Units":"in","Rept_Date":"2020-03-03 13"},"coordinates":[644,6417]},{"type":"Point","properties":{"Station_ID":"MN-MR-13","Station_Nam":"LITTLE FALLS 8.0 NE, MN","Latitude":"46.06785","Longitude":"-94.24789","Snowdepth":"9.000","Units":"in","Rept_Date":"2020-03-03 13"},"coordinates":[673,6478]},{"type":"Point","properties":{"Station_ID":"MN-FM-10","Station_Nam":"WYKOFF 3.1 NW, MN","Latitude":"43.74340","Longitude":"-92.30650","Snowdepth":"9.000","Units":"in","Rept_Date":"2020-03-03 13"},"coordinates":[1110,5032]},{"type":"Point","properties":{"Station_ID":"MLCM5","Station_Nam":"MILACA","Latitude":"45.75320","Longitude":"-93.66170","Snowdepth":"9.000","Units":"in","Rept_Date":"2020-03-03 13"},"coordinates":[805,6283]},{"type":"Point","properties":{"Station_ID":"MI-CF-9","Station_Nam":"GRAYLING 15.8 NE, MI","Latitude":"44.80464","Longitude":"-84.46313","Snowdepth":"9.000","Units":"in","Rept_Date":"2020-03-03 11"},"coordinates":[2874,5692]},{"type":"Point","properties":{"Station_ID":"ME-YK-3","Station_Nam":"HOLLIS CENTER 5.4 NW, ME","Latitude":"43.64750","Longitude":"-70.67510","Snowdepth":"9.000","Units":"in","Rept_Date":"2020-03-03 12"},"coordinates":[5977,4972]},{"type":"Point","properties":{"Station_ID":"ME-CM-86","Station_Nam":"POWNAL 4.1 S, ME","Latitude":"43.85370","Longitude":"-70.17210","Snowdepth":"9.000","Units":"in","Rept_Date":"2020-03-03 12"},"coordinates":[6090,5101]},{"type":"Point","properties":{"Station_ID":"ME-CM-3","Station_Nam":"NEW GLOUCESTER 3.0 SE, ME","Latitude":"43.92372","Longitude":"-70.25790","Snowdepth":"9.000","Units":"in","Rept_Date":"2020-03-03 12"},"coordinates":[6070,5144]},{"type":"Point","properties":{"Station_ID":"LMLI4","Station_Nam":"LAKE MILLS,IA","Latitude":"43.40000","Longitude":"-93.53330","Snowdepth":"9.000","Units":"in","Rept_Date":"2020-03-03 13"},"coordinates":[834,4818]},{"type":"Point","properties":{"Station_ID":"HOLM1","Station_Nam":"HOLLIS","Latitude":"43.64750","Longitude":"-70.67490","Snowdepth":"9.000","Units":"in","Rept_Date":"2020-03-03 11"},"coordinates":[5977,4972]},{"type":"Point","properties":{"Station_ID":"CHRM4","Station_Nam":"CHARLEVOIX","Latitude":"45.31720","Longitude":"-85.26720","Snowdepth":"9.000","Units":"in","Rept_Date":"2020-03-03 13"},"coordinates":[2693,6011]},{"type":"Point","properties":{"Station_ID":"ARTM5","Station_Nam":"ARTICHOKE LAKE 1 E","Latitude":"45.38560","Longitude":"-96.12570","Snowdepth":"9.000","Units":"in","Rept_Date":"2020-03-04 00"},"coordinates":[250,6054]},{"type":"Point","properties":{"Station_ID":"WI-CB-5","Station_Nam":"PORTAGE 7.2 SW, WI","Latitude":"43.47933","Longitude":"-89.57370","Snowdepth":"8.500","Units":"in","Rept_Date":"2020-03-03 13"},"coordinates":[1725,4868]},{"type":"Point","properties":{"Station_ID":"VT-CH-11","Station_Nam":"UNDERHILL 5.1 NNE, VT","Latitude":"44.59811","Longitude":"-72.91880","Snowdepth":"8.500","Units":"in","Rept_Date":"2020-03-03 13"},"coordinates":[5472,5564]},{"type":"Point","properties":{"Station_ID":"SRYN6","Station_Nam":"STRYKERSVILLE SNOW","Latitude":"42.69520","Longitude":"-78.44980","Snowdepth":"8.500","Units":"in","Rept_Date":"2020-03-03 17"},"coordinates":[4227,4380]},{"type":"Point","properties":{"Station_ID":"NH-MR-45","Station_Nam":"NORTHFIELD 2.8 E, NH","Latitude":"43.43945","Longitude":"-71.53730","Snowdepth":"8.500","Units":"in","Rept_Date":"2020-03-03 12"},"coordinates":[5783,4843]},{"type":"Point","properties":{"Station_ID":"NH-GR-47","Station_Nam":"LITTLETON 7.3 W, NH","Latitude":"44.31847","Longitude":"-71.91086","Snowdepth":"8.500","Units":"in","Rept_Date":"2020-03-03 13"},"coordinates":[5699,5390]},{"type":"Point","properties":{"Station_ID":"ERB19","Station_Nam":"CEBF STRYKERSVILLE","Latitude":"42.70000","Longitude":"-78.45000","Snowdepth":"8.500","Units":"in","Rept_Date":"2020-03-03 17"},"coordinates":[4227,4383]},{"type":"Point","properties":{"Station_ID":"CAN-NB-29","Station_Nam":"SUSSEX 1.0 WNW - KWRC, CAN","Latitude":"45.72670","Longitude":"-65.52858","Snowdepth":"8.500","Units":"in","Rept_Date":"2020-03-03 12"},"coordinates":[7135,6266]},