{"type":"Topology","objects":{"snowdepth_geo":{"type":"GeometryCollection","name":"snowdepth","crs":{"type":"name","properties":{"name":"urn:ogc:def:crs:OGC:1.3:CRS84"}},"geometries":[{"type":"Point","properties":{"Station_ID":"PRKM4","Station_Nam":"MUNISING EAST","Latitude":"46.42580","Longitude":"-86.62000","Snowdepth":"76.500","Units":"in","Rept_Date":"2021-01-05 06"},"coordinates":[2385,6596]},{"type":"Point","properties":{"Station_ID":"QLB","Station_Nam":"QLB","Latitude":"50.72360","Longitude":"-75.10000","Snowdepth":"21.693","Units":"in","Rept_Date":"2021-01-04 12"},"coordinates":[4973,9355]},{"type":"Point","properties":{"Station_ID":"QGO","Station_Nam":"QGO","Latitude":"48.85500","Longitude":"-74.20640","Snowdepth":"21.299","Units":"in","Rept_Date":"2021-01-04 12"},"coordinates":[5174,8156]},{"type":"Point","properties":{"Station_ID":"TRIQ6","Station_Nam":"TRIO LAKE","Latitude":"49.22880","Longitude":"-87.22920","Snowdepth":"21.020","Units":"in","Rept_Date":"2021-01-05 06"},"coordinates":[2249,8395]},{"type":"Point","properties":{"Station_ID":"PTLQ6","Station_Nam":"PORTAGE LAKE","Latitude":"49.06950","Longitude":"-86.65940","Snowdepth":"20.240","Units":"in","Rept_Date":"2021-01-05 06"},"coordinates":[2377,8293]},{"type":"Point","properties":{"Station_ID":"AUDQ6","Station_Nam":"AUDEN","Latitude":"48.52600","Longitude":"-82.57570","Snowdepth":"20.080","Units":"in","Rept_Date":"2021-01-05 06"},"coordinates":[3294,7944]},{"type":"Point","properties":{"Station_ID":"QCO","Station_Nam":"QCO","Latitude":"51.45280","Longitude":"-72.20110","Snowdepth":"20.000","Units":"in","Rept_Date":"2021-01-04 12"},"coordinates":[5625,9823]},{"type":"Point","properties":{"Station_ID":"DVLQ6","Station_Nam":"DEVIOUS LAKE","Latitude":"49.19890","Longitude":"-87.76440","Snowdepth":"19.020","Units":"in","Rept_Date":"2021-01-05 06"},"coordinates":[2128,8376]},{"type":"Point","properties":{"Station_ID":"HTLN3","Station_Nam":"HERMIT LAKE SNOWPLOT","Latitude":"44.26130","Longitude":"-71.28330","Snowdepth":"19.000","Units":"in","Rept_Date":"2021-01-04 10"},"coordinates":[5831,5207]},{"type":"Point","properties":{"Station_ID":"QFT","Station_Nam":"QFT","Latitude":"50.83280","Longitude":"-74.40390","Snowdepth":"18.307","Units":"in","Rept_Date":"2021-01-04 12"},"coordinates":[5130,9425]},{"type":"Point","properties":{"Station_ID":"QTM","Station_Nam":"QTM","Latitude":"51.05780","Longitude":"-72.57190","Snowdepth":"18.268","Units":"in","Rept_Date":"2021-01-04 12"},"coordinates":[5541,9570]},{"type":"Point","properties":{"Station_ID":"PDLM4","Station_Nam":"PAINESDALE","Latitude":"47.04160","Longitude":"-88.67170","Snowdepth":"18.000","Units":"in","Rept_Date":"2021-01-04 13"},"coordinates":[1925,6992]},{"type":"Point","properties":{"Station_ID":"HURW3","Station_Nam":"HURLEY","Latitude":"46.46250","Longitude":"-90.19550","Snowdepth":"18.000","Units":"in","Rept_Date":"2021-01-04 14"},"coordinates":[1582,6620]},{"type":"Point","properties":{"Station_ID":"QOU","Station_Nam":"QOU","Latitude":"50.79250","Longitude":"-69.67470","Snowdepth":"17.205","Units":"in","Rept_Date":"2021-01-04 12"},"coordinates":[6192,9399]},{"type":"Point","properties":{"Station_ID":"MMNV1","Station_Nam":"MT. MANSFIELD","Latitude":"44.52480","Longitude":"-72.81540","Snowdepth":"16.000","Units":"in","Rept_Date":"2021-01-04 21"},"coordinates":[5487,5376]},{"type":"Point","properties":{"Station_ID":"IWOM4","Station_Nam":"IRONWOOD#2","Latitude":"46.46520","Longitude":"-90.13820","Snowdepth":"16.000","Units":"in","Rept_Date":"2021-01-04 13"},"coordinates":[1595,6622]},{"type":"Point","properties":{"Station_ID":"CAN-NS-39","Station_Nam":"ST. ANNS 2.8 NW, CA","Latitude":"46.25082","Longitude":"-60.64340","Snowdepth":"16.000","Units":"in","Rept_Date":"2021-01-04 12"},"coordinates":[8221,6484]},{"type":"Point","properties":{"Station_ID":"HERM4","Station_Nam":"HERMAN,MI","Latitude":"46.65000","Longitude":"-88.33330","Snowdepth":"15.000","Units":"in","Rept_Date":"2021-01-04 13"},"coordinates":[2001,6740]},{"type":"Point","properties":{"Station_ID":"WLFM5","Station_Nam":"WOLF RIDGE ENVIRON LEARNING CENTER","Latitude":"47.38240","Longitude":"-91.19730","Snowdepth":"14.000","Units":"in","Rept_Date":"2021-01-04 13"},"coordinates":[1357,7210]},{"type":"Point","properties":{"Station_ID":"SWTW3","Station_Nam":"SUPERIOR WWTP","Latitude":"46.72700","Longitude":"-92.07200","Snowdepth":"14.000","Units":"in","Rept_Date":"2021-01-05 06"},"coordinates":[1161,6790]},{"type":"Point","properties":{"Station_ID":"MN-LK-4","Station_Nam":"TWO HARBORS 3.6 WNW, MN","Latitude":"47.04118","Longitude":"-91.75280","Snowdepth":"14.000","Units":"in","Rept_Date":"2021-01-04 13"},"coordinates":[1232,6991]},{"type":"Point","properties":{"Station_ID":"MI-KW-2","Station_Nam":"DELAWARE 5.2 SW, MI","Latitude":"47.36928","Longitude":"-88.17919","Snowdepth":"14.000","Units":"in","Rept_Date":"2021-01-04 09"},"coordinates":[2035,7202]},{"type":"Point","properties":{"Station_ID":"CLQM5","Station_Nam":"CLOQUET","Latitude":"46.70470","Longitude":"-92.52530","Snowdepth":"14.000","Units":"in","Rept_Date":"2021-01-04 14"},"coordinates":[1059,6775]},{"type":"Point","properties":{"Station_ID":"OGIQ6","Station_Nam":"OGOKI CAMP","Latitude":"50.76680","Longitude":"-87.85820","Snowdepth":"13.700","Units":"in","Rept_Date":"2021-01-05 06"},"coordinates":[2107,9383]},{"type":"Point","properties":{"Station_ID":"TQFM4","Station_Nam":"TAHQUAMENON FALLS STATE PARK","Latitude":"46.60110","Longitude":"-85.22410","Snowdepth":"13.000","Units":"in","Rept_Date":"2021-01-04 13"},"coordinates":[2699,6709]},{"type":"Point","properties":{"Station_ID":"TOPM1","Station_Nam":"TOPSFIELD","Latitude":"45.43470","Longitude":"-67.72020","Snowdepth":"13.000","Units":"in","Rept_Date":"2021-01-04 12"},"coordinates":[6631,5960]},{"type":"Point","properties":{"Station_ID":"MN-LK-5","Station_Nam":"TWO HARBORS 9.7 NNE, MN","Latitude":"47.16560","Longitude":"-91.61950","Snowdepth":"13.000","Units":"in","Rept_Date":"2021-01-04 13"},"coordinates":[1262,7071]},{"type":"Point","properties":{"Station_ID":"MI-OG-6","Station_Nam":"WEST BRANCH 2.1 SSW, MI","Latitude":"44.24814","Longitude":"-84.25089","Snowdepth":"13.000","Units":"in","Rept_Date":"2021-01-04 13"},"coordinates":[2918,5198]},{"type":"Point","properties":{"Station_ID":"QMD","Station_Nam":"QMD","Latitude":"49.29060","Longitude":"-75.84500","Snowdepth":"12.992","Units":"in","Rept_Date":"2021-01-04 12"},"coordinates":[4806,8435]},{"type":"Point","properties":{"Station_ID":"QLI","Station_Nam":"QLI","Latitude":"50.27080","Longitude":"-73.92280","Snowdepth":"12.874","Units":"in","Rept_Date":"2021-01-04 12"},"coordinates":[5238,9064]},{"type":"Point","properties":{"Station_ID":"HLSN3","Station_Nam":"HERMIT LAKE SNOTEL","Latitude":"44.26130","Longitude":"-71.28320","Snowdepth":"12.680","Units":"in","Rept_Date":"2021-01-05 06"},"coordinates":[5831,5207]},{"type":"Point","properties":{"Station_ID":"SOCQ6","Station_Nam":"SOCKET LAKE","Latitude":"50.77870","Longitude":"-91.79300","Snowdepth":"12.090","Units":"in","Rept_Date":"2021-01-05 06"},"coordinates":[1223,9390]},{"type":"Point","properties":{"Station_ID":"SVBQ6","Station_Nam":"SAVANT BASE","Latitude":"50.28730","Longitude":"-90.65670","Snowdepth":"12.050","Units":"in","Rept_Date":"2021-01-05 06"},"coordinates":[1479,9075]},{"type":"Point","properties":{"Station_ID":"MN-SL-15","Station_Nam":"CHISHOLM 0.4 WSW, MN","Latitude":"47.48557","Longitude":"-92.88690","Snowdepth":"12.000","Units":"in","Rept_Date":"2021-01-04 13"},"coordinates":[978,7277]},{"type":"Point","properties":{"Station_ID":"MN-IS-18","Station_Nam":"BRAHAM 0.7 SW, MN","Latitude":"45.71379","Longitude":"-93.18095","Snowdepth":"12.000","Units":"in","Rept_Date":"2021-01-04 14"},"coordinates":[912,6139]},{"type":"Point","properties":{"Station_ID":"MI-HG-20","Station_Nam":"CALUMET 1.1 SSW, MI","Latitude":"47.23165","Longitude":"-88.45823","Snowdepth":"12.000","Units":"in","Rept_Date":"2021-01-04 11"},"coordinates":[1972,7114]},{"type":"Point","properties":{"Station_ID":"KABM5","Station_Nam":"KABETOGAMA LAKE VISITOR CTR","Latitude":"48.40880","Longitude":"-93.04840","Snowdepth":"12.000","Units":"in","Rept_Date":"2021-01-04 13"},"coordinates":[941,7869]},{"type":"Point","properties":{"Station_ID":"GNLM4","Station_Nam":"GREENLAND 6N","Latitude":"46.87360","Longitude":"-89.10060","Snowdepth":"12.000","Units":"in","Rept_Date":"2021-01-04 13"},"coordinates":[1828,6884]},{"type":"Point","properties":{"Station_ID":"DFXM1","Station_Nam":"DOVER-FOXCROFT","Latitude":"45.18720","Longitude":"-69.18350","Snowdepth":"12.000","Units":"in","Rept_Date":"2021-01-04 12"},"coordinates":[6303,5801]},{"type":"Point","properties":{"Station_ID":"CAN-ON-5","Station_Nam":"OWEN SOUND 1.5 NW - GSCA, CAN","Latitude":"44.57837","Longitude":"-80.95461","Snowdepth":"12.000","Units":"in","Rept_Date":"2021-01-04 13"},"coordinates":[3658,5410]},{"type":"Point","properties":{"Station_ID":"CAN-NB-18","Station_Nam":"MCLEOD HILL 1.1 ENE, CA","Latitude":"46.02725","Longitude":"-66.67460","Snowdepth":"12.000","Units":"in","Rept_Date":"2021-01-04 12"},"coordinates":[6866,6340]},{"type":"Point","properties":{"Station_ID":"BNDM5","Station_Nam":"ELY 25E","Latitude":"47.97190","Longitude":"-91.44860","Snowdepth":"12.000","Units":"in","Rept_Date":"2021-01-04 13"},"coordinates":[1301,7589]},{"type":"Point","properties":{"Station_ID":"MI-BG-3","Station_Nam":"THREE LAKES, MI","Latitude":"46.55730","Longitude":"-88.20770","Snowdepth":"11.800","Units":"in","Rept_Date":"2021-01-04 13"},"coordinates":[2029,6681]},{"type":"Point","properties":{"Station_ID":"CAN-ON-451","Station_Nam":"OWEN SOUND 1.2 N - GSCA, CAN","Latitude":"44.58092","Longitude":"-80.93025","Snowdepth":"11.800","Units":"in","Rept_Date":"2021-01-04 13"},"coordinates":[3664,5412]},{"type":"Point","properties":{"Station_ID":"MLZ","Station_Nam":"MLZ","Latitude":"50.66170","Longitude":"-68.82360","Snowdepth":"11.693","Units":"in","Rept_Date":"2021-01-04 12"},"coordinates":[6383,9315]},{"type":"Point","properties":{"Station_ID":"MN-SL-143","Station_Nam":"CANYON 4.6 NNE, MN","Latitude":"47.09800","Longitude":"-92.42170","Snowdepth":"11.500","Units":"in","Rept_Date":"2021-01-04 14"},"coordinates":[1082,7028]},{"type":"Point","properties":{"Station_ID":"CAN-NS-103","Station_Nam":"TRAFALGAR 4.9 WSW, CAN","Latitude":"45.26217","Longitude":"-62.72285","Snowdepth":"11.500","Units":"in","Rept_Date":"2021-01-04 12"},"coordinates":[7754,5849]},{"type":"Point","properties":{"Station_ID":"CAN-NS-94","Station_Nam":"MARGAREE FORKS 2.6 SSE CBN, CAN","Latitude":"46.30937","Longitude":"-61.07603","Snowdepth":"11.400","Units":"in","Rept_Date":"2021-01-04 13"},"coordinates":[8124,6522]},{"type":"Point","properties":{"Station_ID":"WRSM5","Station_Nam":"WRENSHALL","Latitude":"46.61550","Longitude":"-92.38380","Snowdepth":"11.000","Units":"in","Rept_Date":"2021-01-04 14"},"coordinates":[1091,6718]},{"type":"Point","properties":{"Station_ID":"WI-DG-20","Station_Nam":"SOLON SPRINGS 1.2 W, WI","Latitude":"46.35217","Longitude":"-91.84405","Snowdepth":"11.000","Units":"in","Rept_Date":"2021-01-04 13"},"coordinates":[1212,6549]},{"type":"Point","properties":{"Station_ID":"TOHM5","Station_Nam":"TWO HARBORS WWTP","Latitude":"47.01760","Longitude":"-91.66480","Snowdepth":"11.000","Units":"in","Rept_Date":"2021-01-04 13"},"coordinates":[1252,6976]},{"type":"Point","properties":{"Station_ID":"NOHM5","Station_Nam":"NORTHOME","Latitude":"47.83590","Longitude":"-94.25550","Snowdepth":"11.000","Units":"in","Rept_Date":"2021-01-04 13"},"coordinates":[670,7501]},{"type":"Point","properties":{"Station_ID":"MONW3","Station_Nam":"MONROE,WI","Latitude":"42.60000","Longitude":"-89.66670","Snowdepth":"11.000","Units":"in","Rept_Date":"2021-01-04 13"},"coordinates":[1701,4140]},{"type":"Point","properties":{"Station_ID":"MN-SL-18","Station_Nam":"DULUTH 1.4 NNW, MN","Latitude":"46.80321","Longitude":"-92.11240","Snowdepth":"11.000","Units":"in","Rept_Date":"2021-01-04 14"},"coordinates":[1152,6839]},{"type":"Point","properties":{"Station_ID":"MN-SL-108","Station_Nam":"IRON JUNCTION 3.4 NNW, MN","Latitude":"47.46150","Longitude":"-92.63130","Snowdepth":"11.000","Units":"in","Rept_Date":"2021-01-04 14"},"coordinates":[1035,7261]},{"type":"Point","properties":{"Station_ID":"LNCM1","Station_Nam":"LINCOLN WATER DISTRICT","Latitude":"45.32410","Longitude":"-68.58300","Snowdepth":"11.000","Units":"in","Rept_Date":"2021-01-04 12"},"coordinates":[6437,5889]},{"type":"Point","properties":{"Station_ID":"IL-JD-8","Station_Nam":"STOCKTON 3.4 NNE, IL","Latitude":"42.39960","Longitude":"-89.99020","Snowdepth":"11.000","Units":"in","Rept_Date":"2021-01-04 13"},"coordinates":[1628,4012]},{"type":"Point","properties":{"Station_ID":"HGHN6","Station_Nam":"HIGHMARKET","Latitude":"43.60510","Longitude":"-75.55430","Snowdepth":"11.000","Units":"in","Rept_Date":"2021-01-04 11"},"coordinates":[4871,4786]},{"type":"Point","properties":{"Station_ID":"FLDM5","Station_Nam":"FLOODWOOD,MN","Latitude":"47.00000","Longitude":"-92.91670","Snowdepth":"11.000","Units":"in","Rept_Date":"2021-01-04 14"},"coordinates":[971,6965]},{"type":"Point","properties":{"Station_ID":"COTM5","Station_Nam":"COTTON","Latitude":"47.16870","Longitude":"-92.46290","Snowdepth":"11.000","Units":"in","Rept_Date":"2021-01-04 12"},"coordinates":[1073,7073]},{"type":"Point","properties":{"Station_ID":"CAN-ON-741","Station_Nam":"KIMBERLEY 2.7 WSW, CAN","Latitude":"44.37820","Longitude":"-80.56956","Snowdepth":"11.000","Units":"in","Rept_Date":"2021-01-04 13"},"coordinates":[3745,5282]},{"type":"Point","properties":{"Station_ID":"BRUM5","Station_Nam":"BRUNO,MN","Latitude":"46.28330","Longitude":"-92.50000","Snowdepth":"11.000","Units":"in","Rept_Date":"2021-01-04 14"},"coordinates":[1065,6505]},{"type":"Point","properties":{"Station_ID":"BABM5","Station_Nam":"BABBITT","Latitude":"47.71210","Longitude":"-91.95330","Snowdepth":"11.000","Units":"in","Rept_Date":"2021-01-04 13"},"coordinates":[1187,7422]},{"type":"Point","properties":{"Station_ID":"QWE","Station_Nam":"QWE","Latitude":"47.84610","Longitude":"-73.80670","Snowdepth":"10.787","Units":"in","Rept_Date":"2021-01-04 12"},"coordinates":[5264,7508]},{"type":"Point","properties":{"Station_ID":"MN-BK-15","Station_Nam":"LAKE PARK 9.9 S, MN","Latitude":"46.74150","Longitude":"-96.11090","Snowdepth":"10.500","Units":"in","Rept_Date":"2021-01-04 15"},"coordinates":[253,6799]},{"type":"Point","properties":{"Station_ID":"CAN-PE-65","Station_Nam":"FORTUNE BRIDGE 0.9 SSE, CAN","Latitude":"46.34282","Longitude":"-62.37337","Snowdepth":"10.500","Units":"in","Rept_Date":"2021-01-04 13"},"coordinates":[7832,6543]},{"type":"Point","properties":{"Station_ID":"CAN-NS-60","Station_Nam":"SYDNEY FORKS, CAN","Latitude":"46.05645","Longitude":"-60.31510","Snowdepth":"10.500","Units":"in","Rept_Date":"2021-01-04 13"},"coordinates":[8295,6359]},{"type":"Point","properties":{"Station_ID":"KABQ6","Station_Nam":"CAB LAKE","Latitude":"49.59950","Longitude":"-89.17990","Snowdepth":"10.310","Units":"in","Rept_Date":"2021-01-05 06"},"coordinates":[1810,8633]},{"type":"Point","properties":{"Station_ID":"CAN-ON-452","Station_Nam":"CHATSWORTH 1.8 ENE - GSCA, CAN","Latitude":"44.46118","Longitude":"-80.87506","Snowdepth":"10.200","Units":"in","Rept_Date":"2021-01-04 12"},"coordinates":[3676,5335]},{"type":"Point","properties":{"Station_ID":"WI-WS-15","Station_Nam":"WEST BEND 5.4 SE, WI","Latitude":"43.37259","Longitude":"-88.10086","Snowdepth":"10.000","Units":"in","Rept_Date":"2021-01-04 14"},"coordinates":[2053,4636]},{"type":"Point","properties":{"Station_ID":"WI-WB-2","Station_Nam":"STONE LAKE 2.0 NW, WI","Latitude":"45.85960","Longitude":"-91.57710","Snowdepth":"10.000","Units":"in","Rept_Date":"2021-01-04 13"},"coordinates":[1272,6233]},{"type":"Point","properties":{"Station_ID":"VT-CL-27","Station_Nam":"DANVILLE 0.4 N, VT","Latitude":"44.41769","Longitude":"-72.13936","Snowdepth":"10.000","Units":"in","Rept_Date":"2021-01-04 12"},"coordinates":[5638,5307]},{"type":"Point","properties":{"Station_ID":"VT-CL-14","Station_Nam":"LYNDONVILLE 1.1 W, VT","Latitude":"44.53582","Longitude":"-72.02867","Snowdepth":"10.000","Units":"in","Rept_Date":"2021-01-04 13"},"coordinates":[5663,5383]},{"type":"Point","properties":{"Station_ID":"SUTV1","Station_Nam":"SUTTON","Latitude":"44.61220","Longitude":"-72.04810","Snowdepth":"10.000","Units":"in","Rept_Date":"2021-01-04 13"},"coordinates":[5659,5432]},{"type":"Point","properties":{"Station_ID":"NGLW3","Station_Nam":"NEW GLARUS","Latitude":"42.83500","Longitude":"-89.62080","Snowdepth":"10.000","Units":"in","Rept_Date":"2021-01-04 13"},"coordinates":[1711,4291]},{"type":"Point","properties":{"Station_ID":"MWN","Station_Nam":"MOUNT WASHINGTON","Latitude":"44.26670","Longitude":"-71.30000","Snowdepth":"10.000","Units":"in","Rept_Date":"2021-01-04 12"},"coordinates":[5827,5210]},{"type":"Point","properties":{"Station_ID":"MNPV1","Station_Nam":"MONTPELIER 2","Latitude":"44.25530","Longitude":"-72.60060","Snowdepth":"10.000","Units":"in","Rept_Date":"2021-01-04 12"},"coordinates":[5535,5203]},{"type":"Point","properties":{"Station_ID":"MN-CK-6","Station_Nam":"GRAND MARAIS 4.4 W, MN","Latitude":"47.74865","Longitude":"-90.43760","Snowdepth":"10.000","Units":"in","Rept_Date":"2021-01-04 13"},"coordinates":[1528,7445]},{"type":"Point","properties":{"Station_ID":"MN-CK-18","Station_Nam":"GRAND MARAIS 4.4 WSW, MN","Latitude":"47.74462","Longitude":"-90.43796","Snowdepth":"10.000","Units":"in","Rept_Date":"2021-01-04 13"},"coordinates":[1528,7443]},{"type":"Point","properties":{"Station_ID":"MN-CG-16","Station_Nam":"NORTH BRANCH 1.3 NNW, MN","Latitude":"45.53121","Longitude":"-92.97110","Snowdepth":"10.000","Units":"in","Rept_Date":"2021-01-04 12"},"coordinates":[959,6022]},{"type":"Point","properties":{"Station_ID":"MIEM4","Station_Nam":"MICHIGAMME 3WNW","Latitude":"46.54530","Longitude":"-88.18000","Snowdepth":"10.000","Units":"in","Rept_Date":"2021-01-04 13"},"coordinates":[2035,6673]},{"type":"Point","properties":{"Station_ID":"MI-HG-1","Station_Nam":"HOUGHTON 1.6 ESE, MI","Latitude":"47.10774","Longitude":"-88.52940","Snowdepth":"10.000","Units":"in","Rept_Date":"2021-01-04 13"},"coordinates":[1957,7034]},{"type":"Point","properties":{"Station_ID":"LUCW3","Station_Nam":"LUCK","Latitude":"45.57330","Longitude":"-92.48520","Snowdepth":"10.000","Units":"in","Rept_Date":"2021-01-04 22"},"coordinates":[1068,6049]},{"type":"Point","properties":{"Station_ID":"LEIM5","Station_Nam":"ORR 3E","Latitude":"48.05810","Longitude":"-92.75220","Snowdepth":"10.000","Units":"in","Rept_Date":"2021-01-04 12"},"coordinates":[1008,7644]},{"type":"Point","properties":{"Station_ID":"KMWN","Station_Nam":"MOUNT WASHINGTON","Latitude":"44.26666","Longitude":"-71.30000","Snowdepth":"10.000","Units":"in","Rept_Date":"2021-01-05 06"},"coordinates":[5827,5210]},{"type":"Point","properties":{"Station_ID":"IRMM4","Station_Nam":"WWTP","Latitude":"46.46670","Longitude":"-90.18330","Snowdepth":"10.000","Units":"in","Rept_Date":"2021-01-04 13"},"coordinates":[1585,6622]},{"type":"Point","properties":{"Station_ID":"CLKM4","Station_Nam":"CLARKSBURG","Latitude":"46.49910","Longitude":"-87.84500","Snowdepth":"10.000","Units":"in","Rept_Date":"2021-01-04 12"},"coordinates":[2110,6643]},{"type":"Point","properties":{"Station_ID":"CAN-MB-56","Station_Nam":"WINNIPEG 7.6 ENE, CAN","Latitude":"49.93264","Longitude":"-97.04752","Snowdepth":"10.000","Units":"in","Rept_Date":"2021-01-04 14"},"coordinates":[43,8847]},{"type":"Point","properties":{"Station_ID":"BUTW3","Station_Nam":"BUTTERNUT 3SW","Latitude":"45.98080","Longitude":"-90.54170","Snowdepth":"10.000","Units":"in","Rept_Date":"2021-01-04 12"},"coordinates":[1504,6311]},{"type":"Point","properties":{"Station_ID":"BLGW3","Station_Nam":"BELGIUM WWTP","Latitude":"43.51310","Longitude":"-87.85440","Snowdepth":"10.000","Units":"in","Rept_Date":"2021-01-04 13"},"coordinates":[2108,4727]},{"type":"Point","properties":{"Station_ID":"BBEM4","Station_Nam":"BIG BAY 9SW","Latitude":"46.74620","Longitude":"-87.88160","Snowdepth":"10.000","Units":"in","Rept_Date":"2021-01-04 13"},"coordinates":[2102,6802]},{"type":"Point","properties":{"Station_ID":"ALSM1","Station_Nam":"ALLAGASH SNOW COURSE","Latitude":"47.07110","Longitude":"-69.07720","Snowdepth":"9.900","Units":"in","Rept_Date":"2021-01-04 17"},"coordinates":[6326,7010]},{"type":"Point","properties":{"Station_ID":"CAN-NB-16","Station_Nam":"DORCHESTER 1.0 SSE, CAN","Latitude":"45.89160","Longitude":"-64.51269","Snowdepth":"9.600","Units":"in","Rept_Date":"2021-01-04 11"},"coordinates":[7352,6253]},{"type":"Point","properties":{"Station_ID":"WI-RK-12","Station_Nam":"JANESVILLE 3.1 W, WI","Latitude":"42.67576","Longitude":"-89.07614","Snowdepth":"9.500","Units":"in","Rept_Date":"2021-01-04 13"},"coordinates":[1834,4189]},{"type":"Point","properties":{"Station_ID":"WI-BY-29","Station_Nam":"BAYFIELD 5.1 NNW, WI","Latitude":"46.88063","Longitude":"-90.85854","Snowdepth":"9.500","Units":"in","Rept_Date":"2021-01-04 13"},"coordinates":[1433,6888]},{"type":"Point","properties":{"Station_ID":"VT-WS-30","Station_Nam":"WOODBURY 3.4 NNW, VT","Latitude":"44.48825","Longitude":"-72.43258","Snowdepth":"9.500","Units":"in","Rept_Date":"2021-01-04 12"},"coordinates":[5573,5353]},{"type":"Point","properties":{"Station_ID":"VT-ES-3","Station_Nam":"LUNENBURG 2.3 NNW, VT","Latitude":"44.49324","Longitude":"-71.70446","Snowdepth":"9.500","Units":"in","Rept_Date":"2021-01-04 12"},"coordinates":[5736,5356]},{"type":"Point","properties":{"Station_ID":"MN-SL-115","Station_Nam":"COTTON 5.7 ESE, MN","Latitude":"47.15142","Longitude":"-92.35772","Snowdepth":"9.500","Units":"in","Rept_Date":"2021-01-04 14"},"coordinates":[1096,7062]},{"type":"Point","properties":{"Station_ID":"MN-CN-36","Station_Nam":"CLOQUET 3.4 ENE, MN","Latitude":"46.74146","Longitude":"-92.42698","Snowdepth":"9.500","Units":"in","Rept_Date":"2021-01-04 13"},"coordinates":[1081,6799]},{"type":"Point","properties":{"Station_ID":"CAN-MB-32","Station_Nam":"PINAWA 1.0 SW, CA","Latitude":"50.14747","Longitude":"-95.89020","Snowdepth":"9.500","Units":"in","Rept_Date":"2021-01-04 13"},"coordinates":[303,8985]},{"type":"Point","properties":{"Station_ID":"CAN-PE-26","Station_Nam":"GRAND TRACADIE 2.3 SE, CAN","Latitude":"46.37550","Longitude":"-63.03530","Snowdepth":"9.400","Units":"in","Rept_Date":"2021-01-04 11"},"coordinates":[7684,6564]},{"type":"Point","properties":{"Station_ID":"CAN-PE-20","Station_Nam":"BONSHAW 6.6 NNE, CAN","Latitude":"46.25082","Longitude":"-63.33409","Snowdepth":"9.400","Units":"in","Rept_Date":"2021-01-04 12"},"coordinates":[7617,6484]},{"type":"Point","properties":{"Station_ID":"CAN-ON-804","Station_Nam":"KEMBLE 1.6 S - GSCA, CAN","Latitude":"44.71013","Longitude":"-80.92735","Snowdepth":"9.400","Units":"in","Rept_Date":"2021-01-04 13"},"coordinates":[3664,5495]},{"type":"Point","properties":{"Station_ID":"CATQ6","Station_Nam":"CAT LAKE","Latitude":"51.72690","Longitude":"-91.82210","Snowdepth":"9.370","Units":"in","Rept_Date":"2021-01-05 06"},"coordinates":[1217,9999]},{"type":"Point","properties":{"Station_ID":"CAN-NB-64","Station_Nam":"KESWICK RIDGE 4.0 SE, CAN","Latitude":"45.97014","Longitude":"-66.85538","Snowdepth":"9.300","Units":"in","Rept_Date":"2021-01-04 13"},"coordinates":[6826,6304]},{"type":"Point","properties":{"Station_ID":"CAN-NB-84","Station_Nam":"NORTON 7.1 WNW - KWRC, CAN","Latitude":"45.66195","Longitude":"-65.78279","Snowdepth":"9.100","Units":"in","Rept_Date":"2021-01-04 16"},"coordinates":[7066,6106]},{"type":"Point","properties":{"Station_ID":"CAN-NB-8","Station_Nam":"KESWICK RIDGE 2.3 SSE, CAN","Latitude":"45.97703","Longitude":"-66.86815","Snowdepth":"9.100","Units":"in","Rept_Date":"2021-01-04 13"},"coordinates":[6823,6308]},{"type":"Point","properties":{"Station_ID":"WORV1","Station_Nam":"WORCESTER 2 W","Latitude":"44.37470","Longitude":"-72.58220","Snowdepth":"9.000","Units":"in","Rept_Date":"2021-01-04 12"},"coordinates":[5539,5280]},{"type":"Point","properties":{"Station_ID":"WLDM5","Station_Nam":"WILD RIVER STATE PARK","Latitude":"45.52310","Longitude":"-92.74890","Snowdepth":"9.000","Units":"in","Rept_Date":"2021-01-04 14"},"coordinates":[1009,6017]},{"type":"Point","properties":{"Station_ID":"WI-WK-73","Station_Nam":"MENOMONEE FALLS 3.2 NNW, WI","Latitude":"43.18817","Longitude":"-88.15555","Snowdepth":"9.000","Units":"in","Rept_Date":"2021-01-04 13"},"coordinates":[2040,4518]},{"type":"Point","properties":{"Station_ID":"WI-WK-65","Station_Nam":"EAGLE 3.4 SW, WI","Latitude":"42.85067","Longitude":"-88.52596","Snowdepth":"9.000","Units":"in","Rept_Date":"2021-01-04 14"},"coordinates":[1957,4301]},{"type":"Point","properties":{"Station_ID":"WI-WK-42","Station_Nam":"OCONOMOWOC 1.2 W, WI","Latitude":"43.10560","Longitude":"-88.52044","Snowdepth":"9.000","Units":"in","Rept_Date":"2021-01-04 13"},"coordinates":[1959,4465]},{"type":"Point","properties":{"Station_ID":"WI-WK-29","Station_Nam":"OCONOMOWOC 4.6 NE, WI","Latitude":"43.14621","Longitude":"-88.42860","Snowdepth":"9.000","Units":"in","Rept_Date":"2021-01-04 15"},"coordinates":[1979,4491]},{"type":"Point","properties":{"Station_ID":"WI-SR-1","Station_Nam":"HAYWARD 9.2 NNE, WI","Latitude":"46.13255","Longitude":"-91.40500","Snowdepth":"9.000","Units":"in","Rept_Date":"2021-01-04 12"},"coordinates":[1311,6408]},{"type":"Point","properties":{"Station_ID":"WI-BY-22","Station_Nam":"MASON 11.5 WNW, WI","Latitude":"46.50198","Longitude":"-91.28339","Snowdepth":"9.000","Units":"in","Rept_Date":"2021-01-04 14"},"coordinates":[1338,6645]},{"type":"Point","properties":{"Station_ID":"WI-BY-1","Station_Nam":"BAYFIELD 8.8 N, WI","Latitude":"46.93855","Longitude":"-90.83490","Snowdepth":"9.000","Units":"in","Rept_Date":"2021-01-04 12"},"coordinates":[1439,6925]},{"type":"Point","properties":{"Station_ID":"VT-WS-19","Station_Nam":"WATERBURY 3.0 NW, VT","Latitude":"44.36060","Longitude":"-72.80770","Snowdepth":"9.000","Units":"in","Rept_Date":"2021-01-04 11"},"coordinates":[5488,5271]},{"type":"Point","properties":{"Station_ID":"VT-OL-12","Station_Nam":"GREENSBORO 3.9 NNE, VT","Latitude":"44.63100","Longitude":"-72.28000","Snowdepth":"9.000","Units":"in","Rept_Date":"2021-01-04 13"},"coordinates":[5607,5444]},{"type":"Point","properties":{"Station_ID":"UGRW3","Station_Nam":"UNION GROVE,WI","Latitude":"42.70000","Longitude":"-88.03220","Snowdepth":"9.000","Units":"in","Rept_Date":"2021-01-04 13"},"coordinates":[2068,4205]},{"type":"Point","properties":{"Station_ID":"TOGM5","Station_Nam":"CELINA 2E","Latitude":"47.86630","Longitude":"-93.02660","Snowdepth":"9.000","Units":"in","Rept_Date":"2021-01-04 15"},"coordinates":[946,7521]},{"type":"Point","properties":{"Station_ID":"PRDM4","Station_Nam":"PARADISE","Latitude":"46.60380","Longitude":"-85.03960","Snowdepth":"9.000","Units":"in","Rept_Date":"2021-01-04 18"},"coordinates":[2740,6710]},{"type":"Point","properties":{"Station_ID":"NYMM5","Station_Nam":"NEW YORK MILLS","Latitude":"46.50920","Longitude":"-95.37990","Snowdepth":"9.000","Units":"in","Rept_Date":"2021-01-04 13"},"coordinates":[418,6650]},{"type":"Point","properties":{"Station_ID":"NY-SR-22","Station_Nam":"GREENFIELD CENTER 1.6 W, NY","Latitude":"43.12684","Longitude":"-73.87860","Snowdepth":"9.000","Units":"in","Rept_Date":"2021-01-04 12"},"coordinates":[5248,4479]},{"type":"Point","properties":{"Station_ID":"NY-CR-5","Station_Nam":"MARATHON 1.0 NW, NY","Latitude":"42.45161","Longitude":"-76.04370","Snowdepth":"9.000","Units":"in","Rept_Date":"2021-01-04 12"},"coordinates":[4761,4045]},{"type":"Point","properties":{"Station_ID":"NH-MR-60","Station_Nam":"SOUTH SUTTON 1.3 SE, NH","Latitude":"43.29531","Longitude":"-71.90238","Snowdepth":"9.000","Units":"in","Rept_Date":"2021-01-04 13"},"coordinates":[5692,4587]},{"type":"Point","properties":{"Station_ID":"MNSM4","Station_Nam":"MUNISING","Latitude":"46.41210","Longitude":"-86.66250","Snowdepth":"9.000","Units":"in","Rept_Date":"2021-01-04 11"},"coordinates":[2376,6587]},{"type":"Point","properties":{"Station_ID":"MN-CW-54","Station_Nam":"AITKIN 9.6 W, MN","Latitude":"46.53711","Longitude":"-93.90688","Snowdepth":"9.000","Units":"in","Rept_Date":"2021-01-04 14"},"coordinates":[748,6668]},{"type":"Point","properties":{"Station_ID":"MKX","Station_Nam":"MILWAUKEE, WI","Latitude":"42.96810","Longitude":"-88.54920","Snowdepth":"9.000","Units":"in","Rept_Date":"2021-01-05 06"},"coordinates":[1952,4377]},{"type":"Point","properties":{"Station_ID":"JCBM4","Station_Nam":"JACOBSVILLE","Latitude":"47.00830","Longitude":"-88.43180","Snowdepth":"9.000","Units":"in","Rept_Date":"2021-01-04 12"},"coordinates":[1978,6970]},{"type":"Point","properties":{"Station_ID":"INL","Station_Nam":"FALLS INTERNATIONAL ARPT","Latitude":"48.56640","Longitude":"-93.40310","Snowdepth":"9.000","Units":"in","Rept_Date":"2021-01-05 00"},"coordinates":[862,7970]},{"type":"Point","properties":{"Station_ID":"IL-SP-6","Station_Nam":"FREEPORT 2.0 NW, IL","Latitude":"42.30955","Longitude":"-89.66370","Snowdepth":"9.000","Units":"in","Rept_Date":"2021-01-04 14"},"coordinates":[1702,3954]},{"type":"Point","properties":{"Station_ID":"IFSM5","Station_Nam":"INTERNATIONAL FALLS SNOW","Latitude":"48.57780","Longitude":"-93.39640","Snowdepth":"9.000","Units":"in","Rept_Date":"2021-01-04 12"},"coordinates":[863,7978]},{"type":"Point","properties":{"Station_ID":"HUBN3","Station_Nam":"HUBBARD BROOK","Latitude":"43.93330","Longitude":"-71.71670","Snowdepth":"9.000","Units":"in","Rept_Date":"2021-01-05 05"},"coordinates":[5733,4996]},{"type":"Point","properties":{"Station_ID":"HTLM4","Station_Nam":"SNOW PAID OBSERVER FOR KHTL","Latitude":"44.34470","Longitude":"-84.67730","Snowdepth":"9.000","Units":"in","Rept_Date":"2021-01-04 18"},"coordinates":[2822,5260]},{"type":"Point","properties":{"Station_ID":"HTL","Station_Nam":"ROSCOMMON COUNTY AIRPORT","Latitude":"44.35000","Longitude":"-84.66670","Snowdepth":"9.000","Units":"in","Rept_Date":"2021-01-05 00"},"coordinates":[2824,5264]},{"type":"Point","properties":{"Station_ID":"HMYM1","Station_Nam":"HARMONY","Latitude":"44.94660","Longitude":"-69.54560","Snowdepth":"9.000","Units":"in","Rept_Date":"2021-01-04 12"},"coordinates":[6221,5647]},{"type":"Point","properties":{"Station_ID":"GERW3","Station_Nam":"GERMANTOWN,WI","Latitude":"43.21670","Longitude":"-88.11670","Snowdepth":"9.000","Units":"in","Rept_Date":"2021-01-04 13"},"coordinates":[2049,4536]},{"type":"Point","properties":{"Station_ID":"ESGM1","Station_Nam":"EAST SANGERVILLE","Latitude":"45.13690","Longitude":"-69.28060","Snowdepth":"9.000","Units":"in","Rept_Date":"2021-01-04 12"},"coordinates":[6281,5769]},{"type":"Point","properties":{"Station_ID":"ELYM5","Station_Nam":"ELY","Latitude":"47.90560","Longitude":"-91.82830","Snowdepth":"9.000","Units":"in","Rept_Date":"2021-01-04 14"},"coordinates":[1215,7546]},{"type":"Point","properties":{"Station_ID":"COKM5","Station_Nam":"COOK","Latitude":"47.85060","Longitude":"-92.69250","Snowdepth":"9.000","Units":"in","Rept_Date":"2021-01-04 11"},"coordinates":[1021,7511]},{"type":"Point","properties":{"Station_ID":"CBLW3","Station_Nam":"CUMBERLAND","Latitude":"45.53310","Longitude":"-92.02260","Snowdepth":"9.000","Units":"in","Rept_Date":"2021-01-04 13"},"coordinates":[1172,6023]},{"type":"Point","properties":{"Station_ID":"CARM1","Station_Nam":"CARIBOU WFO","Latitude":"46.86810","Longitude":"-68.01250","Snowdepth":"9.000","Units":"in","Rept_Date":"2021-01-05 05"},"coordinates":[6566,6880]},{"type":"Point","properties":{"Station_ID":"CAN-ON-118","Station_Nam":"DURHAM 1.4 S, CAN","Latitude":"44.16525","Longitude":"-80.82064","Snowdepth":"9.000","Units":"in","Rept_Date":"2021-01-04 12"},"coordinates":[3688,5145]},{"type":"Point","properties":{"Station_ID":"BFDW3","Station_Nam":"BROOKFIELD","Latitude":"43.05390","Longitude":"-88.17640","Snowdepth":"9.000","Units":"in","Rept_Date":"2021-01-04 14"},"coordinates":[2036,4432]},{"type":"Point","properties":{"Station_ID":"CAN-NB-97","Station_Nam":"NEW MARYLAND 0.6 NW, CAN","Latitude":"45.90112","Longitude":"-66.68739","Snowdepth":"8.900","Units":"in","Rept_Date":"2021-01-04 12"},"coordinates":[6863,6259]},{"type":"Point","properties":{"Station_ID":"CAN-QC-47","Station_Nam":"SAINTE-FOY 1.8 ENE, CAN","Latitude":"46.76934","Longitude":"-71.27124","Snowdepth":"8.700","Units":"in","Rept_Date":"2021-01-04 12"},"coordinates":[5833,6817]},{"type":"Point","properties":{"Station_ID":"CAN-PE-43","Station_Nam":"GLENCOE 0.3 W, CAN","Latitude":"46.20115","Longitude":"-62.81740","Snowdepth":"8.700","Units":"in","Rept_Date":"2021-01-04 12"},"coordinates":[7733,6452]},{"type":"Point","properties":{"Station_ID":"CAN-NS-159","Station_Nam":"NORTHPORT 0.1 NE, CAN","Latitude":"45.93299","Longitude":"-63.86711","Snowdepth":"8.700","Units":"in","Rept_Date":"2021-01-04 11"},"coordinates":[7497,6280]},{"type":"Point","properties":{"Station_ID":"CAN-NB-98","Station_Nam":"HOYT 4.2 S, CAN","Latitude":"45.54763","Longitude":"-66.55440","Snowdepth":"8.700","Units":"in","Rept_Date":"2021-01-04 11"},"coordinates":[6893,6033]},{"type":"Point","properties":{"Station_ID":"CA2M1","Station_Nam":"CARIBOU (CARY MED.) SNOW COURSE","Latitude":"46.87920","Longitude":"-68.00030","Snowdepth":"8.700","Units":"in","Rept_Date":"2021-01-04 20"},"coordinates":[6568,6887]},{"type":"Point","properties":{"Station_ID":"WI-MW-18","Station_Nam":"WEST ALLIS 0.7 SSE, WI","Latitude":"42.99802","Longitude":"-88.02380","Snowdepth":"8.500","Units":"in","Rept_Date":"2021-01-04 14"},"coordinates":[2070,4396]},{"type":"Point","properties":{"Station_ID":"WI-LF-6","Station_Nam":"SOUTH WAYNE 3.9 SSW, WI","Latitude":"42.51173","Longitude":"-89.89555","Snowdepth":"8.500","Units":"in","Rept_Date":"2021-01-04 12"},"coordinates":[1650,4084]},{"type":"Point","properties":{"Station_ID":"WI-IR-2","Station_Nam":"MERCER 2.0 SE, WI","Latitude":"46.14749","Longitude":"-90.03097","Snowdepth":"8.500","Units":"in","Rept_Date":"2021-01-04 13"},"coordinates":[1619,6418]},{"type":"Point","properties":{"Station_ID":"WI-BY-6","Station_Nam":"BARNES 2.2 S, WI","Latitude":"46.30264","Longitude":"-91.50320","Snowdepth":"8.500","Units":"in","Rept_Date":"2021-01-04 13"},"coordinates":[1288,6517]},{"type":"Point","properties":{"Station_ID":"WI-BY-14","Station_Nam":"ASHLAND 9.8 W, WI","Latitude":"46.59742","Longitude":"-91.07856","Snowdepth":"8.500","Units":"in","Rept_Date":"2021-01-04 12"},"coordinates":[1384,6706]},{"type":"Point","properties":{"Station_ID":"VT-WS-7","Station_Nam":"MIDDLESEX 3.1 ENE, VT","Latitude":"44.31799","Longitude":"-72.62650","Snowdepth":"8.500","Units":"in","Rept_Date":"2021-01-04 13"},"coordinates":[5529,5243]},{"type":"Point","properties":{"Station_ID":"VT-WR-17","Station_Nam":"ROCHESTER 2.3 NE, VT","Latitude":"43.89418","Longitude":"-72.76992","Snowdepth":"8.500","Units":"in","Rept_Date":"2021-01-04 12"},"coordinates":[5497,4971]},{"type":"Point","properties":{"Station_ID":"VT-ES-1","Station_Nam":"GRANBY 1.4 NW, VT","Latitude":"44.58330","Longitude":"-71.77870","Snowdepth":"8.500","Units":"in","Rept_Date":"2021-01-04 12"},"coordinates":[5719,5414]},{"type":"Point","properties":{"Station_ID":"PA-SS-16","Station_Nam":"NEW MILFORD 1.6 SSE, PA","Latitude":"41.85540","Longitude":"-75.71110","Snowdepth":"8.500","Units":"in","Rept_Date":"2021-01-04 13"},"coordinates":[4836,3663]},{"type":"Point","properties":{"Station_ID":"NY-OT-11","Station_Nam":"HARTWICK, NY","Latitude":"42.65990","Longitude":"-75.05000","Snowdepth":"8.500","Units":"in","Rept_Date":"2021-01-04 16"},"coordinates":[4985,4179]},{"type":"Point","properties":{"Station_ID":"NY-BM-21","Station_Nam":"WINDSOR 8.0 SE, NY","Latitude":"42.00992","Longitude":"-75.51420","Snowdepth":"8.500","Units":"in","Rept_Date":"2021-01-04 12"},"coordinates":[4880,3762]},{"type":"Point","properties":{"Station_ID":"NH-GR-47","Station_Nam":"LITTLETON 7.3 W, NH","Latitude":"44.31847","Longitude":"-71.91086","Snowdepth":"8.500","Units":"in","Rept_Date":"2021-01-04 13"},"coordinates":[5690,5244]},{"type":"Point","properties":{"Station_ID":"MN-CW-44","Station_Nam":"CROSBY 1.1 SW, MN","Latitude":"46.47772","Longitude":"-93.97293","Snowdepth":"8.500","Units":"in","Rept_Date":"2021-01-04 13"},"coordinates":[734,6630]},{"type":"Point","properties":{"Station_ID":"MN-CW-22","Station_Nam":"FORT RIPLEY 0.8 N, MN","Latitude":"46.18089","Longitude":"-94.36510","Snowdepth":"8.500","Units":"in","Rept_Date":"2021-01-04 13"},"coordinates":[646,6439]},{"type":"Point","properties":{"Station_ID":"MN-BK-6","Station_Nam":"LAKE PARK 6.0 S, MN","Latitude":"46.79850","Longitude":"-96.12180","Snowdepth":"8.500","Units":"in","Rept_Date":"2021-01-04 13"},"coordinates":[251,6835]},{"type":"Point","properties":{"Station_ID":"MN-AA-85","Station_Nam":"LINO LAKES 1.8 W, MN","Latitude":"45.16640","Longitude":"-93.12063","Snowdepth":"8.500","Units":"in","Rept_Date":"2021-01-04 13"},"coordinates":[925,5788]},{"type":"Point","properties":{"Station_ID":"IL-SP-25","Station_Nam":"FREEPORT 1.7 NW, IL","Latitude":"42.30427","Longitude":"-89.66285","Snowdepth":"8.500","Units":"in","Rept_Date":"2021-01-04 13"},"coordinates":[1702,3951]},{"type":"Point","properties":{"Station_ID":"IL-SP-14","Station_Nam":"FREEPORT 1.7 ESE, IL","Latitude":"42.28257","Longitude":"-89.60360","Snowdepth":"8.500","Units":"in","Rept_Date":"2021-01-04 13"},"coordinates":[1715,3937]},{"type":"Point","properties":{"Station_ID":"IL-JD-6","Station_Nam":"HANOVER 0.2 NW, IL","Latitude":"42.25640","Longitude":"-90.28109","Snowdepth":"8.500","Units":"in","Rept_Date":"2021-01-04 13"},"coordinates":[1563,3920]},{"type":"Point","properties":{"Station_ID":"CAN-PE-7","Station_Nam":"MORELL 1.4 NNW, CA","Latitude":"46.42741","Longitude":"-62.70870","Snowdepth":"8.500","Units":"in","Rept_Date":"2021-01-04 12"},"coordinates":[7757,6597]},{"type":"Point","properties":{"Station_ID":"CAN-PE-50","Station_Nam":"BEDFORD CORNER 3.9 WNW, CAN","Latitude":"46.34628","Longitude":"-63.06157","Snowdepth":"8.500","Units":"in","Rept_Date":"2021-01-04 11"},"coordinates":[7678,6545]},{"type":"Point","properties":{"Station_ID":"CAN-ON-220","Station_Nam":"DEEP RIVER 1.5 SE - MNRF, CAN","Latitude":"46.09592","Longitude":"-77.47853","Snowdepth":"8.500","Units":"in","Rept_Date":"2021-01-04 13"},"coordinates":[4439,6384]},{"type":"Point","properties":{"Station_ID":"CAN-MB-368","Station_Nam":"WHITESHELL 1.3 NE, CAN","Latitude":"49.74405","Longitude":"-95.19123","Snowdepth":"8.400","Units":"in","Rept_Date":"2021-01-04 14"},"coordinates":[460,8726]},{"type":"Point","properties":{"Station_ID":"PA-BF-24","Station_Nam":"BURLINGTON 6.1 SW, PA","Latitude":"41.71848","Longitude":"-76.68963","Snowdepth":"8.200","Units":"in","Rept_Date":"2021-01-04 12"},"coordinates":[4616,3575]},{"type":"Point","properties":{"Station_ID":"MFU","Station_Nam":"MFU","Latitude":"51.52170","Longitude":"-66.91110","Snowdepth":"8.150","Units":"in","Rept_Date":"2021-01-04 12"},"coordinates":[6813,9867]},{"type":"Point","properties":{"Station_ID":"FTHQ6","Station_Nam":"FORT HOPE","Latitude":"51.55820","Longitude":"-87.90510","Snowdepth":"8.110","Units":"in","Rept_Date":"2021-01-05 06"},"coordinates":[2097,9891]},{"type":"Point","properties":{"Station_ID":"WTNM4","Station_Nam":"WATTON 2WSW","Latitude":"46.52660","Longitude":"-88.64240","Snowdepth":"8.000","Units":"in","Rept_Date":"2021-01-04 13"},"coordinates":[1931,6661]},{"type":"Point","properties":{"Station_ID":"WSTW3","Station_Nam":"WEST BEND -FIRE","Latitude":"43.43138","Longitude":"-88.16111","Snowdepth":"8.000","Units":"in","Rept_Date":"2021-01-04 13"},"coordinates":[2039,4674]},{"type":"Point","properties":{"Station_ID":"WRIM5","Station_Nam":"WRIGHT 3E","Latitude":"46.68040","Longitude":"-92.95420","Snowdepth":"8.000","Units":"in","Rept_Date":"2021-01-04 12"},"coordinates":[962,6760]},{"type":"Point","properties":{"Station_ID":"WI-WS-30","Station_Nam":"HARTFORD 2.9 ENE, WI","Latitude":"43.34256","Longitude":"-88.33687","Snowdepth":"8.000","Units":"in","Rept_Date":"2021-01-04 13"},"coordinates":[2000,4617]},{"type":"Point","properties":{"Station_ID":"WI-WK-68","Station_Nam":"OCONOMOWOC 1.0 S, WI","Latitude":"43.09530","Longitude":"-88.48590","Snowdepth":"8.000","Units":"in","Rept_Date":"2021-01-04 14"},"coordinates":[1966,4458]},{"type":"Point","properties":{"Station_ID":"WI-WK-20","Station_Nam":"MUKWONAGO 0.5 N, WI","Latitude":"42.87385","Longitude":"-88.33180","Snowdepth":"8.000","Units":"in","Rept_Date":"2021-01-04 13"},"coordinates":[2001,4316]},{"type":"Point","properties":{"Station_ID":"WI-PR-2","Station_Nam":"BUTTERNUT 5.9 SW, WI","Latitude":"45.96501","Longitude":"-90.59750","Snowdepth":"8.000","Units":"in","Rept_Date":"2021-01-04 12"},"coordinates":[1492,6300]},{"type":"Point","properties":{"Station_ID":"WI-PC-5","Station_Nam":"RIVER FALLS 1.2 SSW, WI","Latitude":"44.84032","Longitude":"-92.63500","Snowdepth":"8.000","Units":"in","Rept_Date":"2021-01-04 13"},"coordinates":[1034,5579]},{"type":"Point","properties":{"Station_ID":"WI-OZ-17","Station_Nam":"WEST BEND 7.3 E, WI","Latitude":"43.42860","Longitude":"-88.03870","Snowdepth":"8.000","Units":"in","Rept_Date":"2021-01-04 13"},"coordinates":[2067,4672]},{"type":"Point","properties":{"Station_ID":"WI-OZ-12","Station_Nam":"PORT WASHINGTON 0.5 S, WI","Latitude":"43.38610","Longitude":"-87.87900","Snowdepth":"8.000","Units":"in","Rept_Date":"2021-01-04 13"},"coordinates":[2103,4645]},{"type":"Point","properties":{"Station_ID":"WI-BY-2","Station_Nam":"MELLEN 18.6 SW, WI","Latitude":"46.16937","Longitude":"-90.98090","Snowdepth":"8.000","Units":"in","Rept_Date":"2021-01-04 13"},"coordinates":[1406,6432]},{"type":"Point","properties":{"Station_ID":"WHTW3","Station_Nam":"WHITEWATER,WI","Latitude":"42.85670","Longitude":"-88.72940","Snowdepth":"8.000","Units":"in","Rept_Date":"2021-01-04 13"},"coordinates":[1912,4305]},{"type":"Point","properties":{"Station_ID":"VT-WS-15","Station_Nam":"EAST CALAIS 1.5 SW, VT","Latitude":"44.35523","Longitude":"-72.45540","Snowdepth":"8.000","Units":"in","Rept_Date":"2021-01-04 12"},"coordinates":[5567,5267]},{"type":"Point","properties":{"Station_ID":"VT-WS-10","Station_Nam":"NORTHFIELD 1.5 N, VT","Latitude":"44.16986","Longitude":"-72.65200","Snowdepth":"8.000","Units":"in","Rept_Date":"2021-01-04 12"},"coordinates":[5523,5148]},{"type":"Point","properties":{"Station_ID":"VT-OL-9","Station_Nam":"GREENSBORO 2.1 NNW, VT","Latitude":"44.60528","Longitude":"-72.30940","Snowdepth":"8.000","Units":"in","Rept_Date":"2021-01-04 12"},"coordinates":[5600,5428]},{"type":"Point","properties":{"Station_ID":"VT-OL-2","Station_Nam":"BARTON 3.0 ENE, VT","Latitude":"44.75863","Longitude":"-72.11680","Snowdepth":"8.000","Units":"in","Rept_Date":"2021-01-04 12"},"coordinates":[5644,5526]},{"type":"Point","properties":{"Station_ID":"VANM1","Station_Nam":"VAN BUREN","Latitude":"47.16600","Longitude":"-67.93900","Snowdepth":"8.000","Units":"in","Rept_Date":"2021-01-04 12"},"coordinates":[6582,7071]},{"type":"Point","properties":{"Station_ID":"SUAW3","Station_Nam":"SUAMICO","Latitude":"44.60190","Longitude":"-88.09780","Snowdepth":"8.000","Units":"in","Rept_Date":"2021-01-04 12"},"coordinates":[2053,5425]},{"type":"Point","properties":{"Station_ID":"STOW3","Station_Nam":"STOUGHTON,WI","Latitude":"42.91670","Longitude":"-89.21670","Snowdepth":"8.000","Units":"in","Rept_Date":"2021-01-04 13"},"coordinates":[1802,4344]},{"type":"Point","properties":{"Station_ID":"RLKW3","Station_Nam":"REST LAKE","Latitude":"46.12220","Longitude":"-89.87720","Snowdepth":"8.000","Units":"in","Rept_Date":"2021-01-04 14"},"coordinates":[1654,6401]},{"type":"Point","properties":{"Station_ID":"RGNM1","Station_Nam":"RANGELEY 2NW","Latitude":"44.98940","Longitude":"-70.67220","Snowdepth":"8.000","Units":"in","Rept_Date":"2021-01-04 11"},"coordinates":[5968,5674]},{"type":"Point","properties":{"Station_ID":"PTBN3","Station_Nam":"PITTSBURG RESERVOIR","Latitude":"45.04690","Longitude":"-71.38300","Snowdepth":"8.000","Units":"in","Rept_Date":"2021-01-04 12"},"coordinates":[5808,5711]},{"type":"Point","properties":{"Station_ID":"PRQM1","Station_Nam":"PRESQUE ISLE HILLTOP","Latitude":"46.68630","Longitude":"-67.99470","Snowdepth":"8.000","Units":"in","Rept_Date":"2021-01-04 12"},"coordinates":[6570,6763]},{"type":"Point","properties":{"Station_ID":"ONCW3","Station_Nam":"SOUTH","Latitude":"43.11170","Longitude":"-88.49970","Snowdepth":"8.000","Units":"in","Rept_Date":"2021-01-04 14"},"coordinates":[1963,4469]},{"type":"Point","properties":{"Station_ID":"OCOW3","Station_Nam":"OCONOMOWOC,WI","Latitude":"43.10190","Longitude":"-88.50330","Snowdepth":"8.000","Units":"in","Rept_Date":"2021-01-04 13"},"coordinates":[1962,4463]},{"type":"Point","properties":{"Station_ID":"NY-HR-18","Station_Nam":"SALISBURY CENTER 1.8 NW, NY","Latitude":"43.16260","Longitude":"-74.80880","Snowdepth":"8.000","Units":"in","Rept_Date":"2021-01-04 11"},"coordinates":[5039,4502]},{"type":"Point","properties":{"Station_ID":"NY-FK-9","Station_Nam":"GABRIELS 1.3 SE, NY","Latitude":"44.41934","Longitude":"-74.16194","Snowdepth":"8.000","Units":"in","Rept_Date":"2021-01-04 12"},"coordinates":[5184,5308]},{"type":"Point","properties":{"Station_ID":"NY-FK-7","Station_Nam":"SARANAC LAKE 6.2 N, NY","Latitude":"44.41359","Longitude":"-74.15211","Snowdepth":"8.000","Units":"in","Rept_Date":"2021-01-04 13"},"coordinates":[5186,5305]},{"type":"Point","properties":{"Station_ID":"NY-ES-11","Station_Nam":"VERMONTVILLE 2.8 S, NY","Latitude":"44.41205","Longitude":"-74.06760","Snowdepth":"8.000","Units":"in","Rept_Date":"2021-01-04 12"},"coordinates":[5205,5304]},{"type":"Point","properties":{"Station_ID":"MYOM4","Station_Nam":"MIO WWTP","Latitude":"44.64660","Longitude":"-84.11580","Snowdepth":"8.000","Units":"in","Rept_Date":"2021-01-04 13"},"coordinates":[2948,5454]},{"type":"Point","properties":{"Station_ID":"MWOW3","Station_Nam":"MUKWONAGO","Latitude":"42.85380","Longitude":"-88.43550","Snowdepth":"8.000","Units":"in","Rept_Date":"2021-01-04 13"},"coordinates":[1978,4303]},{"type":"Point","properties":{"Station_ID":"MTCI2","Station_Nam":"MOUNT CARROLL","Latitude":"42.09800","Longitude":"-89.98410","Snowdepth":"8.000","Units":"in","Rept_Date":"2021-01-04 13"},"coordinates":[1630,3818]},{"type":"Point","properties":{"Station_ID":"MSP","Station_Nam":"MINNEAPOLIS-ST PAUL INTL AP","Latitude":"44.88310","Longitude":"-93.22890","Snowdepth":"8.000","Units":"in","Rept_Date":"2021-01-05 00"},"coordinates":[901,5606]},{"type":"Point","properties":{"Station_ID":"MQT","Station_Nam":"MARQUETTE, MI","Latitude":"46.53140","Longitude":"-87.54920","Snowdepth":"8.000","Units":"in","Rept_Date":"2021-01-05 06"},"coordinates":[2177,6664]},{"type":"Point","properties":{"Station_ID":"MN-WR-25","Station_Nam":"SAINT MICHAEL 2.0 ENE, MN","Latitude":"45.20820","Longitude":"-93.65280","Snowdepth":"8.000","Units":"in","Rept_Date":"2021-01-04 12"},"coordinates":[806,5815]},{"type":"Point","properties":{"Station_ID":"MN-IT-1","Station_Nam":"GRAND RAPIDS 2.0 E, MN","Latitude":"47.22266","Longitude":"-93.49600","Snowdepth":"8.000","Units":"in","Rept_Date":"2021-01-04 14"},"coordinates":[841,7108]},{"type":"Point","properties":{"Station_ID":"MN-IS-21","Station_Nam":"ISANTI 5.0 SW, MN","Latitude":"45.43360","Longitude":"-93.30200","Snowdepth":"8.000","Units":"in","Rept_Date":"2021-01-04 14"},"coordinates":[884,5959]},{"type":"Point","properties":{"Station_ID":"MN-HN-298","Station_Nam":"EXCELSIOR 1.8 W, MN","Latitude":"44.89722","Longitude":"-93.60286","Snowdepth":"8.000","Units":"in","Rept_Date":"2021-01-04 13"},"coordinates":[817,5615]},{"type":"Point","properties":{"Station_ID":"MKTI4","Station_Nam":"MAQUOKETA","Latitude":"42.07710","Longitude":"-90.66470","Snowdepth":"8.000","Units":"in","Rept_Date":"2021-01-04 13"},"coordinates":[1477,3805]},{"type":"Point","properties":{"Station_ID":"MI-OT-17","Station_Nam":"GAYLORD 4.1 S, MI","Latitude":"44.96388","Longitude":"-84.68467","Snowdepth":"8.000","Units":"in","Rept_Date":"2021-01-04 12"},"coordinates":[2820,5658]},{"type":"Point","properties":{"Station_ID":"MI-EM-8","Station_Nam":"PETOSKEY 1.7 SSW, MI","Latitude":"45.34209","Longitude":"-84.96530","Snowdepth":"8.000","Units":"in","Rept_Date":"2021-01-04 15"},"coordinates":[2757,5901]},{"type":"Point","properties":{"Station_ID":"ME-PN-55","Station_Nam":"ORONO 1.1 SSW, ME","Latitude":"44.87005","Longitude":"-68.69446","Snowdepth":"8.000","Units":"in","Rept_Date":"2021-01-04 12"},"coordinates":[6412,5598]},{"type":"Point","properties":{"Station_ID":"ME-AR-18","Station_Nam":"NEW SWEDEN 4.9 NNW, ME","Latitude":"47.01080","Longitude":"-68.14390","Snowdepth":"8.000","Units":"in","Rept_Date":"2021-01-04 12"},"coordinates":[6536,6972]},{"type":"Point","properties":{"Station_ID":"ME-AR-15","Station_Nam":"PRESQUE ISLE 1.3 WSW, ME","Latitude":"46.67960","Longitude":"-68.01270","Snowdepth":"8.000","Units":"in","Rept_Date":"2021-01-04 12"},"coordinates":[6566,6759]},{"type":"Point","properties":{"Station_ID":"LPLN6","Station_Nam":"LAKE PLACID 2 S","Latitude":"44.30420","Longitude":"-73.98390","Snowdepth":"8.000","Units":"in","Rept_Date":"2021-01-04 13"},"coordinates":[5224,5234]},{"type":"Point","properties":{"Station_ID":"LNOW3","Station_Nam":"LAND O LAKES","Latitude":"46.19000","Longitude":"-89.45700","Snowdepth":"8.000","Units":"in","Rept_Date":"2021-01-04 13"},"coordinates":[1748,6445]},{"type":"Point","properties":{"Station_ID":"LEWM4","Station_Nam":"LEWISTON 3W","Latitude":"44.88210","Longitude":"-84.36540","Snowdepth":"8.000","Units":"in","Rept_Date":"2021-01-04 13"},"coordinates":[2892,5605]},{"type":"Point","properties":{"Station_ID":"KMSP","Station_Nam":"MINNEAPOLIS-ST PAUL INTERNATIONAL","Latitude":"44.86666","Longitude":"-93.21666","Snowdepth":"8.000","Units":"in","Rept_Date":"2021-01-04 18"},"coordinates":[904,5595]},{"type":"Point","properties":{"Station_ID":"JOHV1","Station_Nam":"JOHNSON 2 N","Latitude":"44.65790","Longitude":"-72.67850","Snowdepth":"8.000","Units":"in","Rept_Date":"2021-01-04 13"},"coordinates":[5517,5461]},{"type":"Point","properties":{"Station_ID":"JACW3","Station_Nam":"JACKSON","Latitude":"43.31940","Longitude":"-88.16810","Snowdepth":"8.000","Units":"in","Rept_Date":"2021-01-04 12"},"coordinates":[2038,4602]},{"type":"Point","properties":{"Station_ID":"ISLV1","Station_Nam":"ISLAND POND","Latitude":"44.81280","Longitude":"-71.89020","Snowdepth":"8.000","Units":"in","Rept_Date":"2021-01-04 16"},"coordinates":[5694,5561]},{"type":"Point","properties":{"Station_ID":"ISEM5","Station_Nam":"ISLE 12N","Latitude":"46.31970","Longitude":"-93.50140","Snowdepth":"8.000","Units":"in","Rept_Date":"2021-01-04 13"},"coordinates":[840,6528]},{"type":"Point","properties":{"Station_ID":"INDM5","Station_Nam":"INDUS,MN","Latitude":"48.61670","Longitude":"-93.90000","Snowdepth":"8.000","Units":"in","Rept_Date":"2021-01-04 14"},"coordinates":[750,8003]},{"type":"Point","properties":{"Station_ID":"ICYI4","Station_Nam":"IOWA CITY","Latitude":"41.60930","Longitude":"-91.50510","Snowdepth":"8.000","Units":"in","Rept_Date":"2021-01-04 13"},"coordinates":[1288,3505]},{"type":"Point","properties":{"Station_ID":"IA-ST-1","Station_Nam":"LE CLAIRE 1.8 NNE, IA","Latitude":"41.62355","Longitude":"-90.35140","Snowdepth":"8.000","Units":"in","Rept_Date":"2021-01-04 14"},"coordinates":[1547,3514]},{"type":"Point","properties":{"Station_ID":"IA-JH-22","Station_Nam":"CORALVILLE 1.3 SE, IA","Latitude":"41.68066","Longitude":"-91.58000","Snowdepth":"8.000","Units":"in","Rept_Date":"2021-01-04 13"},"coordinates":[1271,3550]},{"type":"Point","properties":{"Station_ID":"IA-JH-14","Station_Nam":"SWISHER 0.4 NNE, IA","Latitude":"41.84830","Longitude":"-91.69210","Snowdepth":"8.000","Units":"in","Rept_Date":"2021-01-04 15"},"coordinates":[1246,3658]},{"type":"Point","properties":{"Station_ID":"GATW3","Station_Nam":"GRAFTON WWTP","Latitude":"43.30810","Longitude":"-87.95530","Snowdepth":"8.000","Units":"in","Rept_Date":"2021-01-04 13"},"coordinates":[2085,4595]},{"type":"Point","properties":{"Station_ID":"FORM5","Station_Nam":"FOREST LAKE 5NE","Latitude":"45.33170","Longitude":"-92.89820","Snowdepth":"8.000","Units":"in","Rept_Date":"2021-01-04 13"},"coordinates":[975,5894]},{"type":"Point","properties":{"Station_ID":"EMBM5","Station_Nam":"EMBARASS,MN","Latitude":"47.65810","Longitude":"-92.19580","Snowdepth":"8.000","Units":"in","Rept_Date":"2021-01-04 12"},"coordinates":[1133,7387]},{"type":"Point","properties":{"Station_ID":"DLHM5","Station_Nam":"DULUTH NWS","Latitude":"46.83680","Longitude":"-92.21080","Snowdepth":"8.000","Units":"in","Rept_Date":"2021-01-05 06"},"coordinates":[1129,6860]},{"type":"Point","properties":{"Station_ID":"DLH","Station_Nam":"DULUTH, MN","Latitude":"46.83690","Longitude":"-92.21030","Snowdepth":"8.000","Units":"in","Rept_Date":"2021-01-05 00"},"coordinates":[1130,6860]},{"type":"Point","properties":{"Station_ID":"DARW3","Station_Nam":"DARLINGTON","Latitude":"42.67780","Longitude":"-90.11860","Snowdepth":"8.000","Units":"in","Rept_Date":"2021-01-04 13"},"coordinates":[1599,4190]},{"type":"Point","properties":{"Station_ID":"COUW3","Station_Nam":"COUDERAY,WI","Latitude":"45.86670","Longitude":"-91.45000","Snowdepth":"8.000","Units":"in","Rept_Date":"2021-01-04 22"},"coordinates":[1300,6237]},{"type":"Point","properties":{"Station_ID":"CORM1","Station_Nam":"CORINNA","Latitude":"44.91980","Longitude":"-69.24180","Snowdepth":"8.000","Units":"in","Rept_Date":"2021-01-04 15"},"coordinates":[6289,5630]},{"type":"Point","properties":{"Station_ID":"CMKW3","Station_Nam":"CLAM LAKE 4W","Latitude":"46.16940","Longitude":"-90.98080","Snowdepth":"8.000","Units":"in","Rept_Date":"2021-01-04 13"},"coordinates":[1406,6432]},{"type":"Point","properties":{"Station_ID":"CLIW3","Station_Nam":"CLINTON,WI","Latitude":"42.60000","Longitude":"-88.88330","Snowdepth":"8.000","Units":"in","Rept_Date":"2021-01-04 13"},"coordinates":[1877,4140]},{"type":"Point","properties":{"Station_ID":"CISI2","Station_Nam":"CISCO","Latitude":"40.00860","Longitude":"-88.72640","Snowdepth":"8.000","Units":"in","Rept_Date":"2021-01-04 12"},"coordinates":[1912,2477]},{"type":"Point","properties":{"Station_ID":"CAN-PE-10","Station_Nam":"NEW LONDON 1.6 ENE, CA","Latitude":"46.46985","Longitude":"-63.49200","Snowdepth":"8.000","Units":"in","Rept_Date":"2021-01-04 12"},"coordinates":[7581,6625]},{"type":"Point","properties":{"Station_ID":"BWNM5","Station_Nam":"BROWNTON WWTP","Latitude":"44.73350","Longitude":"-94.34180","Snowdepth":"8.000","Units":"in","Rept_Date":"2021-01-04 14"},"coordinates":[651,5510]},{"type":"Point","properties":{"Station_ID":"BROW3","Station_Nam":"BRODHEAD,WI","Latitude":"42.61720","Longitude":"-89.38970","Snowdepth":"8.000","Units":"in","Rept_Date":"2021-01-04 13"},"coordinates":[1763,4152]},{"type":"Point","properties":{"Station_ID":"BLVI4","Station_Nam":"MISSISSIPPI RIVER","Latitude":"42.26670","Longitude":"-90.41670","Snowdepth":"8.000","Units":"in","Rept_Date":"2021-01-04 12"},"coordinates":[1533,3927]},{"type":"Point","properties":{"Station_ID":"BLTW3","Station_Nam":"BELOIT,WI","Latitude":"42.50000","Longitude":"-89.03330","Snowdepth":"8.000","Units":"in","Rept_Date":"2021-01-04 12"},"coordinates":[1843,4076]},{"type":"Point","properties":{"Station_ID":"AFTW3","Station_Nam":"ROCK RIVER","Latitude":"42.61670","Longitude":"-89.06670","Snowdepth":"8.000","Units":"in","Rept_Date":"2021-01-04 13"},"coordinates":[1836,4151]},{"type":"Point","properties":{"Station_ID":"CAN-NB-5","Station_Nam":"OAK POINT 0.9 SSW, CA","Latitude":"45.50752","Longitude":"-66.09860","Snowdepth":"7.900","Units":"in","Rept_Date":"2021-01-04 12"},"coordinates":[6996,6007]},{"type":"Point","properties":{"Station_ID":"WI-JF-24","Station_Nam":"LAC LABELLE 1.2 SW, WI","Latitude":"43.13126","Longitude":"-88.53959","Snowdepth":"7.600","Units":"in","Rept_Date":"2021-01-04 14"},"coordinates":[1954,4481]},{"type":"Point","properties":{"Station_ID":"VT-CL-23","Station_Nam":"RYEGATE 1.5 N, VT","Latitude":"44.23024","Longitude":"-72.10523","Snowdepth":"7.600","Units":"in","Rept_Date":"2021-01-04 12"},"coordinates":[5646,5187]},{"type":"Point","properties":{"Station_ID":"GURM1","Station_Nam":"GUERETTE SNOW COURSE","Latitude":"47.08360","Longitude":"-68.23140","Snowdepth":"7.600","Units":"in","Rept_Date":"2021-01-04 14"},"coordinates":[6516,7018]},{"type":"Point","properties":{"Station_ID":"WI-WS-5","Station_Nam":"JACKSON 0.2 WSW, WI","Latitude":"43.32007","Longitude":"-88.16820","Snowdepth":"7.500","Units":"in","Rept_Date":"2021-01-04 12"},"coordinates":[2038,4603]},{"type":"Point","properties":{"Station_ID":"WI-WK-61","Station_Nam":"HARTLAND 5.0 NNE, WI","Latitude":"43.16351","Longitude":"-88.30400","Snowdepth":"7.500","Units":"in","Rept_Date":"2021-01-04 13"},"coordinates":[2007,4502]},{"type":"Point","properties":{"Station_ID":"WI-VL-9","Station_Nam":"LAND O' LAKES 11.7 W, WI","Latitude":"46.19023","Longitude":"-89.45790","Snowdepth":"7.500","Units":"in","Rept_Date":"2021-01-04 13"},"coordinates":[1748,6445]},{"type":"Point","properties":{"Station_ID":"WI-SB-10","Station_Nam":"RANDOM LAKE 0.5 SSE, WI","Latitude":"43.54812","Longitude":"-87.95050","Snowdepth":"7.500","Units":"in","Rept_Date":"2021-01-04 13"},"coordinates":[2087,4749]},{"type":"Point","properties":{"Station_ID":"WI-OZ-22","Station_Nam":"SAUKVILLE 0.9 SSW, WI","Latitude":"43.37254","Longitude":"-87.95009","Snowdepth":"7.500","Units":"in","Rept_Date":"2021-01-04 13"},"coordinates":[2087,4636]},{"type":"Point","properties":{"Station_ID":"WI-MW-14","Station_Nam":"MILWAUKEE 3.6 NNW, WI","Latitude":"43.11300","Longitude":"-87.98730","Snowdepth":"7.500","Units":"in","Rept_Date":"2021-01-04 11"},"coordinates":[2078,4470]},{"type":"Point","properties":{"Station_ID":"WI-DA-87","Station_Nam":"DUNKIRK 0.1 NW, WI","Latitude":"42.88356","Longitude":"-89.21056","Snowdepth":"7.500","Units":"in","Rept_Date":"2021-01-04 12"},"coordinates":[1803,4322]},{"type":"Point","properties":{"Station_ID":"VT-WS-33","Station_Nam":"WAITSFIELD 3.5 WNW, VT","Latitude":"44.20052","Longitude":"-72.89421","Snowdepth":"7.500","Units":"in","Rept_Date":"2021-01-04 13"},"coordinates":[5469,5168]},{"type":"Point","properties":{"Station_ID":"VT-OG-14","Station_Nam":"BRADFORD 2.2 NNW, VT","Latitude":"44.02268","Longitude":"-72.14756","Snowdepth":"7.500","Units":"in","Rept_Date":"2021-01-04 13"},"coordinates":[5637,5054]},{"type":"Point","properties":{"Station_ID":"NY-DL-28","Station_Nam":"FLEISCHMANNS 5.7 N, NY","Latitude":"42.23779","Longitude":"-74.52335","Snowdepth":"7.500","Units":"in","Rept_Date":"2021-01-04 12"},"coordinates":[5103,3908]},{"type":"Point","properties":{"Station_ID":"MN-IT-7","Station_Nam":"GRAND RAPIDS 6.2 SSW, MN","Latitude":"47.13687","Longitude":"-93.56660","Snowdepth":"7.500","Units":"in","Rept_Date":"2021-01-04 12"},"coordinates":[825,7053]},{"type":"Point","properties":{"Station_ID":"MN-IT-23","Station_Nam":"BOVEY 13.4 N, MN","Latitude":"47.48855","Longitude":"-93.43497","Snowdepth":"7.500","Units":"in","Rept_Date":"2021-01-04 13"},"coordinates":[854,7278]},{"type":"Point","properties":{"Station_ID":"IL-HY-5","Station_Nam":"COAL VALLEY 1.9 SE, IL","Latitude":"41.43339","Longitude":"-90.41750","Snowdepth":"7.500","Units":"in","Rept_Date":"2021-01-04 13"},"coordinates":[1532,3392]},{"type":"Point","properties":{"Station_ID":"CAN-NS-175","Station_Nam":"NEW GLASGOW 1.4 WNW, CAN","Latitude":"45.59057","Longitude":"-62.65963","Snowdepth":"7.500","Units":"in","Rept_Date":"2021-01-04 11"},"coordinates":[7768,6060]},{"type":"Point","properties":{"Station_ID":"CAN-NB-11","Station_Nam":"MIRAMICHI 3.3 S, CAN","Latitude":"46.99343","Longitude":"-65.50690","Snowdepth":"7.500","Units":"in","Rept_Date":"2021-01-04 10"},"coordinates":[7128,6961]},{"type":"Point","properties":{"Station_ID":"CAN-NB-105","Station_Nam":"SISSON BROOK 3.8 E, CAN","Latitude":"46.98305","Longitude":"-67.32532","Snowdepth":"7.500","Units":"in","Rept_Date":"2021-01-04 12"},"coordinates":[6720,6954]},{"type":"Point","properties":{"Station_ID":"CAN-NS-86","Station_Nam":"NAPPAN 1.7 E, CA","Latitude":"45.76986","Longitude":"-64.21800","Snowdepth":"7.400","Units":"in","Rept_Date":"2021-01-04 13"},"coordinates":[7418,6175]},{"type":"Point","properties":{"Station_ID":"CAN-NB-55","Station_Nam":"FREDERICTON 4.5 N, CAN","Latitude":"45.99547","Longitude":"-66.64252","Snowdepth":"7.400","Units":"in","Rept_Date":"2021-01-04 12"},"coordinates":[6873,6320]},{"type":"Point","properties":{"Station_ID":"QCX","Station_Nam":"QCX","Latitude":"51.32830","Longitude":"-70.08060","Snowdepth":"7.362","Units":"in","Rept_Date":"2021-01-04 12"},"coordinates":[6101,9743]},{"type":"Point","properties":{"Station_ID":"KNCM1","Station_Nam":"KNOWLES CORNER - MCOOP","Latitude":"46.20780","Longitude":"-68.31420","Snowdepth":"7.300","Units":"in","Rept_Date":"2021-01-04 18"},"coordinates":[6498,6456]},{"type":"Point","properties":{"Station_ID":"NY-JF-30","Station_Nam":"WEST CARTHAGE 0.3 ENE, NY","Latitude":"43.97493","Longitude":"-75.61640","Snowdepth":"7.100","Units":"in","Rept_Date":"2021-01-04 12"},"coordinates":[4857,5023]},{"type":"Point","properties":{"Station_ID":"CAN-NS-163","Station_Nam":"SYDNEY MINES 2.2 WNW, CAN","Latitude":"46.24851","Longitude":"-60.25161","Snowdepth":"7.100","Units":"in","Rept_Date":"2021-01-04 12"},"coordinates":[8309,6482]},{"type":"Point","properties":{"Station_ID":"CAN-NB-83","Station_Nam":"ST. STEPHEN 1.5 SW, CAN","Latitude":"45.18806","Longitude":"-67.29431","Snowdepth":"7.100","Units":"in","Rept_Date":"2021-01-04 11"},"coordinates":[6727,5802]},{"type":"Point","properties":{"Station_ID":"CAN-NB-28","Station_Nam":"SUSSEX CORNER 1.4 NE - KWRC, CAN","Latitude":"45.71691","Longitude":"-65.46217","Snowdepth":"7.100","Units":"in","Rept_Date":"2021-01-04 10"},"coordinates":[7138,6141]},{"type":"Point","properties":{"Station_ID":"WI-WW-14","Station_Nam":"DARIEN 1.6 NNE, WI","Latitude":"42.62361","Longitude":"-88.70083","Snowdepth":"7.000","Units":"in","Rept_Date":"2021-01-04 13"},"coordinates":[1918,4156]},{"type":"Point","properties":{"Station_ID":"WI-WK-60","Station_Nam":"OCONOMOWOC 2.3 WSW, WI","Latitude":"43.08753","Longitude":"-88.53749","Snowdepth":"7.000","Units":"in","Rept_Date":"2021-01-04 23"},"coordinates":[1955,4453]},{"type":"Point","properties":{"Station_ID":"WI-RC-33","Station_Nam":"RACINE 5.9 N, WI","Latitude":"42.81268","Longitude":"-87.81460","Snowdepth":"7.000","Units":"in","Rept_Date":"2021-01-04 13"},"coordinates":[2117,4277]},{"type":"Point","properties":{"Station_ID":"WI-PR-6","Station_Nam":"PHILLIPS 1.3 S, WI","Latitude":"45.67677","Longitude":"-90.39543","Snowdepth":"7.000","Units":"in","Rept_Date":"2021-01-04 12"},"coordinates":[1537,6115]},{"type":"Point","properties":{"Station_ID":"WI-PK-4","Station_Nam":"DRESSER 6.1 ESE, WI","Latitude":"45.32436","Longitude":"-92.52080","Snowdepth":"7.000","Units":"in","Rept_Date":"2021-01-04 14"},"coordinates":[1060,5889]},{"type":"Point","properties":{"Station_ID":"WI-PK-33","Station_Nam":"FREDERIC 4.8 NE, WI","Latitude":"45.70970","Longitude":"-92.39950","Snowdepth":"7.000","Units":"in","Rept_Date":"2021-01-04 13"},"coordinates":[1087,6137]},{"type":"Point","properties":{"Station_ID":"WI-JF-17","Station_Nam":"JOHNSON CREEK 2.7 SSW, WI","Latitude":"43.04559","Longitude":"-88.79925","Snowdepth":"7.000","Units":"in","Rept_Date":"2021-01-04 12"},"coordinates":[1896,4426]},{"type":"Point","properties":{"Station_ID":"WI-JF-10","Station_Nam":"PALMYRA 1.5 N, WI","Latitude":"42.90084","Longitude":"-88.58620","Snowdepth":"7.000","Units":"in","Rept_Date":"2021-01-04 13"},"coordinates":[1944,4334]},{"type":"Point","properties":{"Station_ID":"WI-DA-99","Station_Nam":"FITCHBURG 1.1 NW, WI","Latitude":"42.99740","Longitude":"-89.44046","Snowdepth":"7.000","Units":"in","Rept_Date":"2021-01-04 13"},"coordinates":[1752,4396]},{"type":"Point","properties":{"Station_ID":"WI-BT-14","Station_Nam":"OAKLAND 9.0 ENE, WI","Latitude":"45.95184","Longitude":"-92.21653","Snowdepth":"7.000","Units":"in","Rept_Date":"2021-01-04 13"},"coordinates":[1128,6292]},{"type":"Point","properties":{"Station_ID":"WELM5","Station_Nam":"WELLS","Latitude":"43.74680","Longitude":"-93.73680","Snowdepth":"7.000","Units":"in","Rept_Date":"2021-01-04 14"},"coordinates":[787,4877]},{"type":"Point","properties":{"Station_ID":"WBRM4","Station_Nam":"WEST BRANCH 3SE","Latitude":"44.25410","Longitude":"-84.20110","Snowdepth":"7.000","Units":"in","Rept_Date":"2021-01-04 13"},"coordinates":[2929,5202]},{"type":"Point","properties":{"Station_ID":"WALN6","Station_Nam":"WALTON 2","Latitude":"42.18470","Longitude":"-75.14550","Snowdepth":"7.000","Units":"in","Rept_Date":"2021-01-04 10"},"coordinates":[4963,3874]},{"type":"Point","properties":{"Station_ID":"WAIV1","Station_Nam":"WAITSFIELD","Latitude":"44.17560","Longitude":"-72.79610","Snowdepth":"7.000","Units":"in","Rept_Date":"2021-01-04 12"},"coordinates":[5491,5152]},{"type":"Point","properties":{"Station_ID":"VT-WS-5","Station_Nam":"BERLIN 4.3 WNW, VT","Latitude":"44.23360","Longitude":"-72.65610","Snowdepth":"7.000","Units":"in","Rept_Date":"2021-01-04 12"},"coordinates":[5522,5189]},{"type":"Point","properties":{"Station_ID":"VT-WS-11","Station_Nam":"WAITSFIELD 1.8 SE, VT","Latitude":"44.17551","Longitude":"-72.79540","Snowdepth":"7.000","Units":"in","Rept_Date":"2021-01-04 12"},"coordinates":[5491,5152]},{"type":"Point","properties":{"Station_ID":"VT-WR-2","Station_Nam":"POMFRET 2.6 N, VT","Latitude":"43.74230","Longitude":"-72.52550","Snowdepth":"7.000","Units":"in","Rept_Date":"2021-01-04 12"},"coordinates":[5552,4874]},{"type":"Point","properties":{"Station_ID":"VT-OL-1","Station_Nam":"WESTFIELD 0.7 WNW, VT","Latitude":"44.89160","Longitude":"-72.44350","Snowdepth":"7.000","Units":"in","Rept_Date":"2021-01-04 12"},"coordinates":[5570,5611]},{"type":"Point","properties":{"Station_ID":"VT-CL-18","Station_Nam":"WHEELOCK 1.6 S, VT","Latitude":"44.56491","Longitude":"-72.08830","Snowdepth":"7.000","Units":"in","Rept_Date":"2021-01-04 12"},"coordinates":[5650,5402]},{"type":"Point","properties":{"Station_ID":"VNTI4","Station_Nam":"VINTON","Latitude":"42.17020","Longitude":"-92.00770","Snowdepth":"7.000","Units":"in","Rept_Date":"2021-01-04 13"},"coordinates":[1175,3865]},{"type":"Point","properties":{"Station_ID":"UVDV1","Station_Nam":"NERON SITE AT UNION VILLAGE DAM","Latitude":"43.79140","Longitude":"-72.25720","Snowdepth":"7.000","Units":"in","Rept_Date":"2021-01-04 12"},"coordinates":[5612,4905]},{"type":"Point","properties":{"Station_ID":"STRN6","Station_Nam":"STILLWATER RESERVOIR","Latitude":"43.89140","Longitude":"-75.03610","Snowdepth":"7.000","Units":"in","Rept_Date":"2021-01-04 13"},"coordinates":[4988,4969]},{"type":"Point","properties":{"Station_ID":"SSMM4","Station_Nam":"SAULT STE MARIE","Latitude":"46.48660","Longitude":"-84.40250","Snowdepth":"7.000","Units":"in","Rept_Date":"2021-01-04 13"},"coordinates":[2884,6635]},{"type":"Point","properties":{"Station_ID":"SPRI4","Station_Nam":"SPIRIT LAKE","Latitude":"43.42310","Longitude":"-95.10000","Snowdepth":"7.000","Units":"in","Rept_Date":"2021-01-04 13"},"coordinates":[480,4669]},{"type":"Point","properties":{"Station_ID":"SNBI4","Station_Nam":"SANBORN,IA","Latitude":"43.18170","Longitude":"-95.66030","Snowdepth":"7.000","Units":"in","Rept_Date":"2021-01-04 14"},"coordinates":[355,4514]},{"type":"Point","properties":{"Station_ID":"SLRW3","Station_Nam":"SLINGER","Latitude":"43.33390","Longitude":"-88.29780","Snowdepth":"7.000","Units":"in","Rept_Date":"2021-01-04 13"},"coordinates":[2009,4612]},{"type":"Point","properties":{"Station_ID":"SEEW3","Station_Nam":"SOUTH MILWAUKEE WWTP","Latitude":"42.90110","Longitude":"-87.84940","Snowdepth":"7.000","Units":"in","Rept_Date":"2021-01-04 13"},"coordinates":[2109,4334]},{"type":"Point","properties":{"Station_ID":"SCRW3","Station_Nam":"ST CROIX FALLS","Latitude":"45.41170","Longitude":"-92.64660","Snowdepth":"7.000","Units":"in","Rept_Date":"2021-01-04 13"},"coordinates":[1032,5945]},{"type":"Point","properties":{"Station_ID":"ROCW3","Station_Nam":"ROCHESTER WWTP","Latitude":"42.72690","Longitude":"-88.22580","Snowdepth":"7.000","Units":"in","Rept_Date":"2021-01-04 11"},"coordinates":[2025,4222]},{"type":"Point","properties":{"Station_ID":"RKWM1","Station_Nam":"MOOSEHEAD LAKE","Latitude":"45.58330","Longitude":"-69.71670","Snowdepth":"7.000","Units":"in","Rept_Date":"2021-01-04 12"},"coordinates":[6183,6055]},{"type":"Point","properties":{"Station_ID":"RCHW3","Station_Nam":"RICHRIELD,WI","Latitude":"43.21080","Longitude":"-88.20940","Snowdepth":"7.000","Units":"in","Rept_Date":"2021-01-04 12"},"coordinates":[2028,4533]},{"type":"Point","properties":{"Station_ID":"RANM1","Station_Nam":"RANGELEY","Latitude":"44.98910","Longitude":"-70.67190","Snowdepth":"7.000","Units":"in","Rept_Date":"2021-01-04 11"},"coordinates":[5968,5674]},{"type":"Point","properties":{"Station_ID":"RANI4","Station_Nam":"RANDOLPH,IA","Latitude":"40.86670","Longitude":"-95.56670","Snowdepth":"7.000","Units":"in","Rept_Date":"2021-01-04 14"},"coordinates":[376,3028]},{"type":"Point","properties":{"Station_ID":"QCAI2","Station_Nam":"MOLINE SNOW","Latitude":"41.39990","Longitude":"-90.54800","Snowdepth":"7.000","Units":"in","Rept_Date":"2021-01-05 00"},"coordinates":[1503,3370]},{"type":"Point","properties":{"Station_ID":"PLFV1","Station_Nam":"PLAINFIELD","Latitude":"44.27610","Longitude":"-72.41500","Snowdepth":"7.000","Units":"in","Rept_Date":"2021-01-04 12"},"coordinates":[5577,5216]},{"type":"Point","properties":{"Station_ID":"PLEP1","Station_Nam":"PLEASANT MOUNT 1 W","Latitude":"41.73940","Longitude":"-75.44650","Snowdepth":"7.000","Units":"in","Rept_Date":"2021-01-04 13"},"coordinates":[4896,3588]},{"type":"Point","properties":{"Station_ID":"PERV1","Station_Nam":"PERU","Latitude":"43.26670","Longitude":"-72.90000","Snowdepth":"7.000","Units":"in","Rept_Date":"2021-01-04 12"},"coordinates":[5468,4568]},{"type":"Point","properties":{"Station_ID":"PDGM4","Station_Nam":"PAULDING","Latitude":"46.39760","Longitude":"-89.17940","Snowdepth":"7.000","Units":"in","Rept_Date":"2021-01-04 14"},"coordinates":[1810,6578]},{"type":"Point","properties":{"Station_ID":"OTTM5","Station_Nam":"OTTERTAIL,MN","Latitude":"46.41670","Longitude":"-95.56670","Snowdepth":"7.000","Units":"in","Rept_Date":"2021-01-04 13"},"coordinates":[376,6590]},{"type":"Point","properties":{"Station_ID":"OLNI4","Station_Nam":"OELWEIN 1E","Latitude":"42.68010","Longitude":"-91.87510","Snowdepth":"7.000","Units":"in","Rept_Date":"2021-01-04 12"},"coordinates":[1205,4192]},{"type":"Point","properties":{"Station_ID":"OLMN6","Station_Nam":"OLD FORGE - MOOSE","Latitude":"43.71270","Longitude":"-74.96930","Snowdepth":"7.000","Units":"in","Rept_Date":"2021-01-04 13"},"coordinates":[5003,4855]},{"type":"Point","properties":{"Station_ID":"NY-OT-29","Station_Nam":"NEW BERLIN 1.5 NE, NY","Latitude":"42.63689","Longitude":"-75.31090","Snowdepth":"7.000","Units":"in","Rept_Date":"2021-01-04 13"},"coordinates":[4926,4164]},{"type":"Point","properties":{"Station_ID":"NY-HM-9","Station_Nam":"HOFFMEISTER 2.0 E, NY","Latitude":"43.38695","Longitude":"-74.67723","Snowdepth":"7.000","Units":"in","Rept_Date":"2021-01-04 13"},"coordinates":[5068,4646]},{"type":"Point","properties":{"Station_ID":"NY-DL-23","Station_Nam":"LONG EDDY 6.5 NNE, NY","Latitude":"41.93510","Longitude":"-75.07840","Snowdepth":"7.000","Units":"in","Rept_Date":"2021-01-04 13"},"coordinates":[4978,3714]},{"type":"Point","properties":{"Station_ID":"NY-BM-14","Station_Nam":"WHITNEY POINT 1.7 SSE, NY","Latitude":"42.30837","Longitude":"-75.95690","Snowdepth":"7.000","Units":"in","Rept_Date":"2021-01-04 13"},"coordinates":[4781,3953]},{"type":"Point","properties":{"Station_ID":"NUMN3","Station_Nam":"NORTHUMBERLAND","Latitude":"44.52830","Longitude":"-71.50440","Snowdepth":"7.000","Units":"in","Rept_Date":"2021-01-04 12"},"coordinates":[5781,5378]},{"type":"Point","properties":{"Station_ID":"NSNM1","Station_Nam":"NEW SHARON","Latitude":"44.63330","Longitude":"-70.00000","Snowdepth":"7.000","Units":"in","Rept_Date":"2021-01-04 12"},"coordinates":[6119,5446]},{"type":"Point","properties":{"Station_ID":"NH-GR-49","Station_Nam":"PLYMOUTH 3.7 N, NH","Latitude":"43.79048","Longitude":"-71.68413","Snowdepth":"7.000","Units":"in","Rept_Date":"2021-01-04 12"},"coordinates":[5741,4905]},{"type":"Point","properties":{"Station_ID":"NH-CR-15","Station_Nam":"JACKSON 3.7 NW, NH","Latitude":"44.19069","Longitude":"-71.22598","Snowdepth":"7.000","Units":"in","Rept_Date":"2021-01-04 12"},"coordinates":[5844,5162]},{"type":"Point","properties":{"Station_ID":"MWTM1","Station_Nam":"MILLINOCKET WWTP","Latitude":"45.64030","Longitude":"-68.67480","Snowdepth":"7.000","Units":"in","Rept_Date":"2021-01-04 11"},"coordinates":[6417,6092]},{"type":"Point","properties":{"Station_ID":"MSN","Station_Nam":"MADISON DANE COUNTY RGNL","Latitude":"43.13970","Longitude":"-89.33750","Snowdepth":"7.000","Units":"in","Rept_Date":"2021-01-05 00"},"coordinates":[1775,4487]},{"type":"Point","properties":{"Station_ID":"MRAM5","Station_Nam":"MORA","Latitude":"45.87760","Longitude":"-93.31470","Snowdepth":"7.000","Units":"in","Rept_Date":"2021-01-04 13"},"coordinates":[881,6244]},{"type":"Point","properties":{"Station_ID":"MPXM5","Station_Nam":"CHANHASSEN WSFO","Latitude":"44.84960","Longitude":"-93.56440","Snowdepth":"7.000","Units":"in","Rept_Date":"2021-01-05 06"},"coordinates":[825,5584]},{"type":"Point","properties":{"Station_ID":"MN-SH-39","Station_Nam":"ZIMMERMAN 3.7 N, MN","Latitude":"45.49450","Longitude":"-93.60430","Snowdepth":"7.000","Units":"in","Rept_Date":"2021-01-04 14"},"coordinates":[816,5998]},{"type":"Point","properties":{"Station_ID":"MN-SH-34","Station_Nam":"ZIMMERMAN 0.9 NNE, MN","Latitude":"45.45470","Longitude":"-93.59166","Snowdepth":"7.000","Units":"in","Rept_Date":"2021-01-04 12"},"coordinates":[819,5973]},{"type":"Point","properties":{"Station_ID":"MN-RM-15","Station_Nam":"ROSEVILLE 2.1 NW, MN","Latitude":"45.03502","Longitude":"-93.18620","Snowdepth":"7.000","Units":"in","Rept_Date":"2021-01-04 12"},"coordinates":[910,5704]},{"type":"Point","properties":{"Station_ID":"MN-OT-36","Station_Nam":"BATTLE LAKE 3.3 SSE, MN","Latitude":"46.23918","Longitude":"-95.69718","Snowdepth":"7.000","Units":"in","Rept_Date":"2021-01-04 13"},"coordinates":[346,6476]},{"type":"Point","properties":{"Station_ID":"MN-MR-4","Station_Nam":"LITTLE FALLS 1.2 SW, MN","Latitude":"45.96886","Longitude":"-94.37720","Snowdepth":"7.000","Units":"in","Rept_Date":"2021-01-04 13"},"coordinates":[643,6303]},{"type":"Point","properties":{"Station_ID":"MN-IT-17","Station_Nam":"GRAND RAPIDS 6.1 N, MN","Latitude":"47.31165","Longitude":"-93.55036","Snowdepth":"7.000","Units":"in","Rept_Date":"2021-01-04 13"},"coordinates":[829,7165]},{"type":"Point","properties":{"Station_ID":"MN-IS-22","Station_Nam":"PRINCETON 6.6 E, MN","Latitude":"45.55762","Longitude":"-93.44595","Snowdepth":"7.000","Units":"in","Rept_Date":"2021-01-04 15"},"coordinates":[852,6039]},{"type":"Point","properties":{"Station_ID":"MN-HN-31","Station_Nam":"MAPLE GROVE 1.0 NNE, MN","Latitude":"45.12261","Longitude":"-93.45790","Snowdepth":"7.000","Units":"in","Rept_Date":"2021-01-04 14"},"coordinates":[849,5760]},{"type":"Point","properties":{"Station_ID":"MN-HN-241","Station_Nam":"MAPLE GROVE 1.4 WSW, MN","Latitude":"45.10451","Longitude":"-93.48950","Snowdepth":"7.000","Units":"in","Rept_Date":"2021-01-04 13"},"coordinates":[842,5748]},{"type":"Point","properties":{"Station_ID":"MN-GH-28","Station_Nam":"CANNON FALLS 0.5 SE, MN","Latitude":"44.50866","Longitude":"-92.89526","Snowdepth":"7.000","Units":"in","Rept_Date":"2021-01-04 14"},"coordinates":[976,5366]},{"type":"Point","properties":{"Station_ID":"MN-BM-14","Station_Nam":"SOLWAY 2.1 S, MN","Latitude":"47.49069","Longitude":"-95.12177","Snowdepth":"7.000","Units":"in","Rept_Date":"2021-01-04 13"},"coordinates":[476,7280]},{"type":"Point","properties":{"Station_ID":"MLI","Station_Nam":"QUAD CITY INTL","Latitude":"41.44860","Longitude":"-90.50750","Snowdepth":"7.000","Units":"in","Rept_Date":"2021-01-05 00"},"coordinates":[1512,3401]},{"type":"Point","properties":{"Station_ID":"MLCM5","Station_Nam":"MILACA","Latitude":"45.75320","Longitude":"-93.66170","Snowdepth":"7.000","Units":"in","Rept_Date":"2021-01-04 13"},"coordinates":[804,6165]},{"type":"Point","properties":{"Station_ID":"MI-MQ-19","Station_Nam":"ISHPEMING 7.2 SW, MI","Latitude":"46.40550","Longitude":"-87.75670","Snowdepth":"7.000","Units":"in","Rept_Date":"2021-01-04 11"},"coordinates":[2130,6583]},{"type":"Point","properties":{"Station_ID":"MI-GL-4","Station_Nam":"GLADWIN 10.4 NNW, MI","Latitude":"44.11865","Longitude":"-84.58470","Snowdepth":"7.000","Units":"in","Rept_Date":"2021-01-04 14"},"coordinates":[2843,5115]},{"type":"Point","properties":{"Station_ID":"ME-SM-4","Station_Nam":"SOLON 3.9 ESE, ME","Latitude":"44.94705","Longitude":"-69.77790","Snowdepth":"7.000","Units":"in","Rept_Date":"2021-01-04 12"},"coordinates":[6169,5647]},{"type":"Point","properties":{"Station_ID":"ME-SM-10","Station_Nam":"NORTH NEW PORTLAND 0.3 WSW, ME","Latitude":"44.92353","Longitude":"-70.02788","Snowdepth":"7.000","Units":"in","Rept_Date":"2021-01-04 12"},"coordinates":[6113,5632]},{"type":"Point","properties":{"Station_ID":"ME-PN-47","Station_Nam":"MILFORD 0.8 SSW, ME","Latitude":"44.94108","Longitude":"-68.64154","Snowdepth":"7.000","Units":"in","Rept_Date":"2021-01-04 12"},"coordinates":[6424,5643]},{"type":"Point","properties":{"Station_ID":"ME-PN-43","Station_Nam":"ORONO 0.9 NE, ME","Latitude":"44.89261","Longitude":"-68.66903","Snowdepth":"7.000","Units":"in","Rept_Date":"2021-01-04 12"},"coordinates":[6418,5612]},{"type":"Point","properties":{"Station_ID":"ME-OX-34","Station_Nam":"ANDOVER 3.8 W, ME","Latitude":"44.64156","Longitude":"-70.82782","Snowdepth":"7.000","Units":"in","Rept_Date":"2021-01-04 12"},"coordinates":[5933,5451]},{"type":"Point","properties":{"Station_ID":"ME-FR-2","Station_Nam":"TEMPLE 1.8 W, ME","Latitude":"44.68329","Longitude":"-70.26420","Snowdepth":"7.000","Units":"in","Rept_Date":"2021-01-04 12"},"coordinates":[6060,5478]},{"type":"Point","properties":{"Station_ID":"KNXI4","Station_Nam":"KNOXVILLE,IA","Latitude":"41.31670","Longitude":"-93.13330","Snowdepth":"7.000","Units":"in","Rept_Date":"2021-01-04 14"},"coordinates":[922,3317]},{"type":"Point","properties":{"Station_ID":"KBGR","Station_Nam":"BANGOR INTL AIRPORT","Latitude":"44.80000","Longitude":"-68.81666","Snowdepth":"7.000","Units":"in","Rept_Date":"2021-01-05 06"},"coordinates":[6385,5553]},{"type":"Point","properties":{"Station_ID":"JKMM1","Station_Nam":"JACKMAN","Latitude":"45.62600","Longitude":"-70.24600","Snowdepth":"7.000","Units":"in","Rept_Date":"2021-01-04 12"},"coordinates":[6064,6083]},{"type":"Point","properties":{"Station_ID":"IL-WN-26","Station_Nam":"ROCKFORD 1.5 ENE, IL","Latitude":"42.27775","Longitude":"-89.03590","Snowdepth":"7.000","Units":"in","Rept_Date":"2021-01-04 15"},"coordinates":[1843,3934]},{"type":"Point","properties":{"Station_ID":"IDAI4","Station_Nam":"INDIANOLA,IA","Latitude":"41.36670","Longitude":"-93.55000","Snowdepth":"7.000","Units":"in","Rept_Date":"2021-01-04 13"},"coordinates":[829,3349]},{"type":"Point","properties":{"Station_ID":"IA-ST-3","Station_Nam":"PARK VIEW 0.2 WSW, IA","Latitude":"41.68855","Longitude":"-90.54380","Snowdepth":"7.000","Units":"in","Rept_Date":"2021-01-04 13"},"coordinates":[1504,3555]},{"type":"Point","properties":{"Station_ID":"IA-JH-1","Station_Nam":"SOLON 0.3 ESE, IA","Latitude":"41.80398","Longitude":"-91.48910","Snowdepth":"7.000","Units":"in","Rept_Date":"2021-01-04 13"},"coordinates":[1292,3630]},{"type":"Point","properties":{"Station_ID":"HPN11_MADIS","Station_Nam":"SAINT BONIFACIUS","Latitude":"44.89792","Longitude":"-93.73460","Snowdepth":"7.000","Units":"in","Rept_Date":"2021-01-05 06"},"coordinates":[787,5615]},{"type":"Point","properties":{"Station_ID":"HALM4","Station_Nam":"LOUD DAM","Latitude":"44.46250","Longitude":"-83.72190","Snowdepth":"7.000","Units":"in","Rept_Date":"2021-01-04 14"},"coordinates":[3036,5336]},{"type":"Point","properties":{"Station_ID":"GNEN6","Station_Nam":"GREENE","Latitude":"42.32440","Longitude":"-75.77170","Snowdepth":"7.000","Units":"in","Rept_Date":"2021-01-04 15"},"coordinates":[4822,3964]},{"type":"Point","properties":{"Station_ID":"GIBW3","Station_Nam":"GIBBSVILLE,WI","Latitude":"43.65670","Longitude":"-87.81170","Snowdepth":"7.000","Units":"in","Rept_Date":"2021-01-04 13"},"coordinates":[2118,4819]},{"type":"Point","properties":{"Station_ID":"GHMN3","Station_Nam":"PINKHAM NOTCH","Latitude":"44.25800","Longitude":"-71.25250","Snowdepth":"7.000","Units":"in","Rept_Date":"2021-01-04 11"},"coordinates":[5838,5205]},{"type":"Point","properties":{"Station_ID":"GDPM5","Station_Nam":"PIGEON RIVER AT MIDDLE FALLS","Latitude":"48.01220","Longitude":"-89.61610","Snowdepth":"7.000","Units":"in","Rept_Date":"2021-01-04 13"},"coordinates":[1712,7615]},{"type":"Point","properties":{"Station_ID":"FEEI2","Station_Nam":"PECATONICA RIVER","Latitude":"42.30000","Longitude":"-89.61670","Snowdepth":"7.000","Units":"in","Rept_Date":"2021-01-04 13"},"coordinates":[1712,3948]},{"type":"Point","properties":{"Station_ID":"FEDM5","Station_Nam":"LEECH LAKE DAM","Latitude":"47.24670","Longitude":"-94.22280","Snowdepth":"7.000","Units":"in","Rept_Date":"2021-01-04 14"},"coordinates":[677,7123]},{"type":"Point","properties":{"Station_ID":"EZBI2","Station_Nam":"ELIZABETH","Latitude":"42.31620","Longitude":"-90.22690","Snowdepth":"7.000","Units":"in","Rept_Date":"2021-01-04 12"},"coordinates":[1575,3958]},{"type":"Point","properties":{"Station_ID":"CSLM5","Station_Nam":"CASS LAKE,MN","Latitude":"47.38470","Longitude":"-94.61470","Snowdepth":"7.000","Units":"in","Rept_Date":"2021-01-04 14"},"coordinates":[589,7212]},{"type":"Point","properties":{"Station_ID":"CRLM5","Station_Nam":"CROSS LAKE DAM","Latitude":"46.66930","Longitude":"-94.11060","Snowdepth":"7.000","Units":"in","Rept_Date":"2021-01-04 14"},"coordinates":[703,6753]},{"type":"Point","properties":{"Station_ID":"CORV1","Station_Nam":"CORINTH","Latitude":"44.00690","Longitude":"-72.31940","Snowdepth":"7.000","Units":"in","Rept_Date":"2021-01-04 12"},"coordinates":[5598,5044]},{"type":"Point","properties":{"Station_ID":"BRAM5","Station_Nam":"BRAINERD","Latitude":"46.34320","Longitude":"-94.20900","Snowdepth":"7.000","Units":"in","Rept_Date":"2021-01-04 13"},"coordinates":[681,6543]},{"type":"Point","properties":{"Station_ID":"BRAM1","Station_Nam":"BRASSUA DAM","Latitude":"45.66020","Longitude":"-69.81190","Snowdepth":"7.000","Units":"in","Rept_Date":"2021-01-04 12"},"coordinates":[6161,6105]},{"type":"Point","properties":{"Station_ID":"BMON6","Station_Nam":"BIG MOOSE 3SE","Latitude":"43.80000","Longitude":"-74.86670","Snowdepth":"7.000","Units":"in","Rept_Date":"2021-01-04 13"},"coordinates":[5026,4911]},{"type":"Point","properties":{"Station_ID":"BKEM5","Station_Nam":"BRECKENRIDGE 4NE","Latitude":"46.30470","Longitude":"-96.52170","Snowdepth":"7.000","Units":"in","Rept_Date":"2021-01-04 13"},"coordinates":[161,6519]},{"type":"Point","properties":{"Station_ID":"BGRM1","Station_Nam":"BANGOR FSS","Latitude":"44.80440","Longitude":"-68.81330","Snowdepth":"7.000","Units":"in","Rept_Date":"2021-01-05 06"},"coordinates":[6386,5555]},{"type":"Point","properties":{"Station_ID":"BBDW3","Station_Nam":"BIG BEND","Latitude":"42.88140","Longitude":"-88.20670","Snowdepth":"7.000","Units":"in","Rept_Date":"2021-01-04 13"},"coordinates":[2029,4321]},{"type":"Point","properties":{"Station_ID":"BAGM4","Station_Nam":"BARAGA 7NW","Latitude":"46.82100","Longitude":"-88.60590","Snowdepth":"7.000","Units":"in","Rept_Date":"2021-01-04 13"},"coordinates":[1939,6850]},{"type":"Point","properties":{"Station_ID":"AVLV1","Station_Nam":"AVERILL","Latitude":"45.00570","Longitude":"-71.69030","Snowdepth":"7.000","Units":"in","Rept_Date":"2021-01-04 13"},"coordinates":[5739,5685]},{"type":"Point","properties":{"Station_ID":"ANJM4","Station_Nam":"SNOW PAID OBSERVER FOR KANJ","Latitude":"46.48670","Longitude":"-84.40260","Snowdepth":"7.000","Units":"in","Rept_Date":"2021-01-04 18"},"coordinates":[2884,6635]},{"type":"Point","properties":{"Station_ID":"ANJ","Station_Nam":"SAULT STE MARIE","Latitude":"46.46670","Longitude":"-84.36670","Snowdepth":"7.000","Units":"in","Rept_Date":"2021-01-05 00"},"coordinates":[2892,6622]},{"type":"Point","properties":{"Station_ID":"AMOI4","Station_Nam":"ANAMOSA 3 SSW","Latitude":"42.07630","Longitude":"-91.30190","Snowdepth":"7.000","Units":"in","Rept_Date":"2021-01-04 12"},"coordinates":[1334,3804]},{"type":"Point","properties":{"Station_ID":"CAN-NS-68","Station_Nam":"RAWDON GOLD MINES 3.4 N, CA","Latitude":"45.08535","Longitude":"-63.76840","Snowdepth":"6.900","Units":"in","Rept_Date":"2021-01-04 11"},"coordinates":[7519,5736]},{"type":"Point","properties":{"Station_ID":"PNKM1","Station_Nam":"PINKHAM MILL SNOW CORE","Latitude":"46.71270","Longitude":"-68.45840","Snowdepth":"6.700","Units":"in","Rept_Date":"2021-01-04 16"},"coordinates":[6465,6780]},{"type":"Point","properties":{"Station_ID":"MN-HN-14","Station_Nam":"MINNETRISTA 1.5 SSE, MN","Latitude":"44.91447","Longitude":"-93.69920","Snowdepth":"6.700","Units":"in","Rept_Date":"2021-01-04 13"},"coordinates":[795,5626]},{"type":"Point","properties":{"Station_ID":"CAN-NS-13","Station_Nam":"TRURO 5.0 ENE, CA","Latitude":"45.38252","Longitude":"-63.22810","Snowdepth":"6.700","Units":"in","Rept_Date":"2021-01-04 11"},"coordinates":[7640,5927]},{"type":"Point","properties":{"Station_ID":"HPN02_MADIS","Station_Nam":"MAPLE GROVE","Latitude":"45.11820","Longitude":"-93.42830","Snowdepth":"6.650","Units":"in","Rept_Date":"2021-01-05 06"},"coordinates":[856,5757]},{"type":"Point","properties":{"Station_ID":"QLP","Station_Nam":"QLP","Latitude":"48.13920","Longitude":"-72.63830","Snowdepth":"6.614","Units":"in","Rept_Date":"2021-01-04 12"},"coordinates":[5526,7696]},{"type":"Point","properties":{"Station_ID":"WI-IW-3","Station_Nam":"MINERAL POINT 7.3 ENE, WI","Latitude":"42.91400","Longitude":"-90.05700","Snowdepth":"6.500","Units":"in","Rept_Date":"2021-01-04 13"},"coordinates":[1613,4342]},{"type":"Point","properties":{"Station_ID":"VT-BN-3","Station_Nam":"LANDGROVE 1.1 NNE, VT","Latitude":"43.29092","Longitude":"-72.83260","Snowdepth":"6.500","Units":"in","Rept_Date":"2021-01-04 13"},"coordinates":[5483,4584]},{"type":"Point","properties":{"Station_ID":"VT-AD-20","Station_Nam":"HANCOCK 0.3 S, VT","Latitude":"43.92166","Longitude":"-72.84042","Snowdepth":"6.500","Units":"in","Rept_Date":"2021-01-04 12"},"coordinates":[5481,4989]},{"type":"Point","properties":{"Station_ID":"PA-CR-1","Station_Nam":"EMPORIUM 2.6 S, PA","Latitude":"41.47342","Longitude":"-78.24330","Snowdepth":"6.500","Units":"in","Rept_Date":"2021-01-04 13"},"coordinates":[4267,3417]},{"type":"Point","properties":{"Station_ID":"NY-TG-5","Station_Nam":"BERKSHIRE 2.0 N, NY","Latitude":"42.33463","Longitude":"-76.18990","Snowdepth":"6.500","Units":"in","Rept_Date":"2021-01-04 12"},"coordinates":[4729,3970]},{"type":"Point","properties":{"Station_ID":"NY-TG-26","Station_Nam":"CANDOR 0.7 NW, NY","Latitude":"42.23428","Longitude":"-76.34758","Snowdepth":"6.500","Units":"in","Rept_Date":"2021-01-04 12"},"coordinates":[4693,3906]},{"type":"Point","properties":{"Station_ID":"NY-ES-6","Station_Nam":"OLMSTEDVILLE 4.6 NNE, NY","Latitude":"43.83350","Longitude":"-73.89780","Snowdepth":"6.500","Units":"in","Rept_Date":"2021-01-04 13"},"coordinates":[5243,4932]},{"type":"Point","properties":{"Station_ID":"NY-DL-24","Station_Nam":"WALTON 6.5 W, NY","Latitude":"42.16534","Longitude":"-75.25850","Snowdepth":"6.500","Units":"in","Rept_Date":"2021-01-04 12"},"coordinates":[4938,3861]},{"type":"Point","properties":{"Station_ID":"NH-MR-4","Station_Nam":"BOW 1.6 NW, NH","Latitude":"43.14994","Longitude":"-71.55650","Snowdepth":"6.500","Units":"in","Rept_Date":"2021-01-04 13"},"coordinates":[5769,4493]},{"type":"Point","properties":{"Station_ID":"MN-RM-120","Station_Nam":"MAPLEWOOD 5.6 SSE, MN","Latitude":"44.90588","Longitude":"-92.99712","Snowdepth":"6.500","Units":"in","Rept_Date":"2021-01-04 15"},"coordinates":[953,5621]},{"type":"Point","properties":{"Station_ID":"MN-OT-3","Station_Nam":"BATTLE LAKE 2S, MN","Latitude":"46.25833","Longitude":"-95.71470","Snowdepth":"6.500","Units":"in","Rept_Date":"2021-01-04 13"},"coordinates":[342,6489]},{"type":"Point","properties":{"Station_ID":"MI-MT-8","Station_Nam":"EDMORE 3.8 ESE, MI","Latitude":"43.37974","Longitude":"-84.97319","Snowdepth":"6.500","Units":"in","Rept_Date":"2021-01-04 15"},"coordinates":[2755,4641]},{"type":"Point","properties":{"Station_ID":"ME-SM-45","Station_Nam":"BRIGHTON PLANTATION 2.1 N, ME","Latitude":"45.07098","Longitude":"-69.69860","Snowdepth":"6.500","Units":"in","Rept_Date":"2021-01-04 12"},"coordinates":[6187,5727]},{"type":"Point","properties":{"Station_ID":"IA-MC-13","Station_Nam":"MUSCATINE 2.1 N, IA","Latitude":"41.44808","Longitude":"-91.07428","Snowdepth":"6.500","Units":"in","Rept_Date":"2021-01-04 13"},"coordinates":[1385,3401]},{"type":"Point","properties":{"Station_ID":"IA-LS-5","Station_Nam":"WAPELLO 5.4 SE, IA","Latitude":"41.11441","Longitude":"-91.13017","Snowdepth":"6.500","Units":"in","Rept_Date":"2021-01-04 13"},"coordinates":[1372,3187]},{"type":"Point","properties":{"Station_ID":"IA-DV-2","Station_Nam":"MOULTON 3.6 ENE, IA","Latitude":"40.70487","Longitude":"-92.61551","Snowdepth":"6.500","Units":"in","Rept_Date":"2021-01-04 13"},"coordinates":[1039,2924]},{"type":"Point","properties":{"Station_ID":"CAN-QC-51","Station_Nam":"BELOEIL 0.7 NW, CAN","Latitude":"45.58049","Longitude":"-73.21218","Snowdepth":"6.500","Units":"in","Rept_Date":"2021-01-04 12"},"coordinates":[5397,6054]},{"type":"Point","properties":{"Station_ID":"CAN-ON-771","Station_Nam":"KENORA 8.7 NNE - CANWARN, CAN","Latitude":"49.84171","Longitude":"-94.44386","Snowdepth":"6.500","Units":"in","Rept_Date":"2021-01-04 13"},"coordinates":[628,8789]},{"type":"Point","properties":{"Station_ID":"CAN-NS-3","Station_Nam":"WOLFVILLE 7.1 ESE, CAN","Latitude":"45.07921","Longitude":"-64.27107","Snowdepth":"6.500","Units":"in","Rept_Date":"2021-01-04 11"},"coordinates":[7406,5732]},{"type":"Point","properties":{"Station_ID":"ME-SM-3","Station_Nam":"PALMYRA 3.5 NW, ME","Latitude":"44.87180","Longitude":"-69.41952","Snowdepth":"6.300","Units":"in","Rept_Date":"2021-01-04 12"},"coordinates":[6249,5599]},{"type":"Point","properties":{"Station_ID":"CAN-MB-298","Station_Nam":"GARDENTON 4.2 W - SRRCD, CAN","Latitude":"49.09480","Longitude":"-96.75446","Snowdepth":"6.300","Units":"in","Rept_Date":"2021-01-04 14"},"coordinates":[109,8309]},{"type":"Point","properties":{"Station_ID":"WI-WW-2","Station_Nam":"LAKE GENEVA 0.6 ENE, WI","Latitude":"42.59169","Longitude":"-88.41770","Snowdepth":"6.200","Units":"in","Rept_Date":"2021-01-04 13"},"coordinates":[1982,4135]},{"type":"Point","properties":{"Station_ID":"WI-MW-68","Station_Nam":"GREENFIELD 0.7 SW, WI","Latitude":"42.95589","Longitude":"-88.01510","Snowdepth":"6.200","Units":"in","Rept_Date":"2021-01-04 13"},"coordinates":[2072,4369]},{"type":"Point","properties":{"Station_ID":"OXBM1","Station_Nam":"OXBOW - MCOOP","Latitude":"46.42700","Longitude":"-68.55300","Snowdepth":"6.200","Units":"in","Rept_Date":"2021-01-04 17"},"coordinates":[6444,6597]},{"type":"Point","properties":{"Station_ID":"MO-DV-2","Station_Nam":"JAMESPORT 1.3 ESE, MO","Latitude":"39.96450","Longitude":"-93.78090","Snowdepth":"6.200","Units":"in","Rept_Date":"2021-01-04 13"},"coordinates":[777,2449]},{"type":"Point","properties":{"Station_ID":"IL-CK-288","Station_Nam":"ROSELLE 0.8 N, IL","Latitude":"41.99255","Longitude":"-88.08422","Snowdepth":"6.200","Units":"in","Rept_Date":"2021-01-04 13"},"coordinates":[2057,3751]},{"type":"Point","properties":{"Station_ID":"SQPM1","Station_Nam":"SQUA PAN DAM","Latitude":"46.55610","Longitude":"-68.32550","Snowdepth":"6.100","Units":"in","Rept_Date":"2021-01-04 16"},"coordinates":[6495,6680]},{"type":"Point","properties":{"Station_ID":"QGA","Station_Nam":"QGA","Latitude":"47.25640","Longitude":"-73.73810","Snowdepth":"6.024","Units":"in","Rept_Date":"2021-01-04 12"},"coordinates":[5279,7129]},{"type":"Point","properties":{"Station_ID":"WVLM1","Station_Nam":"WATERVILLE TREATMENT PLT","Latitude":"44.52720","Longitude":"-69.65440","Snowdepth":"6.000","Units":"in","Rept_Date":"2021-01-04 13"},"coordinates":[6197,5378]},{"type":"Point","properties":{"Station_ID":"WSHI4","Station_Nam":"WASHINGTON","Latitude":"41.28240","Longitude":"-91.70780","Snowdepth":"6.000","Units":"in","Rept_Date":"2021-01-04 13"},"coordinates":[1242,3295]},{"type":"Point","properties":{"Station_ID":"WRUM5","Station_Nam":"WARROAD 4W","Latitude":"48.89600","Longitude":"-95.40700","Snowdepth":"6.000","Units":"in","Rept_Date":"2021-01-05 04"},"coordinates":[411,8182]},{"type":"Point","properties":{"Station_ID":"WRNM5","Station_Nam":"WORTHINGTON,MN","Latitude":"43.65440","Longitude":"-95.57920","Snowdepth":"6.000","Units":"in","Rept_Date":"2021-01-04 13"},"coordinates":[373,4817]},{"type":"Point","properties":{"Station_ID":"WNDP1","Station_Nam":"WINDBER COUNTY CLUB","Latitude":"40.28780","Longitude":"-78.77530","Snowdepth":"6.000","Units":"in","Rept_Date":"2021-01-04 12"},"coordinates":[4148,2656]},{"type":"Point","properties":{"Station_ID":"WI-WW-13","Station_Nam":"MUKWONAGO 3.4 SW, WI","Latitude":"42.83734","Longitude":"-88.38534","Snowdepth":"6.000","Units":"in","Rept_Date":"2021-01-04 12"},"coordinates":[1989,4293]},{"type":"Point","properties":{"Station_ID":"WI-RK-6","Station_Nam":"EVANSVILLE 0.4 E, WI","Latitude":"42.77913","Longitude":"-89.29020","Snowdepth":"6.000","Units":"in","Rept_Date":"2021-01-04 12"},"coordinates":[1786,4255]},{"type":"Point","properties":{"Station_ID":"WI-RC-3","Station_Nam":"RACINE 2.3 WSW, WI","Latitude":"42.71124","Longitude":"-87.84570","Snowdepth":"6.000","Units":"in","Rept_Date":"2021-01-04 13"},"coordinates":[2110,4212]},{"type":"Point","properties":{"Station_ID":"WI-PC-10","Station_Nam":"RIVER FALLS 1.4 S, WI","Latitude":"44.83580","Longitude":"-92.62100","Snowdepth":"6.000","Units":"in","Rept_Date":"2021-01-04 13"},"coordinates":[1037,5576]},{"type":"Point","properties":{"Station_ID":"WI-DD-16","Station_Nam":"BEAVER DAM 2.4 WNW, WI","Latitude":"43.47210","Longitude":"-88.88280","Snowdepth":"6.000","Units":"in","Rept_Date":"2021-01-04 13"},"coordinates":[1877,4700]},{"type":"Point","properties":{"Station_ID":"WI-BR-2","Station_Nam":"CHETEK 2.0 SE, WI","Latitude":"45.29427","Longitude":"-91.62470","Snowdepth":"6.000","Units":"in","Rept_Date":"2021-01-04 13"},"coordinates":[1261,5870]},{"type":"Point","properties":{"Station_ID":"WI-AS-4","Station_Nam":"ASHLAND 0.5 WNW, WI","Latitude":"46.58240","Longitude":"-90.88390","Snowdepth":"6.000","Units":"in","Rept_Date":"2021-01-04 13"},"coordinates":[1428,6697]},{"type":"Point","properties":{"Station_ID":"WHTM5","Station_Nam":"WHEATON,MN","Latitude":"45.80000","Longitude":"-96.48330","Snowdepth":"6.000","Units":"in","Rept_Date":"2021-01-04 14"},"coordinates":[170,6195]},{"type":"Point","properties":{"Station_ID":"WHFN6","Station_Nam":"WILMINGTON 2W","Latitude":"44.39310","Longitude":"-73.85890","Snowdepth":"6.000","Units":"in","Rept_Date":"2021-01-04 13"},"coordinates":[5252,5291]},{"type":"Point","properties":{"Station_ID":"WDOM5","Station_Nam":"WINDOM","Latitude":"43.87700","Longitude":"-95.11590","Snowdepth":"6.000","Units":"in","Rept_Date":"2021-01-04 14"},"coordinates":[477,4960]},{"type":"Point","properties":{"Station_ID":"VT-GI-3","Station_Nam":"ALBURGH 4.6 SSE, VT","Latitude":"44.91280","Longitude":"-73.26890","Snowdepth":"6.000","Units":"in","Rept_Date":"2021-01-04 13"},"coordinates":[5385,5625]},{"type":"Point","properties":{"Station_ID":"VT-CH-47","Station_Nam":"SOUTH BURLINGTON 2.6 SSW, VT","Latitude":"44.42027","Longitude":"-73.19242","Snowdepth":"6.000","Units":"in","Rept_Date":"2021-01-04 12"},"coordinates":[5402,5309]},{"type":"Point","properties":{"Station_ID":"TOPN6","Station_Nam":"TUPPER LAKE SUNMOUNT","Latitude":"44.23070","Longitude":"-74.43820","Snowdepth":"6.000","Units":"in","Rept_Date":"2021-01-04 12"},"coordinates":[5122,5187]},{"type":"Point","properties":{"Station_ID":"TLDI4","Station_Nam":"TOLEDO,IA","Latitude":"41.98330","Longitude":"-92.58330","Snowdepth":"6.000","Units":"in","Rept_Date":"2021-01-04 13"},"coordinates":[1046,3745]},{"type":"Point","properties":{"Station_ID":"SWEI4","Station_Nam":"SWEA CITY,IA","Latitude":"43.38530","Longitude":"-94.25000","Snowdepth":"6.000","Units":"in","Rept_Date":"2021-01-04 12"},"coordinates":[671,4645]},{"type":"Point","properties":{"Station_ID":"STMM4","Station_Nam":"STAMBAUGH 2SSE","Latitude":"46.05550","Longitude":"-88.62780","Snowdepth":"6.000","Units":"in","Rept_Date":"2021-01-04 13"},"coordinates":[1934,6359]},{"type":"Point","properties":{"Station_ID":"STGW3","Station_Nam":"ST GERMAIN","Latitude":"45.91550","Longitude":"-89.48940","Snowdepth":"6.000","Units":"in","Rept_Date":"2021-01-04 12"},"coordinates":[1741,6269]},{"type":"Point","properties":{"Station_ID":"SNYI4","Station_Nam":"STANLEY","Latitude":"42.63330","Longitude":"-91.86320","Snowdepth":"6.000","Units":"in","Rept_Date":"2021-01-04 13"},"coordinates":[1208,4162]},{"type":"Point","properties":{"Station_ID":"SHHW3","Station_Nam":"SHAWANO 2SSW","Latitude":"44.76310","Longitude":"-88.61830","Snowdepth":"6.000","Units":"in","Rept_Date":"2021-01-04 14"},"coordinates":[1937,5529]},{"type":"Point","properties":{"Station_ID":"SGYI4","Station_Nam":"SIGOURNEY","Latitude":"41.33280","Longitude":"-92.19750","Snowdepth":"6.000","Units":"in","Rept_Date":"2021-01-04 14"},"coordinates":[1132,3327]},{"type":"Point","properties":{"Station_ID":"SEBM5","Station_Nam":"SEBEKA","Latitude":"46.62540","Longitude":"-95.09670","Snowdepth":"6.000","Units":"in","Rept_Date":"2021-01-04 13"},"coordinates":[481,6724]},{"type":"Point","properties":{"Station_ID":"SDYM5","Station_Nam":"DAM","Latitude":"46.81670","Longitude":"-93.36670","Snowdepth":"6.000","Units":"in","Rept_Date":"2021-01-04 14"},"coordinates":[870,6847]},{"type":"Point","properties":{"Station_ID":"SCOM4","Station_Nam":"SCOTTVILLE 2 SE","Latitude":"43.93310","Longitude":"-86.24530","Snowdepth":"6.000","Units":"in","Rept_Date":"2021-01-04 12"},"coordinates":[2470,4996]},{"type":"Point","properties":{"Station_ID":"ROWM3","Station_Nam":"ROWE 3NE","Latitude":"42.73500","Longitude":"-72.86920","Snowdepth":"6.000","Units":"in","Rept_Date":"2021-01-04 12"},"coordinates":[5475,4227]},{"type":"Point","properties":{"Station_ID":"ROKI4","Station_Nam":"RED OAK,IA","Latitude":"41.00000","Longitude":"-95.23330","Snowdepth":"6.000","Units":"in","Rept_Date":"2021-01-04 13"},"coordinates":[450,3113]},{"type":"Point","properties":{"Station_ID":"RDFN6","Station_Nam":"REDFIELD 8N","Latitude":"43.64130","Longitude":"-75.88400","Snowdepth":"6.000","Units":"in","Rept_Date":"2021-01-04 12"},"coordinates":[4797,4809]},{"type":"Point","properties":{"Station_ID":"PELW3","Station_Nam":"PELLA 3SE","Latitude":"44.73580","Longitude":"-88.73780","Snowdepth":"6.000","Units":"in","Rept_Date":"2021-01-04 11"},"coordinates":[1910,5511]},{"type":"Point","properties":{"Station_ID":"PEKN6","Station_Nam":"PECK LAKE","Latitude":"43.11500","Longitude":"-74.42360","Snowdepth":"6.000","Units":"in","Rept_Date":"2021-01-04 12"},"coordinates":[5125,4471]},{"type":"Point","properties":{"Station_ID":"PEAI4","Station_Nam":"PELLA,IA","Latitude":"41.46670","Longitude":"-92.91670","Snowdepth":"6.000","Units":"in","Rept_Date":"2021-01-04 13"},"coordinates":[971,3413]},{"type":"Point","properties":{"Station_ID":"PBAN8","Station_Nam":"SITE 1-3MI.N","Latitude":"48.97420","Longitude":"-97.23860","Snowdepth":"6.000","Units":"in","Rept_Date":"2021-01-04 12"},"coordinates":[0,8232]},{"type":"Point","properties":{"Station_ID":"PA-WN-4","Station_Nam":"STERLING - 22, PA","Latitude":"41.28333","Longitude":"-75.45000","Snowdepth":"6.000","Units":"in","Rept_Date":"2021-01-04 12"},"coordinates":[4895,3295]},