{"type":"Topology","objects":{"snowdepth_geo":{"type":"GeometryCollection","name":"snowdepth","crs":{"type":"name","properties":{"name":"urn:ogc:def:crs:OGC:1.3:CRS84"}},"geometries":[{"type":"Point","properties":{"Station_ID":"HVCN3","Station_Nam":"HARVARD CABIN SNOWPLOT","Latitude":"44.26630","Longitude":"-71.27790","Snowdepth":"139.000","Units":"in","Rept_Date":"2020-03-06 10"},"coordinates":[6093,5327]},{"type":"Point","properties":{"Station_ID":"PRKM4","Station_Nam":"MUNISING EAST","Latitude":"46.42580","Longitude":"-86.62000","Snowdepth":"76.500","Units":"in","Rept_Date":"2020-03-07 06"},"coordinates":[2492,6679]},{"type":"Point","properties":{"Station_ID":"HTLN3","Station_Nam":"HERMIT LAKE SNOWPLOT","Latitude":"44.26130","Longitude":"-71.28330","Snowdepth":"64.000","Units":"in","Rept_Date":"2020-03-06 10"},"coordinates":[6092,5324]},{"type":"Point","properties":{"Station_ID":"OGIQ6","Station_Nam":"OGOKI CAMP","Latitude":"50.76680","Longitude":"-87.85820","Snowdepth":"61.100","Units":"in","Rept_Date":"2020-03-07 06"},"coordinates":[2202,9398]},{"type":"Point","properties":{"Station_ID":"PDLM4","Station_Nam":"PAINESDALE","Latitude":"47.04160","Longitude":"-88.67170","Snowdepth":"51.000","Units":"in","Rept_Date":"2020-03-06 13"},"coordinates":[2011,7065]},{"type":"Point","properties":{"Station_ID":"GMSM4","Station_Nam":"GRAND MARAIS 10S","Latitude":"46.50940","Longitude":"-85.96310","Snowdepth":"50.000","Units":"in","Rept_Date":"2020-03-06 12"},"coordinates":[2646,6732]},{"type":"Point","properties":{"Station_ID":"CLUM4","Station_Nam":"CALUMET-TAMARACK","Latitude":"47.24550","Longitude":"-88.46790","Snowdepth":"49.000","Units":"in","Rept_Date":"2020-03-06 14"},"coordinates":[2058,7193]},{"type":"Point","properties":{"Station_ID":"AUDQ6","Station_Nam":"AUDEN","Latitude":"48.52600","Longitude":"-82.57570","Snowdepth":"47.640","Units":"in","Rept_Date":"2020-03-07 06"},"coordinates":[3441,7995]},{"type":"Point","properties":{"Station_ID":"DVLQ6","Station_Nam":"DEVIOUS LAKE","Latitude":"49.19890","Longitude":"-87.76440","Snowdepth":"43.460","Units":"in","Rept_Date":"2020-03-07 06"},"coordinates":[2224,8416]},{"type":"Point","properties":{"Station_ID":"CAN-NS-39","Station_Nam":"ST. ANNS 2.8 NW, CA","Latitude":"46.25082","Longitude":"-60.64340","Snowdepth":"43.000","Units":"in","Rept_Date":"2020-03-06 12"},"coordinates":[8589,6570]},{"type":"Point","properties":{"Station_ID":"QWE","Station_Nam":"QWE","Latitude":"47.84610","Longitude":"-73.80670","Snowdepth":"41.417","Units":"in","Rept_Date":"2020-03-06 12"},"coordinates":[5499,7569]},{"type":"Point","properties":{"Station_ID":"MI-BG-3","Station_Nam":"L'ANSE 17.8 SE, MI","Latitude":"46.55730","Longitude":"-88.20770","Snowdepth":"41.000","Units":"in","Rept_Date":"2020-03-06 13"},"coordinates":[2119,6762]},{"type":"Point","properties":{"Station_ID":"NWCM4","Station_Nam":"NEWBERRY CITY","Latitude":"46.35720","Longitude":"-85.51780","Snowdepth":"40.000","Units":"in","Rept_Date":"2020-03-06 12"},"coordinates":[2751,6636]},{"type":"Point","properties":{"Station_ID":"MNSM4","Station_Nam":"MUNISING","Latitude":"46.41210","Longitude":"-86.66250","Snowdepth":"40.000","Units":"in","Rept_Date":"2020-03-06 11"},"coordinates":[2482,6671]},{"type":"Point","properties":{"Station_ID":"QGO","Station_Nam":"QGO","Latitude":"48.85500","Longitude":"-74.20640","Snowdepth":"39.134","Units":"in","Rept_Date":"2020-03-06 12"},"coordinates":[5405,8201]},{"type":"Point","properties":{"Station_ID":"MQT","Station_Nam":"MARQUETTE, MI","Latitude":"46.53140","Longitude":"-87.54920","Snowdepth":"39.000","Units":"in","Rept_Date":"2020-03-07 06"},"coordinates":[2274,6746]},{"type":"Point","properties":{"Station_ID":"MOSN3","Station_Nam":"MOOSE FALLS","Latitude":"45.18890","Longitude":"-71.18810","Snowdepth":"38.800","Units":"in","Rept_Date":"2020-03-06 12"},"coordinates":[6114,5905]},{"type":"Point","properties":{"Station_ID":"QCU","Station_Nam":"QCU","Latitude":"47.82750","Longitude":"-76.59830","Snowdepth":"38.110","Units":"in","Rept_Date":"2020-03-06 12"},"coordinates":[4844,7557]},{"type":"Point","properties":{"Station_ID":"WLFM5","Station_Nam":"WOLF RIDGE ENVIRON LEARNING CENTER","Latitude":"47.38240","Longitude":"-91.19730","Snowdepth":"38.000","Units":"in","Rept_Date":"2020-03-06 13"},"coordinates":[1418,7278]},{"type":"Point","properties":{"Station_ID":"STEM4","Station_Nam":"STEUBEN","Latitude":"46.18530","Longitude":"-86.46410","Snowdepth":"38.000","Units":"in","Rept_Date":"2020-03-06 14"},"coordinates":[2529,6529]},{"type":"Point","properties":{"Station_ID":"KSGM4","Station_Nam":"KEARSARGE","Latitude":"47.27520","Longitude":"-88.41700","Snowdepth":"38.000","Units":"in","Rept_Date":"2020-03-06 13"},"coordinates":[2070,7211]},{"type":"Point","properties":{"Station_ID":"QGD","Station_Nam":"QGD","Latitude":"51.11140","Longitude":"-67.13940","Snowdepth":"37.638","Units":"in","Rept_Date":"2020-03-06 12"},"coordinates":[7064,9614]},{"type":"Point","properties":{"Station_ID":"QOU","Station_Nam":"QOU","Latitude":"50.79250","Longitude":"-69.67470","Snowdepth":"37.165","Units":"in","Rept_Date":"2020-03-06 12"},"coordinates":[6469,9414]},{"type":"Point","properties":{"Station_ID":"IBLM5","Station_Nam":"ISABELLA 14W","Latitude":"47.59360","Longitude":"-91.65140","Snowdepth":"37.000","Units":"in","Rept_Date":"2020-03-06 15"},"coordinates":[1311,7411]},{"type":"Point","properties":{"Station_ID":"MLZ","Station_Nam":"MLZ","Latitude":"50.66170","Longitude":"-68.82360","Snowdepth":"36.575","Units":"in","Rept_Date":"2020-03-06 12"},"coordinates":[6669,9332]},{"type":"Point","properties":{"Station_ID":"KISM4","Station_Nam":"K.I. SAWYER WWTP","Latitude":"46.33410","Longitude":"-87.37790","Snowdepth":"35.000","Units":"in","Rept_Date":"2020-03-06 13"},"coordinates":[2314,6622]},{"type":"Point","properties":{"Station_ID":"HERM4","Station_Nam":"HERMAN,MI","Latitude":"46.65000","Longitude":"-88.33330","Snowdepth":"35.000","Units":"in","Rept_Date":"2020-03-06 13"},"coordinates":[2090,6820]},{"type":"Point","properties":{"Station_ID":"QNCM4","Station_Nam":"QUINCY HILL","Latitude":"47.13640","Longitude":"-88.57950","Snowdepth":"34.000","Units":"in","Rept_Date":"2020-03-06 12"},"coordinates":[2032,7124]},{"type":"Point","properties":{"Station_ID":"QGA","Station_Nam":"QGA","Latitude":"47.25640","Longitude":"-73.73810","Snowdepth":"33.307","Units":"in","Rept_Date":"2020-03-06 12"},"coordinates":[5515,7200]},{"type":"Point","properties":{"Station_ID":"QLB","Station_Nam":"QLB","Latitude":"50.72360","Longitude":"-75.10000","Snowdepth":"32.362","Units":"in","Rept_Date":"2020-03-06 12"},"coordinates":[5196,9371]},{"type":"Point","properties":{"Station_ID":"NH-CS-10","Station_Nam":"RANDOLPH 1.4 NE, NH","Latitude":"44.38824","Longitude":"-71.26950","Snowdepth":"32.000","Units":"in","Rept_Date":"2020-03-06 12"},"coordinates":[6095,5403]},{"type":"Point","properties":{"Station_ID":"CAN-NL-82","Station_Nam":"GANDER 2.7 NW, CAN","Latitude":"48.97737","Longitude":"-54.63396","Snowdepth":"31.500","Units":"in","Rept_Date":"2020-03-06 10"},"coordinates":[9999,8277]},{"type":"Point","properties":{"Station_ID":"CAN-NL-65","Station_Nam":"KIPPENS 0.7 NE, CA","Latitude":"48.55436","Longitude":"-58.61850","Snowdepth":"31.500","Units":"in","Rept_Date":"2020-03-06 12"},"coordinates":[9064,8012]},{"type":"Point","properties":{"Station_ID":"QTV","Station_Nam":"QTV","Latitude":"49.66000","Longitude":"-69.35690","Snowdepth":"30.709","Units":"in","Rept_Date":"2020-03-06 12"},"coordinates":[6544,8705]},{"type":"Point","properties":{"Station_ID":"SELN3","Station_Nam":"SECOND CONNECTICUT LAKE","Latitude":"45.13640","Longitude":"-71.20140","Snowdepth":"30.700","Units":"in","Rept_Date":"2020-03-06 12"},"coordinates":[6111,5872]},{"type":"Point","properties":{"Station_ID":"ME-AR-18","Station_Nam":"NEW SWEDEN 4.9 NNW, ME","Latitude":"47.01080","Longitude":"-68.14390","Snowdepth":"30.500","Units":"in","Rept_Date":"2020-03-06 12"},"coordinates":[6828,7046]},{"type":"Point","properties":{"Station_ID":"QLP","Station_Nam":"QLP","Latitude":"48.13920","Longitude":"-72.63830","Snowdepth":"30.236","Units":"in","Rept_Date":"2020-03-06 12"},"coordinates":[5774,7752]},{"type":"Point","properties":{"Station_ID":"SSMM4","Station_Nam":"SAULT STE MARIE","Latitude":"46.48660","Longitude":"-84.40250","Snowdepth":"30.000","Units":"in","Rept_Date":"2020-03-06 13"},"coordinates":[3013,6717]},{"type":"Point","properties":{"Station_ID":"CAN-QC-47","Station_Nam":"SAINTE-FOY 1.8 ENE, CAN","Latitude":"46.76934","Longitude":"-71.27124","Snowdepth":"29.900","Units":"in","Rept_Date":"2020-03-06 12"},"coordinates":[6094,6895]},{"type":"Point","properties":{"Station_ID":"CAN-NB-105","Station_Nam":"SISSON BROOK 3.8 E, CAN","Latitude":"46.98305","Longitude":"-67.32532","Snowdepth":"29.900","Units":"in","Rept_Date":"2020-03-06 12"},"coordinates":[7020,7028]},{"type":"Point","properties":{"Station_ID":"CAN-NB-11","Station_Nam":"MIRAMICHI 3.3 S, CAN","Latitude":"46.99343","Longitude":"-65.50690","Snowdepth":"29.500","Units":"in","Rept_Date":"2020-03-06 11"},"coordinates":[7447,7035]},{"type":"Point","properties":{"Station_ID":"MI-HG-6","Station_Nam":"CALUMET 5.8 ENE, MI","Latitude":"47.27200","Longitude":"-88.33400","Snowdepth":"29.000","Units":"in","Rept_Date":"2020-03-06 11"},"coordinates":[2090,7209]},{"type":"Point","properties":{"Station_ID":"ANJM4","Station_Nam":"SNOW PAID OBSERVER FOR KANJ","Latitude":"46.48670","Longitude":"-84.40260","Snowdepth":"29.000","Units":"in","Rept_Date":"2020-03-06 18"},"coordinates":[3013,6718]},{"type":"Point","properties":{"Station_ID":"ANJ","Station_Nam":"SAULT STE MARIE","Latitude":"46.46670","Longitude":"-84.36670","Snowdepth":"29.000","Units":"in","Rept_Date":"2020-03-07 00"},"coordinates":[3021,6705]},{"type":"Point","properties":{"Station_ID":"QFT","Station_Nam":"QFT","Latitude":"50.83280","Longitude":"-74.40390","Snowdepth":"28.976","Units":"in","Rept_Date":"2020-03-06 12"},"coordinates":[5359,9439]},{"type":"Point","properties":{"Station_ID":"QLM","Station_Nam":"QLM","Latitude":"48.92030","Longitude":"-70.25280","Snowdepth":"28.543","Units":"in","Rept_Date":"2020-03-06 12"},"coordinates":[6333,8241]},{"type":"Point","properties":{"Station_ID":"WI-VL-10","Station_Nam":"LAND O LAKES 4.3 WNW, WI","Latitude":"46.17440","Longitude":"-89.30380","Snowdepth":"28.000","Units":"in","Rept_Date":"2020-03-06 13"},"coordinates":[1862,6522]},{"type":"Point","properties":{"Station_ID":"CEFM4","Station_Nam":"EXPERIMENT FARM #2","Latitude":"46.33330","Longitude":"-86.91670","Snowdepth":"28.000","Units":"in","Rept_Date":"2020-03-06 13"},"coordinates":[2422,6621]},{"type":"Point","properties":{"Station_ID":"CAN-NB-13","Station_Nam":"BATHURST 3.8 NW, CAN","Latitude":"47.64212","Longitude":"-65.68756","Snowdepth":"28.000","Units":"in","Rept_Date":"2020-03-06 11"},"coordinates":[7405,7441]},{"type":"Point","properties":{"Station_ID":"BBEM4","Station_Nam":"BIG BAY 9SW","Latitude":"46.74620","Longitude":"-87.88160","Snowdepth":"28.000","Units":"in","Rept_Date":"2020-03-06 13"},"coordinates":[2196,6880]},{"type":"Point","properties":{"Station_ID":"PTLQ6","Station_Nam":"PORTAGE LAKE","Latitude":"49.06950","Longitude":"-86.65940","Snowdepth":"27.800","Units":"in","Rept_Date":"2020-03-07 06"},"coordinates":[2483,8335]},{"type":"Point","properties":{"Station_ID":"SVBQ6","Station_Nam":"SAVANT BASE","Latitude":"50.28730","Longitude":"-90.65670","Snowdepth":"27.240","Units":"in","Rept_Date":"2020-03-07 06"},"coordinates":[1545,9098]},{"type":"Point","properties":{"Station_ID":"WI-VL-9","Station_Nam":"LAND O' LAKES 11.7 W, WI","Latitude":"46.19023","Longitude":"-89.45790","Snowdepth":"27.000","Units":"in","Rept_Date":"2020-03-06 13"},"coordinates":[1826,6532]},{"type":"Point","properties":{"Station_ID":"PRDM4","Station_Nam":"PARADISE","Latitude":"46.60380","Longitude":"-85.03960","Snowdepth":"27.000","Units":"in","Rept_Date":"2020-03-06 11"},"coordinates":[2863,6791]},{"type":"Point","properties":{"Station_ID":"PDGM4","Station_Nam":"PAULDING","Latitude":"46.39760","Longitude":"-89.17940","Snowdepth":"27.000","Units":"in","Rept_Date":"2020-03-06 14"},"coordinates":[1891,6662]},{"type":"Point","properties":{"Station_ID":"LVDW3","Station_Nam":"LAC VIEUX DESERT","Latitude":"46.12110","Longitude":"-89.07580","Snowdepth":"27.000","Units":"in","Rept_Date":"2020-03-06 15"},"coordinates":[1916,6489]},{"type":"Point","properties":{"Station_ID":"LNOW3","Station_Nam":"LAND O LAKES","Latitude":"46.19000","Longitude":"-89.45700","Snowdepth":"27.000","Units":"in","Rept_Date":"2020-03-06 13"},"coordinates":[1826,6532]},{"type":"Point","properties":{"Station_ID":"HURW3","Station_Nam":"HURLEY","Latitude":"46.46250","Longitude":"-90.19550","Snowdepth":"27.000","Units":"in","Rept_Date":"2020-03-06 14"},"coordinates":[1653,6702]},{"type":"Point","properties":{"Station_ID":"GNLM4","Station_Nam":"GREENLAND 6N","Latitude":"46.87360","Longitude":"-89.10060","Snowdepth":"27.000","Units":"in","Rept_Date":"2020-03-06 13"},"coordinates":[1910,6960]},{"type":"Point","properties":{"Station_ID":"EVRW3","Station_Nam":"EAGLE RIVER-4 E","Latitude":"45.91890","Longitude":"-89.15280","Snowdepth":"27.000","Units":"in","Rept_Date":"2020-03-06 12"},"coordinates":[1898,6362]},{"type":"Point","properties":{"Station_ID":"BRAM1","Station_Nam":"BRASSUA DAM","Latitude":"45.66020","Longitude":"-69.81190","Snowdepth":"27.000","Units":"in","Rept_Date":"2020-03-06 12"},"coordinates":[6437,6200]},{"type":"Point","properties":{"Station_ID":"QCX","Station_Nam":"QCX","Latitude":"51.32830","Longitude":"-70.08060","Snowdepth":"26.614","Units":"in","Rept_Date":"2020-03-06 12"},"coordinates":[6374,9749]},{"type":"Point","properties":{"Station_ID":"VT-OL-12","Station_Nam":"GREENSBORO 3.9 NNE, VT","Latitude":"44.63100","Longitude":"-72.28000","Snowdepth":"26.500","Units":"in","Rept_Date":"2020-03-06 11"},"coordinates":[5858,5555]},{"type":"Point","properties":{"Station_ID":"WRPW3","Station_Nam":"WATER PURIFICATION PLANT","Latitude":"44.38800","Longitude":"-89.80550","Snowdepth":"26.000","Units":"in","Rept_Date":"2020-03-06 12"},"coordinates":[1744,5403]},{"type":"Point","properties":{"Station_ID":"RKWM1","Station_Nam":"MOOSEHEAD LAKE","Latitude":"45.58330","Longitude":"-69.71670","Snowdepth":"26.000","Units":"in","Rept_Date":"2020-03-06 12"},"coordinates":[6459,6152]},{"type":"Point","properties":{"Station_ID":"MI-MQ-19","Station_Nam":"ISHPEMING 7.2 SW, MI","Latitude":"46.40550","Longitude":"-87.75670","Snowdepth":"26.000","Units":"in","Rept_Date":"2020-03-06 11"},"coordinates":[2225,6667]},{"type":"Point","properties":{"Station_ID":"MI-HG-1","Station_Nam":"HOUGHTON 1.6 ESE, MI","Latitude":"47.10774","Longitude":"-88.52940","Snowdepth":"26.000","Units":"in","Rept_Date":"2020-03-06 13"},"coordinates":[2044,7106]},{"type":"Point","properties":{"Station_ID":"CRVW3","Station_Nam":"CRIVITZ HIGH FALLS","Latitude":"45.35750","Longitude":"-88.19190","Snowdepth":"26.000","Units":"in","Rept_Date":"2020-03-06 13"},"coordinates":[2123,6010]},{"type":"Point","properties":{"Station_ID":"CARM1","Station_Nam":"CARIBOU WFO","Latitude":"46.86810","Longitude":"-68.01250","Snowdepth":"26.000","Units":"in","Rept_Date":"2020-03-07 05"},"coordinates":[6859,6956]},{"type":"Point","properties":{"Station_ID":"CAR","Station_Nam":"CARIBOU, ME","Latitude":"46.86830","Longitude":"-68.01360","Snowdepth":"26.000","Units":"in","Rept_Date":"2020-03-06 12"},"coordinates":[6859,6957]},{"type":"Point","properties":{"Station_ID":"QYR","Station_Nam":"QYR","Latitude":"48.87220","Longitude":"-75.61470","Snowdepth":"25.118","Units":"in","Rept_Date":"2020-03-06 12"},"coordinates":[5075,8211]},{"type":"Point","properties":{"Station_ID":"WTNM4","Station_Nam":"WATTON 2WSW","Latitude":"46.52660","Longitude":"-88.64240","Snowdepth":"25.000","Units":"in","Rept_Date":"2020-03-06 13"},"coordinates":[2017,6743]},{"type":"Point","properties":{"Station_ID":"VANM1","Station_Nam":"VAN BUREN","Latitude":"47.16600","Longitude":"-67.93900","Snowdepth":"25.000","Units":"in","Rept_Date":"2020-03-06 12"},"coordinates":[6876,7143]},{"type":"Point","properties":{"Station_ID":"SUAW3","Station_Nam":"SUAMICO","Latitude":"44.60190","Longitude":"-88.09780","Snowdepth":"25.000","Units":"in","Rept_Date":"2020-03-06 12"},"coordinates":[2145,5537]},{"type":"Point","properties":{"Station_ID":"STGW3","Station_Nam":"ST GERMAIN","Latitude":"45.91550","Longitude":"-89.48940","Snowdepth":"25.000","Units":"in","Rept_Date":"2020-03-06 12"},"coordinates":[1819,6360]},{"type":"Point","properties":{"Station_ID":"PHEW3","Station_Nam":"PHELPS","Latitude":"46.06630","Longitude":"-89.07520","Snowdepth":"25.000","Units":"in","Rept_Date":"2020-03-06 13"},"coordinates":[1916,6454]},{"type":"Point","properties":{"Station_ID":"MN-CK-18","Station_Nam":"GRAND MARAIS 4.4 WSW, MN","Latitude":"47.74462","Longitude":"-90.43796","Snowdepth":"25.000","Units":"in","Rept_Date":"2020-03-06 13"},"coordinates":[1596,7505]},{"type":"Point","properties":{"Station_ID":"IWOM4","Station_Nam":"IRONWOOD#2","Latitude":"46.46520","Longitude":"-90.13820","Snowdepth":"25.000","Units":"in","Rept_Date":"2020-03-06 13"},"coordinates":[1666,6704]},{"type":"Point","properties":{"Station_ID":"HRVM4","Station_Nam":"HARVEY","Latitude":"46.49080","Longitude":"-87.35470","Snowdepth":"25.000","Units":"in","Rept_Date":"2020-03-06 12"},"coordinates":[2320,6720]},{"type":"Point","properties":{"Station_ID":"GLDM4","Station_Nam":"GLADSTONE NO. 2","Latitude":"45.84330","Longitude":"-87.03910","Snowdepth":"25.000","Units":"in","Rept_Date":"2020-03-06 12"},"coordinates":[2394,6315]},{"type":"Point","properties":{"Station_ID":"GGRM4","Station_Nam":"GREEN GARDEN NO.2","Latitude":"46.45330","Longitude":"-87.30380","Snowdepth":"25.000","Units":"in","Rept_Date":"2020-03-06 11"},"coordinates":[2332,6697]},{"type":"Point","properties":{"Station_ID":"ELYM5","Station_Nam":"ELY","Latitude":"47.90560","Longitude":"-91.82830","Snowdepth":"25.000","Units":"in","Rept_Date":"2020-03-06 14"},"coordinates":[1270,7606]},{"type":"Point","properties":{"Station_ID":"BNDM5","Station_Nam":"ELY 25E","Latitude":"47.97190","Longitude":"-91.44860","Snowdepth":"25.000","Units":"in","Rept_Date":"2020-03-06 13"},"coordinates":[1359,7648]},{"type":"Point","properties":{"Station_ID":"TRIQ6","Station_Nam":"TRIO LAKE","Latitude":"49.22880","Longitude":"-87.22920","Snowdepth":"24.920","Units":"in","Rept_Date":"2020-03-07 06"},"coordinates":[2349,8435]},{"type":"Point","properties":{"Station_ID":"QIQ","Station_Nam":"QIQ","Latitude":"49.82390","Longitude":"-68.54310","Snowdepth":"24.724","Units":"in","Rept_Date":"2020-03-06 12"},"coordinates":[6735,8807]},{"type":"Point","properties":{"Station_ID":"QMA","Station_Nam":"QMA","Latitude":"50.10330","Longitude":"-70.47190","Snowdepth":"24.685","Units":"in","Rept_Date":"2020-03-06 12"},"coordinates":[6282,8982]},{"type":"Point","properties":{"Station_ID":"RANM1","Station_Nam":"RANGELEY","Latitude":"44.98910","Longitude":"-70.67190","Snowdepth":"24.000","Units":"in","Rept_Date":"2020-03-06 11"},"coordinates":[6235,5780]},{"type":"Point","properties":{"Station_ID":"MI-GG-4","Station_Nam":"WATERSMEET 5.0 SE, MI","Latitude":"46.20333","Longitude":"-89.13170","Snowdepth":"24.000","Units":"in","Rept_Date":"2020-03-06 14"},"coordinates":[1903,6540]},{"type":"Point","properties":{"Station_ID":"ME-AR-15","Station_Nam":"PRESQUE ISLE 1.3 WSW, ME","Latitude":"46.67960","Longitude":"-68.01270","Snowdepth":"24.000","Units":"in","Rept_Date":"2020-03-06 12"},"coordinates":[6859,6838]},{"type":"Point","properties":{"Station_ID":"DLH","Station_Nam":"DULUTH, MN","Latitude":"46.83690","Longitude":"-92.21030","Snowdepth":"24.000","Units":"in","Rept_Date":"2020-03-07 00"},"coordinates":[1180,6937]},{"type":"Point","properties":{"Station_ID":"COVM4","Station_Nam":"COVINGTON","Latitude":"46.55880","Longitude":"-88.54190","Snowdepth":"24.000","Units":"in","Rept_Date":"2020-03-06 13"},"coordinates":[2041,6763]},{"type":"Point","properties":{"Station_ID":"CLQM5","Station_Nam":"CLOQUET","Latitude":"46.70470","Longitude":"-92.52530","Snowdepth":"24.000","Units":"in","Rept_Date":"2020-03-06 14"},"coordinates":[1106,6854]},{"type":"Point","properties":{"Station_ID":"CLKM4","Station_Nam":"CLARKSBURG","Latitude":"46.49910","Longitude":"-87.84500","Snowdepth":"24.000","Units":"in","Rept_Date":"2020-03-06 12"},"coordinates":[2205,6725]},{"type":"Point","properties":{"Station_ID":"BABM5","Station_Nam":"BABBITT","Latitude":"47.71210","Longitude":"-91.95330","Snowdepth":"24.000","Units":"in","Rept_Date":"2020-03-06 13"},"coordinates":[1240,7485]},{"type":"Point","properties":{"Station_ID":"AMAM4","Station_Nam":"AMASA 1W","Latitude":"46.23470","Longitude":"-88.45440","Snowdepth":"24.000","Units":"in","Rept_Date":"2020-03-06 14"},"coordinates":[2062,6560]},{"type":"Point","properties":{"Station_ID":"WI-VL-14","Station_Nam":"BOULDER JUNCTION 1.4 NE, WI","Latitude":"46.12840","Longitude":"-89.62470","Snowdepth":"23.500","Units":"in","Rept_Date":"2020-03-06 13"},"coordinates":[1787,6493]},{"type":"Point","properties":{"Station_ID":"VT-CL-3","Station_Nam":"GROTON 4.4 WSW, VT","Latitude":"44.19440","Longitude":"-72.28240","Snowdepth":"23.500","Units":"in","Rept_Date":"2020-03-06 11"},"coordinates":[5857,5282]},{"type":"Point","properties":{"Station_ID":"MN-SL-105","Station_Nam":"DULUTH 11.8 NNE, MN","Latitude":"46.94680","Longitude":"-92.03925","Snowdepth":"23.500","Units":"in","Rept_Date":"2020-03-06 13"},"coordinates":[1220,7006]},{"type":"Point","properties":{"Station_ID":"QMD","Station_Nam":"QMD","Latitude":"49.29060","Longitude":"-75.84500","Snowdepth":"23.346","Units":"in","Rept_Date":"2020-03-06 12"},"coordinates":[5021,8473]},{"type":"Point","properties":{"Station_ID":"QTM","Station_Nam":"QTM","Latitude":"51.05780","Longitude":"-72.57190","Snowdepth":"23.110","Units":"in","Rept_Date":"2020-03-06 12"},"coordinates":[5789,9580]},{"type":"Point","properties":{"Station_ID":"FNLN3","Station_Nam":"FIRST CONNECTICUT LAKE","Latitude":"45.08500","Longitude":"-71.30670","Snowdepth":"23.100","Units":"in","Rept_Date":"2020-03-06 12"},"coordinates":[6086,5840]},{"type":"Point","properties":{"Station_ID":"RGNM1","Station_Nam":"RANGELEY 2NW","Latitude":"44.98940","Longitude":"-70.67220","Snowdepth":"23.000","Units":"in","Rept_Date":"2020-03-06 11"},"coordinates":[6235,5780]},{"type":"Point","properties":{"Station_ID":"MN-SL-18","Station_Nam":"DULUTH 1.4 NNW, MN","Latitude":"46.80321","Longitude":"-92.11240","Snowdepth":"23.000","Units":"in","Rept_Date":"2020-03-06 14"},"coordinates":[1203,6916]},{"type":"Point","properties":{"Station_ID":"MN-IT-17","Station_Nam":"GRAND RAPIDS 6.1 N, MN","Latitude":"47.31165","Longitude":"-93.55036","Snowdepth":"23.000","Units":"in","Rept_Date":"2020-03-06 13"},"coordinates":[866,7234]},{"type":"Point","properties":{"Station_ID":"KABM5","Station_Nam":"KABETOGAMA LAKE VISITOR CTR","Latitude":"48.40880","Longitude":"-93.04840","Snowdepth":"23.000","Units":"in","Rept_Date":"2020-03-06 13"},"coordinates":[983,7921]},{"type":"Point","properties":{"Station_ID":"DLHM5","Station_Nam":"DULUTH NWS","Latitude":"46.83680","Longitude":"-92.21080","Snowdepth":"23.000","Units":"in","Rept_Date":"2020-03-07 06"},"coordinates":[1180,6937]},{"type":"Point","properties":{"Station_ID":"SOCQ6","Station_Nam":"SOCKET LAKE","Latitude":"50.77870","Longitude":"-91.79300","Snowdepth":"22.910","Units":"in","Rept_Date":"2020-03-07 06"},"coordinates":[1278,9405]},{"type":"Point","properties":{"Station_ID":"KABQ6","Station_Nam":"CAB LAKE","Latitude":"49.59950","Longitude":"-89.17990","Snowdepth":"22.640","Units":"in","Rept_Date":"2020-03-07 06"},"coordinates":[1891,8667]},{"type":"Point","properties":{"Station_ID":"WI-IR-3","Station_Nam":"PENCE 0.1 E, WI","Latitude":"46.41555","Longitude":"-90.27013","Snowdepth":"22.500","Units":"in","Rept_Date":"2020-03-06 13"},"coordinates":[1635,6673]},{"type":"Point","properties":{"Station_ID":"MN-SL-15","Station_Nam":"CHISHOLM 0.4 WSW, MN","Latitude":"47.48557","Longitude":"-92.88690","Snowdepth":"22.500","Units":"in","Rept_Date":"2020-03-06 13"},"coordinates":[1021,7343]},{"type":"Point","properties":{"Station_ID":"EHWV1","Station_Nam":"EAST HAVEN 1 WEST SNOW COURSE","Latitude":"44.66670","Longitude":"-71.91670","Snowdepth":"22.400","Units":"in","Rept_Date":"2020-03-06 12"},"coordinates":[5943,5578]},{"type":"Point","properties":{"Station_ID":"WI-BY-14","Station_Nam":"ASHLAND 9.8 W, WI","Latitude":"46.59742","Longitude":"-91.07856","Snowdepth":"22.000","Units":"in","Rept_Date":"2020-03-06 12"},"coordinates":[1446,6787]},{"type":"Point","properties":{"Station_ID":"RPDM4","Station_Nam":"RAPID RIVER 4SSE","Latitude":"45.87270","Longitude":"-86.94960","Snowdepth":"22.000","Units":"in","Rept_Date":"2020-03-06 14"},"coordinates":[2415,6333]},{"type":"Point","properties":{"Station_ID":"NOHM5","Station_Nam":"NORTHOME","Latitude":"47.83590","Longitude":"-94.25550","Snowdepth":"22.000","Units":"in","Rept_Date":"2020-03-06 13"},"coordinates":[700,7562]},{"type":"Point","properties":{"Station_ID":"MN-IT-23","Station_Nam":"BOVEY 13.4 N, MN","Latitude":"47.48855","Longitude":"-93.43497","Snowdepth":"22.000","Units":"in","Rept_Date":"2020-03-06 13"},"coordinates":[893,7345]},{"type":"Point","properties":{"Station_ID":"MI-DL-1","Station_Nam":"GARDEN CORNERS 0.8 NW, MI","Latitude":"45.89815","Longitude":"-86.54850","Snowdepth":"22.000","Units":"in","Rept_Date":"2020-03-06 13"},"coordinates":[2509,6349]},{"type":"Point","properties":{"Station_ID":"ME-PN-45","Station_Nam":"MILLINOCKET 2.7 ESE, ME","Latitude":"45.65002","Longitude":"-68.64472","Snowdepth":"22.000","Units":"in","Rept_Date":"2020-03-06 12"},"coordinates":[6711,6194]},{"type":"Point","properties":{"Station_ID":"INL","Station_Nam":"FALLS INTERNATIONAL ARPT","Latitude":"48.56640","Longitude":"-93.40310","Snowdepth":"22.000","Units":"in","Rept_Date":"2020-03-07 00"},"coordinates":[900,8020]},{"type":"Point","properties":{"Station_ID":"IFSM5","Station_Nam":"INTERNATIONAL FALLS SNOW","Latitude":"48.57780","Longitude":"-93.39640","Snowdepth":"22.000","Units":"in","Rept_Date":"2020-03-06 12"},"coordinates":[902,8027]},{"type":"Point","properties":{"Station_ID":"GDCM4","Station_Nam":"GARDEN CORNERS","Latitude":"45.89830","Longitude":"-86.54850","Snowdepth":"22.000","Units":"in","Rept_Date":"2020-03-06 13"},"coordinates":[2509,6349]},{"type":"Point","properties":{"Station_ID":"FISM1","Station_Nam":"FORT KENT COOP","Latitude":"47.23850","Longitude":"-68.61240","Snowdepth":"22.000","Units":"in","Rept_Date":"2020-03-06 12"},"coordinates":[6718,7188]},{"type":"Point","properties":{"Station_ID":"EMBM5","Station_Nam":"EMBARASS,MN","Latitude":"47.65810","Longitude":"-92.19580","Snowdepth":"22.000","Units":"in","Rept_Date":"2020-03-06 12"},"coordinates":[1184,7451]},{"type":"Point","properties":{"Station_ID":"BRMM5","Station_Nam":"BRIMSON 2S","Latitude":"47.24720","Longitude":"-91.86240","Snowdepth":"22.000","Units":"in","Rept_Date":"2020-03-07 01"},"coordinates":[1262,7194]},{"type":"Point","properties":{"Station_ID":"AGNW3","Station_Nam":"ARGONNE-1.5 NW","Latitude":"45.67360","Longitude":"-88.90380","Snowdepth":"22.000","Units":"in","Rept_Date":"2020-03-06 13"},"coordinates":[1956,6208]},{"type":"Point","properties":{"Station_ID":"ERDV1","Station_Nam":"EAST RANDOLPH 2 EAST SNOW COURSE","Latitude":"43.93330","Longitude":"-72.51670","Snowdepth":"21.900","Units":"in","Rept_Date":"2020-03-06 12"},"coordinates":[5802,5119]},{"type":"Point","properties":{"Station_ID":"UAMN3","Station_Nam":"UPPER AMMONOOSUC-YORK POND","Latitude":"44.50690","Longitude":"-71.33310","Snowdepth":"21.800","Units":"in","Rept_Date":"2020-03-06 12"},"coordinates":[6080,5478]},{"type":"Point","properties":{"Station_ID":"QLI","Station_Nam":"QLI","Latitude":"50.27080","Longitude":"-73.92280","Snowdepth":"21.614","Units":"in","Rept_Date":"2020-03-06 12"},"coordinates":[5472,9087]},{"type":"Point","properties":{"Station_ID":"VT-OL-1","Station_Nam":"WESTFIELD 0.7 WNW, VT","Latitude":"44.89160","Longitude":"-72.44350","Snowdepth":"21.500","Units":"in","Rept_Date":"2020-03-06 12"},"coordinates":[5819,5719]},{"type":"Point","properties":{"Station_ID":"TOGM5","Station_Nam":"CELINA 2E","Latitude":"47.86630","Longitude":"-93.02660","Snowdepth":"21.000","Units":"in","Rept_Date":"2020-03-06 14"},"coordinates":[989,7581]},{"type":"Point","properties":{"Station_ID":"RLWM5","Station_Nam":"CAMP NORRIS DNR","Latitude":"48.61000","Longitude":"-95.18170","Snowdepth":"21.000","Units":"in","Rept_Date":"2020-03-06 14"},"coordinates":[483,8047]},{"type":"Point","properties":{"Station_ID":"LEIM5","Station_Nam":"ORR 3E","Latitude":"48.05810","Longitude":"-92.75220","Snowdepth":"21.000","Units":"in","Rept_Date":"2020-03-06 12"},"coordinates":[1053,7702]},{"type":"Point","properties":{"Station_ID":"IMNM4","Station_Nam":"IRON MOUTAIN 5N","Latitude":"45.87580","Longitude":"-88.04030","Snowdepth":"21.000","Units":"in","Rept_Date":"2020-03-07 03"},"coordinates":[2159,6335]},{"type":"Point","properties":{"Station_ID":"CAN-PE-19","Station_Nam":"CHARLOTTETOWN 6.5 NNW, CAN","Latitude":"46.29235","Longitude":"-63.17271","Snowdepth":"20.900","Units":"in","Rept_Date":"2020-03-06 12"},"coordinates":[7995,6596]},{"type":"Point","properties":{"Station_ID":"CAN-ON-757","Station_Nam":"SAULT STE. MARIE 2.8 ESE - GLFC, CAN","Latitude":"46.50300","Longitude":"-84.30300","Snowdepth":"20.100","Units":"in","Rept_Date":"2020-03-06 13"},"coordinates":[3036,6728]},{"type":"Point","properties":{"Station_ID":"CAN-NS-94","Station_Nam":"MARGAREE FORKS 2.6 SSE CBN, CAN","Latitude":"46.30937","Longitude":"-61.07603","Snowdepth":"20.100","Units":"in","Rept_Date":"2020-03-06 13"},"coordinates":[8487,6606]},{"type":"Point","properties":{"Station_ID":"WRSM5","Station_Nam":"WRENSHALL","Latitude":"46.61550","Longitude":"-92.38380","Snowdepth":"20.000","Units":"in","Rept_Date":"2020-03-06 14"},"coordinates":[1139,6798]},{"type":"Point","properties":{"Station_ID":"WI-ON-8","Station_Nam":"HAZELHURST 2.1 SSE, WI","Latitude":"45.78186","Longitude":"-89.70330","Snowdepth":"20.000","Units":"in","Rept_Date":"2020-03-06 13"},"coordinates":[1768,6276]},{"type":"Point","properties":{"Station_ID":"SUTV1","Station_Nam":"SUTTON","Latitude":"44.61220","Longitude":"-72.04810","Snowdepth":"20.000","Units":"in","Rept_Date":"2020-03-06 13"},"coordinates":[5912,5544]},{"type":"Point","properties":{"Station_ID":"RHIW3","Station_Nam":"RHINELANDER","Latitude":"45.59860","Longitude":"-89.45080","Snowdepth":"20.000","Units":"in","Rept_Date":"2020-03-06 13"},"coordinates":[1828,6161]},{"type":"Point","properties":{"Station_ID":"MRAM4","Station_Nam":"MORAN","Latitude":"45.99030","Longitude":"-84.83610","Snowdepth":"20.000","Units":"in","Rept_Date":"2020-03-06 13"},"coordinates":[2911,6407]},{"type":"Point","properties":{"Station_ID":"MIEM4","Station_Nam":"MICHIGAMME 3WNW","Latitude":"46.54530","Longitude":"-88.18000","Snowdepth":"20.000","Units":"in","Rept_Date":"2020-03-06 13"},"coordinates":[2126,6754]},{"type":"Point","properties":{"Station_ID":"MAIW3","Station_Nam":"MADELINE ISLAND","Latitude":"46.78330","Longitude":"-90.76670","Snowdepth":"20.000","Units":"in","Rept_Date":"2020-03-06 14"},"coordinates":[1519,6903]},{"type":"Point","properties":{"Station_ID":"LPLN6","Station_Nam":"LAKE PLACID 2 S","Latitude":"44.30420","Longitude":"-73.98390","Snowdepth":"20.000","Units":"in","Rept_Date":"2020-03-06 13"},"coordinates":[5458,5351]},{"type":"Point","properties":{"Station_ID":"IRMM4","Station_Nam":"WWTP","Latitude":"46.46670","Longitude":"-90.18330","Snowdepth":"20.000","Units":"in","Rept_Date":"2020-03-06 13"},"coordinates":[1656,6705]},{"type":"Point","properties":{"Station_ID":"GDPM5","Station_Nam":"PIGEON RIVER AT MIDDLE FALLS","Latitude":"48.01220","Longitude":"-89.61610","Snowdepth":"20.000","Units":"in","Rept_Date":"2020-03-06 13"},"coordinates":[1789,7673]},{"type":"Point","properties":{"Station_ID":"DFXM1","Station_Nam":"DOVER-FOXCROFT","Latitude":"45.18720","Longitude":"-69.18350","Snowdepth":"20.000","Units":"in","Rept_Date":"2020-03-06 12"},"coordinates":[6584,5904]},{"type":"Point","properties":{"Station_ID":"CSLM5","Station_Nam":"CASS LAKE,MN","Latitude":"47.38470","Longitude":"-94.61470","Snowdepth":"20.000","Units":"in","Rept_Date":"2020-03-06 14"},"coordinates":[616,7280]},{"type":"Point","properties":{"Station_ID":"CAN-NB-18","Station_Nam":"MCLEOD HILL 1.1 ENE, CA","Latitude":"46.02725","Longitude":"-66.67460","Snowdepth":"20.000","Units":"in","Rept_Date":"2020-03-06 12"},"coordinates":[7173,6430]},{"type":"Point","properties":{"Station_ID":"AVLV1","Station_Nam":"AVERILL","Latitude":"45.00570","Longitude":"-71.69030","Snowdepth":"20.000","Units":"in","Rept_Date":"2020-03-06 13"},"coordinates":[5996,5790]},{"type":"Point","properties":{"Station_ID":"AURW3","Station_Nam":"AURORA","Latitude":"45.77000","Longitude":"-88.11810","Snowdepth":"20.000","Units":"in","Rept_Date":"2020-03-06 13"},"coordinates":[2141,6269]},{"type":"Point","properties":{"Station_ID":"AROM4","Station_Nam":"ARNOLD,MI","Latitude":"46.06670","Longitude":"-87.48330","Snowdepth":"20.000","Units":"in","Rept_Date":"2020-03-06 13"},"coordinates":[2290,6455]},{"type":"Point","properties":{"Station_ID":"MFU","Station_Nam":"MFU","Latitude":"51.52170","Longitude":"-66.91110","Snowdepth":"19.764","Units":"in","Rept_Date":"2020-03-06 12"},"coordinates":[7118,9871]},{"type":"Point","properties":{"Station_ID":"WI-ON-6","Station_Nam":"RHINELANDER 5.2 N, WI","Latitude":"45.71388","Longitude":"-89.42150","Snowdepth":"19.500","Units":"in","Rept_Date":"2020-03-06 14"},"coordinates":[1835,6234]},{"type":"Point","properties":{"Station_ID":"MN-SL-108","Station_Nam":"IRON JUNCTION 3.4 NNW, MN","Latitude":"47.46150","Longitude":"-92.63130","Snowdepth":"19.500","Units":"in","Rept_Date":"2020-03-06 13"},"coordinates":[1081,7328]},{"type":"Point","properties":{"Station_ID":"MN-CK-6","Station_Nam":"GRAND MARAIS 4.4 W, MN","Latitude":"47.74865","Longitude":"-90.43760","Snowdepth":"19.500","Units":"in","Rept_Date":"2020-03-06 13"},"coordinates":[1596,7508]},{"type":"Point","properties":{"Station_ID":"MI-MC-3","Station_Nam":"CEDARVILLE 3.2 ESE, MI","Latitude":"45.98938","Longitude":"-84.29780","Snowdepth":"19.500","Units":"in","Rept_Date":"2020-03-06 13"},"coordinates":[3037,6406]},{"type":"Point","properties":{"Station_ID":"WTRM4","Station_Nam":"WATERSMEET 12WSW","Latitude":"46.22310","Longitude":"-89.40850","Snowdepth":"19.000","Units":"in","Rept_Date":"2020-03-06 12"},"coordinates":[1838,6552]},{"type":"Point","properties":{"Station_ID":"WI-WB-2","Station_Nam":"STONE LAKE 2.0 NW, WI","Latitude":"45.85960","Longitude":"-91.57710","Snowdepth":"19.000","Units":"in","Rept_Date":"2020-03-06 13"},"coordinates":[1329,6325]},{"type":"Point","properties":{"Station_ID":"WI-DG-20","Station_Nam":"SOLON SPRINGS 1.2 W, WI","Latitude":"46.35217","Longitude":"-91.84405","Snowdepth":"19.000","Units":"in","Rept_Date":"2020-03-06 13"},"coordinates":[1266,6633]},{"type":"Point","properties":{"Station_ID":"MWN","Station_Nam":"MOUNT WASHINGTON","Latitude":"44.26670","Longitude":"-71.30000","Snowdepth":"19.000","Units":"in","Rept_Date":"2020-03-07 05"},"coordinates":[6088,5327]},{"type":"Point","properties":{"Station_ID":"KMWN","Station_Nam":"MOUNT WASHINGTON","Latitude":"44.26666","Longitude":"-71.30000","Snowdepth":"19.000","Units":"in","Rept_Date":"2020-03-07 06"},"coordinates":[6088,5327]},{"type":"Point","properties":{"Station_ID":"JKMM1","Station_Nam":"JACKMAN","Latitude":"45.62600","Longitude":"-70.24600","Snowdepth":"19.000","Units":"in","Rept_Date":"2020-03-06 12"},"coordinates":[6335,6179]},{"type":"Point","properties":{"Station_ID":"INDN6","Station_Nam":"INDIAN LAKE","Latitude":"43.75500","Longitude":"-74.27560","Snowdepth":"19.000","Units":"in","Rept_Date":"2020-03-06 13"},"coordinates":[5389,5007]},{"type":"Point","properties":{"Station_ID":"CAN-ON-5","Station_Nam":"OWEN SOUND 1.5 NW - GSCA, CAN","Latitude":"44.57837","Longitude":"-80.95461","Snowdepth":"19.000","Units":"in","Rept_Date":"2020-03-06 13"},"coordinates":[3822,5523]},{"type":"Point","properties":{"Station_ID":"BRDM1","Station_Nam":"BRIDGEWATER","Latitude":"46.42870","Longitude":"-67.84370","Snowdepth":"19.000","Units":"in","Rept_Date":"2020-03-06 23"},"coordinates":[6899,6681]},{"type":"Point","properties":{"Station_ID":"AVTW3","Station_Nam":"ARBOR VITAE-JOHNSON LAKE","Latitude":"45.89940","Longitude":"-89.72670","Snowdepth":"19.000","Units":"in","Rept_Date":"2020-03-06 12"},"coordinates":[1763,6350]},{"type":"Point","properties":{"Station_ID":"QCO","Station_Nam":"QCO","Latitude":"51.45280","Longitude":"-72.20110","Snowdepth":"18.937","Units":"in","Rept_Date":"2020-03-06 12"},"coordinates":[5876,9827]},{"type":"Point","properties":{"Station_ID":"SBMV1","Station_Nam":"SEARSBURG MOUNTAIN","Latitude":"42.90000","Longitude":"-73.00000","Snowdepth":"18.600","Units":"in","Rept_Date":"2020-03-06 12"},"coordinates":[5689,4472]},{"type":"Point","properties":{"Station_ID":"NY-ES-6","Station_Nam":"OLMSTEDVILLE 4.6 NNE, NY","Latitude":"43.83350","Longitude":"-73.89780","Snowdepth":"18.500","Units":"in","Rept_Date":"2020-03-06 13"},"coordinates":[5478,5056]},{"type":"Point","properties":{"Station_ID":"MI-OT-17","Station_Nam":"GAYLORD 4.1 S, MI","Latitude":"44.96388","Longitude":"-84.68467","Snowdepth":"18.500","Units":"in","Rept_Date":"2020-03-06 12"},"coordinates":[2946,5764]},{"type":"Point","properties":{"Station_ID":"XPLM5","Station_Nam":"PINE LAKE, MN","Latitude":"47.70000","Longitude":"-95.60000","Snowdepth":"18.000","Units":"in","Rept_Date":"2020-03-06 23"},"coordinates":[385,7477]},{"type":"Point","properties":{"Station_ID":"WI-BY-22","Station_Nam":"MASON 11.5 WNW, WI","Latitude":"46.50198","Longitude":"-91.28339","Snowdepth":"18.000","Units":"in","Rept_Date":"2020-03-06 14"},"coordinates":[1398,6727]},{"type":"Point","properties":{"Station_ID":"VT-ES-1","Station_Nam":"GRANBY 1.4 NW, VT","Latitude":"44.58330","Longitude":"-71.77870","Snowdepth":"18.000","Units":"in","Rept_Date":"2020-03-06 15"},"coordinates":[5975,5526]},{"type":"Point","properties":{"Station_ID":"VT-BN-12","Station_Nam":"STAMFORD 5.0 NNE, VT","Latitude":"42.82000","Longitude":"-73.02000","Snowdepth":"18.000","Units":"in","Rept_Date":"2020-03-06 21"},"coordinates":[5684,4421]},{"type":"Point","properties":{"Station_ID":"TAKW3","Station_Nam":"RICE RESERVOIR NO. 2","Latitude":"45.53770","Longitude":"-89.73220","Snowdepth":"18.000","Units":"in","Rept_Date":"2020-03-06 13"},"coordinates":[1762,6123]},{"type":"Point","properties":{"Station_ID":"OLMN6","Station_Nam":"OLD FORGE - MOOSE","Latitude":"43.71270","Longitude":"-74.96930","Snowdepth":"18.000","Units":"in","Rept_Date":"2020-03-06 13"},"coordinates":[5226,4980]},{"type":"Point","properties":{"Station_ID":"NCBN6","Station_Nam":"NEWCOMB","Latitude":"43.97070","Longitude":"-74.22200","Snowdepth":"18.000","Units":"in","Rept_Date":"2020-03-06 14"},"coordinates":[5402,5142]},{"type":"Point","properties":{"Station_ID":"MN-BK-6","Station_Nam":"LAKE PARK 6.0 S, MN","Latitude":"46.79850","Longitude":"-96.12180","Snowdepth":"18.000","Units":"in","Rept_Date":"2020-03-06 13"},"coordinates":[262,6913]},{"type":"Point","properties":{"Station_ID":"MI-OT-16","Station_Nam":"GAYLORD 2.2 SSE, MI","Latitude":"44.99441","Longitude":"-84.65820","Snowdepth":"18.000","Units":"in","Rept_Date":"2020-03-06 11"},"coordinates":[2953,5783]},{"type":"Point","properties":{"Station_ID":"LBKV1","Station_Nam":"LYE BROOK","Latitude":"43.05000","Longitude":"-73.03330","Snowdepth":"18.000","Units":"in","Rept_Date":"2020-03-07 06"},"coordinates":[5681,4565]},{"type":"Point","properties":{"Station_ID":"JCBM4","Station_Nam":"JACOBSVILLE","Latitude":"47.00830","Longitude":"-88.43180","Snowdepth":"18.000","Units":"in","Rept_Date":"2020-03-06 12"},"coordinates":[2067,7044]},{"type":"Point","properties":{"Station_ID":"ISLV1","Station_Nam":"ISLAND POND","Latitude":"44.81280","Longitude":"-71.89020","Snowdepth":"18.000","Units":"in","Rept_Date":"2020-03-06 15"},"coordinates":[5949,5669]},{"type":"Point","properties":{"Station_ID":"INDM5","Station_Nam":"INDUS,MN","Latitude":"48.61670","Longitude":"-93.90000","Snowdepth":"18.000","Units":"in","Rept_Date":"2020-03-06 14"},"coordinates":[784,8051]},{"type":"Point","properties":{"Station_ID":"HOKN6","Station_Nam":"HOOKER 12 NNW","Latitude":"43.85240","Longitude":"-75.71580","Snowdepth":"18.000","Units":"in","Rept_Date":"2020-03-06 11"},"coordinates":[5051,5068]},{"type":"Point","properties":{"Station_ID":"GHMN3","Station_Nam":"PINKHAM NOTCH","Latitude":"44.25800","Longitude":"-71.25250","Snowdepth":"18.000","Units":"in","Rept_Date":"2020-03-06 11"},"coordinates":[6099,5322]},{"type":"Point","properties":{"Station_ID":"ENGM4","Station_Nam":"ENGADINE MDOT","Latitude":"46.12800","Longitude":"-85.56960","Snowdepth":"18.000","Units":"in","Rept_Date":"2020-03-06 12"},"coordinates":[2739,6493]},{"type":"Point","properties":{"Station_ID":"CATQ6","Station_Nam":"CAT LAKE","Latitude":"51.72690","Longitude":"-91.82210","Snowdepth":"17.910","Units":"in","Rept_Date":"2020-03-07 06"},"coordinates":[1271,9999]},{"type":"Point","properties":{"Station_ID":"WDFV1","Station_Nam":"WOODFORD MOUNTAIN","Latitude":"42.88330","Longitude":"-73.06670","Snowdepth":"17.500","Units":"in","Rept_Date":"2020-03-06 12"},"coordinates":[5673,4461]},{"type":"Point","properties":{"Station_ID":"NY-HR-18","Station_Nam":"SALISBURY CENTER 1.8 NW, NY","Latitude":"43.16260","Longitude":"-74.80880","Snowdepth":"17.500","Units":"in","Rept_Date":"2020-03-06 11"},"coordinates":[5264,4636]},{"type":"Point","properties":{"Station_ID":"CAN-ON-245","Station_Nam":"PHELPSTON 3.1 ESE, CAN","Latitude":"44.50564","Longitude":"-79.81035","Snowdepth":"17.500","Units":"in","Rept_Date":"2020-03-06 14"},"coordinates":[4090,5477]},{"type":"Point","properties":{"Station_ID":"UNSN3","Station_Nam":"UPPER AMMONOOSUC-NASH STREAM","Latitude":"44.65000","Longitude":"-71.46530","Snowdepth":"17.400","Units":"in","Rept_Date":"2020-03-06 12"},"coordinates":[6049,5567]},{"type":"Point","properties":{"Station_ID":"SMSV1","Station_Nam":"SOMERSET RESERVOIR","Latitude":"42.97640","Longitude":"-72.95170","Snowdepth":"17.400","Units":"in","Rept_Date":"2020-03-06 12"},"coordinates":[5700,4519]},{"type":"Point","properties":{"Station_ID":"CAN-ON-92","Station_Nam":"DUNROBIN 1.9 W - MVCA, CAN","Latitude":"45.42318","Longitude":"-76.04525","Snowdepth":"17.100","Units":"in","Rept_Date":"2020-03-06 12"},"coordinates":[4974,6052]},{"type":"Point","properties":{"Station_ID":"QWG","Station_Nam":"QWG","Latitude":"48.48890","Longitude":"-73.45940","Snowdepth":"17.008","Units":"in","Rept_Date":"2020-03-06 12"},"coordinates":[5581,7971]},{"type":"Point","properties":{"Station_ID":"ZNOM4","Station_Nam":"NORWAY","Latitude":"45.77810","Longitude":"-87.89560","Snowdepth":"17.000","Units":"in","Rept_Date":"2020-03-06 13"},"coordinates":[2193,6274]},{"type":"Point","properties":{"Station_ID":"STMM4","Station_Nam":"STAMBAUGH 2SSE","Latitude":"46.05550","Longitude":"-88.62780","Snowdepth":"17.000","Units":"in","Rept_Date":"2020-03-06 13"},"coordinates":[2021,6448]},{"type":"Point","properties":{"Station_ID":"PTBN3","Station_Nam":"PITTSBURG RESERVOIR","Latitude":"45.04690","Longitude":"-71.38300","Snowdepth":"17.000","Units":"in","Rept_Date":"2020-03-06 12"},"coordinates":[6068,5816]},{"type":"Point","properties":{"Station_ID":"NULV1","Station_Nam":"NULHEGAN NOTCH SNOW COURSE","Latitude":"44.75000","Longitude":"-71.70000","Snowdepth":"17.000","Units":"in","Rept_Date":"2020-03-06 12"},"coordinates":[5994,5630]},{"type":"Point","properties":{"Station_ID":"NH-CS-4","Station_Nam":"PITTSBURG 6.1 NE, NH","Latitude":"45.11060","Longitude":"-71.29760","Snowdepth":"17.000","Units":"in","Rept_Date":"2020-03-06 12"},"coordinates":[6088,5856]},{"type":"Point","properties":{"Station_ID":"MN-IT-1","Station_Nam":"GRAND RAPIDS 2.0 E, MN","Latitude":"47.22266","Longitude":"-93.49600","Snowdepth":"17.000","Units":"in","Rept_Date":"2020-03-06 12"},"coordinates":[878,7178]},{"type":"Point","properties":{"Station_ID":"KINM1","Station_Nam":"KINGFIELD","Latitude":"44.95950","Longitude":"-70.17530","Snowdepth":"17.000","Units":"in","Rept_Date":"2020-03-06 12"},"coordinates":[6352,5761]},{"type":"Point","properties":{"Station_ID":"CAN-ON-451","Station_Nam":"OWEN SOUND 1.2 N - GSCA, CAN","Latitude":"44.58092","Longitude":"-80.93025","Snowdepth":"17.000","Units":"in","Rept_Date":"2020-03-06 13"},"coordinates":[3827,5524]},{"type":"Point","properties":{"Station_ID":"APXM4","Station_Nam":"GAYLORD 9SSW","Latitude":"44.90720","Longitude":"-84.71880","Snowdepth":"17.000","Units":"in","Rept_Date":"2020-03-07 05"},"coordinates":[2938,5728]},{"type":"Point","properties":{"Station_ID":"QGT","Station_Nam":"QGT","Latitude":"49.64720","Longitude":"-67.62640","Snowdepth":"16.811","Units":"in","Rept_Date":"2020-03-06 12"},"coordinates":[6950,8697]},{"type":"Point","properties":{"Station_ID":"WI-SR-1","Station_Nam":"HAYWARD 9.2 NNE, WI","Latitude":"46.13255","Longitude":"-91.40500","Snowdepth":"16.500","Units":"in","Rept_Date":"2020-03-06 12"},"coordinates":[1369,6496]},{"type":"Point","properties":{"Station_ID":"WI-PR-2","Station_Nam":"BUTTERNUT 5.9 SW, WI","Latitude":"45.96501","Longitude":"-90.59750","Snowdepth":"16.500","Units":"in","Rept_Date":"2020-03-06 12"},"coordinates":[1559,6391]},{"type":"Point","properties":{"Station_ID":"VT-WS-15","Station_Nam":"EAST CALAIS 1.5 SW, VT","Latitude":"44.35523","Longitude":"-72.45540","Snowdepth":"16.500","Units":"in","Rept_Date":"2020-03-06 12"},"coordinates":[5816,5383]},{"type":"Point","properties":{"Station_ID":"CAN-NS-103","Station_Nam":"TRAFALGAR 4.9 WSW, CAN","Latitude":"45.26217","Longitude":"-62.72285","Snowdepth":"16.500","Units":"in","Rept_Date":"2020-03-06 12"},"coordinates":[8101,5951]},{"type":"Point","properties":{"Station_ID":"CAN-NB-2","Station_Nam":"GRAFTON 2.7 NNE, CA","Latitude":"46.17062","Longitude":"-67.55330","Snowdepth":"16.500","Units":"in","Rept_Date":"2020-03-06 10"},"coordinates":[6967,6520]},{"type":"Point","properties":{"Station_ID":"CAN-MB-298","Station_Nam":"GARDENTON 4.2 W - SRRCD, CAN","Latitude":"49.09480","Longitude":"-96.75446","Snowdepth":"16.500","Units":"in","Rept_Date":"2020-03-06 12"},"coordinates":[114,8351]},{"type":"Point","properties":{"Station_ID":"WLKW3","Station_Nam":"WHITE LAKE 1 SE","Latitude":"45.14520","Longitude":"-88.74160","Snowdepth":"16.000","Units":"in","Rept_Date":"2020-03-06 14"},"coordinates":[1994,5877]},{"type":"Point","properties":{"Station_ID":"WHFN6","Station_Nam":"WILMINGTON 2W","Latitude":"44.39310","Longitude":"-73.85890","Snowdepth":"16.000","Units":"in","Rept_Date":"2020-03-06 13"},"coordinates":[5487,5407]},{"type":"Point","properties":{"Station_ID":"VT-CL-18","Station_Nam":"WHEELOCK 1.6 S, VT","Latitude":"44.56491","Longitude":"-72.08830","Snowdepth":"16.000","Units":"in","Rept_Date":"2020-03-06 12"},"coordinates":[5903,5514]},{"type":"Point","properties":{"Station_ID":"PRNW3","Station_Nam":"PRENTICE,WI","Latitude":"45.54780","Longitude":"-90.30000","Snowdepth":"16.000","Units":"in","Rept_Date":"2020-03-06 14"},"coordinates":[1628,6130]},{"type":"Point","properties":{"Station_ID":"MTQM4","Station_Nam":"MANISTIQUE WWTP","Latitude":"45.95120","Longitude":"-86.25130","Snowdepth":"16.000","Units":"in","Rept_Date":"2020-03-06 12"},"coordinates":[2579,6382]},{"type":"Point","properties":{"Station_ID":"MN2EOYHJ","Station_Nam":"OGILVIE 5.6 N","Latitude":"45.91288","Longitude":"-93.42259","Snowdepth":"16.000","Units":"in","Rept_Date":"2020-03-06 14"},"coordinates":[896,6358]},{"type":"Point","properties":{"Station_ID":"MI-OT-4","Station_Nam":"GAYLORD 1.7 WNW, MI","Latitude":"45.03280","Longitude":"-84.71090","Snowdepth":"16.000","Units":"in","Rept_Date":"2020-03-06 13"},"coordinates":[2940,5807]},{"type":"Point","properties":{"Station_ID":"MI-DL-4","Station_Nam":"GLADSTONE 2.1 SW, MI","Latitude":"45.83218","Longitude":"-87.05727","Snowdepth":"16.000","Units":"in","Rept_Date":"2020-03-06 12"},"coordinates":[2389,6308]},{"type":"Point","properties":{"Station_ID":"LILM1","Station_Nam":"LILLE","Latitude":"47.27770","Longitude":"-68.10520","Snowdepth":"16.000","Units":"in","Rept_Date":"2020-03-06 12"},"coordinates":[6837,7213]},{"type":"Point","properties":{"Station_ID":"GAYM4","Station_Nam":"GAYLORD","Latitude":"45.03320","Longitude":"-84.71130","Snowdepth":"16.000","Units":"in","Rept_Date":"2020-03-06 13"},"coordinates":[2940,5807]},{"type":"Point","properties":{"Station_ID":"FEDM5","Station_Nam":"LEECH LAKE DAM","Latitude":"47.24670","Longitude":"-94.22280","Snowdepth":"16.000","Units":"in","Rept_Date":"2020-03-06 14"},"coordinates":[708,7193]},{"type":"Point","properties":{"Station_ID":"COKM5","Station_Nam":"COOK","Latitude":"47.85060","Longitude":"-92.69250","Snowdepth":"16.000","Units":"in","Rept_Date":"2020-03-06 12"},"coordinates":[1067,7572]},{"type":"Point","properties":{"Station_ID":"CNNW3","Station_Nam":"CRANDON","Latitude":"45.55110","Longitude":"-88.89830","Snowdepth":"16.000","Units":"in","Rept_Date":"2020-03-06 12"},"coordinates":[1957,6132]},{"type":"Point","properties":{"Station_ID":"CAN-PE-3","Station_Nam":"WELLINGTON 1.6 NE, CA","Latitude":"46.46672","Longitude":"-63.98920","Snowdepth":"16.000","Units":"in","Rept_Date":"2020-03-06 11"},"coordinates":[7803,6705]},{"type":"Point","properties":{"Station_ID":"ASTW3","Station_Nam":"ATHELSTANE","Latitude":"45.42500","Longitude":"-88.05750","Snowdepth":"16.000","Units":"in","Rept_Date":"2020-03-06 12"},"coordinates":[2155,6053]},{"type":"Point","properties":{"Station_ID":"MN-IT-7","Station_Nam":"GRAND RAPIDS 6.2 SSW, MN","Latitude":"47.13687","Longitude":"-93.56660","Snowdepth":"15.700","Units":"in","Rept_Date":"2020-03-06 12"},"coordinates":[862,7125]},{"type":"Point","properties":{"Station_ID":"FTHQ6","Station_Nam":"FORT HOPE","Latitude":"51.55820","Longitude":"-87.90510","Snowdepth":"15.670","Units":"in","Rept_Date":"2020-03-07 06"},"coordinates":[2191,9893]},{"type":"Point","properties":{"Station_ID":"WI-BN-6","Station_Nam":"SUAMICO 4.4 WNW, WI","Latitude":"44.66111","Longitude":"-88.11780","Snowdepth":"15.500","Units":"in","Rept_Date":"2020-03-06 21"},"coordinates":[2141,5574]},{"type":"Point","properties":{"Station_ID":"WI-AS-4","Station_Nam":"ASHLAND 0.5 WNW, WI","Latitude":"46.58240","Longitude":"-90.88390","Snowdepth":"15.500","Units":"in","Rept_Date":"2020-03-06 13"},"coordinates":[1491,6777]},{"type":"Point","properties":{"Station_ID":"VT-OL-9","Station_Nam":"GREENSBORO 2.1 NNW, VT","Latitude":"44.60528","Longitude":"-72.30940","Snowdepth":"15.500","Units":"in","Rept_Date":"2020-03-06 12"},"coordinates":[5851,5539]},{"type":"Point","properties":{"Station_ID":"NH-CR-15","Station_Nam":"JACKSON 3.7 NW, NH","Latitude":"44.19069","Longitude":"-71.22598","Snowdepth":"15.500","Units":"in","Rept_Date":"2020-03-06 12"},"coordinates":[6105,5280]},{"type":"Point","properties":{"Station_ID":"WI-MT-14","Station_Nam":"MOSINEE 2.7 WSW, WI","Latitude":"44.77240","Longitude":"-89.73441","Snowdepth":"15.000","Units":"in","Rept_Date":"2020-03-06 14"},"coordinates":[1761,5644]},{"type":"Point","properties":{"Station_ID":"VT-WS-30","Station_Nam":"WOODBURY 3.4 NNW, VT","Latitude":"44.48825","Longitude":"-72.43258","Snowdepth":"15.000","Units":"in","Rept_Date":"2020-03-06 12"},"coordinates":[5822,5466]},{"type":"Point","properties":{"Station_ID":"RSTW3","Station_Nam":"ROSHOLT","Latitude":"44.62710","Longitude":"-89.30600","Snowdepth":"15.000","Units":"in","Rept_Date":"2020-03-06 13"},"coordinates":[1862,5553]},{"type":"Point","properties":{"Station_ID":"RHRW3","Station_Nam":"RHINELANDER WJFW TV-12","Latitude":"45.62220","Longitude":"-89.41000","Snowdepth":"15.000","Units":"in","Rept_Date":"2020-03-07 04"},"coordinates":[1837,6176]},{"type":"Point","properties":{"Station_ID":"RHI","Station_Nam":"RHINELANDER-ONEIDA COUNTY AIRPORT","Latitude":"45.63080","Longitude":"-89.46530","Snowdepth":"15.000","Units":"in","Rept_Date":"2020-03-06 12"},"coordinates":[1824,6182]},{"type":"Point","properties":{"Station_ID":"PLUM5","Station_Nam":"CLEARWATER RIVER AT PLUMMER","Latitude":"47.92330","Longitude":"-96.04610","Snowdepth":"15.000","Units":"in","Rept_Date":"2020-03-06 23"},"coordinates":[280,7617]},{"type":"Point","properties":{"Station_ID":"MN6JKRHL","Station_Nam":"TOFTE 0.6 SSW","Latitude":"47.56557","Longitude":"-90.84117","Snowdepth":"15.000","Units":"in","Rept_Date":"2020-03-06 13"},"coordinates":[1501,7393]},{"type":"Point","properties":{"Station_ID":"MN-CW-22","Station_Nam":"FORT RIPLEY 0.8 N, MN","Latitude":"46.18089","Longitude":"-94.36510","Snowdepth":"15.000","Units":"in","Rept_Date":"2020-03-06 13"},"coordinates":[674,6526]},{"type":"Point","properties":{"Station_ID":"ME-FR-4","Station_Nam":"NEW SHARON 2.0 NW, ME","Latitude":"44.66582","Longitude":"-70.02720","Snowdepth":"15.000","Units":"in","Rept_Date":"2020-03-06 12"},"coordinates":[6386,5577]},{"type":"Point","properties":{"Station_ID":"CORV1","Station_Nam":"CORINTH","Latitude":"44.00690","Longitude":"-72.31940","Snowdepth":"15.000","Units":"in","Rept_Date":"2020-03-06 12"},"coordinates":[5848,5165]},{"type":"Point","properties":{"Station_ID":"BTLN3","Station_Nam":"BARTLETT","Latitude":"44.08380","Longitude":"-71.29340","Snowdepth":"15.000","Units":"in","Rept_Date":"2020-03-06 12"},"coordinates":[6089,5213]},{"type":"Point","properties":{"Station_ID":"BRUM5","Station_Nam":"BRUNO,MN","Latitude":"46.28330","Longitude":"-92.50000","Snowdepth":"15.000","Units":"in","Rept_Date":"2020-03-06 14"},"coordinates":[1112,6590]},{"type":"Point","properties":{"Station_ID":"AWXW3","Station_Nam":"ASHLAND","Latitude":"46.58240","Longitude":"-90.88390","Snowdepth":"15.000","Units":"in","Rept_Date":"2020-03-06 13"},"coordinates":[1491,6777]},{"type":"Point","properties":{"Station_ID":"CAN-ON-452","Station_Nam":"CHATSWORTH 1.8 ENE - GSCA, CAN","Latitude":"44.46118","Longitude":"-80.87506","Snowdepth":"14.800","Units":"in","Rept_Date":"2020-03-06 13"},"coordinates":[3840,5449]},{"type":"Point","properties":{"Station_ID":"CAN-ON-46","Station_Nam":"WROXETER 0.3 WSW - MVCA, CAN","Latitude":"43.86365","Longitude":"-81.15225","Snowdepth":"14.600","Units":"in","Rept_Date":"2020-03-06 13"},"coordinates":[3775,5075]},{"type":"Point","properties":{"Station_ID":"CAN-MB-32","Station_Nam":"PINAWA 1.0 SW, CA","Latitude":"50.14747","Longitude":"-95.89020","Snowdepth":"14.500","Units":"in","Rept_Date":"2020-03-06 13"},"coordinates":[316,9010]},{"type":"Point","properties":{"Station_ID":"CAN-NB-16","Station_Nam":"DORCHESTER 1.0 SSE, CAN","Latitude":"45.89160","Longitude":"-64.51269","Snowdepth":"14.100","Units":"in","Rept_Date":"2020-03-06 11"},"coordinates":[7681,6345]},{"type":"Point","properties":{"Station_ID":"WI-PR-6","Station_Nam":"PHILLIPS 1.3 S, WI","Latitude":"45.67677","Longitude":"-90.39543","Snowdepth":"14.000","Units":"in","Rept_Date":"2020-03-06 12"},"coordinates":[1606,6210]},{"type":"Point","properties":{"Station_ID":"VT-OL-5","Station_Nam":"DERBY CENTER 1.8 NW, VT","Latitude":"44.97200","Longitude":"-72.14780","Snowdepth":"14.000","Units":"in","Rept_Date":"2020-03-06 12"},"coordinates":[5889,5769]},{"type":"Point","properties":{"Station_ID":"VT-OL-2","Station_Nam":"BARTON 3.0 ENE, VT","Latitude":"44.75863","Longitude":"-72.11680","Snowdepth":"14.000","Units":"in","Rept_Date":"2020-03-06 12"},"coordinates":[5896,5635]},{"type":"Point","properties":{"Station_ID":"VT-CL-14","Station_Nam":"LYNDONVILLE 1.1 W, VT","Latitude":"44.53582","Longitude":"-72.02867","Snowdepth":"14.000","Units":"in","Rept_Date":"2020-03-06 13"},"coordinates":[5917,5496]},{"type":"Point","properties":{"Station_ID":"SULW3","Station_Nam":"SUMMIT LAKE","Latitude":"45.37880","Longitude":"-89.19410","Snowdepth":"14.000","Units":"in","Rept_Date":"2020-03-06 11"},"coordinates":[1888,6024]},{"type":"Point","properties":{"Station_ID":"RHLW3","Station_Nam":"RHINELANDER 4NE","Latitude":"45.65270","Longitude":"-89.30740","Snowdepth":"14.000","Units":"in","Rept_Date":"2020-03-06 12"},"coordinates":[1861,6195]},{"type":"Point","properties":{"Station_ID":"PEKN6","Station_Nam":"PECK LAKE","Latitude":"43.11500","Longitude":"-74.42360","Snowdepth":"14.000","Units":"in","Rept_Date":"2020-03-06 13"},"coordinates":[5355,4606]},{"type":"Point","properties":{"Station_ID":"MN-PK-15","Station_Nam":"MENTOR 2.5 SSW, MN","Latitude":"47.66625","Longitude":"-96.17328","Snowdepth":"14.000","Units":"in","Rept_Date":"2020-03-06 13"},"coordinates":[250,7456]},{"type":"Point","properties":{"Station_ID":"ME-OX-2","Station_Nam":"HARTFORD 1.4 N, ME","Latitude":"44.39318","Longitude":"-70.34760","Snowdepth":"14.000","Units":"in","Rept_Date":"2020-03-06 12"},"coordinates":[6311,5407]},{"type":"Point","properties":{"Station_ID":"LNKM1","Station_Nam":"LINCOLN SANITARY DISTRICT/WTP","Latitude":"45.37520","Longitude":"-68.50820","Snowdepth":"14.000","Units":"in","Rept_Date":"2020-03-06 12"},"coordinates":[6743,6022]},{"type":"Point","properties":{"Station_ID":"LBRM5","Station_Nam":"LAKE BRONSON DAM","Latitude":"48.72410","Longitude":"-96.62180","Snowdepth":"14.000","Units":"in","Rept_Date":"2020-03-06 14"},"coordinates":[145,8119]},{"type":"Point","properties":{"Station_ID":"HOLW3","Station_Nam":"HOLCOMBE","Latitude":"45.22370","Longitude":"-91.12700","Snowdepth":"14.000","Units":"in","Rept_Date":"2020-03-06 13"},"coordinates":[1434,5927]},{"type":"Point","properties":{"Station_ID":"ESGM1","Station_Nam":"EAST SANGERVILLE","Latitude":"45.13690","Longitude":"-69.28060","Snowdepth":"14.000","Units":"in","Rept_Date":"2020-03-06 12"},"coordinates":[6562,5872]},{"type":"Point","properties":{"Station_ID":"EJNM4","Station_Nam":"EAST JORDAN 2NW","Latitude":"45.18630","Longitude":"-85.14770","Snowdepth":"14.000","Units":"in","Rept_Date":"2020-03-06 13"},"coordinates":[2838,5903]},{"type":"Point","properties":{"Station_ID":"EGRW3","Station_Nam":"EAGLE RIVER-SOUTH","Latitude":"45.91360","Longitude":"-89.24360","Snowdepth":"14.000","Units":"in","Rept_Date":"2020-03-06 13"},"coordinates":[1876,6359]},{"type":"Point","properties":{"Station_ID":"COUW3","Station_Nam":"COUDERAY,WI","Latitude":"45.86670","Longitude":"-91.45000","Snowdepth":"14.000","Units":"in","Rept_Date":"2020-03-06 22"},"coordinates":[1359,6329]},{"type":"Point","properties":{"Station_ID":"CAN-ON-118","Station_Nam":"DURHAM 1.4 S, CAN","Latitude":"44.16525","Longitude":"-80.82064","Snowdepth":"14.000","Units":"in","Rept_Date":"2020-03-06 12"},"coordinates":[3853,5264]},{"type":"Point","properties":{"Station_ID":"BREW3","Station_Nam":"SURING","Latitude":"44.99580","Longitude":"-88.37860","Snowdepth":"14.000","Units":"in","Rept_Date":"2020-03-06 13"},"coordinates":[2079,5784]},{"type":"Point","properties":{"Station_ID":"BRAM5","Station_Nam":"BRAINERD","Latitude":"46.34320","Longitude":"-94.20900","Snowdepth":"14.000","Units":"in","Rept_Date":"2020-03-06 13"},"coordinates":[711,6628]},{"type":"Point","properties":{"Station_ID":"BOON6","Station_Nam":"BOONVILLE 4 SSW","Latitude":"43.43610","Longitude":"-75.36970","Snowdepth":"14.000","Units":"in","Rept_Date":"2020-03-06 12"},"coordinates":[5132,4807]},{"type":"Point","properties":{"Station_ID":"BAGM4","Station_Nam":"BARAGA 7NW","Latitude":"46.82100","Longitude":"-88.60590","Snowdepth":"14.000","Units":"in","Rept_Date":"2020-03-06 13"},"coordinates":[2026,6927]},{"type":"Point","properties":{"Station_ID":"WI-SR-5","Station_Nam":"HAYWARD 9.7 NE, WI","Latitude":"46.12030","Longitude":"-91.35370","Snowdepth":"13.500","Units":"in","Rept_Date":"2020-03-06 14"},"coordinates":[1381,6488]},{"type":"Point","properties":{"Station_ID":"MN-BK-10","Station_Nam":"DETROIT LAKES 5.7 N, MN","Latitude":"46.88666","Longitude":"-95.84444","Snowdepth":"13.500","Units":"in","Rept_Date":"2020-03-06 10"},"coordinates":[327,6968]},{"type":"Point","properties":{"Station_ID":"MI-CX-7","Station_Nam":"EAST JORDAN 2.1 NNW, MI","Latitude":"45.18639","Longitude":"-85.14750","Snowdepth":"13.500","Units":"in","Rept_Date":"2020-03-06 13"},"coordinates":[2838,5903]},{"type":"Point","properties":{"Station_ID":"XBLM5","Station_Nam":"BLACK RIVE-POLK, MN","Latitude":"48.00000","Longitude":"-96.40000","Snowdepth":"13.000","Units":"in","Rept_Date":"2020-03-06 23"},"coordinates":[197,7665]},{"type":"Point","properties":{"Station_ID":"WRTS2","Station_Nam":"WATERTOWN,SD","Latitude":"44.90280","Longitude":"-97.11360","Snowdepth":"13.000","Units":"in","Rept_Date":"2020-03-06 15"},"coordinates":[29,5726]},{"type":"Point","properties":{"Station_ID":"WI-RS-1","Station_Nam":"LADYSMITH 2.8 WNW, WI","Latitude":"45.48180","Longitude":"-91.14680","Snowdepth":"13.000","Units":"in","Rept_Date":"2020-03-06 13"},"coordinates":[1430,6088]},{"type":"Point","properties":{"Station_ID":"WI-PR-8","Station_Nam":"PHILLIPS 0.4 SSW, WI","Latitude":"45.69086","Longitude":"-90.40200","Snowdepth":"13.000","Units":"in","Rept_Date":"2020-03-06 13"},"coordinates":[1605,6219]},{"type":"Point","properties":{"Station_ID":"VT-ES-3","Station_Nam":"LUNENBURG 2.3 NNW, VT","Latitude":"44.49324","Longitude":"-71.70446","Snowdepth":"13.000","Units":"in","Rept_Date":"2020-03-06 11"},"coordinates":[5993,5469]},{"type":"Point","properties":{"Station_ID":"TOHM5","Station_Nam":"TWO HARBORS WWTP","Latitude":"47.01760","Longitude":"-91.66480","Snowdepth":"13.000","Units":"in","Rept_Date":"2020-03-06 13"},"coordinates":[1308,7050]},{"type":"Point","properties":{"Station_ID":"RLKW3","Station_Nam":"REST LAKE","Latitude":"46.12220","Longitude":"-89.87720","Snowdepth":"13.000","Units":"in","Rept_Date":"2020-03-06 14"},"coordinates":[1728,6489]},{"type":"Point","properties":{"Station_ID":"PELW3","Station_Nam":"PELLA 3SE","Latitude":"44.73580","Longitude":"-88.73780","Snowdepth":"13.000","Units":"in","Rept_Date":"2020-03-06 11"},"coordinates":[1995,5621]},{"type":"Point","properties":{"Station_ID":"NUMN3","Station_Nam":"NORTHUMBERLAND","Latitude":"44.52830","Longitude":"-71.50440","Snowdepth":"13.000","Units":"in","Rept_Date":"2020-03-06 13"},"coordinates":[6040,5491]},{"type":"Point","properties":{"Station_ID":"NH-CR-26","Station_Nam":"CENTER SANDWICH 4.9 E, NH","Latitude":"43.80976","Longitude":"-71.34150","Snowdepth":"13.000","Units":"in","Rept_Date":"2020-03-06 12"},"coordinates":[6078,5041]},{"type":"Point","properties":{"Station_ID":"MWTM1","Station_Nam":"MILLINOCKET WWTP","Latitude":"45.64030","Longitude":"-68.67480","Snowdepth":"13.000","Units":"in","Rept_Date":"2020-03-06 11"},"coordinates":[6704,6188]},{"type":"Point","properties":{"Station_ID":"MQRW3","Station_Nam":"MINOCQUA","Latitude":"45.88630","Longitude":"-89.73220","Snowdepth":"13.000","Units":"in","Rept_Date":"2020-03-06 12"},"coordinates":[1762,6342]},{"type":"Point","properties":{"Station_ID":"ME-FR-22","Station_Nam":"FARMINGTON 4.8 NNW, ME","Latitude":"44.73396","Longitude":"-70.18007","Snowdepth":"13.000","Units":"in","Rept_Date":"2020-03-06 14"},"coordinates":[6350,5620]},{"type":"Point","properties":{"Station_ID":"GRFN8","Station_Nam":"UNIVERSITY","Latitude":"47.93330","Longitude":"-97.08330","Snowdepth":"13.000","Units":"in","Rept_Date":"2020-03-07 06"},"coordinates":[36,7623]},{"type":"Point","properties":{"Station_ID":"GRBM5","Station_Nam":"GRAND RAPIDS 12N","Latitude":"47.39800","Longitude":"-93.51330","Snowdepth":"13.000","Units":"in","Rept_Date":"2020-03-06 12"},"coordinates":[874,7288]},{"type":"Point","properties":{"Station_ID":"ESDN3","Station_Nam":"EAST SANDWICH","Latitude":"43.80990","Longitude":"-71.34250","Snowdepth":"13.000","Units":"in","Rept_Date":"2020-03-06 11"},"coordinates":[6078,5041]},{"type":"Point","properties":{"Station_ID":"COTM5","Station_Nam":"COTTON","Latitude":"47.16870","Longitude":"-92.46290","Snowdepth":"13.000","Units":"in","Rept_Date":"2020-03-06 12"},"coordinates":[1121,7145]},{"type":"Point","properties":{"Station_ID":"ATY","Station_Nam":"WATERTOWN MUNICIPAL AIRPORT","Latitude":"44.91420","Longitude":"-97.15440","Snowdepth":"13.000","Units":"in","Rept_Date":"2020-03-06 12"},"coordinates":[20,5733]},{"type":"Point","properties":{"Station_ID":"ANTW3","Station_Nam":"ANTIGO,WI","Latitude":"45.13330","Longitude":"-89.15000","Snowdepth":"13.000","Units":"in","Rept_Date":"2020-03-06 14"},"coordinates":[1898,5870]},{"type":"Point","properties":{"Station_ID":"SBSV1","Station_Nam":"SEARSBURG STATION","Latitude":"42.87060","Longitude":"-72.92660","Snowdepth":"12.600","Units":"in","Rept_Date":"2020-03-06 12"},"coordinates":[5706,4453]},{"type":"Point","properties":{"Station_ID":"NH-CR-11","Station_Nam":"NORTH CONWAY 1.4 SSW, NH","Latitude":"44.03556","Longitude":"-71.14010","Snowdepth":"12.500","Units":"in","Rept_Date":"2020-03-06 12"},"coordinates":[6125,5183]},{"type":"Point","properties":{"Station_ID":"MN-AT-5","Station_Nam":"TAMARACK 1.4 SW, MN","Latitude":"46.63760","Longitude":"-93.14554","Snowdepth":"12.500","Units":"in","Rept_Date":"2020-03-06 11"},"coordinates":[961,6812]},{"type":"Point","properties":{"Station_ID":"WUNW3","Station_Nam":"WAUSAU-NORTHEAST","Latitude":"44.97310","Longitude":"-89.61690","Snowdepth":"12.000","Units":"in","Rept_Date":"2020-03-06 12"},"coordinates":[1789,5770]},{"type":"Point","properties":{"Station_ID":"WI-DR-5","Station_Nam":"ELLISON BAY 2.2 E, WI","Latitude":"45.25750","Longitude":"-87.02670","Snowdepth":"12.000","Units":"in","Rept_Date":"2020-03-06 13"},"coordinates":[2397,5948]},{"type":"Point","properties":{"Station_ID":"VT-WS-10","Station_Nam":"NORTHFIELD 1.5 N, VT","Latitude":"44.16986","Longitude":"-72.65200","Snowdepth":"12.000","Units":"in","Rept_Date":"2020-03-06 12"},"coordinates":[5770,5267]},{"type":"Point","properties":{"Station_ID":"VT-BN-3","Station_Nam":"LANDGROVE 1.1 NNE, VT","Latitude":"43.29092","Longitude":"-72.83260","Snowdepth":"12.000","Units":"in","Rept_Date":"2020-03-06 12"},"coordinates":[5728,4716]},{"type":"Point","properties":{"Station_ID":"TMWN3","Station_Nam":"TAMWORTH 4","Latitude":"43.86390","Longitude":"-71.26610","Snowdepth":"12.000","Units":"in","Rept_Date":"2020-03-06 12"},"coordinates":[6096,5075]},{"type":"Point","properties":{"Station_ID":"SAUW3","Station_Nam":"WAUSAU WSAW TV","Latitude":"44.94630","Longitude":"-89.62220","Snowdepth":"12.000","Units":"in","Rept_Date":"2020-03-07 01"},"coordinates":[1788,5753]},{"type":"Point","properties":{"Station_ID":"ONMM5","Station_Nam":"ONAMIA RANGER STATION","Latitude":"46.06770","Longitude":"-93.66660","Snowdepth":"12.000","Units":"in","Rept_Date":"2020-03-06 14"},"coordinates":[838,6455]},{"type":"Point","properties":{"Station_ID":"NCKN6","Station_Nam":"NORTH CREEK 5 SE","Latitude":"43.66110","Longitude":"-73.89690","Snowdepth":"12.000","Units":"in","Rept_Date":"2020-03-06 12"},"coordinates":[5478,4948]},{"type":"Point","properties":{"Station_ID":"MN7M8EBJ","Station_Nam":"LUTSEN 15.7 NNW","Latitude":"47.85324","Longitude":"-89.92908","Snowdepth":"12.000","Units":"in","Rept_Date":"2020-03-06 14"},"coordinates":[1715,7573]},{"type":"Point","properties":{"Station_ID":"MN-CW-29","Station_Nam":"BRAINERD 7.7 SSE, MN","Latitude":"46.24996","Longitude":"-94.14576","Snowdepth":"12.000","Units":"in","Rept_Date":"2020-03-06 13"},"coordinates":[726,6569]},{"type":"Point","properties":{"Station_ID":"LNGM5","Station_Nam":"LONG PRAIRIE","Latitude":"45.96460","Longitude":"-94.88920","Snowdepth":"12.000","Units":"in","Rept_Date":"2020-03-06 12"},"coordinates":[551,6391]},{"type":"Point","properties":{"Station_ID":"KSEM4","Station_Nam":"KALKASKA 11SE","Latitude":"44.58970","Longitude":"-85.04860","Snowdepth":"12.000","Units":"in","Rept_Date":"2020-03-06 13"},"coordinates":[2861,5530]},{"type":"Point","properties":{"Station_ID":"HGHN6","Station_Nam":"HIGHMARKET","Latitude":"43.57520","Longitude":"-75.52070","Snowdepth":"12.000","Units":"in","Rept_Date":"2020-03-06 10"},"coordinates":[5097,4894]},{"type":"Point","properties":{"Station_ID":"FARM1","Station_Nam":"FARMINGTON","Latitude":"44.68930","Longitude":"-70.15640","Snowdepth":"12.000","Units":"in","Rept_Date":"2020-03-06 12"},"coordinates":[6356,5592]},{"type":"Point","properties":{"Station_ID":"AUW","Station_Nam":"WAUSAU MUNICIPAL AIRPORT","Latitude":"44.92580","Longitude":"-89.62560","Snowdepth":"12.000","Units":"in","Rept_Date":"2020-03-06 12"},"coordinates":[1787,5740]},{"type":"Point","properties":{"Station_ID":"AMDW3","Station_Nam":"ALMOND-5 NE","Latitude":"44.30830","Longitude":"-89.34640","Snowdepth":"12.000","Units":"in","Rept_Date":"2020-03-06 14"},"coordinates":[1852,5353]},{"type":"Point","properties":{"Station_ID":"ALXM5","Station_Nam":"ALEXANDRIA","Latitude":"45.87820","Longitude":"-95.38270","Snowdepth":"12.000","Units":"in","Rept_Date":"2020-03-06 12"},"coordinates":[436,6336]},{"type":"Point","properties":{"Station_ID":"NH-GR-49","Station_Nam":"PLYMOUTH 3.7 N, NH","Latitude":"43.79048","Longitude":"-71.68413","Snowdepth":"11.500","Units":"in","Rept_Date":"2020-03-06 12"},"coordinates":[5997,5029]},{"type":"Point","properties":{"Station_ID":"NH-CR-27","Station_Nam":"TAMWORTH 0.4 NNW, NH","Latitude":"43.86449","Longitude":"-71.26610","Snowdepth":"11.500","Units":"in","Rept_Date":"2020-03-06 12"},"coordinates":[6096,5075]},{"type":"Point","properties":{"Station_ID":"MI-CP-7","Station_Nam":"DRUMMOND 2.9 NE, MI","Latitude":"46.05329","Longitude":"-83.69060","Snowdepth":"11.500","Units":"in","Rept_Date":"2020-03-06 14"},"coordinates":[3180,6446]},{"type":"Point","properties":{"Station_ID":"CAN-ON-42","Station_Nam":"VANKLEEK HILL 3.4 S, CA","Latitude":"45.48987","Longitude":"-74.64570","Snowdepth":"11.500","Units":"in","Rept_Date":"2020-03-06 12"},"coordinates":[5302,6093]},{"type":"Point","properties":{"Station_ID":"CAN-ON-491","Station_Nam":"MILVERTON 1.1 ESE- CANWARN, CAN","Latitude":"43.56074","Longitude":"-80.90887","Snowdepth":"11.300","Units":"in","Rept_Date":"2020-03-06 12"},"coordinates":[3832,4885]},{"type":"Point","properties":{"Station_ID":"WI-BT-14","Station_Nam":"OAKLAND 9.0 ENE, WI","Latitude":"45.95184","Longitude":"-92.21653","Snowdepth":"11.000","Units":"in","Rept_Date":"2020-03-06 13"},"coordinates":[1179,6383]},{"type":"Point","properties":{"Station_ID":"STRW3","Station_Nam":"STRATFORD 1NW","Latitude":"44.81750","Longitude":"-90.08990","Snowdepth":"11.000","Units":"in","Rept_Date":"2020-03-06 12"},"coordinates":[1678,5672]},{"type":"Point","properties":{"Station_ID":"RRVM4","Station_Nam":"RAPID RIVER 9S","Latitude":"45.78750","Longitude":"-86.93920","Snowdepth":"11.000","Units":"in","Rept_Date":"2020-03-06 13"},"coordinates":[2417,6280]},{"type":"Point","properties":{"Station_ID":"RARM4","Station_Nam":"RAPID RIVER 1 SW","Latitude":"45.91500","Longitude":"-86.98800","Snowdepth":"11.000","Units":"in","Rept_Date":"2020-03-06 12"},"coordinates":[2406,6360]},{"type":"Point","properties":{"Station_ID":"NPTV1","Station_Nam":"NEWPORT","Latitude":"44.94900","Longitude":"-72.19120","Snowdepth":"11.000","Units":"in","Rept_Date":"2020-03-06 12"},"coordinates":[5878,5755]},{"type":"Point","properties":{"Station_ID":"MLLW3","Station_Nam":"MERRILL 8W","Latitude":"45.17810","Longitude":"-89.84810","Snowdepth":"11.000","Units":"in","Rept_Date":"2020-03-06 12"},"coordinates":[1735,5898]},{"type":"Point","properties":{"Station_ID":"LNCM1","Station_Nam":"LINCOLN WATER DISTRICT","Latitude":"45.32410","Longitude":"-68.58300","Snowdepth":"11.000","Units":"in","Rept_Date":"2020-03-06 13"},"coordinates":[6725,5990]},{"type":"Point","properties":{"Station_ID":"FLAM4","Station_Nam":"FIFE LAKE 2WNW","Latitude":"44.58480","Longitude":"-85.36530","Snowdepth":"11.000","Units":"in","Rept_Date":"2020-03-06 12"},"coordinates":[2787,5527]},{"type":"Point","properties":{"Station_ID":"EPTW3","Station_Nam":"EAU PLEINE TENDER","Latitude":"44.77220","Longitude":"-89.76720","Snowdepth":"11.000","Units":"in","Rept_Date":"2020-03-06 13"},"coordinates":[1753,5644]},{"type":"Point","properties":{"Station_ID":"DTVM4","Station_Nam":"DETOUR VILLAGE","Latitude":"45.99830","Longitude":"-83.90130","Snowdepth":"11.000","Units":"in","Rept_Date":"2020-03-06 13"},"coordinates":[3130,6412]},{"type":"Point","properties":{"Station_ID":"CAN-PE-7","Station_Nam":"MORELL 1.4 NNW, CA","Latitude":"46.42741","Longitude":"-62.70870","Snowdepth":"11.000","Units":"in","Rept_Date":"2020-03-06 12"},"coordinates":[8104,6680]},{"type":"Point","properties":{"Station_ID":"CAN-NB-98","Station_Nam":"HOYT 4.2 S, CAN","Latitude":"45.54763","Longitude":"-66.55440","Snowdepth":"11.000","Units":"in","Rept_Date":"2020-03-06 11"},"coordinates":[7201,6129]},{"type":"Point","properties":{"Station_ID":"BRLN3","Station_Nam":"BERLIN","Latitude":"44.45350","Longitude":"-71.18540","Snowdepth":"11.000","Units":"in","Rept_Date":"2020-03-06 12"},"coordinates":[6115,5444]},{"type":"Point","properties":{"Station_ID":"BETM1","Station_Nam":"BETHEL 6 SSE","Latitude":"44.32000","Longitude":"-70.75680","Snowdepth":"11.000","Units":"in","Rept_Date":"2020-03-06 12"},"coordinates":[6215,5361]},{"type":"Point","properties":{"Station_ID":"APN","Station_Nam":"PHELPS COLLINS FIELD","Latitude":"45.07810","Longitude":"-83.56030","Snowdepth":"11.000","Units":"in","Rept_Date":"2020-03-07 00"},"coordinates":[3210,5835]},{"type":"Point","properties":{"Station_ID":"ALPM4","Station_Nam":"SNOW PAID OBSERVER FOR KAPN","Latitude":"45.03110","Longitude":"-83.55970","Snowdepth":"11.000","Units":"in","Rept_Date":"2020-03-06 18"},"coordinates":[3210,5806]},{"type":"Point","properties":{"Station_ID":"ABGW3","Station_Nam":"AMBERG 9 E","Latitude":"45.48250","Longitude":"-87.81190","Snowdepth":"11.000","Units":"in","Rept_Date":"2020-03-06 12"},"coordinates":[2212,6089]},{"type":"Point","properties":{"Station_ID":"MSTN3","Station_Nam":"MOORE STATION","Latitude":"44.34060","Longitude":"-71.89390","Snowdepth":"10.600","Units":"in","Rept_Date":"2020-03-06 12"},"coordinates":[5948,5374]},{"type":"Point","properties":{"Station_ID":"WI-LN-2","Station_Nam":"MERRILL 7.0 W, WI","Latitude":"45.17746","Longitude":"-89.84820","Snowdepth":"10.500","Units":"in","Rept_Date":"2020-03-06 12"},"coordinates":[1734,5898]},{"type":"Point","properties":{"Station_ID":"ND-CS-25","Station_Nam":"FARGO 2.1 N, ND","Latitude":"46.90816","Longitude":"-96.77937","Snowdepth":"10.500","Units":"in","Rept_Date":"2020-03-06 14"},"coordinates":[108,6981]},{"type":"Point","properties":{"Station_ID":"MN-MW-8","Station_Nam":"AUSTIN 2.4 W, MN","Latitude":"43.67190","Longitude":"-93.02280","Snowdepth":"10.500","Units":"in","Rept_Date":"2020-03-06 13"},"coordinates":[989,4955]},{"type":"Point","properties":{"Station_ID":"MI-BZ-1","Station_Nam":"BENZONIA 5.3 S, MI","Latitude":"44.53976","Longitude":"-86.10650","Snowdepth":"10.500","Units":"in","Rept_Date":"2020-03-06 14"},"coordinates":[2613,5498]},{"type":"Point","properties":{"Station_ID":"CAN-ON-187","Station_Nam":"WATERLOO 1.9 E - UOFW, CAN","Latitude":"43.47024","Longitude":"-80.50634","Snowdepth":"10.200","Units":"in","Rept_Date":"2020-03-06 13"},"coordinates":[3927,4829]},{"type":"Point","properties":{"Station_ID":"CAN-NS-163","Station_Nam":"SYDNEY MINES 2.2 WNW, CAN","Latitude":"46.24851","Longitude":"-60.25161","Snowdepth":"10.200","Units":"in","Rept_Date":"2020-03-06 12"},"coordinates":[8681,6568]},{"type":"Point","properties":{"Station_ID":"WLKM5","Station_Nam":"AH-GWAH-CHING","Latitude":"47.15000","Longitude":"-94.65000","Snowdepth":"10.000","Units":"in","Rept_Date":"2020-03-06 11"},"coordinates":[608,7133]},{"type":"Point","properties":{"Station_ID":"VT-WR-2","Station_Nam":"POMFRET 2.6 N, VT","Latitude":"43.74230","Longitude":"-72.52550","Snowdepth":"10.000","Units":"in","Rept_Date":"2020-03-06 12"},"coordinates":[5800,4999]},{"type":"Point","properties":{"Station_ID":"VT-OG-11","Station_Nam":"VERSHIRE 1.5 ESE, VT","Latitude":"43.96138","Longitude":"-72.29777","Snowdepth":"10.000","Units":"in","Rept_Date":"2020-03-06 12"},"coordinates":[5853,5136]},{"type":"Point","properties":{"Station_ID":"STIM4","Station_Nam":"ST IGNACE","Latitude":"45.86080","Longitude":"-84.71960","Snowdepth":"10.000","Units":"in","Rept_Date":"2020-03-06 12"},"coordinates":[2938,6326]},{"type":"Point","properties":{"Station_ID":"SBNM5","Station_Nam":"SABIN","Latitude":"46.77690","Longitude":"-96.65610","Snowdepth":"10.000","Units":"in","Rept_Date":"2020-03-06 13"},"coordinates":[137,6899]},{"type":"Point","properties":{"Station_ID":"PERV1","Station_Nam":"PERU","Latitude":"43.26670","Longitude":"-72.90000","Snowdepth":"10.000","Units":"in","Rept_Date":"2020-03-06 12"},"coordinates":[5712,4701]},{"type":"Point","properties":{"Station_ID":"OTTM5","Station_Nam":"OTTERTAIL,MN","Latitude":"46.41670","Longitude":"-95.56670","Snowdepth":"10.000","Units":"in","Rept_Date":"2020-03-06 13"},"coordinates":[392,6674]},{"type":"Point","properties":{"Station_ID":"ND-CS-1","Station_Nam":"WEST FARGO 3.8 SSE, ND","Latitude":"46.82750","Longitude":"-96.85280","Snowdepth":"10.000","Units":"in","Rept_Date":"2020-03-06 13"},"coordinates":[91,6931]},{"type":"Point","properties":{"Station_ID":"MN-WC-8","Station_Nam":"WASECA 2.0 N, MN","Latitude":"44.11194","Longitude":"-93.49972","Snowdepth":"10.000","Units":"in","Rept_Date":"2020-03-06 12"},"coordinates":[877,5230]},{"type":"Point","properties":{"Station_ID":"MI-MC-4","Station_Nam":"ST. IGNACE 0.5SE, MI","Latitude":"45.86057","Longitude":"-84.71980","Snowdepth":"10.000","Units":"in","Rept_Date":"2020-03-06 12"},"coordinates":[2938,6325]},{"type":"Point","properties":{"Station_ID":"MI-GT-21","Station_Nam":"KINGSLEY 2.7 ENE, MI","Latitude":"44.59871","Longitude":"-85.48426","Snowdepth":"10.000","Units":"in","Rept_Date":"2020-03-06 13"},"coordinates":[2759,5535]},{"type":"Point","properties":{"Station_ID":"KGFK","Station_Nam":"GRAND FORKS INTERNATIONAL","Latitude":"47.95000","Longitude":"-97.18333","Snowdepth":"10.000","Units":"in","Rept_Date":"2020-03-07 06"},"coordinates":[13,7634]},{"type":"Point","properties":{"Station_ID":"JEFV1","Station_Nam":"JEFFERSONVILLE","Latitude":"44.58430","Longitude":"-72.78700","Snowdepth":"10.000","Units":"in","Rept_Date":"2020-03-06 12"},"coordinates":[5739,5526]},{"type":"Point","properties":{"Station_ID":"GFK","Station_Nam":"GRAND FORKS INTERNATIONAL AIRPORT","Latitude":"47.94920","Longitude":"-97.17610","Snowdepth":"10.000","Units":"in","Rept_Date":"2020-03-07 00"},"coordinates":[15,7633]},{"type":"Point","properties":{"Station_ID":"GFDN6","Station_Nam":"CHASES LAKE","Latitude":"43.75920","Longitude":"-75.29980","Snowdepth":"10.000","Units":"in","Rept_Date":"2020-03-06 11"},"coordinates":[5149,5010]},{"type":"Point","properties":{"Station_ID":"ESAM4","Station_Nam":"ESCANABA","Latitude":"45.74380","Longitude":"-87.04060","Snowdepth":"10.000","Units":"in","Rept_Date":"2020-03-06 12"},"coordinates":[2393,6252]},{"type":"Point","properties":{"Station_ID":"CAN-PE-10","Station_Nam":"NEW LONDON 1.6 ENE, CA","Latitude":"46.46985","Longitude":"-63.49200","Snowdepth":"10.000","Units":"in","Rept_Date":"2020-03-06 12"},"coordinates":[7920,6707]},{"type":"Point","properties":{"Station_ID":"WDOV1","Station_Nam":"WEST DOVER","Latitude":"42.95000","Longitude":"-72.85000","Snowdepth":"9.800","Units":"in","Rept_Date":"2020-03-06 12"},"coordinates":[5724,4503]},{"type":"Point","properties":{"Station_ID":"WI-PT-8","Station_Nam":"RUDOLPH 2.1 NNE, WI","Latitude":"44.52553","Longitude":"-89.78677","Snowdepth":"9.500","Units":"in","Rept_Date":"2020-03-06 11"},"coordinates":[1749,5489]},{"type":"Point","properties":{"Station_ID":"VT-WS-19","Station_Nam":"WATERBURY 3.0 NW, VT","Latitude":"44.36060","Longitude":"-72.80770","Snowdepth":"9.500","Units":"in","Rept_Date":"2020-03-06 11"},"coordinates":[5734,5386]},{"type":"Point","properties":{"Station_ID":"ME-CM-98","Station_Nam":"SEBAGO 2.4 ESE, ME","Latitude":"43.88000","Longitude":"-70.63000","Snowdepth":"9.500","Units":"in","Rept_Date":"2020-03-06 16"},"coordinates":[6245,5085]},{"type":"Point","properties":{"Station_ID":"WSKW3","Station_Nam":"WAUSAUKEE","Latitude":"45.38020","Longitude":"-87.95660","Snowdepth":"9.000","Units":"in","Rept_Date":"2020-03-06 14"},"coordinates":[2178,6025]},{"type":"Point","properties":{"Station_ID":"WORV1","Station_Nam":"WORCESTER 2 W","Latitude":"44.37470","Longitude":"-72.58220","Snowdepth":"9.000","Units":"in","Rept_Date":"2020-03-06 12"},"coordinates":[5787,5395]},{"type":"Point","properties":{"Station_ID":"WI-CH-7","Station_Nam":"CHIPPEWA FALLS 1.2 E, WI","Latitude":"44.92920","Longitude":"-91.36730","Snowdepth":"9.000","Units":"in","Rept_Date":"2020-03-06 13"},"coordinates":[1378,5742]},{"type":"Point","properties":{"Station_ID":"WI-BR-2","Station_Nam":"CHETEK 2.0 SE, WI","Latitude":"45.29427","Longitude":"-91.62470","Snowdepth":"9.000","Units":"in","Rept_Date":"2020-03-06 13"},"coordinates":[1318,5971]},{"type":"Point","properties":{"Station_ID":"WENN3","Station_Nam":"P.O. BOX 197 WENTWORTH, NH","Latitude":"43.95190","Longitude":"-71.91560","Snowdepth":"9.000","Units":"in","Rept_Date":"2020-03-06 12"},"coordinates":[5943,5130]},{"type":"Point","properties":{"Station_ID":"VT-WS-33","Station_Nam":"WAITSFIELD 3.5 WNW, VT","Latitude":"44.20052","Longitude":"-72.89421","Snowdepth":"9.000","Units":"in","Rept_Date":"2020-03-06 13"},"coordinates":[5713,5286]},{"type":"Point","properties":{"Station_ID":"VT-LM-1","Station_Nam":"STOWE 0.2 SW, VT","Latitude":"44.46399","Longitude":"-72.69070","Snowdepth":"9.000","Units":"in","Rept_Date":"2020-03-06 12"},"coordinates":[5761,5451]},{"type":"Point","properties":{"Station_ID":"TOPM1","Station_Nam":"TOPSFIELD","Latitude":"45.43470","Longitude":"-67.72020","Snowdepth":"9.000","Units":"in","Rept_Date":"2020-03-06 12"},"coordinates":[6928,6059]},{"type":"Point","properties":{"Station_ID":"TETM5","Station_Nam":"TETTEGOUCHE STATE PARK","Latitude":"47.33900","Longitude":"-91.19590","Snowdepth":"9.000","Units":"in","Rept_Date":"2020-03-06 14"},"coordinates":[1418,7251]},{"type":"Point","properties":{"Station_ID":"STPW3","Station_Nam":"STEVENS POINT","Latitude":"44.51130","Longitude":"-89.58550","Snowdepth":"9.000","Units":"in","Rept_Date":"2020-03-06 13"},"coordinates":[1796,5481]},{"type":"Point","properties":{"Station_ID":"RRLW3","Station_Nam":"MERRILL,WI","Latitude":"45.17860","Longitude":"-89.66170","Snowdepth":"9.000","Units":"in","Rept_Date":"2020-03-06 14"},"coordinates":[1778,5898]},{"type":"Point","properties":{"Station_ID":"RCEM5","Station_Nam":"RICE","Latitude":"45.75760","Longitude":"-94.20720","Snowdepth":"9.000","Units":"in","Rept_Date":"2020-03-06 13"},"coordinates":[711,6261]},{"type":"Point","properties":{"Station_ID":"PVRW3","Station_Nam":"PLOVER-2-E WATER TREATMENT PLANT","Latitude":"44.45920","Longitude":"-89.49530","Snowdepth":"9.000","Units":"in","Rept_Date":"2020-03-06 13"},"coordinates":[1817,5448]},{"type":"Point","properties":{"Station_ID":"PLFV1","Station_Nam":"PLAINFIELD","Latitude":"44.27610","Longitude":"-72.41500","Snowdepth":"9.000","Units":"in","Rept_Date":"2020-03-06 12"},"coordinates":[5826,5333]},{"type":"Point","properties":{"Station_ID":"PBAN8","Station_Nam":"SITE 1-3MI.N","Latitude":"48.97420","Longitude":"-97.23860","Snowdepth":"9.000","Units":"in","Rept_Date":"2020-03-06 13"},"coordinates":[0,8275]},{"type":"Point","properties":{"Station_ID":"PARM4","Station_Nam":"PARENT BAY","Latitude":"45.79610","Longitude":"-86.40110","Snowdepth":"9.000","Units":"in","Rept_Date":"2020-03-06 14"},"coordinates":[2543,6285]},{"type":"Point","properties":{"Station_ID":"ONAM4","Station_Nam":"ONAWAY 4N","Latitude":"45.41080","Longitude":"-84.22330","Snowdepth":"9.000","Units":"in","Rept_Date":"2020-03-06 23"},"coordinates":[3055,6044]},{"type":"Point","properties":{"Station_ID":"NCON3","Station_Nam":"NORTH CONWAY","Latitude":"44.05620","Longitude":"-71.12970","Snowdepth":"9.000","Units":"in","Rept_Date":"2020-03-06 13"},"coordinates":[6128,5196]},{"type":"Point","properties":{"Station_ID":"MNEY8CTB","Station_Nam":"MIDLAND JUNCTION 2.2 ENE","Latitude":"44.33041","Longitude":"-91.95891","Snowdepth":"9.000","Units":"in","Rept_Date":"2020-03-06 14"},"coordinates":[1239,5367]},{"type":"Point","properties":{"Station_ID":"MN-CY-1","Station_Nam":"MOORHEAD 2.0 N, MN","Latitude":"46.88766","Longitude":"-96.74800","Snowdepth":"9.000","Units":"in","Rept_Date":"2020-03-06 15"},"coordinates":[115,6969]},{"type":"Point","properties":{"Station_ID":"MEDW3","Station_Nam":"MEDFORD","Latitude":"45.13080","Longitude":"-90.34390","Snowdepth":"9.000","Units":"in","Rept_Date":"2020-03-06 14"},"coordinates":[1618,5868]},{"type":"Point","properties":{"Station_ID":"HTLM4","Station_Nam":"SNOW PAID OBSERVER FOR KHTL","Latitude":"44.34470","Longitude":"-84.67730","Snowdepth":"9.000","Units":"in","Rept_Date":"2020-03-06 18"},"coordinates":[2948,5376]},{"type":"Point","properties":{"Station_ID":"HTL","Station_Nam":"ROSCOMMON COUNTY AIRPORT","Latitude":"44.35000","Longitude":"-84.66670","Snowdepth":"9.000","Units":"in","Rept_Date":"2020-03-07 00"},"coordinates":[2951,5380]},{"type":"Point","properties":{"Station_ID":"HRTM1","Station_Nam":"HARTFORD","Latitude":"44.37440","Longitude":"-70.31620","Snowdepth":"9.000","Units":"in","Rept_Date":"2020-03-06 12"},"coordinates":[6318,5395]},{"type":"Point","properties":{"Station_ID":"FDRN8","Station_Nam":"FARGO 3S","Latitude":"46.82930","Longitude":"-96.79620","Snowdepth":"9.000","Units":"in","Rept_Date":"2020-03-07 00"},"coordinates":[104,6932]},{"type":"Point","properties":{"Station_ID":"FAR","Station_Nam":"HECTOR INTERNATIONAL ARPT","Latitude":"46.91560","Longitude":"-96.81440","Snowdepth":"9.000","Units":"in","Rept_Date":"2020-03-07 00"},"coordinates":[100,6986]},{"type":"Point","properties":{"Station_ID":"CLGM5","Station_Nam":"COLLEGEVILLE ST JOHN","Latitude":"45.57940","Longitude":"-94.39200","Snowdepth":"9.000","Units":"in","Rept_Date":"2020-03-07 00"},"coordinates":[668,6149]},{"type":"Point","properties":{"Station_ID":"BFSW3","Station_Nam":"BIG FALLS-5 NW","Latitude":"44.63980","Longitude":"-89.11330","Snowdepth":"9.000","Units":"in","Rept_Date":"2020-03-06 13"},"coordinates":[1907,5561]},{"type":"Point","properties":{"Station_ID":"WI-WN-9","Station_Nam":"NEENAH 1.1 ENE, WI","Latitude":"44.17370","Longitude":"-88.45130","Snowdepth":"8.500","Units":"in","Rept_Date":"2020-03-06 13"},"coordinates":[2062,5269]},{"type":"Point","properties":{"Station_ID":"MN-MR-13","Station_Nam":"LITTLE FALLS 8.0 NE, MN","Latitude":"46.06785","Longitude":"-94.24789","Snowdepth":"8.500","Units":"in","Rept_Date":"2020-03-06 13"},"coordinates":[702,6455]},{"type":"Point","properties":{"Station_ID":"MN-AA-76","Station_Nam":"NOWTHEN 2.9 SSE, MN","Latitude":"45.30360","Longitude":"-93.42620","Snowdepth":"8.500","Units":"in","Rept_Date":"2020-03-06 14"},"coordinates":[895,5977]},{"type":"Point","properties":{"Station_ID":"MI-EM-5","Station_Nam":"HARBOR SPRINGS 0.7 ENE, MI","Latitude":"45.43450","Longitude":"-84.97540","Snowdepth":"8.500","Units":"in","Rept_Date":"2020-03-06 12"},"coordinates":[2878,6059]},{"type":"Point","properties":{"Station_ID":"CMFN3","Station_Nam":"COMERFORD STATION","Latitude":"44.32360","Longitude":"-71.99780","Snowdepth":"8.200","Units":"in","Rept_Date":"2020-03-06 12"},"coordinates":[5924,5363]},{"type":"Point","properties":{"Station_ID":"WSFW3","Station_Nam":"TOWN OF WESTFORD","Latitude":"43.47190","Longitude":"-88.88250","Snowdepth":"8.000","Units":"in","Rept_Date":"2020-03-06 13"},"coordinates":[1961,4830]},{"type":"Point","properties":{"Station_ID":"WI-TY-2","Station_Nam":"SHELDON 8.1 ENE, WI","Latitude":"45.35598","Longitude":"-90.80296","Snowdepth":"8.000","Units":"in","Rept_Date":"2020-03-06 13"},"coordinates":[1510,6009]},{"type":"Point","properties":{"Station_ID":"WI-GN-5","Station_Nam":"MONTICELLO 2.2 SE, WI","Latitude":"42.71990","Longitude":"-89.56360","Snowdepth":"8.000","Units":"in","Rept_Date":"2020-03-06 13"},"coordinates":[1801,4359]},{"type":"Point","properties":{"Station_ID":"WI-DD-16","Station_Nam":"BEAVER DAM 2.4 WNW, WI","Latitude":"43.47210","Longitude":"-88.88280","Snowdepth":"8.000","Units":"in","Rept_Date":"2020-03-06 13"},"coordinates":[1961,4830]},{"type":"Point","properties":{"Station_ID":"VT-WR-17","Station_Nam":"ROCHESTER 2.3 NE, VT","Latitude":"43.89418","Longitude":"-72.76992","Snowdepth":"8.000","Units":"in","Rept_Date":"2020-03-06 12"},"coordinates":[5743,5094]},{"type":"Point","properties":{"Station_ID":"ROWM3","Station_Nam":"ROWE 3NE","Latitude":"42.73500","Longitude":"-72.86920","Snowdepth":"8.000","Units":"in","Rept_Date":"2020-03-06 14"},"coordinates":[5719,4368]},{"type":"Point","properties":{"Station_ID":"OCON6","Station_Nam":"OSCEOLA","Latitude":"43.49910","Longitude":"-75.71210","Snowdepth":"8.000","Units":"in","Rept_Date":"2020-03-06 12"},"coordinates":[5052,4847]},{"type":"Point","properties":{"Station_ID":"NY-OD-2","Station_Nam":"POINT ROCK 0.6 SE, NY","Latitude":"43.37335","Longitude":"-75.53840","Snowdepth":"8.000","Units":"in","Rept_Date":"2020-03-06 13"},"coordinates":[5093,4768]},{"type":"Point","properties":{"Station_ID":"NY-ER-166","Station_Nam":"BOSTON 2.5 NE, NY","Latitude":"42.65480","Longitude":"-78.70300","Snowdepth":"8.000","Units":"in","Rept_Date":"2020-03-06 12"},"coordinates":[4350,4318]},{"type":"Point","properties":{"Station_ID":"NUMM5","Station_Nam":"NEW ULM 3SE","Latitude":"44.29450","Longitude":"-94.40840","Snowdepth":"8.000","Units":"in","Rept_Date":"2020-03-06 12"},"coordinates":[664,5345]},{"type":"Point","properties":{"Station_ID":"MN-MC-16","Station_Nam":"HUTCHINSON 0.1 ENE, MN","Latitude":"44.88633","Longitude":"-94.37503","Snowdepth":"8.000","Units":"in","Rept_Date":"2020-03-06 13"},"coordinates":[672,5715]},{"type":"Point","properties":{"Station_ID":"MLCM5","Station_Nam":"MILACA","Latitude":"45.75320","Longitude":"-93.66170","Snowdepth":"8.000","Units":"in","Rept_Date":"2020-03-06 13"},"coordinates":[839,6258]},{"type":"Point","properties":{"Station_ID":"MI-CF-9","Station_Nam":"GRAYLING 15.8 NE, MI","Latitude":"44.80464","Longitude":"-84.46313","Snowdepth":"8.000","Units":"in","Rept_Date":"2020-03-06 11"},"coordinates":[2998,5664]},{"type":"Point","properties":{"Station_ID":"MCLN8","Station_Nam":"MC LEOD,ND","Latitude":"46.40250","Longitude":"-97.23810","Snowdepth":"8.000","Units":"in","Rept_Date":"2020-03-06 15"},"coordinates":[0,6665]},{"type":"Point","properties":{"Station_ID":"MAPM4","Station_Nam":"MAPLE CITY 1E","Latitude":"44.85500","Longitude":"-85.83520","Snowdepth":"8.000","Units":"in","Rept_Date":"2020-03-06 23"},"coordinates":[2676,5696]},{"type":"Point","properties":{"Station_ID":"FORM5","Station_Nam":"FOREST LAKE 5NE","Latitude":"45.33170","Longitude":"-92.89820","Snowdepth":"8.000","Units":"in","Rept_Date":"2020-03-06 13"},"coordinates":[1019,5994]},{"type":"Point","properties":{"Station_ID":"BENN6","Station_Nam":"BENNETTS BRIDGE","Latitude":"43.53180","Longitude":"-75.95260","Snowdepth":"8.000","Units":"in","Rept_Date":"2020-03-06 12"},"coordinates":[4996,4867]},{"type":"Point","properties":{"Station_ID":"ARTM5","Station_Nam":"ARTICHOKE LAKE 1 E","Latitude":"45.38560","Longitude":"-96.12570","Snowdepth":"8.000","Units":"in","Rept_Date":"2020-03-07 00"},"coordinates":[261,6028]},{"type":"Point","properties":{"Station_ID":"CAN-ON-593","Station_Nam":"KITCHENER 4.5 E, CAN","Latitude":"43.45147","Longitude":"-80.43180","Snowdepth":"7.900","Units":"in","Rept_Date":"2020-03-06 14"},"coordinates":[3944,4817]},{"type":"Point","properties":{"Station_ID":"WI-CT-4","Station_Nam":"MENASHA 5.4 ESE, WI","Latitude":"44.19640","Longitude":"-88.33070","Snowdepth":"7.500","Units":"in","Rept_Date":"2020-03-06 13"},"coordinates":[2091,5283]},{"type":"Point","properties":{"Station_ID":"VT-AD-20","Station_Nam":"HANCOCK 0.3 S, VT","Latitude":"43.92166","Longitude":"-72.84042","Snowdepth":"7.500","Units":"in","Rept_Date":"2020-03-06 12"},"coordinates":[5726,5111]},{"type":"Point","properties":{"Station_ID":"WSWN6","Station_Nam":"WARSAW","Latitude":"42.74220","Longitude":"-78.20850","Snowdepth":"7.000","Units":"in","Rept_Date":"2020-03-06 12"},"coordinates":[4466,4373]},{"type":"Point","properties":{"Station_ID":"WNDM1","Station_Nam":"WINDHAM 2NW","Latitude":"43.85670","Longitude":"-70.46630","Snowdepth":"7.000","Units":"in","Rept_Date":"2020-03-06 12"},"coordinates":[6283,5071]},{"type":"Point","properties":{"Station_ID":"WLDM5","Station_Nam":"WILD RIVER STATE PARK","Latitude":"45.52310","Longitude":"-92.74890","Snowdepth":"7.000","Units":"in","Rept_Date":"2020-03-06 14"},"coordinates":[1054,6114]},{"type":"Point","properties":{"Station_ID":"WIRW3","Station_Nam":"WIS RAPIDS GRAND AV B","Latitude":"44.39940","Longitude":"-89.83050","Snowdepth":"7.000","Units":"in","Rept_Date":"2020-03-06 13"},"coordinates":[1739,5410]},{"type":"Point","properties":{"Station_ID":"WI-WN-19","Station_Nam":"OSHKOSH 1.6 ESE, WI","Latitude":"44.01097","Longitude":"-88.52354","Snowdepth":"7.000","Units":"in","Rept_Date":"2020-03-06 13"},"coordinates":[2045,5167]},{"type":"Point","properties":{"Station_ID":"WASW3","Station_Nam":"WASHINGTON IS","Latitude":"45.35800","Longitude":"-86.89110","Snowdepth":"7.000","Units":"in","Rept_Date":"2020-03-06 12"},"coordinates":[2428,6011]},{"type":"Point","properties":{"Station_ID":"VQAW3","Station_Nam":"VIROQUA","Latitude":"43.55970","Longitude":"-90.87560","Snowdepth":"7.000","Units":"in","Rept_Date":"2020-03-06 13"},"coordinates":[1493,4885]},{"type":"Point","properties":{"Station_ID":"SHIW3","Station_Nam":"SHIOCTON","Latitude":"44.43890","Longitude":"-88.58390","Snowdepth":"7.000","Units":"in","Rept_Date":"2020-03-06 14"},"coordinates":[2031,5435]},{"type":"Point","properties":{"Station_ID":"RDSV1","Station_Nam":"READSBORO SNOCOR","Latitude":"42.79170","Longitude":"-72.91390","Snowdepth":"7.000","Units":"in","Rept_Date":"2020-03-06 12"},"coordinates":[5709,4404]},{"type":"Point","properties":{"Station_ID":"OSNW3","Station_Nam":"OSHKOSH-NORTH","Latitude":"44.03500","Longitude":"-88.54390","Snowdepth":"7.000","Units":"in","Rept_Date":"2020-03-06 13"},"coordinates":[2041,5182]},{"type":"Point","properties":{"Station_ID":"NVLV1","Station_Nam":"NASHVILLE","Latitude":"44.44970","Longitude":"-72.92640","Snowdepth":"7.000","Units":"in","Rept_Date":"2020-03-06 12"},"coordinates":[5706,5442]},{"type":"Point","properties":{"Station_ID":"MRAM5","Station_Nam":"MORA","Latitude":"45.87760","Longitude":"-93.31470","Snowdepth":"7.000","Units":"in","Rept_Date":"2020-03-06 13"},"coordinates":[921,6336]},{"type":"Point","properties":{"Station_ID":"MOOM5","Station_Nam":"MOOSE LAKE,MN","Latitude":"46.45000","Longitude":"-92.75780","Snowdepth":"7.000","Units":"in","Rept_Date":"2020-03-07 06"},"coordinates":[1052,6695]},{"type":"Point","properties":{"Station_ID":"MN228YHJ","Station_Nam":"RICE 2.8 ESE","Latitude":"45.73609","Longitude":"-94.17230","Snowdepth":"7.000","Units":"in","Rept_Date":"2020-03-06 13"},"coordinates":[720,6248]},{"type":"Point","properties":{"Station_ID":"MN-SH-985","Station_Nam":"PRINCETON 3.3 WSW, MN","Latitude":"45.55211","Longitude":"-93.64481","Snowdepth":"7.000","Units":"in","Rept_Date":"2020-03-06 10"},"coordinates":[843,6132]},{"type":"Point","properties":{"Station_ID":"MN-FM-10","Station_Nam":"WYKOFF 3.1 NW, MN","Latitude":"43.74340","Longitude":"-92.30650","Snowdepth":"7.000","Units":"in","Rept_Date":"2020-03-06 13"},"coordinates":[1158,5000]},{"type":"Point","properties":{"Station_ID":"ME-CM-54","Station_Nam":"WINDHAM 3.9 NW, ME","Latitude":"43.85787","Longitude":"-70.46200","Snowdepth":"7.000","Units":"in","Rept_Date":"2020-03-06 12"},"coordinates":[6284,5071]},{"type":"Point","properties":{"Station_ID":"MALN6","Station_Nam":"MALONE","Latitude":"44.84180","Longitude":"-74.30600","Snowdepth":"7.000","Units":"in","Rept_Date":"2020-03-06 12"},"coordinates":[5382,5687]},{"type":"Point","properties":{"Station_ID":"MA-HS-7","Station_Nam":"PLAINFIELD 2.2 SW, MA","Latitude":"42.49272","Longitude":"-72.94540","Snowdepth":"7.000","Units":"in","Rept_Date":"2020-03-06 13"},"coordinates":[5701,4216]},{"type":"Point","properties":{"Station_ID":"LADW3","Station_Nam":"LADYSMITH WTP","Latitude":"45.44290","Longitude":"-91.08970","Snowdepth":"7.000","Units":"in","Rept_Date":"2020-03-06 13"},"coordinates":[1443,6064]},{"type":"Point","properties":{"Station_ID":"ISEM5","Station_Nam":"ISLE 12N","Latitude":"46.31970","Longitude":"-93.50140","Snowdepth":"7.000","Units":"in","Rept_Date":"2020-03-06 14"},"coordinates":[877,6613]},{"type":"Point","properties":{"Station_ID":"HYTS2","Station_Nam":"HAYTI 1W","Latitude":"44.66330","Longitude":"-97.22670","Snowdepth":"7.000","Units":"in","Rept_Date":"2020-03-06 14"},"coordinates":[3,5576]},{"type":"Point","properties":{"Station_ID":"HOLM1","Station_Nam":"HOLLIS","Latitude":"43.64750","Longitude":"-70.67490","Snowdepth":"7.000","Units":"in","Rept_Date":"2020-03-06 10"},"coordinates":[6234,4940]},{"type":"Point","properties":{"Station_ID":"HMYM1","Station_Nam":"HARMONY","Latitude":"44.94660","Longitude":"-69.54560","Snowdepth":"7.000","Units":"in","Rept_Date":"2020-03-06 11"},"coordinates":[6499,5753]},{"type":"Point","properties":{"Station_ID":"EJDM4","Station_Nam":"EAST JORDAN","Latitude":"45.15190","Longitude":"-85.13220","Snowdepth":"7.000","Units":"in","Rept_Date":"2020-03-06 13"},"coordinates":[2841,5882]},{"type":"Point","properties":{"Station_ID":"DGVW3","Station_Nam":"DODGEVILLE","Latitude":"42.96670","Longitude":"-90.11670","Snowdepth":"7.000","Units":"in","Rept_Date":"2020-03-06 13"},"coordinates":[1671,4513]},{"type":"Point","properties":{"Station_ID":"CORM1","Station_Nam":"CORINNA","Latitude":"44.91980","Longitude":"-69.24180","Snowdepth":"7.000","Units":"in","Rept_Date":"2020-03-06 16"},"coordinates":[6571,5736]},{"type":"Point","properties":{"Station_ID":"CHRM4","Station_Nam":"CHARLEVOIX","Latitude":"45.31720","Longitude":"-85.26720","Snowdepth":"7.000","Units":"in","Rept_Date":"2020-03-06 13"},"coordinates":[2810,5985]},{"type":"Point","properties":{"Station_ID":"NH-MR-45","Station_Nam":"NORTHFIELD 2.8 E, NH","Latitude":"43.43945","Longitude":"-71.53730","Snowdepth":"6.500","Units":"in","Rept_Date":"2020-03-06 12"},"coordinates":[6032,4809]},{"type":"Point","properties":{"Station_ID":"MI-PI-1","Station_Nam":"ROGERS CITY 0.2 WSW, MI","Latitude":"45.41740","Longitude":"-83.81060","Snowdepth":"6.500","Units":"in","Rept_Date":"2020-03-06 13"},"coordinates":[3151,6048]},{"type":"Point","properties":{"Station_ID":"ME-YK-3","Station_Nam":"HOLLIS CENTER 5.4 NW, ME","Latitude":"43.64750","Longitude":"-70.67510","Snowdepth":"6.500","Units":"in","Rept_Date":"2020-03-06 12"},"coordinates":[6234,4940]},{"type":"Point","properties":{"Station_ID":"CAN-NB-29","Station_Nam":"SUSSEX 1.0 WNW - KWRC, CAN","Latitude":"45.72670","Longitude":"-65.52858","Snowdepth":"6.300","Units":"in","Rept_Date":"2020-03-06 12"},"coordinates":[7442,6242]},{"type":"Point","properties":{"Station_ID":"CAN-QC-16","Station_Nam":"SAINT-ARMAND 3.6 W, CAN","Latitude":"45.02631","Longitude":"-73.08795","Snowdepth":"6.100","Units":"in","Rept_Date":"2020-03-06 12"},"coordinates":[5668,5803]},{"type":"Point","properties":{"Station_ID":"WYON6","Station_Nam":"WYOMING 3W","Latitude":"42.82060","Longitude":"-78.14810","Snowdepth":"6.000","Units":"in","Rept_Date":"2020-03-06 12"},"coordinates":[4480,4422]},{"type":"Point","properties":{"Station_ID":"WMRM5","Station_Nam":"WILLMAR 5N","Latitude":"45.19010","Longitude":"-95.05860","Snowdepth":"6.000","Units":"in","Rept_Date":"2020-03-06 12"},"coordinates":[512,5906]},{"type":"Point","properties":{"Station_ID":"WI-WH-7","Station_Nam":"WILD ROSE 0.5 E, WI","Latitude":"44.17764","Longitude":"-89.23812","Snowdepth":"6.000","Units":"in","Rept_Date":"2020-03-06 13"},"coordinates":[1878,5272]},{"type":"Point","properties":{"Station_ID":"WACM5","Station_Nam":"WACONIA","Latitude":"44.85330","Longitude":"-93.80260","Snowdepth":"6.000","Units":"in","Rept_Date":"2020-03-06 12"},"coordinates":[806,5695]},{"type":"Point","properties":{"Station_ID":"VT-CL-23","Station_Nam":"RYEGATE 1.5 N, VT","Latitude":"44.23024","Longitude":"-72.10523","Snowdepth":"6.000","Units":"in","Rept_Date":"2020-03-06 12"},"coordinates":[5899,5305]},{"type":"Point","properties":{"Station_ID":"THLM5","Station_Nam":"THEILMAN 1SSW","Latitude":"44.28130","Longitude":"-92.19430","Snowdepth":"6.000","Units":"in","Rept_Date":"2020-03-06 13"},"coordinates":[1184,5336]},