{"type":"Topology","objects":{"snowdepth_geo":{"type":"GeometryCollection","name":"snowdepth","crs":{"type":"name","properties":{"name":"urn:ogc:def:crs:OGC:1.3:CRS84"}},"geometries":[{"type":"Point","properties":{"Station_ID":"PRKM4","Station_Nam":"MUNISING EAST","Latitude":"46.42580","Longitude":"-86.62000","Snowdepth":"76.500","Units":"in","Rept_Date":"2020-03-15 06"},"coordinates":[2492,5589]},{"type":"Point","properties":{"Station_ID":"HTLN3","Station_Nam":"HERMIT LAKE SNOWPLOT","Latitude":"44.26130","Longitude":"-71.28330","Snowdepth":"62.000","Units":"in","Rept_Date":"2020-03-14 09"},"coordinates":[6092,3789]},{"type":"Point","properties":{"Station_ID":"OGIQ6","Station_Nam":"OGOKI CAMP","Latitude":"50.76680","Longitude":"-87.85820","Snowdepth":"61.100","Units":"in","Rept_Date":"2020-03-15 06"},"coordinates":[2202,9200]},{"type":"Point","properties":{"Station_ID":"MMNV1","Station_Nam":"MT. MANSFIELD","Latitude":"44.52480","Longitude":"-72.81540","Snowdepth":"61.000","Units":"in","Rept_Date":"2020-03-14 20"},"coordinates":[5732,4008]},{"type":"Point","properties":{"Station_ID":"PDLM4","Station_Nam":"PAINESDALE","Latitude":"47.04160","Longitude":"-88.67170","Snowdepth":"49.000","Units":"in","Rept_Date":"2020-03-14 12"},"coordinates":[2011,6102]},{"type":"Point","properties":{"Station_ID":"HVCN3","Station_Nam":"HARVARD CABIN SNOWPLOT","Latitude":"44.26630","Longitude":"-71.27790","Snowdepth":"48.000","Units":"in","Rept_Date":"2020-03-14 09"},"coordinates":[6093,3793]},{"type":"Point","properties":{"Station_ID":"AUDQ6","Station_Nam":"AUDEN","Latitude":"48.52600","Longitude":"-82.57570","Snowdepth":"47.640","Units":"in","Rept_Date":"2020-03-15 06"},"coordinates":[3441,7336]},{"type":"Point","properties":{"Station_ID":"ME-AR-23","Station_Nam":"MADAWASKA 2.5 E, ME","Latitude":"47.34933","Longitude":"-68.28141","Snowdepth":"44.000","Units":"in","Rept_Date":"2020-03-14 11"},"coordinates":[6796,6358]},{"type":"Point","properties":{"Station_ID":"DVLQ6","Station_Nam":"DEVIOUS LAKE","Latitude":"49.19890","Longitude":"-87.76440","Snowdepth":"43.460","Units":"in","Rept_Date":"2020-03-15 06"},"coordinates":[2224,7896]},{"type":"Point","properties":{"Station_ID":"CAN-NL-82","Station_Nam":"GANDER 2.7 NW, CAN","Latitude":"48.97737","Longitude":"-54.63396","Snowdepth":"40.900","Units":"in","Rept_Date":"2020-03-14 10"},"coordinates":[9999,7712]},{"type":"Point","properties":{"Station_ID":"ME-AR-18","Station_Nam":"NEW SWEDEN 4.9 NNW, ME","Latitude":"47.01080","Longitude":"-68.14390","Snowdepth":"39.500","Units":"in","Rept_Date":"2020-03-14 12"},"coordinates":[6828,6076]},{"type":"Point","properties":{"Station_ID":"KSGM4","Station_Nam":"KEARSARGE","Latitude":"47.27520","Longitude":"-88.41700","Snowdepth":"38.000","Units":"in","Rept_Date":"2020-03-14 12"},"coordinates":[2070,6296]},{"type":"Point","properties":{"Station_ID":"MNSM4","Station_Nam":"MUNISING","Latitude":"46.41210","Longitude":"-86.66250","Snowdepth":"35.000","Units":"in","Rept_Date":"2020-03-14 10"},"coordinates":[2482,5578]},{"type":"Point","properties":{"Station_ID":"CAN-NB-13","Station_Nam":"BATHURST 3.8 NW, CAN","Latitude":"47.64212","Longitude":"-65.68756","Snowdepth":"34.000","Units":"in","Rept_Date":"2020-03-14 11"},"coordinates":[7405,6601]},{"type":"Point","properties":{"Station_ID":"CAN-NB-105","Station_Nam":"SISSON BROOK 3.8 E, CAN","Latitude":"46.98305","Longitude":"-67.32532","Snowdepth":"33.900","Units":"in","Rept_Date":"2020-03-14 12"},"coordinates":[7020,6053]},{"type":"Point","properties":{"Station_ID":"WLFM5","Station_Nam":"WOLF RIDGE ENVIRON LEARNING CENTER","Latitude":"47.38240","Longitude":"-91.19730","Snowdepth":"33.000","Units":"in","Rept_Date":"2020-03-14 12"},"coordinates":[1418,6385]},{"type":"Point","properties":{"Station_ID":"VANM1","Station_Nam":"VAN BUREN","Latitude":"47.16600","Longitude":"-67.93900","Snowdepth":"33.000","Units":"in","Rept_Date":"2020-03-14 11"},"coordinates":[6876,6205]},{"type":"Point","properties":{"Station_ID":"CAN-QC-47","Station_Nam":"SAINTE-FOY 1.8 ENE, CAN","Latitude":"46.76934","Longitude":"-71.27124","Snowdepth":"32.500","Units":"in","Rept_Date":"2020-03-14 12"},"coordinates":[6094,5875]},{"type":"Point","properties":{"Station_ID":"MQT","Station_Nam":"MARQUETTE, MI","Latitude":"46.53140","Longitude":"-87.54920","Snowdepth":"32.000","Units":"in","Rept_Date":"2020-03-15 06"},"coordinates":[2274,5677]},{"type":"Point","properties":{"Station_ID":"CARM1","Station_Nam":"CARIBOU WFO","Latitude":"46.86810","Longitude":"-68.01250","Snowdepth":"32.000","Units":"in","Rept_Date":"2020-03-14 12"},"coordinates":[6859,5957]},{"type":"Point","properties":{"Station_ID":"CAR","Station_Nam":"CARIBOU, ME","Latitude":"46.86830","Longitude":"-68.01360","Snowdepth":"32.000","Units":"in","Rept_Date":"2020-03-14 12"},"coordinates":[6859,5957]},{"type":"Point","properties":{"Station_ID":"CAN-NL-65","Station_Nam":"KIPPENS 0.7 NE, CA","Latitude":"48.55436","Longitude":"-58.61850","Snowdepth":"31.500","Units":"in","Rept_Date":"2020-03-14 12"},"coordinates":[9064,7360]},{"type":"Point","properties":{"Station_ID":"PTLQ6","Station_Nam":"PORTAGE LAKE","Latitude":"49.06950","Longitude":"-86.65940","Snowdepth":"31.140","Units":"in","Rept_Date":"2020-03-15 06"},"coordinates":[2483,7789]},{"type":"Point","properties":{"Station_ID":"STEM4","Station_Nam":"STEUBEN","Latitude":"46.18530","Longitude":"-86.46410","Snowdepth":"31.000","Units":"in","Rept_Date":"2020-03-14 13"},"coordinates":[2529,5389]},{"type":"Point","properties":{"Station_ID":"MI-BG-3","Station_Nam":"L'ANSE 17.8 SE, MI","Latitude":"46.55730","Longitude":"-88.20770","Snowdepth":"30.000","Units":"in","Rept_Date":"2020-03-14 13"},"coordinates":[2119,5699]},{"type":"Point","properties":{"Station_ID":"CAN-NB-11","Station_Nam":"MIRAMICHI 3.3 S, CAN","Latitude":"46.99343","Longitude":"-65.50690","Snowdepth":"30.000","Units":"in","Rept_Date":"2020-03-14 11"},"coordinates":[7447,6062]},{"type":"Point","properties":{"Station_ID":"HERM4","Station_Nam":"HERMAN,MI","Latitude":"46.65000","Longitude":"-88.33330","Snowdepth":"29.000","Units":"in","Rept_Date":"2020-03-14 12"},"coordinates":[2090,5776]},{"type":"Point","properties":{"Station_ID":"SVBQ6","Station_Nam":"SAVANT BASE","Latitude":"50.28730","Longitude":"-90.65670","Snowdepth":"27.170","Units":"in","Rept_Date":"2020-03-15 06"},"coordinates":[1545,8802]},{"type":"Point","properties":{"Station_ID":"LILM1","Station_Nam":"LILLE","Latitude":"47.27770","Longitude":"-68.10520","Snowdepth":"26.000","Units":"in","Rept_Date":"2020-03-14 11"},"coordinates":[6837,6298]},{"type":"Point","properties":{"Station_ID":"IBLM5","Station_Nam":"ISABELLA 14W","Latitude":"47.59360","Longitude":"-91.65140","Snowdepth":"26.000","Units":"in","Rept_Date":"2020-03-14 14"},"coordinates":[1311,6561]},{"type":"Point","properties":{"Station_ID":"TRIQ6","Station_Nam":"TRIO LAKE","Latitude":"49.22880","Longitude":"-87.22920","Snowdepth":"25.710","Units":"in","Rept_Date":"2020-03-15 06"},"coordinates":[2349,7921]},{"type":"Point","properties":{"Station_ID":"MI-HG-1","Station_Nam":"HOUGHTON 1.6 ESE, MI","Latitude":"47.10774","Longitude":"-88.52940","Snowdepth":"24.000","Units":"in","Rept_Date":"2020-03-14 13"},"coordinates":[2044,6157]},{"type":"Point","properties":{"Station_ID":"ME-AR-15","Station_Nam":"PRESQUE ISLE 1.3 WSW, ME","Latitude":"46.67960","Longitude":"-68.01270","Snowdepth":"24.000","Units":"in","Rept_Date":"2020-03-14 12"},"coordinates":[6859,5801]},{"type":"Point","properties":{"Station_ID":"CAN-NB-96","Station_Nam":"SAINT-IGNACE 2.6 NE, CAN","Latitude":"46.71424","Longitude":"-65.05609","Snowdepth":"23.600","Units":"in","Rept_Date":"2020-03-14 11"},"coordinates":[7553,5829]},{"type":"Point","properties":{"Station_ID":"KABQ6","Station_Nam":"CAB LAKE","Latitude":"49.59950","Longitude":"-89.17990","Snowdepth":"23.310","Units":"in","Rept_Date":"2020-03-15 06"},"coordinates":[1891,8229]},{"type":"Point","properties":{"Station_ID":"SOCQ6","Station_Nam":"SOCKET LAKE","Latitude":"50.77870","Longitude":"-91.79300","Snowdepth":"23.270","Units":"in","Rept_Date":"2020-03-15 06"},"coordinates":[1278,9210]},{"type":"Point","properties":{"Station_ID":"MI-SH-1","Station_Nam":"MANISTIQUE 2.7 NW, MI","Latitude":"45.99042","Longitude":"-86.28266","Snowdepth":"23.100","Units":"in","Rept_Date":"2020-03-14 13"},"coordinates":[2571,5227]},{"type":"Point","properties":{"Station_ID":"WRPW3","Station_Nam":"WATER PURIFICATION PLANT","Latitude":"44.38800","Longitude":"-89.80550","Snowdepth":"23.000","Units":"in","Rept_Date":"2020-03-14 11"},"coordinates":[1744,3894]},{"type":"Point","properties":{"Station_ID":"CRVW3","Station_Nam":"CRIVITZ HIGH FALLS","Latitude":"45.35750","Longitude":"-88.19190","Snowdepth":"23.000","Units":"in","Rept_Date":"2020-03-14 12"},"coordinates":[2123,4701]},{"type":"Point","properties":{"Station_ID":"CATQ6","Station_Nam":"CAT LAKE","Latitude":"51.72690","Longitude":"-91.82210","Snowdepth":"22.050","Units":"in","Rept_Date":"2020-03-15 06"},"coordinates":[1271,9999]},{"type":"Point","properties":{"Station_ID":"WI-VL-10","Station_Nam":"LAND O LAKES 4.3 WNW, WI","Latitude":"46.17440","Longitude":"-89.30380","Snowdepth":"22.000","Units":"in","Rept_Date":"2020-03-14 13"},"coordinates":[1862,5380]},{"type":"Point","properties":{"Station_ID":"WI-VL-9","Station_Nam":"LAND O' LAKES 11.7 W, WI","Latitude":"46.19023","Longitude":"-89.45790","Snowdepth":"21.000","Units":"in","Rept_Date":"2020-03-14 13"},"coordinates":[1826,5393]},{"type":"Point","properties":{"Station_ID":"SSMM4","Station_Nam":"SAULT STE MARIE","Latitude":"46.48660","Longitude":"-84.40250","Snowdepth":"21.000","Units":"in","Rept_Date":"2020-03-14 12"},"coordinates":[3013,5640]},{"type":"Point","properties":{"Station_ID":"LNOW3","Station_Nam":"LAND O LAKES","Latitude":"46.19000","Longitude":"-89.45700","Snowdepth":"21.000","Units":"in","Rept_Date":"2020-03-14 12"},"coordinates":[1826,5393]},{"type":"Point","properties":{"Station_ID":"GLDM4","Station_Nam":"GLADSTONE NO. 2","Latitude":"45.84330","Longitude":"-87.03910","Snowdepth":"21.000","Units":"in","Rept_Date":"2020-03-14 11"},"coordinates":[2394,5105]},{"type":"Point","properties":{"Station_ID":"BRDM1","Station_Nam":"BRIDGEWATER","Latitude":"46.42870","Longitude":"-67.84370","Snowdepth":"21.000","Units":"in","Rept_Date":"2020-03-14 22"},"coordinates":[6899,5592]},{"type":"Point","properties":{"Station_ID":"ANJM4","Station_Nam":"SNOW PAID OBSERVER FOR KANJ","Latitude":"46.48670","Longitude":"-84.40260","Snowdepth":"21.000","Units":"in","Rept_Date":"2020-03-14 18"},"coordinates":[3013,5640]},{"type":"Point","properties":{"Station_ID":"ANJ","Station_Nam":"SAULT STE MARIE","Latitude":"46.46670","Longitude":"-84.36670","Snowdepth":"21.000","Units":"in","Rept_Date":"2020-03-15 00"},"coordinates":[3021,5623]},{"type":"Point","properties":{"Station_ID":"PDGM4","Station_Nam":"PAULDING","Latitude":"46.39760","Longitude":"-89.17940","Snowdepth":"20.000","Units":"in","Rept_Date":"2020-03-15 00"},"coordinates":[1891,5566]},{"type":"Point","properties":{"Station_ID":"MI-MQ-19","Station_Nam":"ISHPEMING 7.2 SW, MI","Latitude":"46.40550","Longitude":"-87.75670","Snowdepth":"20.000","Units":"in","Rept_Date":"2020-03-14 11"},"coordinates":[2225,5573]},{"type":"Point","properties":{"Station_ID":"ME-PN-45","Station_Nam":"MILLINOCKET 2.7 ESE, ME","Latitude":"45.65002","Longitude":"-68.64472","Snowdepth":"20.000","Units":"in","Rept_Date":"2020-03-14 12"},"coordinates":[6711,4944]},{"type":"Point","properties":{"Station_ID":"EVRW3","Station_Nam":"EAGLE RIVER-4 E","Latitude":"45.91890","Longitude":"-89.15280","Snowdepth":"20.000","Units":"in","Rept_Date":"2020-03-14 11"},"coordinates":[1898,5168]},{"type":"Point","properties":{"Station_ID":"CAN-NB-18","Station_Nam":"MCLEOD HILL 1.1 ENE, CA","Latitude":"46.02725","Longitude":"-66.67460","Snowdepth":"20.000","Units":"in","Rept_Date":"2020-03-14 12"},"coordinates":[7173,5258]},{"type":"Point","properties":{"Station_ID":"BBEM4","Station_Nam":"BIG BAY 9SW","Latitude":"46.74620","Longitude":"-87.88160","Snowdepth":"20.000","Units":"in","Rept_Date":"2020-03-14 12"},"coordinates":[2196,5856]},{"type":"Point","properties":{"Station_ID":"WI-IR-2","Station_Nam":"MERCER 2.0 SE, WI","Latitude":"46.14749","Longitude":"-90.03097","Snowdepth":"19.800","Units":"in","Rept_Date":"2020-03-14 13"},"coordinates":[1692,5358]},{"type":"Point","properties":{"Station_ID":"VT-OL-12","Station_Nam":"GREENSBORO 3.9 NNE, VT","Latitude":"44.63100","Longitude":"-72.28000","Snowdepth":"19.000","Units":"in","Rept_Date":"2020-03-14 13"},"coordinates":[5858,4096]},{"type":"Point","properties":{"Station_ID":"SUAW3","Station_Nam":"SUAMICO","Latitude":"44.60190","Longitude":"-88.09780","Snowdepth":"19.000","Units":"in","Rept_Date":"2020-03-14 11"},"coordinates":[2145,4072]},{"type":"Point","properties":{"Station_ID":"NOHM5","Station_Nam":"NORTHOME","Latitude":"47.83590","Longitude":"-94.25550","Snowdepth":"19.000","Units":"in","Rept_Date":"2020-03-14 12"},"coordinates":[700,6762]},{"type":"Point","properties":{"Station_ID":"NH-CS-10","Station_Nam":"RANDOLPH 1.4 NE, NH","Latitude":"44.38824","Longitude":"-71.26950","Snowdepth":"19.000","Units":"in","Rept_Date":"2020-03-14 12"},"coordinates":[6095,3894]},{"type":"Point","properties":{"Station_ID":"CAN-PE-19","Station_Nam":"CHARLOTTETOWN 6.5 NNW, CAN","Latitude":"46.29235","Longitude":"-63.17271","Snowdepth":"18.900","Units":"in","Rept_Date":"2020-03-14 12"},"coordinates":[7995,5478]},{"type":"Point","properties":{"Station_ID":"WI-VL-14","Station_Nam":"BOULDER JUNCTION 1.4 NE, WI","Latitude":"46.12840","Longitude":"-89.62470","Snowdepth":"18.000","Units":"in","Rept_Date":"2020-03-14 13"},"coordinates":[1787,5342]},{"type":"Point","properties":{"Station_ID":"VT-CL-3","Station_Nam":"GROTON 4.4 WSW, VT","Latitude":"44.19440","Longitude":"-72.28240","Snowdepth":"18.000","Units":"in","Rept_Date":"2020-03-14 11"},"coordinates":[5857,3733]},{"type":"Point","properties":{"Station_ID":"RGNM1","Station_Nam":"RANGELEY 2NW","Latitude":"44.98940","Longitude":"-70.67220","Snowdepth":"18.000","Units":"in","Rept_Date":"2020-03-14 14"},"coordinates":[6235,4395]},{"type":"Point","properties":{"Station_ID":"PRDM4","Station_Nam":"PARADISE","Latitude":"46.60380","Longitude":"-85.03960","Snowdepth":"18.000","Units":"in","Rept_Date":"2020-03-14 10"},"coordinates":[2863,5737]},{"type":"Point","properties":{"Station_ID":"MN-IT-23","Station_Nam":"BOVEY 13.4 N, MN","Latitude":"47.48855","Longitude":"-93.43497","Snowdepth":"18.000","Units":"in","Rept_Date":"2020-03-14 13"},"coordinates":[893,6473]},{"type":"Point","properties":{"Station_ID":"MN-IT-17","Station_Nam":"GRAND RAPIDS 6.1 N, MN","Latitude":"47.31165","Longitude":"-93.55036","Snowdepth":"18.000","Units":"in","Rept_Date":"2020-03-14 13"},"coordinates":[866,6326]},{"type":"Point","properties":{"Station_ID":"LVDW3","Station_Nam":"LAC VIEUX DESERT","Latitude":"46.12110","Longitude":"-89.07580","Snowdepth":"18.000","Units":"in","Rept_Date":"2020-03-14 14"},"coordinates":[1916,5336]},{"type":"Point","properties":{"Station_ID":"WI-BY-2","Station_Nam":"MELLEN 18.6 SW, WI","Latitude":"46.16937","Longitude":"-90.98090","Snowdepth":"17.000","Units":"in","Rept_Date":"2020-03-14 13"},"coordinates":[1469,5376]},{"type":"Point","properties":{"Station_ID":"STGW3","Station_Nam":"ST GERMAIN","Latitude":"45.91550","Longitude":"-89.48940","Snowdepth":"17.000","Units":"in","Rept_Date":"2020-03-14 11"},"coordinates":[1819,5165]},{"type":"Point","properties":{"Station_ID":"PHEW3","Station_Nam":"PHELPS","Latitude":"46.06630","Longitude":"-89.07520","Snowdepth":"17.000","Units":"in","Rept_Date":"2020-03-14 12"},"coordinates":[1916,5290]},{"type":"Point","properties":{"Station_ID":"MN9UO3KA","Station_Nam":"GAPPAS LANDING CG 3.8 N","Latitude":"48.49307","Longitude":"-93.03634","Snowdepth":"17.000","Units":"in","Rept_Date":"2020-03-14 12"},"coordinates":[986,7309]},{"type":"Point","properties":{"Station_ID":"MIEM4","Station_Nam":"MICHIGAMME 3WNW","Latitude":"46.54530","Longitude":"-88.18000","Snowdepth":"17.000","Units":"in","Rept_Date":"2020-03-14 12"},"coordinates":[2126,5689]},{"type":"Point","properties":{"Station_ID":"MI-CP-14","Station_Nam":"SAULT STE. MARIE 2.2 E, MI","Latitude":"46.48933","Longitude":"-84.31971","Snowdepth":"17.000","Units":"in","Rept_Date":"2020-03-14 13"},"coordinates":[3032,5642]},{"type":"Point","properties":{"Station_ID":"KABM5","Station_Nam":"KABETOGAMA LAKE VISITOR CTR","Latitude":"48.40880","Longitude":"-93.04840","Snowdepth":"17.000","Units":"in","Rept_Date":"2020-03-14 12"},"coordinates":[983,7239]},{"type":"Point","properties":{"Station_ID":"INL","Station_Nam":"FALLS INTERNATIONAL ARPT","Latitude":"48.56640","Longitude":"-93.40310","Snowdepth":"17.000","Units":"in","Rept_Date":"2020-03-15 00"},"coordinates":[900,7370]},{"type":"Point","properties":{"Station_ID":"IFSM5","Station_Nam":"INTERNATIONAL FALLS SNOW","Latitude":"48.57780","Longitude":"-93.39640","Snowdepth":"17.000","Units":"in","Rept_Date":"2020-03-14 12"},"coordinates":[902,7379]},{"type":"Point","properties":{"Station_ID":"HURW3","Station_Nam":"HURLEY","Latitude":"46.46250","Longitude":"-90.19550","Snowdepth":"17.000","Units":"in","Rept_Date":"2020-03-14 13"},"coordinates":[1653,5620]},{"type":"Point","properties":{"Station_ID":"DLHM5","Station_Nam":"DULUTH NWS","Latitude":"46.83680","Longitude":"-92.21080","Snowdepth":"17.000","Units":"in","Rept_Date":"2020-03-15 06"},"coordinates":[1180,5931]},{"type":"Point","properties":{"Station_ID":"DLH","Station_Nam":"DULUTH, MN","Latitude":"46.83690","Longitude":"-92.21030","Snowdepth":"17.000","Units":"in","Rept_Date":"2020-03-15 00"},"coordinates":[1180,5931]},{"type":"Point","properties":{"Station_ID":"CMKW3","Station_Nam":"CLAM LAKE 4W","Latitude":"46.16940","Longitude":"-90.98080","Snowdepth":"17.000","Units":"in","Rept_Date":"2020-03-14 12"},"coordinates":[1469,5376]},{"type":"Point","properties":{"Station_ID":"CAN-NS-60","Station_Nam":"SYDNEY FORKS, CAN","Latitude":"46.05645","Longitude":"-60.31510","Snowdepth":"17.000","Units":"in","Rept_Date":"2020-03-14 14"},"coordinates":[8666,5282]},{"type":"Point","properties":{"Station_ID":"BNDM5","Station_Nam":"ELY 25E","Latitude":"47.97190","Longitude":"-91.44860","Snowdepth":"17.000","Units":"in","Rept_Date":"2020-03-14 12"},"coordinates":[1359,6875]},{"type":"Point","properties":{"Station_ID":"CAN-NS-103","Station_Nam":"TRAFALGAR 4.9 WSW, CAN","Latitude":"45.26217","Longitude":"-62.72285","Snowdepth":"16.500","Units":"in","Rept_Date":"2020-03-14 12"},"coordinates":[8101,4621]},{"type":"Point","properties":{"Station_ID":"WTNM4","Station_Nam":"WATTON 2WSW","Latitude":"46.52660","Longitude":"-88.64240","Snowdepth":"16.000","Units":"in","Rept_Date":"2020-03-14 12"},"coordinates":[2017,5673]},{"type":"Point","properties":{"Station_ID":"WI-BY-22","Station_Nam":"MASON 11.5 WNW, WI","Latitude":"46.50198","Longitude":"-91.28339","Snowdepth":"16.000","Units":"in","Rept_Date":"2020-03-14 14"},"coordinates":[1398,5653]},{"type":"Point","properties":{"Station_ID":"MNV905PW","Station_Nam":"ROOSEVELT 5.3 N","Latitude":"48.87933","Longitude":"-95.08224","Snowdepth":"16.000","Units":"in","Rept_Date":"2020-03-14 12"},"coordinates":[506,7630]},{"type":"Point","properties":{"Station_ID":"LEIM5","Station_Nam":"ORR 3E","Latitude":"48.05810","Longitude":"-92.75220","Snowdepth":"16.000","Units":"in","Rept_Date":"2020-03-14 11"},"coordinates":[1053,6947]},{"type":"Point","properties":{"Station_ID":"JKMM1","Station_Nam":"JACKMAN","Latitude":"45.62600","Longitude":"-70.24600","Snowdepth":"16.000","Units":"in","Rept_Date":"2020-03-14 11"},"coordinates":[6335,4924]},{"type":"Point","properties":{"Station_ID":"GHMN3","Station_Nam":"PINKHAM NOTCH","Latitude":"44.25800","Longitude":"-71.25250","Snowdepth":"16.000","Units":"in","Rept_Date":"2020-03-14 10"},"coordinates":[6099,3786]},{"type":"Point","properties":{"Station_ID":"GGRM4","Station_Nam":"GREEN GARDEN NO.2","Latitude":"46.45330","Longitude":"-87.30380","Snowdepth":"16.000","Units":"in","Rept_Date":"2020-03-14 12"},"coordinates":[2332,5612]},{"type":"Point","properties":{"Station_ID":"EMBM5","Station_Nam":"EMBARASS,MN","Latitude":"47.65810","Longitude":"-92.19580","Snowdepth":"16.000","Units":"in","Rept_Date":"2020-03-14 13"},"coordinates":[1184,6614]},{"type":"Point","properties":{"Station_ID":"ELYM5","Station_Nam":"ELY","Latitude":"47.90560","Longitude":"-91.82830","Snowdepth":"16.000","Units":"in","Rept_Date":"2020-03-14 13"},"coordinates":[1270,6820]},{"type":"Point","properties":{"Station_ID":"COVM4","Station_Nam":"COVINGTON","Latitude":"46.55880","Longitude":"-88.54190","Snowdepth":"16.000","Units":"in","Rept_Date":"2020-03-14 12"},"coordinates":[2041,5700]},{"type":"Point","properties":{"Station_ID":"CAN-NB-2","Station_Nam":"GRAFTON 2.7 NNE, CA","Latitude":"46.17062","Longitude":"-67.55330","Snowdepth":"16.000","Units":"in","Rept_Date":"2020-03-14 11"},"coordinates":[6967,5377]},{"type":"Point","properties":{"Station_ID":"CAN-ON-526","Station_Nam":"HILTON BEACH 0.7 SW - MNRF, CAN","Latitude":"46.25357","Longitude":"-83.90014","Snowdepth":"15.700","Units":"in","Rept_Date":"2020-03-14 12"},"coordinates":[3130,5446]},{"type":"Point","properties":{"Station_ID":"FTHQ6","Station_Nam":"FORT HOPE","Latitude":"51.55820","Longitude":"-87.90510","Snowdepth":"15.550","Units":"in","Rept_Date":"2020-03-15 06"},"coordinates":[2191,9859]},{"type":"Point","properties":{"Station_ID":"WI-BY-14","Station_Nam":"ASHLAND 9.8 W, WI","Latitude":"46.59742","Longitude":"-91.07856","Snowdepth":"15.500","Units":"in","Rept_Date":"2020-03-14 12"},"coordinates":[1446,5732]},{"type":"Point","properties":{"Station_ID":"WI-IR-3","Station_Nam":"PENCE 0.1 E, WI","Latitude":"46.41555","Longitude":"-90.27013","Snowdepth":"15.000","Units":"in","Rept_Date":"2020-03-14 13"},"coordinates":[1635,5581]},{"type":"Point","properties":{"Station_ID":"TOGM5","Station_Nam":"CELINA 2E","Latitude":"47.86630","Longitude":"-93.02660","Snowdepth":"15.000","Units":"in","Rept_Date":"2020-03-14 13"},"coordinates":[989,6788]},{"type":"Point","properties":{"Station_ID":"MI-DL-1","Station_Nam":"GARDEN CORNERS 0.8 NW, MI","Latitude":"45.89815","Longitude":"-86.54850","Snowdepth":"15.000","Units":"in","Rept_Date":"2020-03-14 13"},"coordinates":[2509,5150]},{"type":"Point","properties":{"Station_ID":"LPLN6","Station_Nam":"LAKE PLACID 2 S","Latitude":"44.30420","Longitude":"-73.98390","Snowdepth":"15.000","Units":"in","Rept_Date":"2020-03-14 12"},"coordinates":[5458,3825]},{"type":"Point","properties":{"Station_ID":"KINM1","Station_Nam":"KINGFIELD","Latitude":"44.95950","Longitude":"-70.17530","Snowdepth":"15.000","Units":"in","Rept_Date":"2020-03-14 12"},"coordinates":[6352,4370]},{"type":"Point","properties":{"Station_ID":"JCBM4","Station_Nam":"JACOBSVILLE","Latitude":"47.00830","Longitude":"-88.43180","Snowdepth":"15.000","Units":"in","Rept_Date":"2020-03-14 11"},"coordinates":[2067,6074]},{"type":"Point","properties":{"Station_ID":"IRMM4","Station_Nam":"WWTP","Latitude":"46.46670","Longitude":"-90.18330","Snowdepth":"15.000","Units":"in","Rept_Date":"2020-03-14 12"},"coordinates":[1656,5623]},{"type":"Point","properties":{"Station_ID":"GDCM4","Station_Nam":"GARDEN CORNERS","Latitude":"45.89830","Longitude":"-86.54850","Snowdepth":"15.000","Units":"in","Rept_Date":"2020-03-14 12"},"coordinates":[2509,5151]},{"type":"Point","properties":{"Station_ID":"CAN-NS-94","Station_Nam":"MARGAREE FORKS 2.6 SSE CBN, CAN","Latitude":"46.30937","Longitude":"-61.07603","Snowdepth":"15.000","Units":"in","Rept_Date":"2020-03-14 13"},"coordinates":[8487,5493]},{"type":"Point","properties":{"Station_ID":"AVTW3","Station_Nam":"ARBOR VITAE-JOHNSON LAKE","Latitude":"45.89940","Longitude":"-89.72670","Snowdepth":"15.000","Units":"in","Rept_Date":"2020-03-14 11"},"coordinates":[1763,5152]},{"type":"Point","properties":{"Station_ID":"MN-SL-15","Station_Nam":"CHISHOLM 0.4 WSW, MN","Latitude":"47.48557","Longitude":"-92.88690","Snowdepth":"14.500","Units":"in","Rept_Date":"2020-03-14 13"},"coordinates":[1021,6471]},{"type":"Point","properties":{"Station_ID":"MN-BK-6","Station_Nam":"LAKE PARK 6.0 S, MN","Latitude":"46.79850","Longitude":"-96.12180","Snowdepth":"14.500","Units":"in","Rept_Date":"2020-03-14 13"},"coordinates":[262,5899]},{"type":"Point","properties":{"Station_ID":"CAN-ON-757","Station_Nam":"SAULT STE. MARIE 2.8 ESE - GLFC, CAN","Latitude":"46.50300","Longitude":"-84.30300","Snowdepth":"14.400","Units":"in","Rept_Date":"2020-03-14 13"},"coordinates":[3036,5654]},{"type":"Point","properties":{"Station_ID":"WRSM5","Station_Nam":"WRENSHALL","Latitude":"46.61550","Longitude":"-92.38380","Snowdepth":"14.000","Units":"in","Rept_Date":"2020-03-14 13"},"coordinates":[1139,5747]},{"type":"Point","properties":{"Station_ID":"SUTV1","Station_Nam":"SUTTON","Latitude":"44.61220","Longitude":"-72.04810","Snowdepth":"14.000","Units":"in","Rept_Date":"2020-03-14 12"},"coordinates":[5912,4081]},{"type":"Point","properties":{"Station_ID":"RANM1","Station_Nam":"RANGELEY","Latitude":"44.98910","Longitude":"-70.67190","Snowdepth":"14.000","Units":"in","Rept_Date":"2020-03-14 13"},"coordinates":[6235,4394]},{"type":"Point","properties":{"Station_ID":"MWN","Station_Nam":"MOUNT WASHINGTON","Latitude":"44.26670","Longitude":"-71.30000","Snowdepth":"14.000","Units":"in","Rept_Date":"2020-03-14 12"},"coordinates":[6088,3793]},{"type":"Point","properties":{"Station_ID":"KMWN","Station_Nam":"MOUNT WASHINGTON","Latitude":"44.26666","Longitude":"-71.30000","Snowdepth":"14.000","Units":"in","Rept_Date":"2020-03-15 06"},"coordinates":[6088,3793]},{"type":"Point","properties":{"Station_ID":"COKM5","Station_Nam":"COOK","Latitude":"47.85060","Longitude":"-92.69250","Snowdepth":"14.000","Units":"in","Rept_Date":"2020-03-14 11"},"coordinates":[1067,6775]},{"type":"Point","properties":{"Station_ID":"CLKM4","Station_Nam":"CLARKSBURG","Latitude":"46.49910","Longitude":"-87.84500","Snowdepth":"14.000","Units":"in","Rept_Date":"2020-03-14 11"},"coordinates":[2205,5650]},{"type":"Point","properties":{"Station_ID":"AVLV1","Station_Nam":"AVERILL","Latitude":"45.00570","Longitude":"-71.69030","Snowdepth":"14.000","Units":"in","Rept_Date":"2020-03-14 12"},"coordinates":[5996,4408]},{"type":"Point","properties":{"Station_ID":"AGNW3","Station_Nam":"ARGONNE-1.5 NW","Latitude":"45.67360","Longitude":"-88.90380","Snowdepth":"14.000","Units":"in","Rept_Date":"2020-03-14 12"},"coordinates":[1956,4964]},{"type":"Point","properties":{"Station_ID":"CAN-NB-16","Station_Nam":"DORCHESTER 1.0 SSE, CAN","Latitude":"45.89160","Longitude":"-64.51269","Snowdepth":"13.500","Units":"in","Rept_Date":"2020-03-14 11"},"coordinates":[7681,5145]},{"type":"Point","properties":{"Station_ID":"CAN-NB-97","Station_Nam":"NEW MARYLAND 0.6 NW, CAN","Latitude":"45.90112","Longitude":"-66.68739","Snowdepth":"13.400","Units":"in","Rept_Date":"2020-03-14 12"},"coordinates":[7170,5153]},{"type":"Point","properties":{"Station_ID":"ZNOM4","Station_Nam":"NORWAY","Latitude":"45.77810","Longitude":"-87.89560","Snowdepth":"13.000","Units":"in","Rept_Date":"2020-03-15 00"},"coordinates":[2193,5051]},{"type":"Point","properties":{"Station_ID":"WI-BY-1","Station_Nam":"BAYFIELD 8.8 N, WI","Latitude":"46.93855","Longitude":"-90.83490","Snowdepth":"13.000","Units":"in","Rept_Date":"2020-03-14 13"},"coordinates":[1503,6016]},{"type":"Point","properties":{"Station_ID":"VT-BN-12","Station_Nam":"STAMFORD 5.0 NNE, VT","Latitude":"42.82000","Longitude":"-73.02000","Snowdepth":"13.000","Units":"in","Rept_Date":"2020-03-14 21"},"coordinates":[5684,2590]},{"type":"Point","properties":{"Station_ID":"TAKW3","Station_Nam":"RICE RESERVOIR NO. 2","Latitude":"45.53770","Longitude":"-89.73220","Snowdepth":"13.000","Units":"in","Rept_Date":"2020-03-14 12"},"coordinates":[1762,4851]},{"type":"Point","properties":{"Station_ID":"MN-IT-1","Station_Nam":"GRAND RAPIDS 2.0 E, MN","Latitude":"47.22266","Longitude":"-93.49600","Snowdepth":"13.000","Units":"in","Rept_Date":"2020-03-14 13"},"coordinates":[878,6252]},{"type":"Point","properties":{"Station_ID":"CAN-MB-32","Station_Nam":"PINAWA 1.0 SW, CA","Latitude":"50.14747","Longitude":"-95.89020","Snowdepth":"13.000","Units":"in","Rept_Date":"2020-03-14 13"},"coordinates":[316,8685]},{"type":"Point","properties":{"Station_ID":"AURW3","Station_Nam":"AURORA","Latitude":"45.77000","Longitude":"-88.11810","Snowdepth":"13.000","Units":"in","Rept_Date":"2020-03-14 12"},"coordinates":[2141,5044]},{"type":"Point","properties":{"Station_ID":"ASTW3","Station_Nam":"ATHELSTANE","Latitude":"45.42500","Longitude":"-88.05750","Snowdepth":"13.000","Units":"in","Rept_Date":"2020-03-14 11"},"coordinates":[2155,4757]},{"type":"Point","properties":{"Station_ID":"NH-CR-15","Station_Nam":"JACKSON 3.7 NW, NH","Latitude":"44.19069","Longitude":"-71.22598","Snowdepth":"12.500","Units":"in","Rept_Date":"2020-03-14 12"},"coordinates":[6105,3730]},{"type":"Point","properties":{"Station_ID":"CAN-NB-64","Station_Nam":"KESWICK RIDGE 4.0 SE, CAN","Latitude":"45.97014","Longitude":"-66.85538","Snowdepth":"12.400","Units":"in","Rept_Date":"2020-03-14 13"},"coordinates":[7131,5210]},{"type":"Point","properties":{"Station_ID":"VT-ES-1","Station_Nam":"GRANBY 1.4 NW, VT","Latitude":"44.58330","Longitude":"-71.77870","Snowdepth":"12.000","Units":"in","Rept_Date":"2020-03-14 13"},"coordinates":[5975,4057]},{"type":"Point","properties":{"Station_ID":"PTBN3","Station_Nam":"PITTSBURG RESERVOIR","Latitude":"45.04690","Longitude":"-71.38300","Snowdepth":"12.000","Units":"in","Rept_Date":"2020-03-14 12"},"coordinates":[6068,4442]},{"type":"Point","properties":{"Station_ID":"NY-FK-7","Station_Nam":"SARANAC LAKE 6.2 N, NY","Latitude":"44.41359","Longitude":"-74.15211","Snowdepth":"12.000","Units":"in","Rept_Date":"2020-03-14 12"},"coordinates":[5418,3916]},{"type":"Point","properties":{"Station_ID":"MN-SL-108","Station_Nam":"IRON JUNCTION 3.4 NNW, MN","Latitude":"47.46150","Longitude":"-92.63130","Snowdepth":"12.000","Units":"in","Rept_Date":"2020-03-14 14"},"coordinates":[1081,6451]},{"type":"Point","properties":{"Station_ID":"MN-CW-22","Station_Nam":"FORT RIPLEY 0.8 N, MN","Latitude":"46.18089","Longitude":"-94.36510","Snowdepth":"12.000","Units":"in","Rept_Date":"2020-03-14 13"},"coordinates":[674,5386]},{"type":"Point","properties":{"Station_ID":"MN-CK-6","Station_Nam":"GRAND MARAIS 4.4 W, MN","Latitude":"47.74865","Longitude":"-90.43760","Snowdepth":"12.000","Units":"in","Rept_Date":"2020-03-14 13"},"coordinates":[1596,6690]},{"type":"Point","properties":{"Station_ID":"MI-OT-17","Station_Nam":"GAYLORD 4.1 S, MI","Latitude":"44.96388","Longitude":"-84.68467","Snowdepth":"12.000","Units":"in","Rept_Date":"2020-03-14 12"},"coordinates":[2946,4373]},{"type":"Point","properties":{"Station_ID":"ME-FR-4","Station_Nam":"NEW SHARON 2.0 NW, ME","Latitude":"44.66582","Longitude":"-70.02720","Snowdepth":"12.000","Units":"in","Rept_Date":"2020-03-14 12"},"coordinates":[6386,4125]},{"type":"Point","properties":{"Station_ID":"LBKV1","Station_Nam":"LYE BROOK","Latitude":"43.05000","Longitude":"-73.03330","Snowdepth":"12.000","Units":"in","Rept_Date":"2020-03-15 06"},"coordinates":[5681,2781]},{"type":"Point","properties":{"Station_ID":"INDN6","Station_Nam":"INDIAN LAKE","Latitude":"43.75500","Longitude":"-74.27560","Snowdepth":"12.000","Units":"in","Rept_Date":"2020-03-14 13"},"coordinates":[5389,3368]},{"type":"Point","properties":{"Station_ID":"GRBM5","Station_Nam":"GRAND RAPIDS 12N","Latitude":"47.39800","Longitude":"-93.51330","Snowdepth":"12.000","Units":"in","Rept_Date":"2020-03-14 12"},"coordinates":[874,6398]},{"type":"Point","properties":{"Station_ID":"EAHV1","Station_Nam":"EAST HAVEN","Latitude":"44.64250","Longitude":"-71.89120","Snowdepth":"12.000","Units":"in","Rept_Date":"2020-03-14 11"},"coordinates":[5949,4106]},{"type":"Point","properties":{"Station_ID":"CAN-PE-3","Station_Nam":"WELLINGTON 1.6 NE, CA","Latitude":"46.46672","Longitude":"-63.98920","Snowdepth":"12.000","Units":"in","Rept_Date":"2020-03-14 11"},"coordinates":[7803,5623]},{"type":"Point","properties":{"Station_ID":"BTLN3","Station_Nam":"BARTLETT","Latitude":"44.08380","Longitude":"-71.29340","Snowdepth":"12.000","Units":"in","Rept_Date":"2020-03-14 11"},"coordinates":[6089,3641]},{"type":"Point","properties":{"Station_ID":"VT-OL-1","Station_Nam":"WESTFIELD 0.7 WNW, VT","Latitude":"44.89160","Longitude":"-72.44350","Snowdepth":"11.500","Units":"in","Rept_Date":"2020-03-14 12"},"coordinates":[5819,4313]},{"type":"Point","properties":{"Station_ID":"WTRM4","Station_Nam":"WATERSMEET 12WSW","Latitude":"46.22310","Longitude":"-89.40850","Snowdepth":"11.000","Units":"in","Rept_Date":"2020-03-14 11"},"coordinates":[1838,5421]},{"type":"Point","properties":{"Station_ID":"WRUM5","Station_Nam":"WARROAD 4W","Latitude":"48.89600","Longitude":"-95.40700","Snowdepth":"11.000","Units":"in","Rept_Date":"2020-03-15 03"},"coordinates":[430,7644]},{"type":"Point","properties":{"Station_ID":"WI-SR-1","Station_Nam":"HAYWARD 9.2 NNE, WI","Latitude":"46.13255","Longitude":"-91.40500","Snowdepth":"11.000","Units":"in","Rept_Date":"2020-03-14 12"},"coordinates":[1369,5345]},{"type":"Point","properties":{"Station_ID":"WI-ON-6","Station_Nam":"RHINELANDER 5.2 N, WI","Latitude":"45.71388","Longitude":"-89.42150","Snowdepth":"11.000","Units":"in","Rept_Date":"2020-03-14 14"},"coordinates":[1835,4997]},{"type":"Point","properties":{"Station_ID":"RHIW3","Station_Nam":"RHINELANDER","Latitude":"45.59860","Longitude":"-89.45080","Snowdepth":"11.000","Units":"in","Rept_Date":"2020-03-14 12"},"coordinates":[1828,4901]},{"type":"Point","properties":{"Station_ID":"MRAM4","Station_Nam":"MORAN","Latitude":"45.99030","Longitude":"-84.83610","Snowdepth":"11.000","Units":"in","Rept_Date":"2020-03-14 12"},"coordinates":[2911,5227]},{"type":"Point","properties":{"Station_ID":"MN3LTZND","Station_Nam":"BRAINERD 1.4 S","Latitude":"46.33224","Longitude":"-94.20905","Snowdepth":"11.000","Units":"in","Rept_Date":"2020-03-14 12"},"coordinates":[711,5512]},{"type":"Point","properties":{"Station_ID":"MN-PK-15","Station_Nam":"MENTOR 2.5 SSW, MN","Latitude":"47.66625","Longitude":"-96.17328","Snowdepth":"11.000","Units":"in","Rept_Date":"2020-03-14 14"},"coordinates":[250,6621]},{"type":"Point","properties":{"Station_ID":"LBRM5","Station_Nam":"LAKE BRONSON DAM","Latitude":"48.72410","Longitude":"-96.62180","Snowdepth":"11.000","Units":"in","Rept_Date":"2020-03-14 13"},"coordinates":[145,7501]},{"type":"Point","properties":{"Station_ID":"BRAM5","Station_Nam":"BRAINERD","Latitude":"46.34320","Longitude":"-94.20900","Snowdepth":"11.000","Units":"in","Rept_Date":"2020-03-14 12"},"coordinates":[711,5521]},{"type":"Point","properties":{"Station_ID":"NH-CR-41","Station_Nam":"ALBANY 2.8 SW, NH","Latitude":"43.92648","Longitude":"-71.21556","Snowdepth":"10.500","Units":"in","Rept_Date":"2020-03-14 13"},"coordinates":[6107,3510]},{"type":"Point","properties":{"Station_ID":"ME-OX-2","Station_Nam":"HARTFORD 1.4 N, ME","Latitude":"44.39318","Longitude":"-70.34760","Snowdepth":"10.500","Units":"in","Rept_Date":"2020-03-14 12"},"coordinates":[6311,3899]},{"type":"Point","properties":{"Station_ID":"CAN-ON-245","Station_Nam":"PHELPSTON 3.1 ESE, CAN","Latitude":"44.50564","Longitude":"-79.81035","Snowdepth":"10.500","Units":"in","Rept_Date":"2020-03-14 11"},"coordinates":[4090,3992]},{"type":"Point","properties":{"Station_ID":"CAN-PE-7","Station_Nam":"MORELL 1.4 NNW, CA","Latitude":"46.42741","Longitude":"-62.70870","Snowdepth":"10.200","Units":"in","Rept_Date":"2020-03-14 12"},"coordinates":[8104,5591]},{"type":"Point","properties":{"Station_ID":"WI-BN-6","Station_Nam":"SUAMICO 4.4 WNW, WI","Latitude":"44.66111","Longitude":"-88.11780","Snowdepth":"10.000","Units":"in","Rept_Date":"2020-03-14 13"},"coordinates":[2141,4121]},{"type":"Point","properties":{"Station_ID":"VT-CL-18","Station_Nam":"WHEELOCK 1.6 S, VT","Latitude":"44.56491","Longitude":"-72.08830","Snowdepth":"10.000","Units":"in","Rept_Date":"2020-03-14 12"},"coordinates":[5903,4041]},{"type":"Point","properties":{"Station_ID":"RSTW3","Station_Nam":"ROSHOLT","Latitude":"44.62710","Longitude":"-89.30600","Snowdepth":"10.000","Units":"in","Rept_Date":"2020-03-14 13"},"coordinates":[1862,4093]},{"type":"Point","properties":{"Station_ID":"NH-CR-26","Station_Nam":"CENTER SANDWICH 4.9 E, NH","Latitude":"43.80976","Longitude":"-71.34150","Snowdepth":"10.000","Units":"in","Rept_Date":"2020-03-14 11"},"coordinates":[6078,3413]},{"type":"Point","properties":{"Station_ID":"MWTM1","Station_Nam":"MILLINOCKET WWTP","Latitude":"45.64030","Longitude":"-68.67480","Snowdepth":"10.000","Units":"in","Rept_Date":"2020-03-14 11"},"coordinates":[6704,4936]},{"type":"Point","properties":{"Station_ID":"MN-BK-10","Station_Nam":"DETROIT LAKES 5.7 N, MN","Latitude":"46.88666","Longitude":"-95.84444","Snowdepth":"10.000","Units":"in","Rept_Date":"2020-03-14 14"},"coordinates":[327,5973]},{"type":"Point","properties":{"Station_ID":"ME-FR-22","Station_Nam":"FARMINGTON 4.8 NNW, ME","Latitude":"44.73396","Longitude":"-70.18007","Snowdepth":"10.000","Units":"in","Rept_Date":"2020-03-14 14"},"coordinates":[6350,4182]},{"type":"Point","properties":{"Station_ID":"GRFN8","Station_Nam":"UNIVERSITY","Latitude":"47.93330","Longitude":"-97.08330","Snowdepth":"10.000","Units":"in","Rept_Date":"2020-03-15 05"},"coordinates":[36,6843]},{"type":"Point","properties":{"Station_ID":"ESDN3","Station_Nam":"EAST SANDWICH","Latitude":"43.80990","Longitude":"-71.34250","Snowdepth":"10.000","Units":"in","Rept_Date":"2020-03-14 10"},"coordinates":[6078,3413]},{"type":"Point","properties":{"Station_ID":"COTM5","Station_Nam":"COTTON","Latitude":"47.16870","Longitude":"-92.46290","Snowdepth":"10.000","Units":"in","Rept_Date":"2020-03-14 12"},"coordinates":[1121,6207]},{"type":"Point","properties":{"Station_ID":"CORV1","Station_Nam":"CORINTH","Latitude":"44.00690","Longitude":"-72.31940","Snowdepth":"10.000","Units":"in","Rept_Date":"2020-03-14 11"},"coordinates":[5848,3577]},{"type":"Point","properties":{"Station_ID":"ALBM4","Station_Nam":"ALBERTA FORD FOR CEN","Latitude":"46.64480","Longitude":"-88.48120","Snowdepth":"10.000","Units":"in","Rept_Date":"2020-03-14 13"},"coordinates":[2055,5772]},{"type":"Point","properties":{"Station_ID":"CAN-NS-163","Station_Nam":"SYDNEY MINES 2.2 WNW, CAN","Latitude":"46.24851","Longitude":"-60.25161","Snowdepth":"9.800","Units":"in","Rept_Date":"2020-03-14 12"},"coordinates":[8681,5442]},{"type":"Point","properties":{"Station_ID":"MI-OT-16","Station_Nam":"GAYLORD 2.2 SSE, MI","Latitude":"44.99441","Longitude":"-84.65820","Snowdepth":"9.500","Units":"in","Rept_Date":"2020-03-14 14"},"coordinates":[2953,4399]},{"type":"Point","properties":{"Station_ID":"WLKW3","Station_Nam":"WHITE LAKE 1 SE","Latitude":"45.14520","Longitude":"-88.74160","Snowdepth":"9.000","Units":"in","Rept_Date":"2020-03-14 12"},"coordinates":[1994,4524]},{"type":"Point","properties":{"Station_ID":"WLKM5","Station_Nam":"AH-GWAH-CHING","Latitude":"47.15000","Longitude":"-94.65000","Snowdepth":"9.000","Units":"in","Rept_Date":"2020-03-14 13"},"coordinates":[608,6192]},{"type":"Point","properties":{"Station_ID":"WI-WB-2","Station_Nam":"STONE LAKE 2.0 NW, WI","Latitude":"45.85960","Longitude":"-91.57710","Snowdepth":"9.000","Units":"in","Rept_Date":"2020-03-14 13"},"coordinates":[1329,5118]},{"type":"Point","properties":{"Station_ID":"PBAN8","Station_Nam":"SITE 1-3MI.N","Latitude":"48.97420","Longitude":"-97.23860","Snowdepth":"9.000","Units":"in","Rept_Date":"2020-03-14 13"},"coordinates":[0,7709]},{"type":"Point","properties":{"Station_ID":"NH-GR-49","Station_Nam":"PLYMOUTH 3.7 N, NH","Latitude":"43.79048","Longitude":"-71.68413","Snowdepth":"9.000","Units":"in","Rept_Date":"2020-03-14 12"},"coordinates":[5997,3397]},{"type":"Point","properties":{"Station_ID":"MNLGGILP","Station_Nam":"LONG PRAIRIE 1.1 WSW","Latitude":"45.96913","Longitude":"-94.88686","Snowdepth":"9.000","Units":"in","Rept_Date":"2020-03-14 11"},"coordinates":[552,5210]},{"type":"Point","properties":{"Station_ID":"MN7M8EBJ","Station_Nam":"LUTSEN 15.7 NNW","Latitude":"47.85324","Longitude":"-89.92908","Snowdepth":"9.000","Units":"in","Rept_Date":"2020-03-14 13"},"coordinates":[1715,6777]},{"type":"Point","properties":{"Station_ID":"MN-BM-15","Station_Nam":"BEMIDJI 7.8 ENE, MN","Latitude":"47.52043","Longitude":"-94.72121","Snowdepth":"9.000","Units":"in","Rept_Date":"2020-03-14 13"},"coordinates":[591,6500]},{"type":"Point","properties":{"Station_ID":"LNGM5","Station_Nam":"LONG PRAIRIE","Latitude":"45.96460","Longitude":"-94.88920","Snowdepth":"9.000","Units":"in","Rept_Date":"2020-03-14 11"},"coordinates":[551,5206]},{"type":"Point","properties":{"Station_ID":"ESGM1","Station_Nam":"EAST SANGERVILLE","Latitude":"45.13690","Longitude":"-69.28060","Snowdepth":"9.000","Units":"in","Rept_Date":"2020-03-14 11"},"coordinates":[6562,4517]},{"type":"Point","properties":{"Station_ID":"EGRW3","Station_Nam":"EAGLE RIVER-SOUTH","Latitude":"45.91360","Longitude":"-89.24360","Snowdepth":"9.000","Units":"in","Rept_Date":"2020-03-14 12"},"coordinates":[1876,5163]},{"type":"Point","properties":{"Station_ID":"COUW3","Station_Nam":"COUDERAY,WI","Latitude":"45.86670","Longitude":"-91.45000","Snowdepth":"9.000","Units":"in","Rept_Date":"2020-03-14 21"},"coordinates":[1359,5124]},{"type":"Point","properties":{"Station_ID":"BREW3","Station_Nam":"SURING","Latitude":"44.99580","Longitude":"-88.37860","Snowdepth":"9.000","Units":"in","Rept_Date":"2020-03-14 13"},"coordinates":[2079,4400]},{"type":"Point","properties":{"Station_ID":"CAN-NB-98","Station_Nam":"HOYT 4.2 S, CAN","Latitude":"45.54763","Longitude":"-66.55440","Snowdepth":"8.900","Units":"in","Rept_Date":"2020-03-14 11"},"coordinates":[7201,4859]},{"type":"Point","properties":{"Station_ID":"MN-AT-5","Station_Nam":"TAMARACK 1.4 SW, MN","Latitude":"46.63760","Longitude":"-93.14554","Snowdepth":"8.500","Units":"in","Rept_Date":"2020-03-14 13"},"coordinates":[961,5766]},{"type":"Point","properties":{"Station_ID":"NY-HR-18","Station_Nam":"SALISBURY CENTER 1.8 NW, NY","Latitude":"43.16260","Longitude":"-74.80880","Snowdepth":"8.300","Units":"in","Rept_Date":"2020-03-14 11"},"coordinates":[5264,2875]},{"type":"Point","properties":{"Station_ID":"WI-PR-6","Station_Nam":"PHILLIPS 1.3 S, WI","Latitude":"45.67677","Longitude":"-90.39543","Snowdepth":"8.000","Units":"in","Rept_Date":"2020-03-14 12"},"coordinates":[1606,4966]},{"type":"Point","properties":{"Station_ID":"TOPM1","Station_Nam":"TOPSFIELD","Latitude":"45.43470","Longitude":"-67.72020","Snowdepth":"8.000","Units":"in","Rept_Date":"2020-03-14 11"},"coordinates":[6928,4765]},{"type":"Point","properties":{"Station_ID":"TMWN3","Station_Nam":"TAMWORTH 4","Latitude":"43.86390","Longitude":"-71.26610","Snowdepth":"8.000","Units":"in","Rept_Date":"2020-03-14 11"},"coordinates":[6096,3458]},{"type":"Point","properties":{"Station_ID":"STMM4","Station_Nam":"STAMBAUGH 2SSE","Latitude":"46.05550","Longitude":"-88.62780","Snowdepth":"8.000","Units":"in","Rept_Date":"2020-03-14 12"},"coordinates":[2021,5281]},{"type":"Point","properties":{"Station_ID":"RRVM4","Station_Nam":"RAPID RIVER 9S","Latitude":"45.78750","Longitude":"-86.93920","Snowdepth":"8.000","Units":"in","Rept_Date":"2020-03-14 15"},"coordinates":[2417,5058]},{"type":"Point","properties":{"Station_ID":"OTTM5","Station_Nam":"OTTERTAIL,MN","Latitude":"46.41670","Longitude":"-95.56670","Snowdepth":"8.000","Units":"in","Rept_Date":"2020-03-14 13"},"coordinates":[392,5582]},{"type":"Point","properties":{"Station_ID":"NUMN3","Station_Nam":"NORTHUMBERLAND","Latitude":"44.52830","Longitude":"-71.50440","Snowdepth":"8.000","Units":"in","Rept_Date":"2020-03-14 12"},"coordinates":[6040,4011]},{"type":"Point","properties":{"Station_ID":"NH-CR-27","Station_Nam":"TAMWORTH 0.4 NNW, NH","Latitude":"43.86449","Longitude":"-71.26610","Snowdepth":"8.000","Units":"in","Rept_Date":"2020-03-14 12"},"coordinates":[6096,3459]},{"type":"Point","properties":{"Station_ID":"MNMQO9OI","Station_Nam":"OTTERTAIL 1.5 WNW","Latitude":"46.43378","Longitude":"-95.58416","Snowdepth":"8.000","Units":"in","Rept_Date":"2020-03-14 11"},"coordinates":[388,5596]},{"type":"Point","properties":{"Station_ID":"ISLV1","Station_Nam":"ISLAND POND","Latitude":"44.81280","Longitude":"-71.89020","Snowdepth":"8.000","Units":"in","Rept_Date":"2020-03-14 15"},"coordinates":[5949,4248]},{"type":"Point","properties":{"Station_ID":"FARM1","Station_Nam":"FARMINGTON","Latitude":"44.68930","Longitude":"-70.15640","Snowdepth":"8.000","Units":"in","Rept_Date":"2020-03-14 12"},"coordinates":[6356,4145]},{"type":"Point","properties":{"Station_ID":"BAGM4","Station_Nam":"BARAGA 7NW","Latitude":"46.82100","Longitude":"-88.60590","Snowdepth":"8.000","Units":"in","Rept_Date":"2020-03-14 12"},"coordinates":[2026,5918]},{"type":"Point","properties":{"Station_ID":"AROM4","Station_Nam":"ARNOLD,MI","Latitude":"46.06670","Longitude":"-87.48330","Snowdepth":"8.000","Units":"in","Rept_Date":"2020-03-14 12"},"coordinates":[2290,5291]},{"type":"Point","properties":{"Station_ID":"VT-WS-30","Station_Nam":"WOODBURY 3.4 NNW, VT","Latitude":"44.48825","Longitude":"-72.43258","Snowdepth":"7.500","Units":"in","Rept_Date":"2020-03-14 12"},"coordinates":[5822,3978]},{"type":"Point","properties":{"Station_ID":"MI-CX-7","Station_Nam":"EAST JORDAN 2.1 NNW, MI","Latitude":"45.18639","Longitude":"-85.14750","Snowdepth":"7.500","Units":"in","Rept_Date":"2020-03-14 13"},"coordinates":[2838,4558]},{"type":"Point","properties":{"Station_ID":"CAN-PE-10","Station_Nam":"NEW LONDON 1.6 ENE, CA","Latitude":"46.46985","Longitude":"-63.49200","Snowdepth":"7.500","Units":"in","Rept_Date":"2020-03-14 12"},"coordinates":[7920,5626]},{"type":"Point","properties":{"Station_ID":"CAN-ON-120","Station_Nam":"DUNROBIN 5.8 NE MIVCA, CA","Latitude":"45.46243","Longitude":"-75.97120","Snowdepth":"7.100","Units":"in","Rept_Date":"2020-03-14 12"},"coordinates":[4991,4788]},{"type":"Point","properties":{"Station_ID":"WI-RS-1","Station_Nam":"LADYSMITH 2.8 WNW, WI","Latitude":"45.48180","Longitude":"-91.14680","Snowdepth":"7.000","Units":"in","Rept_Date":"2020-03-14 13"},"coordinates":[1430,4804]},{"type":"Point","properties":{"Station_ID":"WI-MT-14","Station_Nam":"MOSINEE 2.7 WSW, WI","Latitude":"44.77240","Longitude":"-89.73441","Snowdepth":"7.000","Units":"in","Rept_Date":"2020-03-14 13"},"coordinates":[1761,4214]},{"type":"Point","properties":{"Station_ID":"WESN1","Station_Nam":"WESTON 3NW","Latitude":"41.22110","Longitude":"-96.77750","Snowdepth":"7.000","Units":"in","Rept_Date":"2020-03-14 13"},"coordinates":[108,1260]},{"type":"Point","properties":{"Station_ID":"SRAW3","Station_Nam":"SARONA","Latitude":"45.80250","Longitude":"-91.86700","Snowdepth":"7.000","Units":"in","Rept_Date":"2020-03-14 13"},"coordinates":[1261,5071]},{"type":"Point","properties":{"Station_ID":"SBNM5","Station_Nam":"SABIN","Latitude":"46.77690","Longitude":"-96.65610","Snowdepth":"7.000","Units":"in","Rept_Date":"2020-03-14 14"},"coordinates":[137,5881]},{"type":"Point","properties":{"Station_ID":"NY-ES-11","Station_Nam":"VERMONTVILLE 2.8 S, NY","Latitude":"44.41205","Longitude":"-74.06760","Snowdepth":"7.000","Units":"in","Rept_Date":"2020-03-14 12"},"coordinates":[5438,3914]},{"type":"Point","properties":{"Station_ID":"ND-CS-1","Station_Nam":"WEST FARGO 3.8 SSE, ND","Latitude":"46.82750","Longitude":"-96.85280","Snowdepth":"7.000","Units":"in","Rept_Date":"2020-03-14 15"},"coordinates":[91,5924]},{"type":"Point","properties":{"Station_ID":"MQRW3","Station_Nam":"MINOCQUA","Latitude":"45.88630","Longitude":"-89.73220","Snowdepth":"7.000","Units":"in","Rept_Date":"2020-03-14 11"},"coordinates":[1762,5141]},{"type":"Point","properties":{"Station_ID":"KSEM4","Station_Nam":"KALKASKA 11SE","Latitude":"44.58970","Longitude":"-85.04860","Snowdepth":"7.000","Units":"in","Rept_Date":"2020-03-14 12"},"coordinates":[2861,4062]},{"type":"Point","properties":{"Station_ID":"EJNM4","Station_Nam":"EAST JORDAN 2NW","Latitude":"45.18630","Longitude":"-85.14770","Snowdepth":"7.000","Units":"in","Rept_Date":"2020-03-14 12"},"coordinates":[2838,4558]},{"type":"Point","properties":{"Station_ID":"AWXW3","Station_Nam":"ASHLAND","Latitude":"46.58240","Longitude":"-90.88390","Snowdepth":"7.000","Units":"in","Rept_Date":"2020-03-14 12"},"coordinates":[1491,5720]},{"type":"Point","properties":{"Station_ID":"ALXM5","Station_Nam":"ALEXANDRIA","Latitude":"45.87820","Longitude":"-95.38270","Snowdepth":"7.000","Units":"in","Rept_Date":"2020-03-14 11"},"coordinates":[436,5134]},{"type":"Point","properties":{"Station_ID":"WI-AS-4","Station_Nam":"ASHLAND 0.5 WNW, WI","Latitude":"46.58240","Longitude":"-90.88390","Snowdepth":"6.500","Units":"in","Rept_Date":"2020-03-14 13"},"coordinates":[1491,5720]},{"type":"Point","properties":{"Station_ID":"ND-CS-25","Station_Nam":"FARGO 2.1 N, ND","Latitude":"46.90816","Longitude":"-96.77937","Snowdepth":"6.500","Units":"in","Rept_Date":"2020-03-14 14"},"coordinates":[108,5991]},{"type":"Point","properties":{"Station_ID":"CAN-ON-42","Station_Nam":"VANKLEEK HILL 3.4 S, CA","Latitude":"45.48987","Longitude":"-74.64570","Snowdepth":"6.500","Units":"in","Rept_Date":"2020-03-14 12"},"coordinates":[5302,4811]},{"type":"Point","properties":{"Station_ID":"WILW3","Station_Nam":"RESERVOIR","Latitude":"45.70000","Longitude":"-89.83330","Snowdepth":"6.000","Units":"in","Rept_Date":"2020-03-14 11"},"coordinates":[1738,4986]},{"type":"Point","properties":{"Station_ID":"WI-TY-2","Station_Nam":"SHELDON 8.1 ENE, WI","Latitude":"45.35598","Longitude":"-90.80296","Snowdepth":"6.000","Units":"in","Rept_Date":"2020-03-14 13"},"coordinates":[1510,4699]},{"type":"Point","properties":{"Station_ID":"VT-WR-2","Station_Nam":"POMFRET 2.6 N, VT","Latitude":"43.74230","Longitude":"-72.52550","Snowdepth":"6.000","Units":"in","Rept_Date":"2020-03-14 12"},"coordinates":[5800,3357]},{"type":"Point","properties":{"Station_ID":"VT-ES-3","Station_Nam":"LUNENBURG 2.3 NNW, VT","Latitude":"44.49324","Longitude":"-71.70446","Snowdepth":"6.000","Units":"in","Rept_Date":"2020-03-14 12"},"coordinates":[5993,3982]},{"type":"Point","properties":{"Station_ID":"VT-BN-3","Station_Nam":"LANDGROVE 1.1 NNE, VT","Latitude":"43.29092","Longitude":"-72.83260","Snowdepth":"6.000","Units":"in","Rept_Date":"2020-03-14 12"},"coordinates":[5728,2982]},{"type":"Point","properties":{"Station_ID":"SULW3","Station_Nam":"SUMMIT LAKE","Latitude":"45.37880","Longitude":"-89.19410","Snowdepth":"6.000","Units":"in","Rept_Date":"2020-03-14 10"},"coordinates":[1888,4718]},{"type":"Point","properties":{"Station_ID":"RHRW3","Station_Nam":"RHINELANDER WJFW TV-12","Latitude":"45.62220","Longitude":"-89.41000","Snowdepth":"6.000","Units":"in","Rept_Date":"2020-03-15 03"},"coordinates":[1837,4921]},{"type":"Point","properties":{"Station_ID":"RHLW3","Station_Nam":"RHINELANDER 4NE","Latitude":"45.65270","Longitude":"-89.30740","Snowdepth":"6.000","Units":"in","Rept_Date":"2020-03-14 11"},"coordinates":[1861,4946]},{"type":"Point","properties":{"Station_ID":"RHI","Station_Nam":"RHINELANDER-ONEIDA COUNTY AIRPORT","Latitude":"45.63080","Longitude":"-89.46530","Snowdepth":"6.000","Units":"in","Rept_Date":"2020-03-15 00"},"coordinates":[1824,4928]},{"type":"Point","properties":{"Station_ID":"NYMM5","Station_Nam":"NEW YORK MILLS","Latitude":"46.50920","Longitude":"-95.37990","Snowdepth":"6.000","Units":"in","Rept_Date":"2020-03-14 12"},"coordinates":[436,5659]},{"type":"Point","properties":{"Station_ID":"NCKN6","Station_Nam":"NORTH CREEK 5 SE","Latitude":"43.66110","Longitude":"-73.89690","Snowdepth":"6.000","Units":"in","Rept_Date":"2020-03-14 11"},"coordinates":[5478,3290]},{"type":"Point","properties":{"Station_ID":"MI-CP-7","Station_Nam":"DRUMMOND 2.9 NE, MI","Latitude":"46.05329","Longitude":"-83.69060","Snowdepth":"6.000","Units":"in","Rept_Date":"2020-03-14 14"},"coordinates":[3180,5280]},{"type":"Point","properties":{"Station_ID":"KGFK","Station_Nam":"GRAND FORKS INTERNATIONAL","Latitude":"47.95000","Longitude":"-97.18333","Snowdepth":"6.000","Units":"in","Rept_Date":"2020-03-15 00"},"coordinates":[13,6857]},{"type":"Point","properties":{"Station_ID":"HMYM1","Station_Nam":"HARMONY","Latitude":"44.94660","Longitude":"-69.54560","Snowdepth":"6.000","Units":"in","Rept_Date":"2020-03-14 11"},"coordinates":[6499,4359]},{"type":"Point","properties":{"Station_ID":"GFK","Station_Nam":"GRAND FORKS INTERNATIONAL AIRPORT","Latitude":"47.94920","Longitude":"-97.17610","Snowdepth":"6.000","Units":"in","Rept_Date":"2020-03-15 00"},"coordinates":[15,6857]},{"type":"Point","properties":{"Station_ID":"ESAM4","Station_Nam":"ESCANABA","Latitude":"45.74380","Longitude":"-87.04060","Snowdepth":"6.000","Units":"in","Rept_Date":"2020-03-14 11"},"coordinates":[2393,5022]},{"type":"Point","properties":{"Station_ID":"APXM4","Station_Nam":"GAYLORD 9SSW","Latitude":"44.90720","Longitude":"-84.71880","Snowdepth":"6.000","Units":"in","Rept_Date":"2020-03-15 06"},"coordinates":[2938,4326]},{"type":"Point","properties":{"Station_ID":"WI-PR-8","Station_Nam":"PHILLIPS 0.4 SSW, WI","Latitude":"45.69086","Longitude":"-90.40200","Snowdepth":"5.500","Units":"in","Rept_Date":"2020-03-14 13"},"coordinates":[1605,4978]},{"type":"Point","properties":{"Station_ID":"WI-WB-16","Station_Nam":"SARONA 4.5 NNE, WI","Latitude":"45.77030","Longitude":"-91.76890","Snowdepth":"5.000","Units":"in","Rept_Date":"2020-03-14 15"},"coordinates":[1284,5044]},{"type":"Point","properties":{"Station_ID":"WI-BT-14","Station_Nam":"OAKLAND 9.0 ENE, WI","Latitude":"45.95184","Longitude":"-92.21653","Snowdepth":"5.000","Units":"in","Rept_Date":"2020-03-14 13"},"coordinates":[1179,5195]},{"type":"Point","properties":{"Station_ID":"TOHM5","Station_Nam":"TWO HARBORS WWTP","Latitude":"47.01760","Longitude":"-91.66480","Snowdepth":"5.000","Units":"in","Rept_Date":"2020-03-14 12"},"coordinates":[1308,6082]},{"type":"Point","properties":{"Station_ID":"RLKW3","Station_Nam":"REST LAKE","Latitude":"46.12220","Longitude":"-89.87720","Snowdepth":"5.000","Units":"in","Rept_Date":"2020-03-14 13"},"coordinates":[1728,5337]},{"type":"Point","properties":{"Station_ID":"PERV1","Station_Nam":"PERU","Latitude":"43.26670","Longitude":"-72.90000","Snowdepth":"5.000","Units":"in","Rept_Date":"2020-03-14 11"},"coordinates":[5712,2962]},{"type":"Point","properties":{"Station_ID":"PEKN6","Station_Nam":"PECK LAKE","Latitude":"43.11500","Longitude":"-74.42360","Snowdepth":"5.000","Units":"in","Rept_Date":"2020-03-14 11"},"coordinates":[5355,2835]},{"type":"Point","properties":{"Station_ID":"MTQM4","Station_Nam":"MANISTIQUE WWTP","Latitude":"45.95120","Longitude":"-86.25130","Snowdepth":"5.000","Units":"in","Rept_Date":"2020-03-14 11"},"coordinates":[2579,5195]},{"type":"Point","properties":{"Station_ID":"MN-CY-1","Station_Nam":"MOORHEAD 2.0 N, MN","Latitude":"46.88766","Longitude":"-96.74800","Snowdepth":"5.000","Units":"in","Rept_Date":"2020-03-15 01"},"coordinates":[115,5974]},{"type":"Point","properties":{"Station_ID":"JEFV1","Station_Nam":"JEFFERSONVILLE","Latitude":"44.58430","Longitude":"-72.78700","Snowdepth":"5.000","Units":"in","Rept_Date":"2020-03-14 11"},"coordinates":[5739,4058]},{"type":"Point","properties":{"Station_ID":"FLDM5","Station_Nam":"FLOODWOOD,MN","Latitude":"47.00000","Longitude":"-92.91670","Snowdepth":"5.000","Units":"in","Rept_Date":"2020-03-14 13"},"coordinates":[1014,6067]},{"type":"Point","properties":{"Station_ID":"FDRN8","Station_Nam":"FARGO 3S","Latitude":"46.82930","Longitude":"-96.79620","Snowdepth":"5.000","Units":"in","Rept_Date":"2020-03-14 23"},"coordinates":[104,5925]},{"type":"Point","properties":{"Station_ID":"FAR","Station_Nam":"HECTOR INTERNATIONAL ARPT","Latitude":"46.91560","Longitude":"-96.81440","Snowdepth":"5.000","Units":"in","Rept_Date":"2020-03-15 00"},"coordinates":[100,5997]},{"type":"Point","properties":{"Station_ID":"DTVM4","Station_Nam":"DETOUR VILLAGE","Latitude":"45.99830","Longitude":"-83.90130","Snowdepth":"5.000","Units":"in","Rept_Date":"2020-03-14 12"},"coordinates":[3130,5234]},{"type":"Point","properties":{"Station_ID":"CAN-ON-208","Station_Nam":"PAKENHAM 7.8 NNW, CAN","Latitude":"45.39166","Longitude":"-76.34111","Snowdepth":"5.000","Units":"in","Rept_Date":"2020-03-14 12"},"coordinates":[4904,4729]},{"type":"Point","properties":{"Station_ID":"BUTL008","Station_Nam":"BRAINARD 1.8 SSE, NE","Latitude":"41.15800","Longitude":"-96.99520","Snowdepth":"5.000","Units":"in","Rept_Date":"2020-03-14 13"},"coordinates":[57,1207]},{"type":"Point","properties":{"Station_ID":"BRLN3","Station_Nam":"BERLIN","Latitude":"44.45350","Longitude":"-71.18540","Snowdepth":"5.000","Units":"in","Rept_Date":"2020-03-14 14"},"coordinates":[6115,3949]},{"type":"Point","properties":{"Station_ID":"NE-LA-22","Station_Nam":"RAYMOND 7.3 WNW, NE","Latitude":"40.99820","Longitude":"-96.90930","Snowdepth":"4.600","Units":"in","Rept_Date":"2020-03-14 13"},"coordinates":[77,1075]},{"type":"Point","properties":{"Station_ID":"VT-WS-10","Station_Nam":"NORTHFIELD 1.5 N, VT","Latitude":"44.16986","Longitude":"-72.65200","Snowdepth":"4.500","Units":"in","Rept_Date":"2020-03-14 12"},"coordinates":[5770,3713]},{"type":"Point","properties":{"Station_ID":"LANC007","Station_Nam":"DAVEY 1.2 NNW, NE","Latitude":"41.00320","Longitude":"-96.67630","Snowdepth":"4.300","Units":"in","Rept_Date":"2020-03-14 13"},"coordinates":[132,1079]},{"type":"Point","properties":{"Station_ID":"VT-OL-2","Station_Nam":"BARTON 3.0 ENE, VT","Latitude":"44.75863","Longitude":"-72.11680","Snowdepth":"4.000","Units":"in","Rept_Date":"2020-03-14 12"},"coordinates":[5896,4203]},{"type":"Point","properties":{"Station_ID":"VT-OG-11","Station_Nam":"VERSHIRE 1.5 ESE, VT","Latitude":"43.96138","Longitude":"-72.29777","Snowdepth":"4.000","Units":"in","Rept_Date":"2020-03-14 13"},"coordinates":[5853,3539]},{"type":"Point","properties":{"Station_ID":"SAUW3","Station_Nam":"WAUSAU WSAW TV","Latitude":"44.94630","Longitude":"-89.62220","Snowdepth":"4.000","Units":"in","Rept_Date":"2020-03-15 03"},"coordinates":[1788,4359]},{"type":"Point","properties":{"Station_ID":"RFDM1","Station_Nam":"RUMFORD 7SW","Latitude":"44.49470","Longitude":"-70.65640","Snowdepth":"4.000","Units":"in","Rept_Date":"2020-03-14 12"},"coordinates":[6239,3983]},{"type":"Point","properties":{"Station_ID":"PARM4","Station_Nam":"PARENT BAY","Latitude":"45.79610","Longitude":"-86.40110","Snowdepth":"4.000","Units":"in","Rept_Date":"2020-03-14 16"},"coordinates":[2543,5066]},{"type":"Point","properties":{"Station_ID":"NE-SW-7","Station_Nam":"SEWARD 0.5 NE, NE","Latitude":"40.91689","Longitude":"-97.08981","Snowdepth":"4.000","Units":"in","Rept_Date":"2020-03-14 13"},"coordinates":[35,1007]},{"type":"Point","properties":{"Station_ID":"NE-LA-41","Station_Nam":"MALCOLM 0.3 SSE, NE","Latitude":"40.90461","Longitude":"-96.86279","Snowdepth":"4.000","Units":"in","Rept_Date":"2020-03-14 15"},"coordinates":[88,997]},{"type":"Point","properties":{"Station_ID":"MN-MR-4","Station_Nam":"LITTLE FALLS 1.2 SW, MN","Latitude":"45.96886","Longitude":"-94.37720","Snowdepth":"4.000","Units":"in","Rept_Date":"2020-03-14 13"},"coordinates":[672,5209]},{"type":"Point","properties":{"Station_ID":"MCLN8","Station_Nam":"MC LEOD,ND","Latitude":"46.40250","Longitude":"-97.23810","Snowdepth":"4.000","Units":"in","Rept_Date":"2020-03-14 12"},"coordinates":[0,5570]},{"type":"Point","properties":{"Station_ID":"LNCM1","Station_Nam":"LINCOLN WATER DISTRICT","Latitude":"45.32410","Longitude":"-68.58300","Snowdepth":"4.000","Units":"in","Rept_Date":"2020-03-14 12"},"coordinates":[6725,4673]},{"type":"Point","properties":{"Station_ID":"ISEM5","Station_Nam":"ISLE 12N","Latitude":"46.31970","Longitude":"-93.50140","Snowdepth":"4.000","Units":"in","Rept_Date":"2020-03-14 13"},"coordinates":[877,5501]},{"type":"Point","properties":{"Station_ID":"IL-MCL-39","Station_Nam":"BLOOMINGTON 5.0 WSW, IL","Latitude":"40.45837","Longitude":"-89.06499","Snowdepth":"4.000","Units":"in","Rept_Date":"2020-03-14 13"},"coordinates":[1918,626]},{"type":"Point","properties":{"Station_ID":"IL-MCL-2","Station_Nam":"ARROWSMITH 1.7 NNE, IL","Latitude":"40.47120","Longitude":"-88.61960","Snowdepth":"4.000","Units":"in","Rept_Date":"2020-03-14 14"},"coordinates":[2023,636]},{"type":"Point","properties":{"Station_ID":"HRTM1","Station_Nam":"HARTFORD","Latitude":"44.37440","Longitude":"-70.31620","Snowdepth":"4.000","Units":"in","Rept_Date":"2020-03-14 11"},"coordinates":[6318,3883]},{"type":"Point","properties":{"Station_ID":"FLAM4","Station_Nam":"FIFE LAKE 2WNW","Latitude":"44.58480","Longitude":"-85.36530","Snowdepth":"4.000","Units":"in","Rept_Date":"2020-03-14 11"},"coordinates":[2787,4058]},{"type":"Point","properties":{"Station_ID":"FCLN1","Station_Nam":"FT CALHOUN 4W","Latitude":"41.44670","Longitude":"-96.09190","Snowdepth":"4.000","Units":"in","Rept_Date":"2020-03-14 12"},"coordinates":[269,1448]},{"type":"Point","properties":{"Station_ID":"CAN-ON-5","Station_Nam":"OWEN SOUND 1.5 NW - GSCA, CAN","Latitude":"44.57837","Longitude":"-80.95461","Snowdepth":"4.000","Units":"in","Rept_Date":"2020-03-14 13"},"coordinates":[3822,4053]},{"type":"Point","properties":{"Station_ID":"AUW","Station_Nam":"WAUSAU MUNICIPAL AIRPORT","Latitude":"44.92580","Longitude":"-89.62560","Snowdepth":"4.000","Units":"in","Rept_Date":"2020-03-15 00"},"coordinates":[1787,4342]},{"type":"Point","properties":{"Station_ID":"ABGW3","Station_Nam":"AMBERG 9 E","Latitude":"45.48250","Longitude":"-87.81190","Snowdepth":"4.000","Units":"in","Rept_Date":"2020-03-14 11"},"coordinates":[2212,4805]},{"type":"Point","properties":{"Station_ID":"VT-WS-19","Station_Nam":"WATERBURY 3.0 NW, VT","Latitude":"44.36060","Longitude":"-72.80770","Snowdepth":"3.500","Units":"in","Rept_Date":"2020-03-14 11"},"coordinates":[5734,3872]},{"type":"Point","properties":{"Station_ID":"VT-WH-9","Station_Nam":"WEST HALIFAX 0.2 SE, VT","Latitude":"42.78561","Longitude":"-72.76950","Snowdepth":"3.500","Units":"in","Rept_Date":"2020-03-14 13"},"coordinates":[5743,2561]},{"type":"Point","properties":{"Station_ID":"NE-DG-8","Station_Nam":"OMAHA 7.0 W, NE","Latitude":"41.27451","Longitude":"-96.14630","Snowdepth":"3.500","Units":"in","Rept_Date":"2020-03-14 13"},"coordinates":[256,1304]},{"type":"Point","properties":{"Station_ID":"MN-MR-13","Station_Nam":"LITTLE FALLS 8.0 NE, MN","Latitude":"46.06785","Longitude":"-94.24789","Snowdepth":"3.500","Units":"in","Rept_Date":"2020-03-14 13"},"coordinates":[702,5292]},{"type":"Point","properties":{"Station_ID":"IL-MCL-17","Station_Nam":"BLOOMINGTON 2.7 NE, IL","Latitude":"40.50100","Longitude":"-88.93190","Snowdepth":"3.500","Units":"in","Rept_Date":"2020-03-14 14"},"coordinates":[1950,661]},{"type":"Point","properties":{"Station_ID":"CAN-ON-109","Station_Nam":"MILDMAY 5.9 SSE, CA","Latitude":"43.98733","Longitude":"-81.10330","Snowdepth":"3.500","Units":"in","Rept_Date":"2020-03-14 13"},"coordinates":[3787,3561]},{"type":"Point","properties":{"Station_ID":"CAN-NS-13","Station_Nam":"TRURO 5.0 ENE, CA","Latitude":"45.38252","Longitude":"-63.22810","Snowdepth":"3.100","Units":"in","Rept_Date":"2020-03-14 11"},"coordinates":[7982,4722]},{"type":"Point","properties":{"Station_ID":"WUNW3","Station_Nam":"WAUSAU-NORTHEAST","Latitude":"44.97310","Longitude":"-89.61690","Snowdepth":"3.000","Units":"in","Rept_Date":"2020-03-14 12"},"coordinates":[1789,4381]},{"type":"Point","properties":{"Station_ID":"WRTS2","Station_Nam":"WATERTOWN,SD","Latitude":"44.90280","Longitude":"-97.11360","Snowdepth":"3.000","Units":"in","Rept_Date":"2020-03-14 14"},"coordinates":[29,4323]},{"type":"Point","properties":{"Station_ID":"WI-LN-2","Station_Nam":"MERRILL 7.0 W, WI","Latitude":"45.17746","Longitude":"-89.84820","Snowdepth":"3.000","Units":"in","Rept_Date":"2020-03-14 12"},"coordinates":[1734,4551]},{"type":"Point","properties":{"Station_ID":"WI-DR-5","Station_Nam":"ELLISON BAY 2.2 E, WI","Latitude":"45.25750","Longitude":"-87.02670","Snowdepth":"3.000","Units":"in","Rept_Date":"2020-03-14 13"},"coordinates":[2397,4618]},{"type":"Point","properties":{"Station_ID":"UNDI4","Station_Nam":"UNDERWOOD","Latitude":"41.38940","Longitude":"-95.68110","Snowdepth":"3.000","Units":"in","Rept_Date":"2020-03-14 12"},"coordinates":[366,1400]},{"type":"Point","properties":{"Station_ID":"SHDI4","Station_Nam":"SHELDON,IA","Latitude":"43.18080","Longitude":"-95.85280","Snowdepth":"3.000","Units":"in","Rept_Date":"2020-03-14 12"},"coordinates":[325,2890]},{"type":"Point","properties":{"Station_ID":"SD-MH-8","Station_Nam":"HARTFORD 6.4 S, SD","Latitude":"43.53128","Longitude":"-96.95020","Snowdepth":"3.000","Units":"in","Rept_Date":"2020-03-14 14"},"coordinates":[68,3182]},{"type":"Point","properties":{"Station_ID":"ROWM3","Station_Nam":"ROWE 3NE","Latitude":"42.73500","Longitude":"-72.86920","Snowdepth":"3.000","Units":"in","Rept_Date":"2020-03-14 13"},"coordinates":[5719,2519]},{"type":"Point","properties":{"Station_ID":"RMSI4","Station_Nam":"REMSEN NO. 2","Latitude":"42.81050","Longitude":"-95.97530","Snowdepth":"3.000","Units":"in","Rept_Date":"2020-03-14 16"},"coordinates":[296,2582]},{"type":"Point","properties":{"Station_ID":"RCEM5","Station_Nam":"RICE","Latitude":"45.75760","Longitude":"-94.20720","Snowdepth":"3.000","Units":"in","Rept_Date":"2020-03-14 12"},"coordinates":[711,5034]},{"type":"Point","properties":{"Station_ID":"PXNI2","Station_Nam":"PAXTON 2WSW","Latitude":"40.45470","Longitude":"-88.14170","Snowdepth":"3.000","Units":"in","Rept_Date":"2020-03-14 11"},"coordinates":[2135,622]},{"type":"Point","properties":{"Station_ID":"PPLN1","Station_Nam":"WEST PAPILLION CREEK NEAR PAPILLION","Latitude":"41.17580","Longitude":"-96.08390","Snowdepth":"3.000","Units":"in","Rept_Date":"2020-03-14 12"},"coordinates":[271,1222]},{"type":"Point","properties":{"Station_ID":"NWSM1","Station_Nam":"NEW SHARON","Latitude":"44.63520","Longitude":"-70.00020","Snowdepth":"3.000","Units":"in","Rept_Date":"2020-03-14 11"},"coordinates":[6393,4100]},{"type":"Point","properties":{"Station_ID":"NSFN3","Station_Nam":"NORTH STRATFORD","Latitude":"44.68190","Longitude":"-71.58570","Snowdepth":"3.000","Units":"in","Rept_Date":"2020-03-14 11"},"coordinates":[6021,4139]},{"type":"Point","properties":{"Station_ID":"NE-SY-9","Station_Nam":"GRETNA 0.1 SSE, NE","Latitude":"41.12710","Longitude":"-96.24740","Snowdepth":"3.000","Units":"in","Rept_Date":"2020-03-14 14"},"coordinates":[233,1182]},{"type":"Point","properties":{"Station_ID":"NE-SY-11","Station_Nam":"LA VISTA 2.0 WSW, NE","Latitude":"41.17702","Longitude":"-96.07571","Snowdepth":"3.000","Units":"in","Rept_Date":"2020-03-14 13"},"coordinates":[273,1223]},{"type":"Point","properties":{"Station_ID":"NE-DG-35","Station_Nam":"BENNINGTON 2.9 SSW, NE","Latitude":"41.32763","Longitude":"-96.17473","Snowdepth":"3.000","Units":"in","Rept_Date":"2020-03-14 13"},"coordinates":[250,1349]},{"type":"Point","properties":{"Station_ID":"MYOM4","Station_Nam":"MIO WWTP","Latitude":"44.64660","Longitude":"-84.11580","Snowdepth":"3.000","Units":"in","Rept_Date":"2020-03-14 12"},"coordinates":[3080,4109]},{"type":"Point","properties":{"Station_ID":"MN76ACVS","Station_Nam":"GRAND MARAIS 3.0 WNW","Latitude":"47.76602","Longitude":"-90.26427","Snowdepth":"3.000","Units":"in","Rept_Date":"2020-03-14 12"},"coordinates":[1637,6704]},{"type":"Point","properties":{"Station_ID":"MN228RRE","Station_Nam":"RICE 0.8 ENE","Latitude":"45.75724","Longitude":"-94.20638","Snowdepth":"3.000","Units":"in","Rept_Date":"2020-03-14 12"},"coordinates":[712,5033]},{"type":"Point","properties":{"Station_ID":"MLLW3","Station_Nam":"MERRILL 8W","Latitude":"45.17810","Longitude":"-89.84810","Snowdepth":"3.000","Units":"in","Rept_Date":"2020-03-14 11"},"coordinates":[1735,4552]},{"type":"Point","properties":{"Station_ID":"MACI2","Station_Nam":"MACKINAW","Latitude":"40.52400","Longitude":"-89.42070","Snowdepth":"3.000","Units":"in","Rept_Date":"2020-03-14 14"},"coordinates":[1835,680]},{"type":"Point","properties":{"Station_ID":"JEFN3","Station_Nam":"JEFFERSON","Latitude":"44.41690","Longitude":"-71.50080","Snowdepth":"3.000","Units":"in","Rept_Date":"2020-03-14 11"},"coordinates":[6040,3918]},{"type":"Point","properties":{"Station_ID":"IL-TZ-10","Station_Nam":"TREMONT 3.6 E, IL","Latitude":"40.52456","Longitude":"-89.42130","Snowdepth":"3.000","Units":"in","Rept_Date":"2020-03-14 13"},"coordinates":[1835,681]},{"type":"Point","properties":{"Station_ID":"IL-MCL-48","Station_Nam":"BLOOMINGTON 1.5 ESE, IL","Latitude":"40.47230","Longitude":"-88.94731","Snowdepth":"3.000","Units":"in","Rept_Date":"2020-03-14 13"},"coordinates":[1946,637]},{"type":"Point","properties":{"Station_ID":"IL-MCL-4","Station_Nam":"HEYWORTH 0.6 E, IL","Latitude":"40.31346","Longitude":"-88.96760","Snowdepth":"3.000","Units":"in","Rept_Date":"2020-03-14 14"},"coordinates":[1941,505]},{"type":"Point","properties":{"Station_ID":"IA-WY-7","Station_Nam":"ALLERTON 5.1 E, IA","Latitude":"40.71603","Longitude":"-93.26943","Snowdepth":"3.000","Units":"in","Rept_Date":"2020-03-14 13"},"coordinates":[932,840]},{"type":"Point","properties":{"Station_ID":"IA-HR-16","Station_Nam":"LOGAN 0.8 WNW, IA","Latitude":"41.65000","Longitude":"-95.80577","Snowdepth":"3.000","Units":"in","Rept_Date":"2020-03-14 13"},"coordinates":[336,1617]},{"type":"Point","properties":{"Station_ID":"GFDN6","Station_Nam":"CHASES LAKE","Latitude":"43.75920","Longitude":"-75.29980","Snowdepth":"3.000","Units":"in","Rept_Date":"2020-03-14 10"},"coordinates":[5149,3371]},{"type":"Point","properties":{"Station_ID":"FMTN1","Station_Nam":"FREMONT,NE","Latitude":"41.43330","Longitude":"-96.48330","Snowdepth":"3.000","Units":"in","Rept_Date":"2020-03-14 12"},"coordinates":[177,1436]},{"type":"Point","properties":{"Station_ID":"EVYI4","Station_Nam":"EVERLY,IA","Latitude":"43.18330","Longitude":"-95.36670","Snowdepth":"3.000","Units":"in","Rept_Date":"2020-03-14 12"},"coordinates":[439,2892]},{"type":"Point","properties":{"Station_ID":"EPTW3","Station_Nam":"EAU PLEINE TENDER","Latitude":"44.77220","Longitude":"-89.76720","Snowdepth":"3.000","Units":"in","Rept_Date":"2020-03-14 12"},"coordinates":[1753,4214]},{"type":"Point","properties":{"Station_ID":"CTEN1","Station_Nam":"DOANE COLLEGE","Latitude":"40.61670","Longitude":"-96.95000","Snowdepth":"3.000","Units":"in","Rept_Date":"2020-03-14 12"},"coordinates":[68,757]},{"type":"Point","properties":{"Station_ID":"CORM1","Station_Nam":"CORINNA","Latitude":"44.91980","Longitude":"-69.24180","Snowdepth":"3.000","Units":"in","Rept_Date":"2020-03-14 14"},"coordinates":[6571,4337]},{"type":"Point","properties":{"Station_ID":"CNNS2","Station_Nam":"CANTON","Latitude":"43.31120","Longitude":"-96.58770","Snowdepth":"3.000","Units":"in","Rept_Date":"2020-03-14 14"},"coordinates":[153,2999]},{"type":"Point","properties":{"Station_ID":"CENS2","Station_Nam":"CENTERVILLE,SD","Latitude":"43.04310","Longitude":"-96.90330","Snowdepth":"3.000","Units":"in","Rept_Date":"2020-03-14 13"},"coordinates":[79,2776]},{"type":"Point","properties":{"Station_ID":"IL-HN-2","Station_Nam":"WARSAW 5.8 SE, IL","Latitude":"40.28743","Longitude":"-91.35880","Snowdepth":"2.800","Units":"in","Rept_Date":"2020-03-14 13"},"coordinates":[1380,483]},{"type":"Point","properties":{"Station_ID":"SD-LN-32","Station_Nam":"SIOUX FALLS 3.6 SSE, SD","Latitude":"43.49360","Longitude":"-96.71249","Snowdepth":"2.500","Units":"in","Rept_Date":"2020-03-14 13"},"coordinates":[123,3150]},{"type":"Point","properties":{"Station_ID":"NH-MR-60","Station_Nam":"SOUTH SUTTON 1.3 SE, NH","Latitude":"43.29531","Longitude":"-71.90238","Snowdepth":"2.500","Units":"in","Rept_Date":"2020-03-14 13"},"coordinates":[5946,2985]},{"type":"Point","properties":{"Station_ID":"NH-MR-41","Station_Nam":"NEWBURY 1.6 NW, NH","Latitude":"43.33667","Longitude":"-72.06060","Snowdepth":"2.500","Units":"in","Rept_Date":"2020-03-14 12"},"coordinates":[5909,3020]},{"type":"Point","properties":{"Station_ID":"CASS001","Station_Nam":"PLATTSMOUTH 1.4 SW, NE","Latitude":"40.99460","Longitude":"-95.89760","Snowdepth":"2.500","Units":"in","Rept_Date":"2020-03-14 13"},"coordinates":[315,1072]},{"type":"Point","properties":{"Station_ID":"ME-CM-54","Station_Nam":"WINDHAM 3.9 NW, ME","Latitude":"43.85787","Longitude":"-70.46200","Snowdepth":"2.400","Units":"in","Rept_Date":"2020-03-14 12"},"coordinates":[6284,3453]},{"type":"Point","properties":{"Station_ID":"CAN-NS-159","Station_Nam":"NORTHPORT 0.1 NE, CAN","Latitude":"45.93299","Longitude":"-63.86711","Snowdepth":"2.300","Units":"in","Rept_Date":"2020-03-14 11"},"coordinates":[7832,5179]},{"type":"Point","properties":{"Station_ID":"IL-VR-17","Station_Nam":"HOOPESTON 0.8 W, IL","Latitude":"40.46615","Longitude":"-87.68540","Snowdepth":"2.200","Units":"in","Rept_Date":"2020-03-14 12"},"coordinates":[2242,632]},{"type":"Point","properties":{"Station_ID":"WNDM1","Station_Nam":"WINDHAM 2NW","Latitude":"43.85670","Longitude":"-70.46630","Snowdepth":"2.000","Units":"in","Rept_Date":"2020-03-14 11"},"coordinates":[6283,3452]},{"type":"Point","properties":{"Station_ID":"VT-LM-7","Station_Nam":"HYDE PARK 2.9 NE, VT","Latitude":"44.62080","Longitude":"-72.57250","Snowdepth":"2.000","Units":"in","Rept_Date":"2020-03-14 12"},"coordinates":[5789,4088]},{"type":"Point","properties":{"Station_ID":"SYCN1","Station_Nam":"SYRACUSE,NE","Latitude":"40.65000","Longitude":"-96.18330","Snowdepth":"2.000","Units":"in","Rept_Date":"2020-03-14 11"},"coordinates":[248,785]},{"type":"Point","properties":{"Station_ID":"STRW3","Station_Nam":"STRATFORD 1NW","Latitude":"44.81750","Longitude":"-90.08990","Snowdepth":"2.000","Units":"in","Rept_Date":"2020-03-14 12"},"coordinates":[1678,4252]},{"type":"Point","properties":{"Station_ID":"SPW","Station_Nam":"SPENCER MUNICIPAL AIRPORT","Latitude":"43.16420","Longitude":"-95.20060","Snowdepth":"2.000","Units":"in","Rept_Date":"2020-03-14 11"},"coordinates":[478,2876]},{"type":"Point","properties":{"Station_ID":"SPNN1","Station_Nam":"MAHA SCOUT CAMP","Latitude":"41.06390","Longitude":"-96.00690","Snowdepth":"2.000","Units":"in","Rept_Date":"2020-03-14 13"},"coordinates":[289,1129]},{"type":"Point","properties":{"Station_ID":"SLBI4","Station_Nam":"STORM LAKE","Latitude":"42.64690","Longitude":"-95.19330","Snowdepth":"2.000","Units":"in","Rept_Date":"2020-03-14 13"},"coordinates":[480,2446]},{"type":"Point","properties":{"Station_ID":"SIXI4","Station_Nam":"SIOUX CENTER,IA","Latitude":"43.05000","Longitude":"-96.15000","Snowdepth":"2.000","Units":"in","Rept_Date":"2020-03-14 14"},"coordinates":[255,2781]},{"type":"Point","properties":{"Station_ID":"SIBI4","Station_Nam":"SIBLEY","Latitude":"43.40470","Longitude":"-95.74830","Snowdepth":"2.000","Units":"in","Rept_Date":"2020-03-14 12"},"coordinates":[350,3076]},{"type":"Point","properties":{"Station_ID":"SD-UN-2","Station_Nam":"ELK POINT 5.6 NNE, SD","Latitude":"42.76126","Longitude":"-96.65320","Snowdepth":"2.000","Units":"in","Rept_Date":"2020-03-14 15"},"coordinates":[137,2541]},{"type":"Point","properties":{"Station_ID":"RARM4","Station_Nam":"RAPID RIVER 1 SW","Latitude":"45.91500","Longitude":"-86.98800","Snowdepth":"2.000","Units":"in","Rept_Date":"2020-03-14 11"},"coordinates":[2406,5164]},{"type":"Point","properties":{"Station_ID":"PLFV1","Station_Nam":"PLAINFIELD","Latitude":"44.27610","Longitude":"-72.41500","Snowdepth":"2.000","Units":"in","Rept_Date":"2020-03-14 11"},"coordinates":[5826,3801]},{"type":"Point","properties":{"Station_ID":"ORCI4","Station_Nam":"ORANGE CITY","Latitude":"43.00080","Longitude":"-96.05390","Snowdepth":"2.000","Units":"in","Rept_Date":"2020-03-14 12"},"coordinates":[278,2740]},{"type":"Point","properties":{"Station_ID":"OAXN1","Station_Nam":"VALLEY 1WNW","Latitude":"41.31970","Longitude":"-96.36720","Snowdepth":"2.000","Units":"in","Rept_Date":"2020-03-15 05"},"coordinates":[205,1342]},{"type":"Point","properties":{"Station_ID":"OAKI4","Station_Nam":"OAKLAND,IA","Latitude":"41.31330","Longitude":"-95.39060","Snowdepth":"2.000","Units":"in","Rept_Date":"2020-03-14 12"},"coordinates":[434,1337]},{"type":"Point","properties":{"Station_ID":"NRLI2","Station_Nam":"NORMAL","Latitude":"40.54920","Longitude":"-88.94970","Snowdepth":"2.000","Units":"in","Rept_Date":"2020-03-14 10"},"coordinates":[1945,701]},{"type":"Point","properties":{"Station_ID":"NH-MR-6","Station_Nam":"DANBURY 2.2 ESE, NH","Latitude":"43.52000","Longitude":"-71.81900","Snowdepth":"2.000","Units":"in","Rept_Date":"2020-03-14 13"},"coordinates":[5966,3172]},{"type":"Point","properties":{"Station_ID":"NH-MR-45","Station_Nam":"NORTHFIELD 2.8 E, NH","Latitude":"43.43945","Longitude":"-71.53730","Snowdepth":"2.000","Units":"in","Rept_Date":"2020-03-14 12"},"coordinates":[6032,3105]},{"type":"Point","properties":{"Station_ID":"NE-SN-3","Station_Nam":"WESTON 0.2 ENE, NE","Latitude":"41.19322","Longitude":"-96.73740","Snowdepth":"2.000","Units":"in","Rept_Date":"2020-03-14 12"},"coordinates":[118,1237]},{"type":"Point","properties":{"Station_ID":"NE-LA-52","Station_Nam":"LINCOLN 1.2 ENE, NE","Latitude":"40.82411","Longitude":"-96.66780","Snowdepth":"2.000","Units":"in","Rept_Date":"2020-03-14 13"},"coordinates":[134,930]},{"type":"Point","properties":{"Station_ID":"NE-LA-19","Station_Nam":"LINCOLN 6.8 SE, NE","Latitude":"40.74944","Longitude":"-96.59280","Snowdepth":"2.000","Units":"in","Rept_Date":"2020-03-14 13"},"coordinates":[152,868]},{"type":"Point","properties":{"Station_ID":"NE-LA-1","Station_Nam":"LINCOLN 4.5 SE, NE","Latitude":"40.77076","Longitude":"-96.62792","Snowdepth":"2.000","Units":"in","Rept_Date":"2020-03-14 13"},"coordinates":[143,885]},{"type":"Point","properties":{"Station_ID":"NE-DD-3","Station_Nam":"FREMONT 0.6 S, NE","Latitude":"41.43141","Longitude":"-96.49210","Snowdepth":"2.000","Units":"in","Rept_Date":"2020-03-14 13"},"coordinates":[175,1435]},{"type":"Point","properties":{"Station_ID":"NE-CA-4","Station_Nam":"ELMWOOD 3.4 WSW, NE","Latitude":"40.81849","Longitude":"-96.35093","Snowdepth":"2.000","Units":"in","Rept_Date":"2020-03-14 14"},"coordinates":[208,925]},{"type":"Point","properties":{"Station_ID":"NCON3","Station_Nam":"NORTH CONWAY","Latitude":"44.05620","Longitude":"-71.12970","Snowdepth":"2.000","Units":"in","Rept_Date":"2020-03-14 12"},"coordinates":[6128,3618]},{"type":"Point","properties":{"Station_ID":"MRAM5","Station_Nam":"MORA","Latitude":"45.87760","Longitude":"-93.31470","Snowdepth":"2.000","Units":"in","Rept_Date":"2020-03-14 12"},"coordinates":[921,5133]},{"type":"Point","properties":{"Station_ID":"MQBI2","Station_Nam":"MACOMB","Latitude":"40.47860","Longitude":"-90.66980","Snowdepth":"2.000","Units":"in","Rept_Date":"2020-03-14 12"},"coordinates":[1542,642]},{"type":"Point","properties":{"Station_ID":"MONS2","Station_Nam":"MONTROSE","Latitude":"43.70500","Longitude":"-97.18780","Snowdepth":"2.000","Units":"in","Rept_Date":"2020-03-14 13"},"coordinates":[12,3326]},{"type":"Point","properties":{"Station_ID":"MN0GWSNW","Station_Nam":"LAKE ELMO 2.9 SE","Latitude":"44.97220","Longitude":"-92.83065","Snowdepth":"2.000","Units":"in","Rept_Date":"2020-03-14 12"},"coordinates":[1035,4380]},{"type":"Point","properties":{"Station_ID":"MN-SH-10","Station_Nam":"BIG LAKE 5.6 NNE, MN","Latitude":"45.41409","Longitude":"-93.69190","Snowdepth":"2.000","Units":"in","Rept_Date":"2020-03-14 13"},"coordinates":[832,4748]},{"type":"Point","properties":{"Station_ID":"MI-GT-21","Station_Nam":"KINGSLEY 2.7 ENE, MI","Latitude":"44.59871","Longitude":"-85.48426","Snowdepth":"2.000","Units":"in","Rept_Date":"2020-03-14 13"},"coordinates":[2759,4070]},{"type":"Point","properties":{"Station_ID":"MEDN1","Station_Nam":"AGRONOMY LABRATORY","Latitude":"41.16670","Longitude":"-96.41670","Snowdepth":"2.000","Units":"in","Rept_Date":"2020-03-14 11"},"coordinates":[193,1215]},{"type":"Point","properties":{"Station_ID":"ME-AN-32","Station_Nam":"WINTHROP 9.4 W, ME","Latitude":"44.30476","Longitude":"-70.15835","Snowdepth":"2.000","Units":"in","Rept_Date":"2020-03-14 11"},"coordinates":[6356,3825]},{"type":"Point","properties":{"Station_ID":"LSXI4","Station_Nam":"LITTLE SIOUX,IA","Latitude":"41.81670","Longitude":"-96.01670","Snowdepth":"2.000","Units":"in","Rept_Date":"2020-03-14 12"},"coordinates":[287,1755]},{"type":"Point","properties":{"Station_ID":"LACM7","Station_Nam":"LANCASTER 2SE","Latitude":"40.50280","Longitude":"-92.50770","Snowdepth":"2.000","Units":"in","Rept_Date":"2020-03-14 14"},"coordinates":[1110,662]},{"type":"Point","properties":{"Station_ID":"IA-DV-8","Station_Nam":"BLOOMFIELD 6.5 E, IA","Latitude":"40.73552","Longitude":"-92.29492","Snowdepth":"2.000","Units":"in","Rept_Date":"2020-03-14 13"},"coordinates":[1160,856]},{"type":"Point","properties":{"Station_ID":"HOPI2","Station_Nam":"HOOPESTON","Latitude":"40.46640","Longitude":"-87.68510","Snowdepth":"2.000","Units":"in","Rept_Date":"2020-03-15 00"},"coordinates":[2242,632]},{"type":"Point","properties":{"Station_ID":"GTHI4","Station_Nam":"GUTHRIE CENTER,IA","Latitude":"41.68330","Longitude":"-94.50000","Snowdepth":"2.000","Units":"in","Rept_Date":"2020-03-14 13"},"coordinates":[643,1644]},{"type":"Point","properties":{"Station_ID":"FSHI2","Station_Nam":"FISHER","Latitude":"40.31750","Longitude":"-88.35040","Snowdepth":"2.000","Units":"in","Rept_Date":"2020-03-14 13"},"coordinates":[2086,508]},{"type":"Point","properties":{"Station_ID":"FRKI3","Station_Nam":"FRANKFORT WASTEWATER TREATMENT PLANT","Latitude":"40.29860","Longitude":"-86.50660","Snowdepth":"2.000","Units":"in","Rept_Date":"2020-03-15 04"},"coordinates":[2519,493]},{"type":"Point","properties":{"Station_ID":"DOUG059","Station_Nam":"OMAHA 13.2 WSW, NE","Latitude":"41.20603","Longitude":"-96.18116","Snowdepth":"2.000","Units":"in","Rept_Date":"2020-03-14 07"},"coordinates":[248,1247]},{"type":"Point","properties":{"Station_ID":"DOUG006","Station_Nam":"OMAHA 2.9 W, NE","Latitude":"41.26580","Longitude":"-95.99270","Snowdepth":"2.000","Units":"in","Rept_Date":"2020-03-14 07"},"coordinates":[292,1297]},{"type":"Point","properties":{"Station_ID":"CRNI4","Station_Nam":"CORNING","Latitude":"40.98860","Longitude":"-94.74910","Snowdepth":"2.000","Units":"in","Rept_Date":"2020-03-14 14"},"coordinates":[584,1067]},{"type":"Point","properties":{"Station_ID":"CLNI4","Station_Nam":"CLINTON NO 1","Latitude":"41.79470","Longitude":"-90.26390","Snowdepth":"2.000","Units":"in","Rept_Date":"2020-03-14 23"},"coordinates":[1637,1737]},{"type":"Point","properties":{"Station_ID":"BRCN1","Station_Nam":"BEATRICE,NE","Latitude":"40.30000","Longitude":"-96.74940","Snowdepth":"2.000","Units":"in","Rept_Date":"2020-03-14 12"},"coordinates":[115,494]},{"type":"Point","properties":{"Station_ID":"BKEM5","Station_Nam":"BRECKENRIDGE 4NE","Latitude":"46.30470","Longitude":"-96.52170","Snowdepth":"2.000","Units":"in","Rept_Date":"2020-03-14 12"},"coordinates":[168,5489]},{"type":"Point","properties":{"Station_ID":"BFSW3","Station_Nam":"BIG FALLS-5 NW","Latitude":"44.63980","Longitude":"-89.11330","Snowdepth":"2.000","Units":"in","Rept_Date":"2020-03-14 12"},"coordinates":[1907,4104]},{"type":"Point","properties":{"Station_ID":"BCNI4","Station_Nam":"BEACONSFIELD,IA","Latitude":"40.82360","Longitude":"-94.04390","Snowdepth":"2.000","Units":"in","Rept_Date":"2020-03-14 12"},"coordinates":[750,929]},{"type":"Point","properties":{"Station_ID":"ALBI4","Station_Nam":"ALBIA,IA","Latitude":"41.06670","Longitude":"-92.78330","Snowdepth":"2.000","Units":"in","Rept_Date":"2020-03-14 12"},"coordinates":[1046,1132]},{"type":"Point","properties":{"Station_ID":"NE-LA-54","Station_Nam":"LINCOLN 4.6 N, NE","Latitude":"40.88230","Longitude":"-96.69430","Snowdepth":"1.900","Units":"in","Rept_Date":"2020-03-14 13"},"coordinates":[128,978]},{"type":"Point","properties":{"Station_ID":"NE-LA-30","Station_Nam":"WAVERLY 0.4 W, NE","Latitude":"40.91605","Longitude":"-96.53823","Snowdepth":"1.800","Units":"in","Rept_Date":"2020-03-14 16"},"coordinates":[164,1006]},{"type":"Point","properties":{"Station_ID":"IA-PT-2","Station_Nam":"COUNCIL BLUFFS 3.4 NNE, IA","Latitude":"41.28530","Longitude":"-95.83360","Snowdepth":"1.700","Units":"in","Rept_Date":"2020-03-14 13"},"coordinates":[330,1313]},{"type":"Point","properties":{"Station_ID":"CAN-NB-5","Station_Nam":"OAK POINT 0.9 SSW, CA","Latitude":"45.50752","Longitude":"-66.09860","Snowdepth":"1.600","Units":"in","Rept_Date":"2020-03-14 12"},"coordinates":[7308,4826]},{"type":"Point","properties":{"Station_ID":"VT-LM-1","Station_Nam":"STOWE 0.2 SW, VT","Latitude":"44.46399","Longitude":"-72.69070","Snowdepth":"1.500","Units":"in","Rept_Date":"2020-03-14 12"},"coordinates":[5761,3958]},{"type":"Point","properties":{"Station_ID":"SD-MH-41","Station_Nam":"SIOUX FALLS 3.9 SW, SD","Latitude":"43.50475","Longitude":"-96.78660","Snowdepth":"1.500","Units":"in","Rept_Date":"2020-03-14 13"},"coordinates":[106,3160]},{"type":"Point","properties":{"Station_ID":"SD-MH-1","Station_Nam":"SIOUX FALLS 5.0 SE ARPT, SD","Latitude":"43.52360","Longitude":"-96.66780","Snowdepth":"1.500","Units":"in","Rept_Date":"2020-03-14 13"},"coordinates":[134,3175]},{"type":"Point","properties":{"Station_ID":"NY-OD-2","Station_Nam":"POINT ROCK 0.6 SE, NY","Latitude":"43.37335","Longitude":"-75.53840","Snowdepth":"1.500","Units":"in","Rept_Date":"2020-03-14 13"},"coordinates":[5093,3050]},{"type":"Point","properties":{"Station_ID":"NE-LA-56","Station_Nam":"LINCOLN 8.1 SSE, NE","Latitude":"40.71326","Longitude":"-96.61527","Snowdepth":"1.500","Units":"in","Rept_Date":"2020-03-14 14"},"coordinates":[146,838]},{"type":"Point","properties":{"Station_ID":"NE-LA-38","Station_Nam":"LINCOLN 4.6 S, NE","Latitude":"40.74920","Longitude":"-96.68970","Snowdepth":"1.500","Units":"in","Rept_Date":"2020-03-14 13"},"coordinates":[129,867]},{"type":"Point","properties":{"Station_ID":"NE-CA-2","Station_Nam":"ALVO 2.1 W, NE","Latitude":"40.86903","Longitude":"-96.42660","Snowdepth":"1.500","Units":"in","Rept_Date":"2020-03-14 14"},"coordinates":[191,967]},{"type":"Point","properties":{"Station_ID":"MI-BZ-1","Station_Nam":"BENZONIA 5.3 S, MI","Latitude":"44.53976","Longitude":"-86.10650","Snowdepth":"1.500","Units":"in","Rept_Date":"2020-03-14 14"},"coordinates":[2613,4021]},{"type":"Point","properties":{"Station_ID":"ME-CM-125","Station_Nam":"CUMBERLAND CENTER 4.4 NW, ME","Latitude":"43.84640","Longitude":"-70.31340","Snowdepth":"1.500","Units":"in","Rept_Date":"2020-03-14 12"},"coordinates":[6319,3444]},{"type":"Point","properties":{"Station_ID":"IL-VR-25","Station_Nam":"HOOPESTON 0.6 E, IL","Latitude":"40.46359","Longitude":"-87.65980","Snowdepth":"1.400","Units":"in","Rept_Date":"2020-03-14 13"},"coordinates":[2248,630]},{"type":"Point","properties":{"Station_ID":"IL-MCL-46","Station_Nam":"NORMAL 1.1 SSE, IL","Latitude":"40.50413","Longitude":"-88.98844","Snowdepth":"1.250","Units":"in","Rept_Date":"2020-03-14 13"},"coordinates":[1936,664]},{"type":"Point","properties":{"Station_ID":"SD-CY-10","Station_Nam":"VERMILLION 1.4 SE, SD","Latitude":"42.76865","Longitude":"-96.90649","Snowdepth":"1.200","Units":"in","Rept_Date":"2020-03-14 12"},"coordinates":[78,2547]},{"type":"Point","properties":{"Station_ID":"WRVO1","Station_Nam":"WESTERVILLE","Latitude":"40.12680","Longitude":"-82.94410","Snowdepth":"1.000","Units":"in","Rept_Date":"2020-03-14 21"},"coordinates":[3355,350]},{"type":"Point","properties":{"Station_ID":"WORV1","Station_Nam":"WORCESTER 2 W","Latitude":"44.37470","Longitude":"-72.58220","Snowdepth":"1.000","Units":"in","Rept_Date":"2020-03-14 11"},"coordinates":[5787,3883]},{"type":"Point","properties":{"Station_ID":"WMTI4","Station_Nam":"FORT DODGE,IA","Latitude":"42.50610","Longitude":"-94.20110","Snowdepth":"1.000","Units":"in","Rept_Date":"2020-03-14 12"},"coordinates":[713,2329]},{"type":"Point","properties":{"Station_ID":"WMRM5","Station_Nam":"WILLMAR 5N","Latitude":"45.19010","Longitude":"-95.05860","Snowdepth":"1.000","Units":"in","Rept_Date":"2020-03-14 11"},"coordinates":[512,4562]},{"type":"Point","properties":{"Station_ID":"WI-WN-9","Station_Nam":"NEENAH 1.1 ENE, WI","Latitude":"44.17370","Longitude":"-88.45130","Snowdepth":"1.000","Units":"in","Rept_Date":"2020-03-14 13"},"coordinates":[2062,3716]},{"type":"Point","properties":{"Station_ID":"WI-WD-7","Station_Nam":"NEKOOSA 3.7 SSW, WI","Latitude":"44.26305","Longitude":"-89.93526","Snowdepth":"1.000","Units":"in","Rept_Date":"2020-03-14 13"},"coordinates":[1714,3790]},{"type":"Point","properties":{"Station_ID":"WI-WD-2","Station_Nam":"WISCONSIN RAPIDS 4.6 SSE, WI","Latitude":"44.33823","Longitude":"-89.78200","Snowdepth":"1.000","Units":"in","Rept_Date":"2020-03-14 13"},"coordinates":[1750,3853]},{"type":"Point","properties":{"Station_ID":"WI-CH-7","Station_Nam":"CHIPPEWA FALLS 1.2 E, WI","Latitude":"44.92920","Longitude":"-91.36730","Snowdepth":"1.000","Units":"in","Rept_Date":"2020-03-14 13"},"coordinates":[1378,4344]},{"type":"Point","properties":{"Station_ID":"WHTM5","Station_Nam":"WHEATON,MN","Latitude":"45.80000","Longitude":"-96.48330","Snowdepth":"1.000","Units":"in","Rept_Date":"2020-03-14 13"},"coordinates":[177,5069]},{"type":"Point","properties":{"Station_ID":"VT-WR-17","Station_Nam":"ROCHESTER 2.3 NE, VT","Latitude":"43.89418","Longitude":"-72.76992","Snowdepth":"1.000","Units":"in","Rept_Date":"2020-03-14 12"},"coordinates":[5743,3484]},{"type":"Point","properties":{"Station_ID":"VT-AD-20","Station_Nam":"HANCOCK 0.3 S, VT","Latitude":"43.92166","Longitude":"-72.84042","Snowdepth":"1.000","Units":"in","Rept_Date":"2020-03-14 12"},"coordinates":[5726,3506]},{"type":"Point","properties":{"Station_ID":"THLM5","Station_Nam":"THEILMAN 1SSW","Latitude":"44.28130","Longitude":"-92.19430","Snowdepth":"1.000","Units":"in","Rept_Date":"2020-03-14 12"},"coordinates":[1184,3806]},{"type":"Point","properties":{"Station_ID":"TCMN1","Station_Nam":"TECUMSEH,NE","Latitude":"40.36670","Longitude":"-96.18330","Snowdepth":"1.000","Units":"in","Rept_Date":"2020-03-14 13"},"coordinates":[248,549]},{"type":"Point","properties":{"Station_ID":"SWHI4","Station_Nam":"SWISHER #2","Latitude":"41.84970","Longitude":"-91.67650","Snowdepth":"1.000","Units":"in","Rept_Date":"2020-03-14 14"},"coordinates":[1305,1783]},{"type":"Point","properties":{"Station_ID":"STPW3","Station_Nam":"STEVENS POINT","Latitude":"44.51130","Longitude":"-89.58550","Snowdepth":"1.000","Units":"in","Rept_Date":"2020-03-14 12"},"coordinates":[1796,3997]},{"type":"Point","properties":{"Station_ID":"SACI4","Station_Nam":"SAC CITY,IA","Latitude":"42.42390","Longitude":"-94.99080","Snowdepth":"1.000","Units":"in","Rept_Date":"2020-03-14 11"},"coordinates":[528,2261]},{"type":"Point","properties":{"Station_ID":"RWGM5","Station_Nam":"RED WING","Latitude":"44.57120","Longitude":"-92.52830","Snowdepth":"1.000","Units":"in","Rept_Date":"2020-03-14 13"},"coordinates":[1105,4047]},{"type":"Point","properties":{"Station_ID":"RRLW3","Station_Nam":"MERRILL,WI","Latitude":"45.17860","Longitude":"-89.66170","Snowdepth":"1.000","Units":"in","Rept_Date":"2020-03-14 13"},"coordinates":[1778,4552]},{"type":"Point","properties":{"Station_ID":"ROBM1","Station_Nam":"ROBBINSTON","Latitude":"45.08520","Longitude":"-67.12050","Snowdepth":"1.000","Units":"in","Rept_Date":"2020-03-15 04"},"coordinates":[7069,4474]},{"type":"Point","properties":{"Station_ID":"RKWI4","Station_Nam":"ROCKWELL CITY,IA","Latitude":"42.40000","Longitude":"-94.61670","Snowdepth":"1.000","Units":"in","Rept_Date":"2020-03-14 12"},"coordinates":[615,2241]},{"type":"Point","properties":{"Station_ID":"PSHW3","Station_Nam":"PESHTIGO","Latitude":"45.02810","Longitude":"-87.73560","Snowdepth":"1.000","Units":"in","Rept_Date":"2020-03-14 12"},"coordinates":[2230,4427]},{"type":"Point","properties":{"Station_ID":"POCI4","Station_Nam":"POCAHONTAS,IA","Latitude":"42.72920","Longitude":"-94.66060","Snowdepth":"1.000","Units":"in","Rept_Date":"2020-03-14 13"},"coordinates":[605,2514]},{"type":"Point","properties":{"Station_ID":"PIPM5","Station_Nam":"PIPESTONE,MN","Latitude":"44.01390","Longitude":"-96.32580","Snowdepth":"1.000","Units":"in","Rept_Date":"2020-03-14 13"},"coordinates":[214,3583]},{"type":"Point","properties":{"Station_ID":"ORAN3","Station_Nam":"ORANGE","Latitude":"43.66880","Longitude":"-71.94830","Snowdepth":"1.000","Units":"in","Rept_Date":"2020-03-14 11"},"coordinates":[5935,3296]},{"type":"Point","properties":{"Station_ID":"OMA","Station_Nam":"EPPLEY AIRFIELD","Latitude":"41.30220","Longitude":"-95.89330","Snowdepth":"1.000","Units":"in","Rept_Date":"2020-03-15 00"},"coordinates":[316,1327]},{"type":"Point","properties":{"Station_ID":"OCON6","Station_Nam":"OSCEOLA","Latitude":"43.49910","Longitude":"-75.71210","Snowdepth":"1.000","Units":"in","Rept_Date":"2020-03-14 11"},"coordinates":[5052,3155]},{"type":"Point","properties":{"Station_ID":"OAX","Station_Nam":"OMAHA, NE","Latitude":"41.32000","Longitude":"-96.36670","Snowdepth":"1.000","Units":"in","Rept_Date":"2020-03-15 00"},"coordinates":[205,1342]},{"type":"Point","properties":{"Station_ID":"NY-WR-10","Station_Nam":"WARRENSBURG 2.1 WNW, NY","Latitude":"43.51784","Longitude":"-73.81069","Snowdepth":"1.000","Units":"in","Rept_Date":"2020-03-14 13"},"coordinates":[5498,3170]},{"type":"Point","properties":{"Station_ID":"NUMM5","Station_Nam":"NEW ULM 3SE","Latitude":"44.29450","Longitude":"-94.40840","Snowdepth":"1.000","Units":"in","Rept_Date":"2020-03-14 11"},"coordinates":[664,3817]},{"type":"Point","properties":{"Station_ID":"NE-LA-40","Station_Nam":"LINCOLN 3.9 S, NE","Latitude":"40.76142","Longitude":"-96.70244","Snowdepth":"1.000","Units":"in","Rept_Date":"2020-03-14 13"},"coordinates":[126,878]},{"type":"Point","properties":{"Station_ID":"MTAI4","Station_Nam":"MOUNT AYR,IA","Latitude":"40.68280","Longitude":"-94.29440","Snowdepth":"1.000","Units":"in","Rept_Date":"2020-03-14 12"},"coordinates":[691,812]},{"type":"Point","properties":{"Station_ID":"MRTI2","Station_Nam":"MORTON","Latitude":"40.60050","Longitude":"-89.46540","Snowdepth":"1.000","Units":"in","Rept_Date":"2020-03-14 12"},"coordinates":[1824,744]},{"type":"Point","properties":{"Station_ID":"MRFS2","Station_Nam":"MADISON,SD","Latitude":"44.00000","Longitude":"-97.23330","Snowdepth":"1.000","Units":"in","Rept_Date":"2020-03-14 14"},"coordinates":[1,3572]},{"type":"Point","properties":{"Station_ID":"MNF74YNU","Station_Nam":"NEW ULM 3.3 ESE","Latitude":"44.29029","Longitude":"-94.40196","Snowdepth":"1.000","Units":"in","Rept_Date":"2020-03-14 10"},"coordinates":[666,3813]},{"type":"Point","properties":{"Station_ID":"MNEY8CTB","Station_Nam":"MIDLAND JUNCTION 2.2 ENE","Latitude":"44.33041","Longitude":"-91.95891","Snowdepth":"1.000","Units":"in","Rept_Date":"2020-03-14 13"},"coordinates":[1239,3846]},{"type":"Point","properties":{"Station_ID":"MN-SH-985","Station_Nam":"PRINCETON 3.3 WSW, MN","Latitude":"45.55211","Longitude":"-93.64481","Snowdepth":"1.000","Units":"in","Rept_Date":"2020-03-14 11"},"coordinates":[843,4863]},{"type":"Point","properties":{"Station_ID":"MN-RK-5","Station_Nam":"HILLS 0.2 NW, MN","Latitude":"43.52960","Longitude":"-96.36146","Snowdepth":"1.000","Units":"in","Rept_Date":"2020-03-14 14"},"coordinates":[206,3180]},{"type":"Point","properties":{"Station_ID":"MIAM5","Station_Nam":"MILAN 1NW","Latitude":"45.12190","Longitude":"-95.92690","Snowdepth":"1.000","Units":"in","Rept_Date":"2020-03-14 23"},"coordinates":[308,4505]},{"type":"Point","properties":{"Station_ID":"MI-EM-5","Station_Nam":"HARBOR SPRINGS 0.7 ENE, MI","Latitude":"45.43450","Longitude":"-84.97540","Snowdepth":"1.000","Units":"in","Rept_Date":"2020-03-14 12"},"coordinates":[2878,4765]},{"type":"Point","properties":{"Station_ID":"MEDW3","Station_Nam":"MEDFORD","Latitude":"45.13080","Longitude":"-90.34390","Snowdepth":"1.000","Units":"in","Rept_Date":"2020-03-14 13"},"coordinates":[1618,4512]},{"type":"Point","properties":{"Station_ID":"MAPM4","Station_Nam":"MAPLE CITY 1E","Latitude":"44.85500","Longitude":"-85.83520","Snowdepth":"1.000","Units":"in","Rept_Date":"2020-03-15 00"},"coordinates":[2676,4283]},{"type":"Point","properties":{"Station_ID":"LUCW3","Station_Nam":"LUCK","Latitude":"45.57330","Longitude":"-92.48520","Snowdepth":"1.000","Units":"in","Rept_Date":"2020-03-14 16"},"coordinates":[1116,4880]},{"type":"Point","properties":{"Station_ID":"LAHI2","Station_Nam":"LA HARPE","Latitude":"40.58380","Longitude":"-90.96860","Snowdepth":"1.000","Units":"in","Rept_Date":"2020-03-14 13"},"coordinates":[1472,730]},{"type":"Point","properties":{"Station_ID":"KS-WS-12","Station_Nam":"MORROWVILLE 4.8 SSW, KS","Latitude":"39.78476","Longitude":"-97.21600","Snowdepth":"1.000","Units":"in","Rept_Date":"2020-03-14 13"},"coordinates":[5,65]},{"type":"Point","properties":{"Station_ID":"KRKM7","Station_Nam":"KIRKSVILLE","Latitude":"40.20570","Longitude":"-92.57480","Snowdepth":"1.000","Units":"in","Rept_Date":"2020-03-14 12"},"coordinates":[1095,415]},{"type":"Point","properties":{"Station_ID":"KRFD","Station_Nam":"GREATER ROCKFORD AIRPORT","Latitude":"42.20000","Longitude":"-89.10000","Snowdepth":"1.000","Units":"in","Rept_Date":"2020-03-15 06"},"coordinates":[1910,2074]},{"type":"Point","properties":{"Station_ID":"KOFF","Station_Nam":"OMAHA / OFFUTT AIR FORCE BASE","Latitude":"41.11666","Longitude":"-95.90000","Snowdepth":"1.000","Units":"in","Rept_Date":"2020-03-14 12"},"coordinates":[314,1173]},{"type":"Point","properties":{"Station_ID":"KFWA","Station_Nam":"FORT WAYNE INTERNATIONAL","Latitude":"41.00000","Longitude":"-85.20000","Snowdepth":"1.000","Units":"in","Rept_Date":"2020-03-15 06"},"coordinates":[2825,1076]},{"type":"Point","properties":{"Station_ID":"KDAY","Station_Nam":"COX DAYTON INTERNATIONAL","Latitude":"39.90000","Longitude":"-84.21666","Snowdepth":"1.000","Units":"in","Rept_Date":"2020-03-15 05"},"coordinates":[3056,161]},{"type":"Point","properties":{"Station_ID":"KCAK","Station_Nam":"AKRON-CANTON REGIONAL AIRPORT","Latitude":"40.91666","Longitude":"-81.45000","Snowdepth":"1.000","Units":"in","Rept_Date":"2020-03-15 06"},"coordinates":[3705,1007]},{"type":"Point","properties":{"Station_ID":"IWXI3","Station_Nam":"NORTHERN INDIANA WFO","Latitude":"41.35880","Longitude":"-85.69970","Snowdepth":"1.000","Units":"in","Rept_Date":"2020-03-15 05"},"coordinates":[2708,1375]},{"type":"Point","properties":{"Station_ID":"INXI3","Station_Nam":"INDIANAPOLIS NWFO","Latitude":"39.70640","Longitude":"-86.28060","Snowdepth":"1.000","Units":"in","Rept_Date":"2020-03-15 04"},"coordinates":[2572,0]},{"type":"Point","properties":{"Station_ID":"IND","Station_Nam":"INDIANAPOLIS, IN","Latitude":"39.71720","Longitude":"-86.29420","Snowdepth":"1.000","Units":"in","Rept_Date":"2020-03-15 00"},"coordinates":[2569,9]},{"type":"Point","properties":{"Station_ID":"IL-TZ-26","Station_Nam":"PEKIN 3.6 SSE, IL","Latitude":"40.52163","Longitude":"-89.59596","Snowdepth":"1.000","Units":"in","Rept_Date":"2020-03-14 15"},"coordinates":[1794,678]},{"type":"Point","properties":{"Station_ID":"IL-MCD-7","Station_Nam":"COLCHESTER 3.5 NE, IL","Latitude":"40.46236","Longitude":"-90.74520","Snowdepth":"1.000","Units":"in","Rept_Date":"2020-03-14 13"},"coordinates":[1524,629]},{"type":"Point","properties":{"Station_ID":"IL-DW-8","Station_Nam":"FARMER CITY 2.6 WSW, IL","Latitude":"40.22854","Longitude":"-88.68564","Snowdepth":"1.000","Units":"in","Rept_Date":"2020-03-14 16"},"coordinates":[2007,434]},{"type":"Point","properties":{"Station_ID":"IL-CP-59","Station_Nam":"MAHOMET 1.7 NNE, IL","Latitude":"40.21567","Longitude":"-88.38690","Snowdepth":"1.000","Units":"in","Rept_Date":"2020-03-14 14"},"coordinates":[2077,424]},{"type":"Point","properties":{"Station_ID":"IA-UN-3","Station_Nam":"MURRAY 5.7 SW, IA","Latitude":"40.98786","Longitude":"-94.03121","Snowdepth":"1.000","Units":"in","Rept_Date":"2020-03-14 14"},"coordinates":[753,1066]},{"type":"Point","properties":{"Station_ID":"IA-TY-2","Station_Nam":"NEW MARKET 4.7 N, IA","Latitude":"40.80060","Longitude":"-94.91020","Snowdepth":"1.000","Units":"in","Rept_Date":"2020-03-14 13"},"coordinates":[546,910]},{"type":"Point","properties":{"Station_ID":"IA-DV-7","Station_Nam":"BLOOMFIELD 4.2 WNW, IA","Latitude":"40.77675","Longitude":"-92.48850","Snowdepth":"1.000","Units":"in","Rept_Date":"2020-03-14 13"},