{"type":"Topology","objects":{"snowdepth_geo":{"type":"GeometryCollection","name":"snowdepth","crs":{"type":"name","properties":{"name":"urn:ogc:def:crs:OGC:1.3:CRS84"}},"geometries":[{"type":"Point","properties":{"Station_ID":"PRKM4","Station_Nam":"MUNISING EAST","Latitude":"46.42580","Longitude":"-86.62000","Snowdepth":"76.500","Units":"in","Rept_Date":"2021-03-05 06"},"coordinates":[2492,5957]},{"type":"Point","properties":{"Station_ID":"MMNV1","Station_Nam":"MT. MANSFIELD","Latitude":"44.52480","Longitude":"-72.81540","Snowdepth":"56.000","Units":"in","Rept_Date":"2021-03-04 21"},"coordinates":[5732,4508]},{"type":"Point","properties":{"Station_ID":"HTLN3","Station_Nam":"HERMIT LAKE SNOWPLOT","Latitude":"44.26130","Longitude":"-71.28330","Snowdepth":"52.000","Units":"in","Rept_Date":"2021-03-04 10"},"coordinates":[6092,4307]},{"type":"Point","properties":{"Station_ID":"CAN-NB-11","Station_Nam":"MIRAMICHI 3.3 S, CAN","Latitude":"46.99343","Longitude":"-65.50690","Snowdepth":"47.000","Units":"in","Rept_Date":"2021-03-04 10"},"coordinates":[7447,6390]},{"type":"Point","properties":{"Station_ID":"HLSN3","Station_Nam":"HERMIT LAKE SNOTEL","Latitude":"44.26130","Longitude":"-71.28320","Snowdepth":"46.140","Units":"in","Rept_Date":"2021-03-05 06"},"coordinates":[6092,4307]},{"type":"Point","properties":{"Station_ID":"GKBN3","Station_Nam":"GRAY KNOB","Latitude":"44.33260","Longitude":"-71.30930","Snowdepth":"42.000","Units":"in","Rept_Date":"2021-03-04 10"},"coordinates":[6085,4361]},{"type":"Point","properties":{"Station_ID":"PDLM4","Station_Nam":"PAINESDALE","Latitude":"47.04160","Longitude":"-88.67170","Snowdepth":"40.000","Units":"in","Rept_Date":"2021-03-04 13"},"coordinates":[2011,6427]},{"type":"Point","properties":{"Station_ID":"HGHN6","Station_Nam":"HIGHMARKET","Latitude":"43.60510","Longitude":"-75.55430","Snowdepth":"35.000","Units":"in","Rept_Date":"2021-03-04 11"},"coordinates":[5089,3806]},{"type":"Point","properties":{"Station_ID":"PTLQ6","Station_Nam":"PORTAGE LAKE","Latitude":"49.06950","Longitude":"-86.65940","Snowdepth":"32.800","Units":"in","Rept_Date":"2021-03-05 06"},"coordinates":[2483,7973]},{"type":"Point","properties":{"Station_ID":"KSGM4","Station_Nam":"KEARSARGE","Latitude":"47.27520","Longitude":"-88.41700","Snowdepth":"32.000","Units":"in","Rept_Date":"2021-03-04 13"},"coordinates":[2070,6605]},{"type":"Point","properties":{"Station_ID":"CAN-NS-39","Station_Nam":"ST. ANNS 2.8 NW, CA","Latitude":"46.25082","Longitude":"-60.64340","Snowdepth":"32.000","Units":"in","Rept_Date":"2021-03-04 11"},"coordinates":[8589,5824]},{"type":"Point","properties":{"Station_ID":"MOSN3","Station_Nam":"MOOSE FALLS","Latitude":"45.18890","Longitude":"-71.18810","Snowdepth":"31.900","Units":"in","Rept_Date":"2021-03-04 18"},"coordinates":[6114,5014]},{"type":"Point","properties":{"Station_ID":"QGO","Station_Nam":"QGO","Latitude":"48.85500","Longitude":"-74.20640","Snowdepth":"31.457","Units":"in","Rept_Date":"2021-03-04 12"},"coordinates":[5405,7809]},{"type":"Point","properties":{"Station_ID":"QNCM4","Station_Nam":"QUINCY HILL","Latitude":"47.13640","Longitude":"-88.57950","Snowdepth":"31.000","Units":"in","Rept_Date":"2021-03-04 12"},"coordinates":[2032,6499]},{"type":"Point","properties":{"Station_ID":"TRIQ6","Station_Nam":"TRIO LAKE","Latitude":"49.22880","Longitude":"-87.22920","Snowdepth":"30.670","Units":"in","Rept_Date":"2021-03-05 06"},"coordinates":[2349,8094]},{"type":"Point","properties":{"Station_ID":"CAN-NB-96","Station_Nam":"SAINT-IGNACE 2.6 NE, CAN","Latitude":"46.71424","Longitude":"-65.05609","Snowdepth":"30.300","Units":"in","Rept_Date":"2021-03-04 11"},"coordinates":[7553,6177]},{"type":"Point","properties":{"Station_ID":"LVDW3","Station_Nam":"LAC VIEUX DESERT","Latitude":"46.12110","Longitude":"-89.07580","Snowdepth":"30.000","Units":"in","Rept_Date":"2021-03-04 13"},"coordinates":[1916,5725]},{"type":"Point","properties":{"Station_ID":"CAN-NB-105","Station_Nam":"SISSON BROOK 3.8 E, CAN","Latitude":"46.98305","Longitude":"-67.32532","Snowdepth":"29.900","Units":"in","Rept_Date":"2021-03-04 12"},"coordinates":[7020,6382]},{"type":"Point","properties":{"Station_ID":"LBKV1","Station_Nam":"LYE BROOK","Latitude":"43.05000","Longitude":"-73.03330","Snowdepth":"29.000","Units":"in","Rept_Date":"2021-03-05 04"},"coordinates":[5681,3383]},{"type":"Point","properties":{"Station_ID":"DVLQ6","Station_Nam":"DEVIOUS LAKE","Latitude":"49.19890","Longitude":"-87.76440","Snowdepth":"28.900","Units":"in","Rept_Date":"2021-03-05 06"},"coordinates":[2224,8072]},{"type":"Point","properties":{"Station_ID":"CAN-NL-82","Station_Nam":"GANDER 2.7 NW, CAN","Latitude":"48.97737","Longitude":"-54.63396","Snowdepth":"28.700","Units":"in","Rept_Date":"2021-03-04 10"},"coordinates":[9999,7903]},{"type":"Point","properties":{"Station_ID":"AUDQ6","Station_Nam":"AUDEN","Latitude":"48.52600","Longitude":"-82.57570","Snowdepth":"28.350","Units":"in","Rept_Date":"2021-03-05 06"},"coordinates":[3441,7558]},{"type":"Point","properties":{"Station_ID":"CAN-QC-62","Station_Nam":"SAINT-LUC-DE-BELLECHASSE 2.2 SE, CAN","Latitude":"46.49532","Longitude":"-70.46313","Snowdepth":"28.300","Units":"in","Rept_Date":"2021-03-04 12"},"coordinates":[6284,6010]},{"type":"Point","properties":{"Station_ID":"WDFV1","Station_Nam":"WOODFORD MOUNTAIN","Latitude":"42.88330","Longitude":"-73.06670","Snowdepth":"28.000","Units":"in","Rept_Date":"2021-03-04 12"},"coordinates":[5673,3256]},{"type":"Point","properties":{"Station_ID":"NY-HR-18","Station_Nam":"SALISBURY CENTER 1.8 NW, NY","Latitude":"43.16260","Longitude":"-74.80880","Snowdepth":"28.000","Units":"in","Rept_Date":"2021-03-04 10"},"coordinates":[5264,3469]},{"type":"Point","properties":{"Station_ID":"MI-HG-20","Station_Nam":"CALUMET 1.1 SSW, MI","Latitude":"47.23165","Longitude":"-88.45823","Snowdepth":"28.000","Units":"in","Rept_Date":"2021-03-04 11"},"coordinates":[2061,6572]},{"type":"Point","properties":{"Station_ID":"LPLN6","Station_Nam":"LAKE PLACID 2 S","Latitude":"44.30420","Longitude":"-73.98390","Snowdepth":"28.000","Units":"in","Rept_Date":"2021-03-04 13"},"coordinates":[5458,4339]},{"type":"Point","properties":{"Station_ID":"HERM4","Station_Nam":"HERMAN,MI","Latitude":"46.65000","Longitude":"-88.33330","Snowdepth":"28.000","Units":"in","Rept_Date":"2021-03-04 13"},"coordinates":[2090,6128]},{"type":"Point","properties":{"Station_ID":"QLB","Station_Nam":"QLB","Latitude":"50.72360","Longitude":"-75.10000","Snowdepth":"27.874","Units":"in","Rept_Date":"2021-03-04 12"},"coordinates":[5196,9234]},{"type":"Point","properties":{"Station_ID":"VT-OL-12","Station_Nam":"GREENSBORO 3.9 NNE, VT","Latitude":"44.63100","Longitude":"-72.28000","Snowdepth":"27.500","Units":"in","Rept_Date":"2021-03-04 14"},"coordinates":[5858,4589]},{"type":"Point","properties":{"Station_ID":"MI-BG-3","Station_Nam":"THREE LAKES, MI","Latitude":"46.55730","Longitude":"-88.20770","Snowdepth":"27.500","Units":"in","Rept_Date":"2021-03-04 13"},"coordinates":[2119,6057]},{"type":"Point","properties":{"Station_ID":"VT-BN-3","Station_Nam":"LANDGROVE 1.1 NNE, VT","Latitude":"43.29092","Longitude":"-72.83260","Snowdepth":"27.000","Units":"in","Rept_Date":"2021-03-04 12"},"coordinates":[5728,3567]},{"type":"Point","properties":{"Station_ID":"VT-BN-12","Station_Nam":"STAMFORD 5.0 NNE, VT","Latitude":"42.82000","Longitude":"-73.02000","Snowdepth":"27.000","Units":"in","Rept_Date":"2021-03-04 21"},"coordinates":[5684,3208]},{"type":"Point","properties":{"Station_ID":"TOPN6","Station_Nam":"TUPPER LAKE SUNMOUNT","Latitude":"44.23070","Longitude":"-74.43820","Snowdepth":"27.000","Units":"in","Rept_Date":"2021-03-04 12"},"coordinates":[5351,4283]},{"type":"Point","properties":{"Station_ID":"PERV1","Station_Nam":"PERU","Latitude":"43.26670","Longitude":"-72.90000","Snowdepth":"27.000","Units":"in","Rept_Date":"2021-03-04 12"},"coordinates":[5712,3548]},{"type":"Point","properties":{"Station_ID":"CNRM1","Station_Nam":"CONNOR TWP","Latitude":"46.95830","Longitude":"-68.03330","Snowdepth":"27.000","Units":"in","Rept_Date":"2021-03-04 12"},"coordinates":[6854,6363]},{"type":"Point","properties":{"Station_ID":"SELN3","Station_Nam":"SECOND CONNECTICUT LAKE","Latitude":"45.13640","Longitude":"-71.20140","Snowdepth":"26.500","Units":"in","Rept_Date":"2021-03-04 18"},"coordinates":[6111,4974]},{"type":"Point","properties":{"Station_ID":"ME-SM-45","Station_Nam":"BRIGHTON PLANTATION 2.1 N, ME","Latitude":"45.07098","Longitude":"-69.69860","Snowdepth":"26.500","Units":"in","Rept_Date":"2021-03-04 12"},"coordinates":[6463,4924]},{"type":"Point","properties":{"Station_ID":"CAN-NB-13","Station_Nam":"BATHURST 3.8 NW, CAN","Latitude":"47.64212","Longitude":"-65.68756","Snowdepth":"26.500","Units":"in","Rept_Date":"2021-03-04 11"},"coordinates":[7405,6885]},{"type":"Point","properties":{"Station_ID":"RDFN6","Station_Nam":"REDFIELD 8N","Latitude":"43.64130","Longitude":"-75.88400","Snowdepth":"26.000","Units":"in","Rept_Date":"2021-03-04 12"},"coordinates":[5012,3834]},{"type":"Point","properties":{"Station_ID":"GHMN3","Station_Nam":"PINKHAM NOTCH","Latitude":"44.25800","Longitude":"-71.25250","Snowdepth":"26.000","Units":"in","Rept_Date":"2021-03-04 10"},"coordinates":[6099,4304]},{"type":"Point","properties":{"Station_ID":"BOON6","Station_Nam":"BOONVILLE 4 SSW","Latitude":"43.43610","Longitude":"-75.36970","Snowdepth":"26.000","Units":"in","Rept_Date":"2021-03-04 12"},"coordinates":[5132,3678]},{"type":"Point","properties":{"Station_ID":"SMSV1","Station_Nam":"SOMERSET RESERVOIR","Latitude":"42.97640","Longitude":"-72.95170","Snowdepth":"25.600","Units":"in","Rept_Date":"2021-03-04 12"},"coordinates":[5700,3327]},{"type":"Point","properties":{"Station_ID":"MLZ","Station_Nam":"MLZ","Latitude":"50.66170","Longitude":"-68.82360","Snowdepth":"25.433","Units":"in","Rept_Date":"2021-03-04 12"},"coordinates":[6669,9187]},{"type":"Point","properties":{"Station_ID":"SBMV1","Station_Nam":"SEARSBURG MOUNTAIN","Latitude":"42.90000","Longitude":"-73.00000","Snowdepth":"25.000","Units":"in","Rept_Date":"2021-03-04 12"},"coordinates":[5689,3269]},{"type":"Point","properties":{"Station_ID":"NH-CS-10","Station_Nam":"RANDOLPH 1.4 NE, NH","Latitude":"44.38824","Longitude":"-71.26950","Snowdepth":"25.000","Units":"in","Rept_Date":"2021-03-04 12"},"coordinates":[6095,4404]},{"type":"Point","properties":{"Station_ID":"MNSM4","Station_Nam":"MUNISING","Latitude":"46.41210","Longitude":"-86.66250","Snowdepth":"25.000","Units":"in","Rept_Date":"2021-03-04 11"},"coordinates":[2482,5947]},{"type":"Point","properties":{"Station_ID":"ME-AR-18","Station_Nam":"NEW SWEDEN 4.9 NNW, ME","Latitude":"47.01080","Longitude":"-68.14390","Snowdepth":"25.000","Units":"in","Rept_Date":"2021-03-04 12"},"coordinates":[6828,6403]},{"type":"Point","properties":{"Station_ID":"GNLM4","Station_Nam":"GREENLAND 6N","Latitude":"46.87360","Longitude":"-89.10060","Snowdepth":"25.000","Units":"in","Rept_Date":"2021-03-04 13"},"coordinates":[1910,6299]},{"type":"Point","properties":{"Station_ID":"FISM1","Station_Nam":"FORT KENT COOP","Latitude":"47.23850","Longitude":"-68.61240","Snowdepth":"25.000","Units":"in","Rept_Date":"2021-03-04 12"},"coordinates":[6718,6577]},{"type":"Point","properties":{"Station_ID":"CARM1","Station_Nam":"CARIBOU WFO","Latitude":"46.86810","Longitude":"-68.01250","Snowdepth":"25.000","Units":"in","Rept_Date":"2021-03-05 05"},"coordinates":[6859,6294]},{"type":"Point","properties":{"Station_ID":"CAR","Station_Nam":"CARIBOU, ME","Latitude":"46.86830","Longitude":"-68.01360","Snowdepth":"25.000","Units":"in","Rept_Date":"2021-03-04 12"},"coordinates":[6859,6295]},{"type":"Point","properties":{"Station_ID":"FNLN3","Station_Nam":"FIRST CONNECTICUT LAKE","Latitude":"45.08500","Longitude":"-71.30670","Snowdepth":"24.200","Units":"in","Rept_Date":"2021-03-04 18"},"coordinates":[6086,4935]},{"type":"Point","properties":{"Station_ID":"VT-OL-1","Station_Nam":"WESTFIELD 0.7 WNW, VT","Latitude":"44.89160","Longitude":"-72.44350","Snowdepth":"24.000","Units":"in","Rept_Date":"2021-03-04 12"},"coordinates":[5819,4787]},{"type":"Point","properties":{"Station_ID":"PTBN3","Station_Nam":"PITTSBURG RESERVOIR","Latitude":"45.04690","Longitude":"-71.38300","Snowdepth":"24.000","Units":"in","Rept_Date":"2021-03-04 12"},"coordinates":[6068,4906]},{"type":"Point","properties":{"Station_ID":"NY-FK-9","Station_Nam":"GABRIELS 1.3 SE, NY","Latitude":"44.41934","Longitude":"-74.16194","Snowdepth":"24.000","Units":"in","Rept_Date":"2021-03-04 12"},"coordinates":[5416,4427]},{"type":"Point","properties":{"Station_ID":"ME-AR-15","Station_Nam":"PRESQUE ISLE 1.3 WSW, ME","Latitude":"46.67960","Longitude":"-68.01270","Snowdepth":"24.000","Units":"in","Rept_Date":"2021-03-04 12"},"coordinates":[6859,6151]},{"type":"Point","properties":{"Station_ID":"AVLV1","Station_Nam":"AVERILL","Latitude":"45.00570","Longitude":"-71.69030","Snowdepth":"24.000","Units":"in","Rept_Date":"2021-03-04 13"},"coordinates":[5996,4874]},{"type":"Point","properties":{"Station_ID":"CAN-QC-47","Station_Nam":"SAINTE-FOY 1.8 ENE, CAN","Latitude":"46.76934","Longitude":"-71.27124","Snowdepth":"23.600","Units":"in","Rept_Date":"2021-03-04 12"},"coordinates":[6094,6219]},{"type":"Point","properties":{"Station_ID":"NY-HM-10","Station_Nam":"LAKE PLEASANT 2.3 WSW, NY","Latitude":"43.45490","Longitude":"-74.45287","Snowdepth":"23.500","Units":"in","Rept_Date":"2021-03-04 12"},"coordinates":[5348,3692]},{"type":"Point","properties":{"Station_ID":"NY-ES-11","Station_Nam":"VERMONTVILLE 2.8 S, NY","Latitude":"44.41205","Longitude":"-74.06760","Snowdepth":"23.500","Units":"in","Rept_Date":"2021-03-04 12"},"coordinates":[5438,4422]},{"type":"Point","properties":{"Station_ID":"OGIQ6","Station_Nam":"OGOKI CAMP","Latitude":"50.76680","Longitude":"-87.85820","Snowdepth":"23.390","Units":"in","Rept_Date":"2021-03-05 06"},"coordinates":[2202,9267]},{"type":"Point","properties":{"Station_ID":"CAN-ON-791","Station_Nam":"METCALFE 4.4 NNW, CAN","Latitude":"45.27286","Longitude":"-75.48952","Snowdepth":"23.200","Units":"in","Rept_Date":"2021-03-04 11"},"coordinates":[5104,5078]},{"type":"Point","properties":{"Station_ID":"QOU","Station_Nam":"QOU","Latitude":"50.79250","Longitude":"-69.67470","Snowdepth":"23.031","Units":"in","Rept_Date":"2021-03-04 12"},"coordinates":[6469,9287]},{"type":"Point","properties":{"Station_ID":"VT-WR-17","Station_Nam":"ROCHESTER 2.3 NE, VT","Latitude":"43.89418","Longitude":"-72.76992","Snowdepth":"23.000","Units":"in","Rept_Date":"2021-03-04 12"},"coordinates":[5743,4027]},{"type":"Point","properties":{"Station_ID":"NY-LW-12","Station_Nam":"CHASES LAKE COOP, NY","Latitude":"43.75924","Longitude":"-75.29982","Snowdepth":"23.000","Units":"in","Rept_Date":"2021-03-04 11"},"coordinates":[5149,3924]},{"type":"Point","properties":{"Station_ID":"NY-FK-7","Station_Nam":"SARANAC LAKE 6.2 N, NY","Latitude":"44.41359","Longitude":"-74.15211","Snowdepth":"23.000","Units":"in","Rept_Date":"2021-03-04 13"},"coordinates":[5418,4423]},{"type":"Point","properties":{"Station_ID":"MI-HG-1","Station_Nam":"HOUGHTON 1.6 ESE, MI","Latitude":"47.10774","Longitude":"-88.52940","Snowdepth":"23.000","Units":"in","Rept_Date":"2021-03-04 13"},"coordinates":[2044,6477]},{"type":"Point","properties":{"Station_ID":"JEFV1","Station_Nam":"JEFFERSONVILLE","Latitude":"44.58430","Longitude":"-72.78700","Snowdepth":"23.000","Units":"in","Rept_Date":"2021-03-04 12"},"coordinates":[5739,4553]},{"type":"Point","properties":{"Station_ID":"GFDN6","Station_Nam":"CHASES LAKE","Latitude":"43.75920","Longitude":"-75.29980","Snowdepth":"23.000","Units":"in","Rept_Date":"2021-03-04 11"},"coordinates":[5149,3924]},{"type":"Point","properties":{"Station_ID":"CAN-NL-65","Station_Nam":"KIPPENS 0.7 NE, CA","Latitude":"48.55436","Longitude":"-58.61850","Snowdepth":"23.000","Units":"in","Rept_Date":"2021-03-04 12"},"coordinates":[9064,7580]},{"type":"Point","properties":{"Station_ID":"CAN-NB-97","Station_Nam":"NEW MARYLAND 0.6 NW, CAN","Latitude":"45.90112","Longitude":"-66.68739","Snowdepth":"23.000","Units":"in","Rept_Date":"2021-03-04 11"},"coordinates":[7170,5557]},{"type":"Point","properties":{"Station_ID":"CAN-NB-18","Station_Nam":"MCLEOD HILL 1.1 ENE, CA","Latitude":"46.02725","Longitude":"-66.67460","Snowdepth":"23.000","Units":"in","Rept_Date":"2021-03-04 12"},"coordinates":[7173,5653]},{"type":"Point","properties":{"Station_ID":"QWE","Station_Nam":"QWE","Latitude":"47.84610","Longitude":"-73.80670","Snowdepth":"22.913","Units":"in","Rept_Date":"2021-03-04 12"},"coordinates":[5499,7040]},{"type":"Point","properties":{"Station_ID":"CAN-NB-64","Station_Nam":"KESWICK RIDGE 4.0 SE, CAN","Latitude":"45.97014","Longitude":"-66.85538","Snowdepth":"22.500","Units":"in","Rept_Date":"2021-03-04 12"},"coordinates":[7131,5610]},{"type":"Point","properties":{"Station_ID":"WTNM4","Station_Nam":"WATTON 2WSW","Latitude":"46.52660","Longitude":"-88.64240","Snowdepth":"22.000","Units":"in","Rept_Date":"2021-03-04 13"},"coordinates":[2017,6034]},{"type":"Point","properties":{"Station_ID":"WI-VL-9","Station_Nam":"LAND O' LAKES 11.7 W, WI","Latitude":"46.19023","Longitude":"-89.45790","Snowdepth":"22.000","Units":"in","Rept_Date":"2021-03-04 13"},"coordinates":[1826,5778]},{"type":"Point","properties":{"Station_ID":"VT-WR-2","Station_Nam":"POMFRET 2.6 N, VT","Latitude":"43.74230","Longitude":"-72.52550","Snowdepth":"22.000","Units":"in","Rept_Date":"2021-03-04 12"},"coordinates":[5800,3911]},{"type":"Point","properties":{"Station_ID":"LNOW3","Station_Nam":"LAND O LAKES","Latitude":"46.19000","Longitude":"-89.45700","Snowdepth":"22.000","Units":"in","Rept_Date":"2021-03-04 13"},"coordinates":[1826,5777]},{"type":"Point","properties":{"Station_ID":"ERDV1","Station_Nam":"EAST RANDOLPH 2 EAST SNOW COURSE","Latitude":"43.93330","Longitude":"-72.51670","Snowdepth":"22.000","Units":"in","Rept_Date":"2021-03-04 12"},"coordinates":[5802,4057]},{"type":"Point","properties":{"Station_ID":"QTM","Station_Nam":"QTM","Latitude":"51.05780","Longitude":"-72.57190","Snowdepth":"21.772","Units":"in","Rept_Date":"2021-03-04 12"},"coordinates":[5789,9489]},{"type":"Point","properties":{"Station_ID":"CAN-ON-42","Station_Nam":"VANKLEEK HILL 3.4 S, CA","Latitude":"45.48987","Longitude":"-74.64570","Snowdepth":"21.500","Units":"in","Rept_Date":"2021-03-04 12"},"coordinates":[5302,5244]},{"type":"Point","properties":{"Station_ID":"CAN-ON-208","Station_Nam":"PAKENHAM 7.8 NNW, CAN","Latitude":"45.39166","Longitude":"-76.34111","Snowdepth":"21.500","Units":"in","Rept_Date":"2021-03-04 12"},"coordinates":[4904,5169]},{"type":"Point","properties":{"Station_ID":"SBSV1","Station_Nam":"SEARSBURG STATION","Latitude":"42.87060","Longitude":"-72.92660","Snowdepth":"21.400","Units":"in","Rept_Date":"2021-03-04 12"},"coordinates":[5706,3246]},{"type":"Point","properties":{"Station_ID":"CAN-QC-51","Station_Nam":"BELOEIL 0.7 NW, CAN","Latitude":"45.58049","Longitude":"-73.21218","Snowdepth":"21.100","Units":"in","Rept_Date":"2021-03-04 12"},"coordinates":[5639,5313]},{"type":"Point","properties":{"Station_ID":"WHFN6","Station_Nam":"WILMINGTON 2W","Latitude":"44.39310","Longitude":"-73.85890","Snowdepth":"21.000","Units":"in","Rept_Date":"2021-03-04 13"},"coordinates":[5487,4407]},{"type":"Point","properties":{"Station_ID":"SUTV1","Station_Nam":"SUTTON","Latitude":"44.61220","Longitude":"-72.04810","Snowdepth":"21.000","Units":"in","Rept_Date":"2021-03-04 12"},"coordinates":[5912,4574]},{"type":"Point","properties":{"Station_ID":"ROWM3","Station_Nam":"ROWE 3NE","Latitude":"42.73500","Longitude":"-72.86920","Snowdepth":"21.000","Units":"in","Rept_Date":"2021-03-04 12"},"coordinates":[5719,3143]},{"type":"Point","properties":{"Station_ID":"PEKN6","Station_Nam":"PECK LAKE","Latitude":"43.11500","Longitude":"-74.42360","Snowdepth":"21.000","Units":"in","Rept_Date":"2021-03-04 12"},"coordinates":[5355,3433]},{"type":"Point","properties":{"Station_ID":"MIEM4","Station_Nam":"MICHIGAMME 3WNW","Latitude":"46.54530","Longitude":"-88.18000","Snowdepth":"21.000","Units":"in","Rept_Date":"2021-03-04 13"},"coordinates":[2126,6048]},{"type":"Point","properties":{"Station_ID":"ISLV1","Station_Nam":"ISLAND POND","Latitude":"44.81280","Longitude":"-71.89020","Snowdepth":"21.000","Units":"in","Rept_Date":"2021-03-04 14"},"coordinates":[5949,4727]},{"type":"Point","properties":{"Station_ID":"VT-WS-7","Station_Nam":"MIDDLESEX 3.1 ENE, VT","Latitude":"44.31799","Longitude":"-72.62650","Snowdepth":"20.500","Units":"in","Rept_Date":"2021-03-04 13"},"coordinates":[5776,4350]},{"type":"Point","properties":{"Station_ID":"WDOV1","Station_Nam":"WEST DOVER","Latitude":"42.95000","Longitude":"-72.85000","Snowdepth":"20.400","Units":"in","Rept_Date":"2021-03-04 12"},"coordinates":[5724,3307]},{"type":"Point","properties":{"Station_ID":"WORV1","Station_Nam":"WORCESTER 2 W","Latitude":"44.37470","Longitude":"-72.58220","Snowdepth":"20.000","Units":"in","Rept_Date":"2021-03-04 12"},"coordinates":[5787,4393]},{"type":"Point","properties":{"Station_ID":"VT-WS-33","Station_Nam":"WAITSFIELD 3.5 WNW, VT","Latitude":"44.20052","Longitude":"-72.89421","Snowdepth":"20.000","Units":"in","Rept_Date":"2021-03-04 13"},"coordinates":[5713,4260]},{"type":"Point","properties":{"Station_ID":"VT-WS-30","Station_Nam":"WOODBURY 3.4 NNW, VT","Latitude":"44.48825","Longitude":"-72.43258","Snowdepth":"20.000","Units":"in","Rept_Date":"2021-03-04 12"},"coordinates":[5822,4480]},{"type":"Point","properties":{"Station_ID":"SUAW3","Station_Nam":"SUAMICO","Latitude":"44.60190","Longitude":"-88.09780","Snowdepth":"20.000","Units":"in","Rept_Date":"2021-03-04 12"},"coordinates":[2145,4566]},{"type":"Point","properties":{"Station_ID":"SSMM4","Station_Nam":"SAULT STE MARIE","Latitude":"46.48660","Longitude":"-84.40250","Snowdepth":"20.000","Units":"in","Rept_Date":"2021-03-04 13"},"coordinates":[3013,6003]},{"type":"Point","properties":{"Station_ID":"NH-CS-4","Station_Nam":"PITTSBURG 6.1 NE, NH","Latitude":"45.11060","Longitude":"-71.29760","Snowdepth":"20.000","Units":"in","Rept_Date":"2021-03-04 12"},"coordinates":[6088,4954]},{"type":"Point","properties":{"Station_ID":"NH-CR-26","Station_Nam":"CENTER SANDWICH 4.9 E, NH","Latitude":"43.80976","Longitude":"-71.34150","Snowdepth":"20.000","Units":"in","Rept_Date":"2021-03-04 12"},"coordinates":[6078,3962]},{"type":"Point","properties":{"Station_ID":"NCBN6","Station_Nam":"NEWCOMB","Latitude":"43.97070","Longitude":"-74.22200","Snowdepth":"20.000","Units":"in","Rept_Date":"2021-03-04 14"},"coordinates":[5402,4085]},{"type":"Point","properties":{"Station_ID":"MQT","Station_Nam":"MARQUETTE, MI","Latitude":"46.53140","Longitude":"-87.54920","Snowdepth":"20.000","Units":"in","Rept_Date":"2021-03-05 06"},"coordinates":[2274,6038]},{"type":"Point","properties":{"Station_ID":"IWOM4","Station_Nam":"IRONWOOD#2","Latitude":"46.46520","Longitude":"-90.13820","Snowdepth":"20.000","Units":"in","Rept_Date":"2021-03-04 13"},"coordinates":[1666,5987]},{"type":"Point","properties":{"Station_ID":"HUBN3","Station_Nam":"HUBBARD BROOK","Latitude":"43.93330","Longitude":"-71.71670","Snowdepth":"20.000","Units":"in","Rept_Date":"2021-03-05 06"},"coordinates":[5990,4057]},{"type":"Point","properties":{"Station_ID":"ESDN3","Station_Nam":"EAST SANDWICH","Latitude":"43.80990","Longitude":"-71.34250","Snowdepth":"20.000","Units":"in","Rept_Date":"2021-03-04 11"},"coordinates":[6078,3963]},{"type":"Point","properties":{"Station_ID":"CLKM4","Station_Nam":"CLARKSBURG","Latitude":"46.49910","Longitude":"-87.84500","Snowdepth":"20.000","Units":"in","Rept_Date":"2021-03-04 12"},"coordinates":[2205,6013]},{"type":"Point","properties":{"Station_ID":"ANJM4","Station_Nam":"SNOW PAID OBSERVER FOR KANJ","Latitude":"46.48670","Longitude":"-84.40260","Snowdepth":"20.000","Units":"in","Rept_Date":"2021-03-04 12"},"coordinates":[3013,6004]},{"type":"Point","properties":{"Station_ID":"ANJ","Station_Nam":"SAULT STE MARIE","Latitude":"46.46670","Longitude":"-84.36670","Snowdepth":"20.000","Units":"in","Rept_Date":"2021-03-05 00"},"coordinates":[3021,5988]},{"type":"Point","properties":{"Station_ID":"VT-WS-19","Station_Nam":"WATERBURY 3.0 NW, VT","Latitude":"44.36060","Longitude":"-72.80770","Snowdepth":"19.500","Units":"in","Rept_Date":"2021-03-04 11"},"coordinates":[5734,4382]},{"type":"Point","properties":{"Station_ID":"NY-ES-6","Station_Nam":"OLMSTEDVILLE 4.6 NNE, NY","Latitude":"43.83350","Longitude":"-73.89780","Snowdepth":"19.500","Units":"in","Rept_Date":"2021-03-04 13"},"coordinates":[5478,3981]},{"type":"Point","properties":{"Station_ID":"NY-BM-21","Station_Nam":"WINDSOR 8.0 SE, NY","Latitude":"42.00992","Longitude":"-75.51420","Snowdepth":"19.500","Units":"in","Rept_Date":"2021-03-04 12"},"coordinates":[5099,2590]},{"type":"Point","properties":{"Station_ID":"CAN-ON-245","Station_Nam":"PHELPSTON 3.1 ESE, CAN","Latitude":"44.50564","Longitude":"-79.81035","Snowdepth":"19.500","Units":"in","Rept_Date":"2021-03-04 12"},"coordinates":[4090,4493]},{"type":"Point","properties":{"Station_ID":"QLP","Station_Nam":"QLP","Latitude":"48.13920","Longitude":"-72.63830","Snowdepth":"19.409","Units":"in","Rept_Date":"2021-03-04 12"},"coordinates":[5774,7264]},{"type":"Point","properties":{"Station_ID":"RDSV1","Station_Nam":"READSBORO SNOCOR","Latitude":"42.79170","Longitude":"-72.91390","Snowdepth":"19.200","Units":"in","Rept_Date":"2021-03-04 12"},"coordinates":[5709,3186]},{"type":"Point","properties":{"Station_ID":"WI-IR-2","Station_Nam":"MERCER 2.0 SE, WI","Latitude":"46.14749","Longitude":"-90.03097","Snowdepth":"19.000","Units":"in","Rept_Date":"2021-03-04 13"},"coordinates":[1692,5745]},{"type":"Point","properties":{"Station_ID":"WAIV1","Station_Nam":"WAITSFIELD","Latitude":"44.17560","Longitude":"-72.79610","Snowdepth":"19.000","Units":"in","Rept_Date":"2021-03-04 12"},"coordinates":[5736,4241]},{"type":"Point","properties":{"Station_ID":"VT-WS-11","Station_Nam":"WAITSFIELD 1.8 SE, VT","Latitude":"44.17551","Longitude":"-72.79540","Snowdepth":"19.000","Units":"in","Rept_Date":"2021-03-04 12"},"coordinates":[5737,4241]},{"type":"Point","properties":{"Station_ID":"VT-OL-9","Station_Nam":"GREENSBORO 2.1 NNW, VT","Latitude":"44.60528","Longitude":"-72.30940","Snowdepth":"19.000","Units":"in","Rept_Date":"2021-03-04 12"},"coordinates":[5851,4569]},{"type":"Point","properties":{"Station_ID":"RGNM1","Station_Nam":"RANGELEY 2NW","Latitude":"44.98940","Longitude":"-70.67220","Snowdepth":"19.000","Units":"in","Rept_Date":"2021-03-04 11"},"coordinates":[6235,4862]},{"type":"Point","properties":{"Station_ID":"OCON6","Station_Nam":"OSCEOLA","Latitude":"43.50370","Longitude":"-75.72170","Snowdepth":"19.000","Units":"in","Rept_Date":"2021-03-04 13"},"coordinates":[5050,3729]},{"type":"Point","properties":{"Station_ID":"MRLV1","Station_Nam":"MARLBORO","Latitude":"42.86000","Longitude":"-72.72000","Snowdepth":"19.000","Units":"in","Rept_Date":"2021-03-04 14"},"coordinates":[5754,3238]},{"type":"Point","properties":{"Station_ID":"MI-SH-1","Station_Nam":"MANISTIQUE 2.7 NW, MI","Latitude":"45.99042","Longitude":"-86.28266","Snowdepth":"19.000","Units":"in","Rept_Date":"2021-03-04 11"},"coordinates":[2571,5625]},{"type":"Point","properties":{"Station_ID":"ME-FR-4","Station_Nam":"NEW SHARON 2.0 NW, ME","Latitude":"44.66582","Longitude":"-70.02720","Snowdepth":"19.000","Units":"in","Rept_Date":"2021-03-04 12"},"coordinates":[6386,4615]},{"type":"Point","properties":{"Station_ID":"QGA","Station_Nam":"QGA","Latitude":"47.25640","Longitude":"-73.73810","Snowdepth":"18.937","Units":"in","Rept_Date":"2021-03-04 12"},"coordinates":[5515,6590]},{"type":"Point","properties":{"Station_ID":"CAN-ON-92","Station_Nam":"DUNROBIN 1.9 W - MVCA, CAN","Latitude":"45.42318","Longitude":"-76.04525","Snowdepth":"18.900","Units":"in","Rept_Date":"2021-03-04 12"},"coordinates":[4974,5193]},{"type":"Point","properties":{"Station_ID":"CAN-NB-98","Station_Nam":"HOYT 4.2 S, CAN","Latitude":"45.54763","Longitude":"-66.55440","Snowdepth":"18.900","Units":"in","Rept_Date":"2021-03-04 11"},"coordinates":[7201,5288]},{"type":"Point","properties":{"Station_ID":"SOCQ6","Station_Nam":"SOCKET LAKE","Latitude":"50.77870","Longitude":"-91.79300","Snowdepth":"18.580","Units":"in","Rept_Date":"2021-03-05 06"},"coordinates":[1278,9276]},{"type":"Point","properties":{"Station_ID":"VT-ES-3","Station_Nam":"LUNENBURG 2.3 NNW, VT","Latitude":"44.49324","Longitude":"-71.70446","Snowdepth":"18.500","Units":"in","Rept_Date":"2021-03-04 11"},"coordinates":[5993,4484]},{"type":"Point","properties":{"Station_ID":"CAN-PE-20","Station_Nam":"BONSHAW 6.6 NNE, CAN","Latitude":"46.25082","Longitude":"-63.33409","Snowdepth":"18.100","Units":"in","Rept_Date":"2021-03-04 12"},"coordinates":[7957,5824]},{"type":"Point","properties":{"Station_ID":"WLFM5","Station_Nam":"WOLF RIDGE ENVIRON LEARNING CENTER","Latitude":"47.38240","Longitude":"-91.19730","Snowdepth":"18.000","Units":"in","Rept_Date":"2021-03-04 13"},"coordinates":[1418,6686]},{"type":"Point","properties":{"Station_ID":"RLKW3","Station_Nam":"REST LAKE","Latitude":"46.12220","Longitude":"-89.87720","Snowdepth":"18.000","Units":"in","Rept_Date":"2021-03-04 14"},"coordinates":[1728,5726]},{"type":"Point","properties":{"Station_ID":"PDGM4","Station_Nam":"PAULDING","Latitude":"46.39760","Longitude":"-89.17940","Snowdepth":"18.000","Units":"in","Rept_Date":"2021-03-04 13"},"coordinates":[1891,5936]},{"type":"Point","properties":{"Station_ID":"NY-SR-22","Station_Nam":"GREENFIELD CENTER 1.6 W, NY","Latitude":"43.12684","Longitude":"-73.87860","Snowdepth":"18.000","Units":"in","Rept_Date":"2021-03-04 12"},"coordinates":[5482,3442]},{"type":"Point","properties":{"Station_ID":"NY-ER-166","Station_Nam":"BOSTON 2.5 NE, NY","Latitude":"42.65480","Longitude":"-78.70300","Snowdepth":"18.000","Units":"in","Rept_Date":"2021-03-04 12"},"coordinates":[4350,3082]},{"type":"Point","properties":{"Station_ID":"NH-MR-41","Station_Nam":"NEWBURY 1.6 NW, NH","Latitude":"43.33667","Longitude":"-72.06060","Snowdepth":"18.000","Units":"in","Rept_Date":"2021-03-04 12"},"coordinates":[5909,3602]},{"type":"Point","properties":{"Station_ID":"MWTM1","Station_Nam":"MILLINOCKET WWTP","Latitude":"45.64030","Longitude":"-68.67480","Snowdepth":"18.000","Units":"in","Rept_Date":"2021-03-04 11"},"coordinates":[6704,5358]},{"type":"Point","properties":{"Station_ID":"MI-CP-14","Station_Nam":"SAULT STE. MARIE 2.2 E, MI","Latitude":"46.48933","Longitude":"-84.31971","Snowdepth":"18.000","Units":"in","Rept_Date":"2021-03-04 12"},"coordinates":[3032,6006]},{"type":"Point","properties":{"Station_ID":"MALN6","Station_Nam":"MALONE","Latitude":"44.84180","Longitude":"-74.30600","Snowdepth":"18.000","Units":"in","Rept_Date":"2021-03-04 12"},"coordinates":[5382,4749]},{"type":"Point","properties":{"Station_ID":"KINM1","Station_Nam":"KINGFIELD","Latitude":"44.95950","Longitude":"-70.17530","Snowdepth":"18.000","Units":"in","Rept_Date":"2021-03-04 12"},"coordinates":[6352,4839]},{"type":"Point","properties":{"Station_ID":"JCBM4","Station_Nam":"JACOBSVILLE","Latitude":"47.00830","Longitude":"-88.43180","Snowdepth":"18.000","Units":"in","Rept_Date":"2021-03-04 12"},"coordinates":[2067,6401]},{"type":"Point","properties":{"Station_ID":"INDN6","Station_Nam":"INDIAN LAKE","Latitude":"43.75500","Longitude":"-74.27560","Snowdepth":"18.000","Units":"in","Rept_Date":"2021-03-04 12"},"coordinates":[5389,3921]},{"type":"Point","properties":{"Station_ID":"HURW3","Station_Nam":"HURLEY","Latitude":"46.46250","Longitude":"-90.19550","Snowdepth":"18.000","Units":"in","Rept_Date":"2021-03-04 14"},"coordinates":[1653,5985]},{"type":"Point","properties":{"Station_ID":"HRTM1","Station_Nam":"HARTFORD","Latitude":"44.37440","Longitude":"-70.31620","Snowdepth":"18.000","Units":"in","Rept_Date":"2021-03-04 12"},"coordinates":[6318,4393]},{"type":"Point","properties":{"Station_ID":"CLQM5","Station_Nam":"CLOQUET","Latitude":"46.70470","Longitude":"-92.52530","Snowdepth":"18.000","Units":"in","Rept_Date":"2021-03-04 14"},"coordinates":[1106,6170]},{"type":"Point","properties":{"Station_ID":"AMAM4","Station_Nam":"AMASA 1W","Latitude":"46.23470","Longitude":"-88.45440","Snowdepth":"18.000","Units":"in","Rept_Date":"2021-03-04 14"},"coordinates":[2062,5811]},{"type":"Point","properties":{"Station_ID":"CAN-ON-840","Station_Nam":"BOGNOR 5.6 W - GSCA, CAN","Latitude":"44.52575","Longitude":"-80.81334","Snowdepth":"17.700","Units":"in","Rept_Date":"2021-03-04 13"},"coordinates":[3855,4508]},{"type":"Point","properties":{"Station_ID":"SVBQ6","Station_Nam":"SAVANT BASE","Latitude":"50.28730","Longitude":"-90.65670","Snowdepth":"17.560","Units":"in","Rept_Date":"2021-03-05 06"},"coordinates":[1545,8901]},{"type":"Point","properties":{"Station_ID":"VT-WS-10","Station_Nam":"NORTHFIELD 1.5 N, VT","Latitude":"44.16986","Longitude":"-72.65200","Snowdepth":"17.500","Units":"in","Rept_Date":"2021-03-04 12"},"coordinates":[5770,4237]},{"type":"Point","properties":{"Station_ID":"MA-HS-7","Station_Nam":"PLAINFIELD 2.2 SW, MA","Latitude":"42.49272","Longitude":"-72.94540","Snowdepth":"17.500","Units":"in","Rept_Date":"2021-03-04 13"},"coordinates":[5701,2958]},{"type":"Point","properties":{"Station_ID":"CAN-PE-19","Station_Nam":"CHARLOTTETOWN 6.5 NNW, CAN","Latitude":"46.29235","Longitude":"-63.17271","Snowdepth":"17.500","Units":"in","Rept_Date":"2021-03-04 12"},"coordinates":[7995,5855]},{"type":"Point","properties":{"Station_ID":"QFT","Station_Nam":"QFT","Latitude":"50.83280","Longitude":"-74.40390","Snowdepth":"17.402","Units":"in","Rept_Date":"2021-03-04 12"},"coordinates":[5359,9317]},{"type":"Point","properties":{"Station_ID":"CAN-NB-1","Station_Nam":"FREDERICTON 4.0 SSE, CA","Latitude":"45.92897","Longitude":"-66.62830","Snowdepth":"17.300","Units":"in","Rept_Date":"2021-03-04 12"},"coordinates":[7184,5578]},{"type":"Point","properties":{"Station_ID":"CATQ6","Station_Nam":"CAT LAKE","Latitude":"51.72690","Longitude":"-91.82210","Snowdepth":"17.050","Units":"in","Rept_Date":"2021-03-05 06"},"coordinates":[1271,9999]},{"type":"Point","properties":{"Station_ID":"WTRM4","Station_Nam":"WATERSMEET 12WSW","Latitude":"46.22310","Longitude":"-89.40850","Snowdepth":"17.000","Units":"in","Rept_Date":"2021-03-04 12"},"coordinates":[1838,5803]},{"type":"Point","properties":{"Station_ID":"WI-WB-2","Station_Nam":"STONE LAKE 2.0 NW, WI","Latitude":"45.85960","Longitude":"-91.57710","Snowdepth":"17.000","Units":"in","Rept_Date":"2021-03-04 13"},"coordinates":[1329,5525]},{"type":"Point","properties":{"Station_ID":"WI-PR-8","Station_Nam":"PHILLIPS 0.4 SSW, WI","Latitude":"45.69086","Longitude":"-90.40200","Snowdepth":"17.000","Units":"in","Rept_Date":"2021-03-04 13"},"coordinates":[1605,5397]},{"type":"Point","properties":{"Station_ID":"WI-BY-29","Station_Nam":"BAYFIELD 5.1 NNW, WI","Latitude":"46.88063","Longitude":"-90.85854","Snowdepth":"17.000","Units":"in","Rept_Date":"2021-03-04 13"},"coordinates":[1497,6304]},{"type":"Point","properties":{"Station_ID":"VT-WR-10","Station_Nam":"WEST WINDSOR 1.7 S, VT","Latitude":"43.46164","Longitude":"-72.49197","Snowdepth":"17.000","Units":"in","Rept_Date":"2021-03-04 12"},"coordinates":[5808,3697]},{"type":"Point","properties":{"Station_ID":"VT-BN-7","Station_Nam":"MANCHESTER 2.8 ENE, VT","Latitude":"43.17274","Longitude":"-73.01811","Snowdepth":"17.000","Units":"in","Rept_Date":"2021-03-04 12"},"coordinates":[5684,3477]},{"type":"Point","properties":{"Station_ID":"VANM1","Station_Nam":"VAN BUREN","Latitude":"47.16600","Longitude":"-67.93900","Snowdepth":"17.000","Units":"in","Rept_Date":"2021-03-04 12"},"coordinates":[6876,6521]},{"type":"Point","properties":{"Station_ID":"TOPM1","Station_Nam":"TOPSFIELD","Latitude":"45.43470","Longitude":"-67.72020","Snowdepth":"17.000","Units":"in","Rept_Date":"2021-03-04 12"},"coordinates":[6928,5201]},{"type":"Point","properties":{"Station_ID":"TMWN3","Station_Nam":"TAMWORTH 4","Latitude":"43.86390","Longitude":"-71.26610","Snowdepth":"17.000","Units":"in","Rept_Date":"2021-03-04 12"},"coordinates":[6096,4004]},{"type":"Point","properties":{"Station_ID":"RANM1","Station_Nam":"RANGELEY","Latitude":"44.98910","Longitude":"-70.67190","Snowdepth":"17.000","Units":"in","Rept_Date":"2021-03-04 11"},"coordinates":[6235,4862]},{"type":"Point","properties":{"Station_ID":"PRNW3","Station_Nam":"PRENTICE,WI","Latitude":"45.54780","Longitude":"-90.30000","Snowdepth":"17.000","Units":"in","Rept_Date":"2021-03-04 14"},"coordinates":[1628,5288]},{"type":"Point","properties":{"Station_ID":"NY-OT-29","Station_Nam":"NEW BERLIN 1.5 NE, NY","Latitude":"42.63689","Longitude":"-75.31090","Snowdepth":"17.000","Units":"in","Rept_Date":"2021-03-04 13"},"coordinates":[5146,3068]},{"type":"Point","properties":{"Station_ID":"NWSM1","Station_Nam":"NEW SHARON","Latitude":"44.63520","Longitude":"-70.00020","Snowdepth":"17.000","Units":"in","Rept_Date":"2021-03-04 12"},"coordinates":[6393,4592]},{"type":"Point","properties":{"Station_ID":"NH-CS-19","Station_Nam":"CARROLL 4.6 NE, NH","Latitude":"44.33765","Longitude":"-71.46461","Snowdepth":"17.000","Units":"in","Rept_Date":"2021-03-04 12"},"coordinates":[6049,4365]},{"type":"Point","properties":{"Station_ID":"NH-CR-27","Station_Nam":"TAMWORTH 0.4 NNW, NH","Latitude":"43.86449","Longitude":"-71.26610","Snowdepth":"17.000","Units":"in","Rept_Date":"2021-03-04 12"},"coordinates":[6096,4004]},{"type":"Point","properties":{"Station_ID":"NH-CR-11","Station_Nam":"NORTH CONWAY 1.4 SSW, NH","Latitude":"44.03556","Longitude":"-71.14010","Snowdepth":"17.000","Units":"in","Rept_Date":"2021-03-04 12"},"coordinates":[6125,4135]},{"type":"Point","properties":{"Station_ID":"MSRN3","Station_Nam":"MASCOMA RIVER","Latitude":"43.78330","Longitude":"-72.03330","Snowdepth":"17.000","Units":"in","Rept_Date":"2021-03-05 05"},"coordinates":[5916,3942]},{"type":"Point","properties":{"Station_ID":"MI-AG-6","Station_Nam":"MUNISING 11.1 SSW, MI","Latitude":"46.27805","Longitude":"-86.75747","Snowdepth":"17.000","Units":"in","Rept_Date":"2021-03-04 12"},"coordinates":[2460,5844]},{"type":"Point","properties":{"Station_ID":"FARM1","Station_Nam":"FARMINGTON","Latitude":"44.68930","Longitude":"-70.15640","Snowdepth":"17.000","Units":"in","Rept_Date":"2021-03-04 12"},"coordinates":[6356,4633]},{"type":"Point","properties":{"Station_ID":"ESGM1","Station_Nam":"EAST SANGERVILLE","Latitude":"45.13690","Longitude":"-69.28060","Snowdepth":"17.000","Units":"in","Rept_Date":"2021-03-04 12"},"coordinates":[6562,4974]},{"type":"Point","properties":{"Station_ID":"EHYM3","Station_Nam":"EAST HAWLEY","Latitude":"42.57410","Longitude":"-72.86790","Snowdepth":"17.000","Units":"in","Rept_Date":"2021-03-04 13"},"coordinates":[5720,3020]},{"type":"Point","properties":{"Station_ID":"BETM1","Station_Nam":"BETHEL 6 SSE","Latitude":"44.32000","Longitude":"-70.75680","Snowdepth":"17.000","Units":"in","Rept_Date":"2021-03-04 12"},"coordinates":[6215,4352]},{"type":"Point","properties":{"Station_ID":"BBEM4","Station_Nam":"BIG BAY 9SW","Latitude":"46.74620","Longitude":"-87.88160","Snowdepth":"17.000","Units":"in","Rept_Date":"2021-03-04 13"},"coordinates":[2196,6201]},{"type":"Point","properties":{"Station_ID":"CAN-PE-7","Station_Nam":"MORELL 1.4 NNW, CA","Latitude":"46.42741","Longitude":"-62.70870","Snowdepth":"16.900","Units":"in","Rept_Date":"2021-03-04 12"},"coordinates":[8104,5958]},{"type":"Point","properties":{"Station_ID":"CAN-ON-757","Station_Nam":"SAULT STE. MARIE 2.8 ESE - GLFC, CAN","Latitude":"46.50300","Longitude":"-84.30300","Snowdepth":"16.900","Units":"in","Rept_Date":"2021-03-04 13"},"coordinates":[3036,6016]},{"type":"Point","properties":{"Station_ID":"QCO","Station_Nam":"QCO","Latitude":"51.45280","Longitude":"-72.20110","Snowdepth":"16.653","Units":"in","Rept_Date":"2021-03-04 12"},"coordinates":[5876,9790]},{"type":"Point","properties":{"Station_ID":"CAN-NB-6","Station_Nam":"FREDERICTON 5.1 SSE, CAN","Latitude":"45.91895","Longitude":"-66.62685","Snowdepth":"16.600","Units":"in","Rept_Date":"2021-03-04 11"},"coordinates":[7184,5571]},{"type":"Point","properties":{"Station_ID":"VT-CL-14","Station_Nam":"LYNDONVILLE 1.1 W, VT","Latitude":"44.53582","Longitude":"-72.02867","Snowdepth":"16.500","Units":"in","Rept_Date":"2021-03-04 12"},"coordinates":[5917,4516]},{"type":"Point","properties":{"Station_ID":"KABQ6","Station_Nam":"CAB LAKE","Latitude":"49.59950","Longitude":"-89.17990","Snowdepth":"16.500","Units":"in","Rept_Date":"2021-03-05 06"},"coordinates":[1891,8377]},{"type":"Point","properties":{"Station_ID":"CAN-ON-846","Station_Nam":"KANATA 1.7 W, CAN","Latitude":"45.31444","Longitude":"-75.92387","Snowdepth":"16.100","Units":"in","Rept_Date":"2021-03-04 12"},"coordinates":[5002,5110]},{"type":"Point","properties":{"Station_ID":"WI-VL-14","Station_Nam":"BOULDER JUNCTION 1.4 NE, WI","Latitude":"46.12840","Longitude":"-89.62470","Snowdepth":"16.000","Units":"in","Rept_Date":"2021-03-04 13"},"coordinates":[1787,5730]},{"type":"Point","properties":{"Station_ID":"WI-PR-6","Station_Nam":"PHILLIPS 1.3 S, WI","Latitude":"45.67677","Longitude":"-90.39543","Snowdepth":"16.000","Units":"in","Rept_Date":"2021-03-04 12"},"coordinates":[1606,5386]},{"type":"Point","properties":{"Station_ID":"WI-BY-14","Station_Nam":"ASHLAND 9.8 W, WI","Latitude":"46.59742","Longitude":"-91.07856","Snowdepth":"16.000","Units":"in","Rept_Date":"2021-03-04 12"},"coordinates":[1446,6088]},{"type":"Point","properties":{"Station_ID":"VT-CL-18","Station_Nam":"WHEELOCK 1.6 S, VT","Latitude":"44.56491","Longitude":"-72.08830","Snowdepth":"16.000","Units":"in","Rept_Date":"2021-03-04 12"},"coordinates":[5903,4538]},{"type":"Point","properties":{"Station_ID":"RKHN6","Station_Nam":"ROCK HILL 3 SW","Latitude":"41.59170","Longitude":"-74.61410","Snowdepth":"16.000","Units":"in","Rept_Date":"2021-03-04 12"},"coordinates":[5310,2271]},{"type":"Point","properties":{"Station_ID":"PKFW3","Station_Nam":"PARK FALLS,WI","Latitude":"45.93360","Longitude":"-90.45060","Snowdepth":"16.000","Units":"in","Rept_Date":"2021-03-04 14"},"coordinates":[1593,5582]},{"type":"Point","properties":{"Station_ID":"OTFM1","Station_Nam":"OTISFIELD","Latitude":"44.09790","Longitude":"-70.59760","Snowdepth":"16.000","Units":"in","Rept_Date":"2021-03-04 12"},"coordinates":[6252,4182]},{"type":"Point","properties":{"Station_ID":"NVLV1","Station_Nam":"NASHVILLE","Latitude":"44.44970","Longitude":"-72.92640","Snowdepth":"16.000","Units":"in","Rept_Date":"2021-03-04 12"},"coordinates":[5706,4450]},{"type":"Point","properties":{"Station_ID":"LVRM1","Station_Nam":"LIVERMORE FALLS 1 E","Latitude":"44.47160","Longitude":"-70.15940","Snowdepth":"16.000","Units":"in","Rept_Date":"2021-03-04 12"},"coordinates":[6355,4467]},{"type":"Point","properties":{"Station_ID":"EVRW3","Station_Nam":"EAGLE RIVER-4 E","Latitude":"45.91890","Longitude":"-89.15280","Snowdepth":"16.000","Units":"in","Rept_Date":"2021-03-04 13"},"coordinates":[1898,5571]},{"type":"Point","properties":{"Station_ID":"CORV1","Station_Nam":"CORINTH","Latitude":"44.00690","Longitude":"-72.31940","Snowdepth":"16.000","Units":"in","Rept_Date":"2021-03-04 12"},"coordinates":[5848,4113]},{"type":"Point","properties":{"Station_ID":"QMD","Station_Nam":"QMD","Latitude":"49.29060","Longitude":"-75.84500","Snowdepth":"15.591","Units":"in","Rept_Date":"2021-03-04 12"},"coordinates":[5021,8141]},{"type":"Point","properties":{"Station_ID":"VT-CH-11","Station_Nam":"UNDERHILL 5.1 NNE, VT","Latitude":"44.59811","Longitude":"-72.91880","Snowdepth":"15.500","Units":"in","Rept_Date":"2021-03-04 13"},"coordinates":[5708,4564]},{"type":"Point","properties":{"Station_ID":"NH-MR-60","Station_Nam":"SOUTH SUTTON 1.3 SE, NH","Latitude":"43.29531","Longitude":"-71.90238","Snowdepth":"15.500","Units":"in","Rept_Date":"2021-03-04 13"},"coordinates":[5946,3570]},{"type":"Point","properties":{"Station_ID":"NH-GR-49","Station_Nam":"PLYMOUTH 3.7 N, NH","Latitude":"43.79048","Longitude":"-71.68413","Snowdepth":"15.500","Units":"in","Rept_Date":"2021-03-04 12"},"coordinates":[5997,3948]},{"type":"Point","properties":{"Station_ID":"WI-BY-6","Station_Nam":"BARNES 2.2 S, WI","Latitude":"46.30264","Longitude":"-91.50320","Snowdepth":"15.000","Units":"in","Rept_Date":"2021-03-04 13"},"coordinates":[1346,5863]},{"type":"Point","properties":{"Station_ID":"VT-LM-1","Station_Nam":"STOWE 0.2 SW, VT","Latitude":"44.46399","Longitude":"-72.69070","Snowdepth":"15.000","Units":"in","Rept_Date":"2021-03-04 12"},"coordinates":[5761,4461]},{"type":"Point","properties":{"Station_ID":"STEM4","Station_Nam":"STEUBEN","Latitude":"46.18530","Longitude":"-86.46410","Snowdepth":"15.000","Units":"in","Rept_Date":"2021-03-04 14"},"coordinates":[2529,5774]},{"type":"Point","properties":{"Station_ID":"SLNV1","Station_Nam":"SOUTH LINCOLN","Latitude":"44.07460","Longitude":"-72.97180","Snowdepth":"15.000","Units":"in","Rept_Date":"2021-03-04 12"},"coordinates":[5695,4164]},{"type":"Point","properties":{"Station_ID":"PRDM4","Station_Nam":"PARADISE","Latitude":"46.60380","Longitude":"-85.03960","Snowdepth":"15.000","Units":"in","Rept_Date":"2021-03-04 12"},"coordinates":[2863,6093]},{"type":"Point","properties":{"Station_ID":"NPTV1","Station_Nam":"NEWPORT","Latitude":"44.94900","Longitude":"-72.19120","Snowdepth":"15.000","Units":"in","Rept_Date":"2021-03-04 12"},"coordinates":[5878,4831]},{"type":"Point","properties":{"Station_ID":"NFKC3","Station_Nam":"NORFOLK","Latitude":"41.97250","Longitude":"-73.22080","Snowdepth":"15.000","Units":"in","Rept_Date":"2021-03-04 13"},"coordinates":[5637,2562]},{"type":"Point","properties":{"Station_ID":"NCON3","Station_Nam":"NORTH CONWAY","Latitude":"44.05620","Longitude":"-71.12970","Snowdepth":"15.000","Units":"in","Rept_Date":"2021-03-04 13"},"coordinates":[6128,4150]},{"type":"Point","properties":{"Station_ID":"ME-OX-26","Station_Nam":"OXFORD 5.3 SW, ME","Latitude":"44.09787","Longitude":"-70.59612","Snowdepth":"15.000","Units":"in","Rept_Date":"2021-03-04 12"},"coordinates":[6253,4182]},{"type":"Point","properties":{"Station_ID":"JOHV1","Station_Nam":"JOHNSON 2 N","Latitude":"44.65790","Longitude":"-72.67850","Snowdepth":"15.000","Units":"in","Rept_Date":"2021-03-04 12"},"coordinates":[5764,4609]},{"type":"Point","properties":{"Station_ID":"IRMM4","Station_Nam":"WWTP","Latitude":"46.46670","Longitude":"-90.18330","Snowdepth":"15.000","Units":"in","Rept_Date":"2021-03-04 13"},"coordinates":[1656,5988]},{"type":"Point","properties":{"Station_ID":"EGRW3","Station_Nam":"EAGLE RIVER-SOUTH","Latitude":"45.91360","Longitude":"-89.24360","Snowdepth":"15.000","Units":"in","Rept_Date":"2021-03-04 13"},"coordinates":[1876,5567]},{"type":"Point","properties":{"Station_ID":"DFXM1","Station_Nam":"DOVER-FOXCROFT","Latitude":"45.18720","Longitude":"-69.18350","Snowdepth":"15.000","Units":"in","Rept_Date":"2021-03-04 12"},"coordinates":[6584,5013]},{"type":"Point","properties":{"Station_ID":"CAN-PE-3","Station_Nam":"WELLINGTON 1.6 NE, CA","Latitude":"46.46672","Longitude":"-63.98920","Snowdepth":"15.000","Units":"in","Rept_Date":"2021-03-04 11"},"coordinates":[7803,5988]},{"type":"Point","properties":{"Station_ID":"AGNW3","Station_Nam":"ARGONNE-1.5 NW","Latitude":"45.67360","Longitude":"-88.90380","Snowdepth":"15.000","Units":"in","Rept_Date":"2021-03-04 13"},"coordinates":[1956,5384]},{"type":"Point","properties":{"Station_ID":"QLI","Station_Nam":"QLI","Latitude":"50.27080","Longitude":"-73.92280","Snowdepth":"14.724","Units":"in","Rept_Date":"2021-03-04 12"},"coordinates":[5472,8889]},{"type":"Point","properties":{"Station_ID":"CAN-ON-526","Station_Nam":"HILTON BEACH 0.7 SW - MNRF, CAN","Latitude":"46.25357","Longitude":"-83.90014","Snowdepth":"14.600","Units":"in","Rept_Date":"2021-03-04 12"},"coordinates":[3130,5826]},{"type":"Point","properties":{"Station_ID":"VT-OG-13","Station_Nam":"WEST FAIRLEE 1.8 ENE, VT","Latitude":"43.92138","Longitude":"-72.23051","Snowdepth":"14.500","Units":"in","Rept_Date":"2021-03-04 12"},"coordinates":[5869,4048]},{"type":"Point","properties":{"Station_ID":"WI-BY-2","Station_Nam":"MELLEN 18.6 SW, WI","Latitude":"46.16937","Longitude":"-90.98090","Snowdepth":"14.400","Units":"in","Rept_Date":"2021-03-04 13"},"coordinates":[1469,5762]},{"type":"Point","properties":{"Station_ID":"CAN-QC-66","Station_Nam":"SAINT-ARMAND 4.2 ESE, CAN","Latitude":"45.01614","Longitude":"-72.99450","Snowdepth":"14.300","Units":"in","Rept_Date":"2021-03-04 12"},"coordinates":[5690,4882]},{"type":"Point","properties":{"Station_ID":"WI-SR-1","Station_Nam":"HAYWARD 9.2 NNE, WI","Latitude":"46.13255","Longitude":"-91.40500","Snowdepth":"14.000","Units":"in","Rept_Date":"2021-03-04 12"},"coordinates":[1369,5734]},{"type":"Point","properties":{"Station_ID":"VT-OL-24","Station_Nam":"DERBY LINE 1.9 W, VT","Latitude":"45.00454","Longitude":"-72.14170","Snowdepth":"14.000","Units":"in","Rept_Date":"2021-03-04 12"},"coordinates":[5890,4873]},{"type":"Point","properties":{"Station_ID":"VT-CH-7","Station_Nam":"HUNTINGTON 1.1 E, VT","Latitude":"44.32488","Longitude":"-72.96570","Snowdepth":"14.000","Units":"in","Rept_Date":"2021-03-04 12"},"coordinates":[5697,4355]},{"type":"Point","properties":{"Station_ID":"TAKW3","Station_Nam":"RICE RESERVOIR NO. 2","Latitude":"45.53770","Longitude":"-89.73220","Snowdepth":"14.000","Units":"in","Rept_Date":"2021-03-04 13"},"coordinates":[1762,5280]},{"type":"Point","properties":{"Station_ID":"STGW3","Station_Nam":"ST GERMAIN","Latitude":"45.91550","Longitude":"-89.48940","Snowdepth":"14.000","Units":"in","Rept_Date":"2021-03-04 12"},"coordinates":[1819,5568]},{"type":"Point","properties":{"Station_ID":"PA-MN-16","Station_Nam":"MOUNT POCONO 0.7 N, PA","Latitude":"41.13190","Longitude":"-75.35804","Snowdepth":"14.000","Units":"in","Rept_Date":"2021-03-04 12"},"coordinates":[5135,1921]},{"type":"Point","properties":{"Station_ID":"NY-SL-6","Station_Nam":"HANNAWA FALLS 0.1 SW, NY","Latitude":"44.61154","Longitude":"-74.97190","Snowdepth":"14.000","Units":"in","Rept_Date":"2021-03-04 12"},"coordinates":[5226,4574]},{"type":"Point","properties":{"Station_ID":"NY-ER-56","Station_Nam":"COLDEN 1.4 NNW, NY","Latitude":"42.64740","Longitude":"-78.71120","Snowdepth":"14.000","Units":"in","Rept_Date":"2021-03-04 12"},"coordinates":[4348,3076]},{"type":"Point","properties":{"Station_ID":"NY-DL-23","Station_Nam":"LONG EDDY 6.5 NNE, NY","Latitude":"41.93510","Longitude":"-75.07840","Snowdepth":"14.000","Units":"in","Rept_Date":"2021-03-04 13"},"coordinates":[5201,2533]},{"type":"Point","properties":{"Station_ID":"NUMN3","Station_Nam":"NORTHUMBERLAND","Latitude":"44.52830","Longitude":"-71.50440","Snowdepth":"14.000","Units":"in","Rept_Date":"2021-03-04 13"},"coordinates":[6040,4510]},{"type":"Point","properties":{"Station_ID":"NOHV1","Station_Nam":"NORTH HARTLAND LAKE","Latitude":"43.60270","Longitude":"-72.36210","Snowdepth":"14.000","Units":"in","Rept_Date":"2021-03-04 12"},"coordinates":[5838,3805]},{"type":"Point","properties":{"Station_ID":"MQRW3","Station_Nam":"MINOCQUA","Latitude":"45.88630","Longitude":"-89.73220","Snowdepth":"14.000","Units":"in","Rept_Date":"2021-03-04 12"},"coordinates":[1762,5546]},{"type":"Point","properties":{"Station_ID":"MI-MQ-19","Station_Nam":"ISHPEMING 7.2 SW, MI","Latitude":"46.40550","Longitude":"-87.75670","Snowdepth":"14.000","Units":"in","Rept_Date":"2021-03-04 11"},"coordinates":[2225,5942]},{"type":"Point","properties":{"Station_ID":"MI-EM-8","Station_Nam":"PETOSKEY 1.7 SSW, MI","Latitude":"45.34209","Longitude":"-84.96530","Snowdepth":"14.000","Units":"in","Rept_Date":"2021-03-04 11"},"coordinates":[2880,5131]},{"type":"Point","properties":{"Station_ID":"CODN6","Station_Nam":"COLDEN","Latitude":"42.64720","Longitude":"-78.71110","Snowdepth":"14.000","Units":"in","Rept_Date":"2021-03-04 12"},"coordinates":[4348,3076]},{"type":"Point","properties":{"Station_ID":"CMKW3","Station_Nam":"CLAM LAKE 4W","Latitude":"46.16940","Longitude":"-90.98080","Snowdepth":"14.000","Units":"in","Rept_Date":"2021-03-04 13"},"coordinates":[1469,5762]},{"type":"Point","properties":{"Station_ID":"CHRM4","Station_Nam":"CHARLEVOIX","Latitude":"45.31720","Longitude":"-85.26720","Snowdepth":"14.000","Units":"in","Rept_Date":"2021-03-04 13"},"coordinates":[2810,5112]},{"type":"Point","properties":{"Station_ID":"CAN-NS-103","Station_Nam":"TRAFALGAR 4.9 WSW, CAN","Latitude":"45.26217","Longitude":"-62.72285","Snowdepth":"14.000","Units":"in","Rept_Date":"2021-03-04 12"},"coordinates":[8101,5070]},{"type":"Point","properties":{"Station_ID":"AVTW3","Station_Nam":"ARBOR VITAE-JOHNSON LAKE","Latitude":"45.89940","Longitude":"-89.72670","Snowdepth":"14.000","Units":"in","Rept_Date":"2021-03-04 12"},"coordinates":[1763,5556]},{"type":"Point","properties":{"Station_ID":"CAN-QC-57","Station_Nam":"ACTON VALE 1.3 N, CAN","Latitude":"45.65868","Longitude":"-72.56645","Snowdepth":"13.800","Units":"in","Rept_Date":"2021-03-04 13"},"coordinates":[5790,5372]},{"type":"Point","properties":{"Station_ID":"CAN-NS-94","Station_Nam":"MARGAREE FORKS 2.6 SSE CBN, CAN","Latitude":"46.30937","Longitude":"-61.07603","Snowdepth":"13.800","Units":"in","Rept_Date":"2021-03-04 13"},"coordinates":[8487,5868]},{"type":"Point","properties":{"Station_ID":"NY-CR-5","Station_Nam":"MARATHON 1.0 NW, NY","Latitude":"42.45161","Longitude":"-76.04370","Snowdepth":"13.500","Units":"in","Rept_Date":"2021-03-04 12"},"coordinates":[4974,2927]},{"type":"Point","properties":{"Station_ID":"MI-CX-7","Station_Nam":"EAST JORDAN 2.1 NNW, MI","Latitude":"45.18639","Longitude":"-85.14750","Snowdepth":"13.500","Units":"in","Rept_Date":"2021-03-04 13"},"coordinates":[2838,5012]},{"type":"Point","properties":{"Station_ID":"CAN-ON-5","Station_Nam":"OWEN SOUND 1.5 NW - GSCA, CAN","Latitude":"44.57837","Longitude":"-80.95461","Snowdepth":"13.500","Units":"in","Rept_Date":"2021-03-04 13"},"coordinates":[3822,4549]},{"type":"Point","properties":{"Station_ID":"QLM","Station_Nam":"QLM","Latitude":"48.92030","Longitude":"-70.25280","Snowdepth":"13.268","Units":"in","Rept_Date":"2021-03-04 12"},"coordinates":[6333,7859]},{"type":"Point","properties":{"Station_ID":"VT-CL-23","Station_Nam":"RYEGATE 1.5 N, VT","Latitude":"44.23024","Longitude":"-72.10523","Snowdepth":"13.200","Units":"in","Rept_Date":"2021-03-04 12"},"coordinates":[5899,4283]},{"type":"Point","properties":{"Station_ID":"CAN-NB-29","Station_Nam":"SUSSEX 1.0 WNW - KWRC, CAN","Latitude":"45.72670","Longitude":"-65.52858","Snowdepth":"13.100","Units":"in","Rept_Date":"2021-03-04 12"},"coordinates":[7442,5424]},{"type":"Point","properties":{"Station_ID":"WI-TY-3","Station_Nam":"MEDFORD 0.8 ENE, WI","Latitude":"45.14421","Longitude":"-90.33349","Snowdepth":"13.000","Units":"in","Rept_Date":"2021-03-04 14"},"coordinates":[1621,4980]},{"type":"Point","properties":{"Station_ID":"WI-ON-6","Station_Nam":"RHINELANDER 5.2 N, WI","Latitude":"45.71388","Longitude":"-89.42150","Snowdepth":"13.000","Units":"in","Rept_Date":"2021-03-04 14"},"coordinates":[1835,5414]},{"type":"Point","properties":{"Station_ID":"VT-WS-15","Station_Nam":"EAST CALAIS 1.5 SW, VT","Latitude":"44.35523","Longitude":"-72.45540","Snowdepth":"13.000","Units":"in","Rept_Date":"2021-03-04 12"},"coordinates":[5816,4378]},{"type":"Point","properties":{"Station_ID":"VT-OL-2","Station_Nam":"BARTON 3.0 ENE, VT","Latitude":"44.75863","Longitude":"-72.11680","Snowdepth":"13.000","Units":"in","Rept_Date":"2021-03-04 12"},"coordinates":[5896,4686]},{"type":"Point","properties":{"Station_ID":"VT-FR-19","Station_Nam":"SWANTON 0.5 NNE, VT","Latitude":"44.92590","Longitude":"-73.12145","Snowdepth":"13.000","Units":"in","Rept_Date":"2021-03-04 12"},"coordinates":[5660,4814]},{"type":"Point","properties":{"Station_ID":"RHIW3","Station_Nam":"RHINELANDER","Latitude":"45.59860","Longitude":"-89.45080","Snowdepth":"13.000","Units":"in","Rept_Date":"2021-03-04 13"},"coordinates":[1828,5326]},{"type":"Point","properties":{"Station_ID":"PLEP1","Station_Nam":"PLEASANT MOUNT 1 W","Latitude":"41.73940","Longitude":"-75.44650","Snowdepth":"13.000","Units":"in","Rept_Date":"2021-03-04 13"},"coordinates":[5114,2384]},{"type":"Point","properties":{"Station_ID":"NY-ER-65","Station_Nam":"BOSTON 1.5 NE, NY","Latitude":"42.65470","Longitude":"-78.72010","Snowdepth":"13.000","Units":"in","Rept_Date":"2021-03-04 12"},"coordinates":[4346,3082]},{"type":"Point","properties":{"Station_ID":"NH-GR-47","Station_Nam":"LITTLETON 7.3 W, NH","Latitude":"44.31847","Longitude":"-71.91086","Snowdepth":"13.000","Units":"in","Rept_Date":"2021-03-04 13"},"coordinates":[5944,4350]},{"type":"Point","properties":{"Station_ID":"NCKN6","Station_Nam":"NORTH CREEK 5 SE","Latitude":"43.66110","Longitude":"-73.89690","Snowdepth":"13.000","Units":"in","Rept_Date":"2021-03-04 12"},"coordinates":[5478,3849]},{"type":"Point","properties":{"Station_ID":"ME-CM-98","Station_Nam":"SEBAGO 2.4 ESE, ME","Latitude":"43.88000","Longitude":"-70.63000","Snowdepth":"13.000","Units":"in","Rept_Date":"2021-03-04 14"},"coordinates":[6245,4016]},{"type":"Point","properties":{"Station_ID":"LUCW3","Station_Nam":"LUCK","Latitude":"45.57330","Longitude":"-92.48520","Snowdepth":"13.000","Units":"in","Rept_Date":"2021-03-04 21"},"coordinates":[1116,5307]},{"type":"Point","properties":{"Station_ID":"LILM1","Station_Nam":"LILLE","Latitude":"47.27770","Longitude":"-68.10520","Snowdepth":"13.000","Units":"in","Rept_Date":"2021-03-04 12"},"coordinates":[6837,6607]},{"type":"Point","properties":{"Station_ID":"KGTB","Station_Nam":"FORT DRUM / WHEELER-SACK U. S. ARMY AIRFIELD","Latitude":"44.05000","Longitude":"-75.73333","Snowdepth":"13.000","Units":"in","Rept_Date":"2021-03-05 06"},"coordinates":[5047,4146]},{"type":"Point","properties":{"Station_ID":"FLNW3","Station_Nam":"FLORENCE","Latitude":"45.93360","Longitude":"-88.25830","Snowdepth":"13.000","Units":"in","Rept_Date":"2021-03-04 13"},"coordinates":[2108,5582]},{"type":"Point","properties":{"Station_ID":"EJNM4","Station_Nam":"EAST JORDAN 2NW","Latitude":"45.18630","Longitude":"-85.14770","Snowdepth":"13.000","Units":"in","Rept_Date":"2021-03-04 13"},"coordinates":[2838,5012]},{"type":"Point","properties":{"Station_ID":"CORM1","Station_Nam":"CORINNA","Latitude":"44.91980","Longitude":"-69.24180","Snowdepth":"13.000","Units":"in","Rept_Date":"2021-03-04 15"},"coordinates":[6571,4809]},{"type":"Point","properties":{"Station_ID":"COLN3","Station_Nam":"COLEBROOK 3SW","Latitude":"44.86100","Longitude":"-71.53920","Snowdepth":"13.000","Units":"in","Rept_Date":"2021-03-04 12"},"coordinates":[6031,4764]},{"type":"Point","properties":{"Station_ID":"NY-JF-30","Station_Nam":"WEST CARTHAGE 0.3 ENE, NY","Latitude":"43.97493","Longitude":"-75.61640","Snowdepth":"12.800","Units":"in","Rept_Date":"2021-03-04 12"},"coordinates":[5075,4088]},{"type":"Point","properties":{"Station_ID":"UAMN3","Station_Nam":"UPPER AMMONOOSUC-YORK POND","Latitude":"44.50690","Longitude":"-71.33310","Snowdepth":"12.700","Units":"in","Rept_Date":"2021-03-04 18"},"coordinates":[6080,4494]},{"type":"Point","properties":{"Station_ID":"MN-IT-7","Station_Nam":"GRAND RAPIDS 6.2 SSW, MN","Latitude":"47.13687","Longitude":"-93.56660","Snowdepth":"12.700","Units":"in","Rept_Date":"2021-03-04 12"},"coordinates":[862,6499]},{"type":"Point","properties":{"Station_ID":"CAN-NB-84","Station_Nam":"NORTON 7.1 WNW - KWRC, CAN","Latitude":"45.66195","Longitude":"-65.78279","Snowdepth":"12.600","Units":"in","Rept_Date":"2021-03-04 13"},"coordinates":[7382,5375]},{"type":"Point","properties":{"Station_ID":"VT-WH-19","Station_Nam":"EAST DOVER 1.8 N, VT","Latitude":"42.97658","Longitude":"-72.77637","Snowdepth":"12.500","Units":"in","Rept_Date":"2021-03-04 12"},"coordinates":[5741,3327]},{"type":"Point","properties":{"Station_ID":"NH-MR-45","Station_Nam":"NORTHFIELD 2.8 E, NH","Latitude":"43.43945","Longitude":"-71.53730","Snowdepth":"12.500","Units":"in","Rept_Date":"2021-03-04 12"},"coordinates":[6032,3680]},{"type":"Point","properties":{"Station_ID":"NH-MR-4","Station_Nam":"BOW 1.6 NW, NH","Latitude":"43.14994","Longitude":"-71.55650","Snowdepth":"12.500","Units":"in","Rept_Date":"2021-03-04 12"},"coordinates":[6027,3459]},{"type":"Point","properties":{"Station_ID":"CAN-MB-32","Station_Nam":"PINAWA 1.0 SW, CA","Latitude":"50.14747","Longitude":"-95.89020","Snowdepth":"12.500","Units":"in","Rept_Date":"2021-03-04 13"},"coordinates":[316,8795]},{"type":"Point","properties":{"Station_ID":"QGD","Station_Nam":"QGD","Latitude":"51.11140","Longitude":"-67.13940","Snowdepth":"12.441","Units":"in","Rept_Date":"2021-03-04 12"},"coordinates":[7064,9530]},{"type":"Point","properties":{"Station_ID":"WWTM1","Station_Nam":"WEST WINTHROP SN","Latitude":"44.30090","Longitude":"-70.03590","Snowdepth":"12.400","Units":"in","Rept_Date":"2021-03-04 18"},"coordinates":[6384,4337]},{"type":"Point","properties":{"Station_ID":"WI-DG-20","Station_Nam":"SOLON SPRINGS 1.2 W, WI","Latitude":"46.35217","Longitude":"-91.84405","Snowdepth":"12.000","Units":"in","Rept_Date":"2021-03-04 13"},"coordinates":[1266,5901]},{"type":"Point","properties":{"Station_ID":"WDSV1","Station_Nam":"WOODSTOCK","Latitude":"43.63030","Longitude":"-72.50720","Snowdepth":"12.000","Units":"in","Rept_Date":"2021-03-04 13"},"coordinates":[5804,3826]},{"type":"Point","properties":{"Station_ID":"VT-OG-14","Station_Nam":"BRADFORD 2.2 NNW, VT","Latitude":"44.02268","Longitude":"-72.14756","Snowdepth":"12.000","Units":"in","Rept_Date":"2021-03-04 13"},"coordinates":[5889,4125]},{"type":"Point","properties":{"Station_ID":"SPRP1","Station_Nam":"SPRINGTOWN 1 NNE","Latitude":"40.57110","Longitude":"-75.27810","Snowdepth":"12.000","Units":"in","Rept_Date":"2021-03-04 12"},"coordinates":[5154,1493]},{"type":"Point","properties":{"Station_ID":"RHLW3","Station_Nam":"RHINELANDER 4NE","Latitude":"45.65270","Longitude":"-89.30740","Snowdepth":"12.000","Units":"in","Rept_Date":"2021-03-04 12"},"coordinates":[1861,5368]},{"type":"Point","properties":{"Station_ID":"RHI","Station_Nam":"RHINELANDER-ONEIDA COUNTY AIRPORT","Latitude":"45.63080","Longitude":"-89.46530","Snowdepth":"12.000","Units":"in","Rept_Date":"2021-03-04 12"},"coordinates":[1824,5351]},{"type":"Point","properties":{"Station_ID":"POLM1","Station_Nam":"POLAND","Latitude":"44.00700","Longitude":"-70.36140","Snowdepth":"12.000","Units":"in","Rept_Date":"2021-03-04 12"},"coordinates":[6308,4113]},{"type":"Point","properties":{"Station_ID":"PLFV1","Station_Nam":"PLAINFIELD","Latitude":"44.27610","Longitude":"-72.41500","Snowdepth":"12.000","Units":"in","Rept_Date":"2021-03-04 12"},"coordinates":[5826,4318]},{"type":"Point","properties":{"Station_ID":"PA-PK-22","Station_Nam":"MILFORD 8.7 NW, PA","Latitude":"41.42018","Longitude":"-74.90953","Snowdepth":"12.000","Units":"in","Rept_Date":"2021-03-04 12"},"coordinates":[5240,2141]},{"type":"Point","properties":{"Station_ID":"NY-ER-63","Station_Nam":"GLENWOOD 1.5 SE, NY","Latitude":"42.60195","Longitude":"-78.63910","Snowdepth":"12.000","Units":"in","Rept_Date":"2021-03-04 13"},"coordinates":[4365,3042]},{"type":"Point","properties":{"Station_ID":"NOWM1","Station_Nam":"NORRIDGEWOCK","Latitude":"44.68080","Longitude":"-69.80280","Snowdepth":"12.000","Units":"in","Rept_Date":"2021-03-04 12"},"coordinates":[6439,4627]},{"type":"Point","properties":{"Station_ID":"NJ-SS-54","Station_Nam":"SPARTA TWP 3.6 SSW, NJ","Latitude":"41.00503","Longitude":"-74.66358","Snowdepth":"12.000","Units":"in","Rept_Date":"2021-03-04 12"},"coordinates":[5298,1824]},{"type":"Point","properties":{"Station_ID":"NEWN3","Station_Nam":"NEWPORT","Latitude":"43.37720","Longitude":"-72.18120","Snowdepth":"12.000","Units":"in","Rept_Date":"2021-03-04 12"},"coordinates":[5881,3633]},{"type":"Point","properties":{"Station_ID":"MWN","Station_Nam":"MOUNT WASHINGTON","Latitude":"44.26670","Longitude":"-71.30000","Snowdepth":"12.000","Units":"in","Rept_Date":"2021-03-04 12"},"coordinates":[6088,4311]},{"type":"Point","properties":{"Station_ID":"MN-IS-18","Station_Nam":"BRAHAM 0.7 SW, MN","Latitude":"45.71379","Longitude":"-93.18095","Snowdepth":"12.000","Units":"in","Rept_Date":"2021-03-04 14"},"coordinates":[952,5414]},{"type":"Point","properties":{"Station_ID":"MN-CK-18","Station_Nam":"GRAND MARAIS 4.4 WSW, MN","Latitude":"47.74462","Longitude":"-90.43796","Snowdepth":"12.000","Units":"in","Rept_Date":"2021-03-04 13"},"coordinates":[1596,6963]},{"type":"Point","properties":{"Station_ID":"MI-OT-17","Station_Nam":"GAYLORD 4.1 S, MI","Latitude":"44.96388","Longitude":"-84.68467","Snowdepth":"12.000","Units":"in","Rept_Date":"2021-03-04 12"},"coordinates":[2946,4842]},{"type":"Point","properties":{"Station_ID":"MI-DL-1","Station_Nam":"GARDEN CORNERS 0.8 NW, MI","Latitude":"45.89815","Longitude":"-86.54850","Snowdepth":"12.000","Units":"in","Rept_Date":"2021-03-04 13"},"coordinates":[2509,5555]},{"type":"Point","properties":{"Station_ID":"ME-YK-3","Station_Nam":"HOLLIS CENTER 5.4 NW, ME","Latitude":"43.64750","Longitude":"-70.67510","Snowdepth":"12.000","Units":"in","Rept_Date":"2021-03-04 12"},"coordinates":[6234,3839]},{"type":"Point","properties":{"Station_ID":"JEFN3","Station_Nam":"JEFFERSON","Latitude":"44.41690","Longitude":"-71.50080","Snowdepth":"12.000","Units":"in","Rept_Date":"2021-03-04 12"},"coordinates":[6040,4425]},{"type":"Point","properties":{"Station_ID":"INL","Station_Nam":"FALLS INTERNATIONAL ARPT","Latitude":"48.56640","Longitude":"-93.40310","Snowdepth":"12.000","Units":"in","Rept_Date":"2021-03-05 00"},"coordinates":[900,7589]},{"type":"Point","properties":{"Station_ID":"IFSM5","Station_Nam":"INTERNATIONAL FALLS SNOW","Latitude":"48.57780","Longitude":"-93.39640","Snowdepth":"12.000","Units":"in","Rept_Date":"2021-03-04 12"},"coordinates":[902,7598]},{"type":"Point","properties":{"Station_ID":"HRVM4","Station_Nam":"HARVEY","Latitude":"46.49080","Longitude":"-87.35470","Snowdepth":"12.000","Units":"in","Rept_Date":"2021-03-04 12"},"coordinates":[2320,6007]},{"type":"Point","properties":{"Station_ID":"HOLM1","Station_Nam":"HOLLIS","Latitude":"43.64750","Longitude":"-70.67490","Snowdepth":"12.000","Units":"in","Rept_Date":"2021-03-04 12"},"coordinates":[6234,3839]},{"type":"Point","properties":{"Station_ID":"GOVN6","Station_Nam":"GOUVERNEUR 3 NW","Latitude":"44.35400","Longitude":"-75.51230","Snowdepth":"12.000","Units":"in","Rept_Date":"2021-03-04 12"},"coordinates":[5099,4377]},{"type":"Point","properties":{"Station_ID":"GDCM4","Station_Nam":"GARDEN CORNERS","Latitude":"45.89830","Longitude":"-86.54850","Snowdepth":"12.000","Units":"in","Rept_Date":"2021-03-04 13"},"coordinates":[2509,5555]},{"type":"Point","properties":{"Station_ID":"EHWV1","Station_Nam":"EAST HAVEN 1 WEST SNOW COURSE","Latitude":"44.66670","Longitude":"-71.91670","Snowdepth":"12.000","Units":"in","Rept_Date":"2021-03-04 12"},"coordinates":[5943,4616]},{"type":"Point","properties":{"Station_ID":"DTVM4","Station_Nam":"DETOUR VILLAGE","Latitude":"45.99830","Longitude":"-83.90130","Snowdepth":"12.000","Units":"in","Rept_Date":"2021-03-04 13"},"coordinates":[3130,5631]},{"type":"Point","properties":{"Station_ID":"CNKN6","Station_Nam":"CONKLINGVILLE DAM","Latitude":"43.32030","Longitude":"-73.92560","Snowdepth":"12.000","Units":"in","Rept_Date":"2021-03-04 13"},"coordinates":[5471,3589]},{"type":"Point","properties":{"Station_ID":"BRLN3","Station_Nam":"BERLIN","Latitude":"44.45350","Longitude":"-71.18540","Snowdepth":"12.000","Units":"in","Rept_Date":"2021-03-04 12"},"coordinates":[6115,4453]},{"type":"Point","properties":{"Station_ID":"BNDM5","Station_Nam":"ELY 25E","Latitude":"47.97190","Longitude":"-91.44860","Snowdepth":"12.000","Units":"in","Rept_Date":"2021-03-04 13"},"coordinates":[1359,7136]},{"type":"Point","properties":{"Station_ID":"REDM1","Station_Nam":"NORTH READFIELD SN","Latitude":"44.41820","Longitude":"-69.99960","Snowdepth":"11.600","Units":"in","Rept_Date":"2021-03-04 18"},"coordinates":[6393,4426]},{"type":"Point","properties":{"Station_ID":"NH-SL-3","Station_Nam":"WEST UNITY 0.7 WSW, NH","Latitude":"43.28652","Longitude":"-72.32970","Snowdepth":"11.500","Units":"in","Rept_Date":"2021-03-04 12"},"coordinates":[5846,3564]},{"type":"Point","properties":{"Station_ID":"IL-SP-7","Station_Nam":"DAVIS 0.5 N, IL","Latitude":"42.42919","Longitude":"-89.41730","Snowdepth":"11.500","Units":"in","Rept_Date":"2021-03-04 13"},"coordinates":[1836,2910]},{"type":"Point","properties":{"Station_ID":"QMA","Station_Nam":"QMA","Latitude":"50.10330","Longitude":"-70.47190","Snowdepth":"11.457","Units":"in","Rept_Date":"2021-03-04 12"},"coordinates":[6282,8761]},{"type":"Point","properties":{"Station_ID":"QTV","Station_Nam":"QTV","Latitude":"49.66000","Longitude":"-69.35690","Snowdepth":"11.339","Units":"in","Rept_Date":"2021-03-04 12"},"coordinates":[6544,8423]},{"type":"Point","properties":{"Station_ID":"CAN-ON-491","Station_Nam":"MILVERTON 1.1 ESE- CANWARN, CAN","Latitude":"43.56074","Longitude":"-80.90887","Snowdepth":"11.300","Units":"in","Rept_Date":"2021-03-04 11"},"coordinates":[3832,3773]},{"type":"Point","properties":{"Station_ID":"NY-WY-10","Station_Nam":"WYOMING COOP, NY","Latitude":"42.82060","Longitude":"-78.14810","Snowdepth":"11.100","Units":"in","Rept_Date":"2021-03-04 12"},"coordinates":[4480,3208]},{"type":"Point","properties":{"Station_ID":"WRSN6","Station_Nam":"WARSAW 6SW","Latitude":"42.68550","Longitude":"-78.22020","Snowdepth":"11.000","Units":"in","Rept_Date":"2021-03-04 12"},"coordinates":[4463,3105]},{"type":"Point","properties":{"Station_ID":"WRSM5","Station_Nam":"WRENSHALL","Latitude":"46.61550","Longitude":"-92.38380","Snowdepth":"11.000","Units":"in","Rept_Date":"2021-03-04 14"},"coordinates":[1139,6102]},{"type":"Point","properties":{"Station_ID":"WNDP1","Station_Nam":"WINDBER COUNTY CLUB","Latitude":"40.28780","Longitude":"-78.77530","Snowdepth":"11.000","Units":"in","Rept_Date":"2021-03-04 12"},"coordinates":[4333,1277]},{"type":"Point","properties":{"Station_ID":"WI-RC-3","Station_Nam":"RACINE 2.3 WSW, WI","Latitude":"42.71124","Longitude":"-87.84570","Snowdepth":"11.000","Units":"in","Rept_Date":"2021-03-04 13"},"coordinates":[2204,3125]},{"type":"Point","properties":{"Station_ID":"VT-GI-3","Station_Nam":"ALBURGH 4.6 SSE, VT","Latitude":"44.91280","Longitude":"-73.26890","Snowdepth":"11.000","Units":"in","Rept_Date":"2021-03-04 13"},"coordinates":[5626,4804]},{"type":"Point","properties":{"Station_ID":"UVDV1","Station_Nam":"NERON SITE AT UNION VILLAGE DAM","Latitude":"43.79140","Longitude":"-72.25720","Snowdepth":"11.000","Units":"in","Rept_Date":"2021-03-04 12"},"coordinates":[5863,3948]},{"type":"Point","properties":{"Station_ID":"RHRW3","Station_Nam":"RHINELANDER WJFW TV-12","Latitude":"45.62220","Longitude":"-89.41000","Snowdepth":"11.000","Units":"in","Rept_Date":"2021-03-05 04"},"coordinates":[1837,5344]},{"type":"Point","properties":{"Station_ID":"PA-CR-1","Station_Nam":"EMPORIUM 2.6 S, PA","Latitude":"41.47342","Longitude":"-78.24330","Snowdepth":"11.000","Units":"in","Rept_Date":"2021-03-04 13"},"coordinates":[4458,2181]},{"type":"Point","properties":{"Station_ID":"PA-CB-33","Station_Nam":"LAKE HARMONY 2.4 WNW, PA","Latitude":"41.07333","Longitude":"-75.63317","Snowdepth":"11.000","Units":"in","Rept_Date":"2021-03-04 12"},"coordinates":[5071,1876]},{"type":"Point","properties":{"Station_ID":"NVLN6","Station_Nam":"NORTHVILLE","Latitude":"43.23330","Longitude":"-74.16670","Snowdepth":"11.000","Units":"in","Rept_Date":"2021-03-04 13"},"coordinates":[5415,3523]},{"type":"Point","properties":{"Station_ID":"NJ-SS-7","Station_Nam":"HARDYSTON TWP 3.2 SE, NJ","Latitude":"41.08903","Longitude":"-74.53990","Snowdepth":"11.000","Units":"in","Rept_Date":"2021-03-04 13"},"coordinates":[5327,1888]},{"type":"Point","properties":{"Station_ID":"NJ-SS-60","Station_Nam":"VERNON TWP 2.7 SSE, NJ","Latitude":"41.16332","Longitude":"-74.45938","Snowdepth":"11.000","Units":"in","Rept_Date":"2021-03-04 11"},"coordinates":[5346,1945]},{"type":"Point","properties":{"Station_ID":"NJ-MS-4","Station_Nam":"ROCKAWAY TWP 0.7 NE, NJ","Latitude":"40.96583","Longitude":"-74.48780","Snowdepth":"11.000","Units":"in","Rept_Date":"2021-03-04 13"},"coordinates":[5339,1794]},{"type":"Point","properties":{"Station_ID":"NH-MR-63","Station_Nam":"SUTTON MILLS 0.1 ENE, NH","Latitude":"43.33522","Longitude":"-71.95126","Snowdepth":"11.000","Units":"in","Rept_Date":"2021-03-04 12"},"coordinates":[5935,3601]},{"type":"Point","properties":{"Station_ID":"NH-BK-9","Station_Nam":"MEREDITH 2.9 SSW, NH","Latitude":"43.62245","Longitude":"-71.53510","Snowdepth":"11.000","Units":"in","Rept_Date":"2021-03-04 12"},"coordinates":[6032,3820]},{"type":"Point","properties":{"Station_ID":"MN-AA-76","Station_Nam":"NOWTHEN 2.9 SSE, MN","Latitude":"45.30360","Longitude":"-93.42620","Snowdepth":"11.000","Units":"in","Rept_Date":"2021-03-04 13"},"coordinates":[895,5101]},{"type":"Point","properties":{"Station_ID":"MI-OT-4","Station_Nam":"GAYLORD 1.7 WNW, MI","Latitude":"45.03280","Longitude":"-84.71090","Snowdepth":"11.000","Units":"in","Rept_Date":"2021-03-04 13"},"coordinates":[2940,4895]},{"type":"Point","properties":{"Station_ID":"MI-OT-16","Station_Nam":"GAYLORD 2.2 SSE, MI","Latitude":"44.99441","Longitude":"-84.65820","Snowdepth":"11.000","Units":"in","Rept_Date":"2021-03-04 13"},"coordinates":[2953,4866]},{"type":"Point","properties":{"Station_ID":"MI-OG-6","Station_Nam":"WEST BRANCH 2.1 SSW, MI","Latitude":"44.24814","Longitude":"-84.25089","Snowdepth":"11.000","Units":"in","Rept_Date":"2021-03-04 12"},"coordinates":[3048,4297]},{"type":"Point","properties":{"Station_ID":"MI-CP-7","Station_Nam":"DRUMMOND 2.9 NE, MI","Latitude":"46.05329","Longitude":"-83.69060","Snowdepth":"11.000","Units":"in","Rept_Date":"2021-03-04 14"},"coordinates":[3180,5673]},{"type":"Point","properties":{"Station_ID":"LEIM5","Station_Nam":"ORR 3E","Latitude":"48.05810","Longitude":"-92.75220","Snowdepth":"11.000","Units":"in","Rept_Date":"2021-03-04 12"},"coordinates":[1053,7202]},{"type":"Point","properties":{"Station_ID":"KMWN","Station_Nam":"MOUNT WASHINGTON","Latitude":"44.26666","Longitude":"-71.30000","Snowdepth":"11.000","Units":"in","Rept_Date":"2021-03-05 06"},"coordinates":[6088,4311]},{"type":"Point","properties":{"Station_ID":"HGHN4","Station_Nam":"HIGHLAND LAKES 1SW","Latitude":"41.16330","Longitude":"-74.45930","Snowdepth":"11.000","Units":"in","Rept_Date":"2021-03-04 11"},"coordinates":[5346,1945]},{"type":"Point","properties":{"Station_ID":"GLDM4","Station_Nam":"GLADSTONE NO. 2","Latitude":"45.84330","Longitude":"-87.03910","Snowdepth":"11.000","Units":"in","Rept_Date":"2021-03-04 12"},"coordinates":[2394,5513]},{"type":"Point","properties":{"Station_ID":"GAYM4","Station_Nam":"GAYLORD","Latitude":"45.03320","Longitude":"-84.71130","Snowdepth":"11.000","Units":"in","Rept_Date":"2021-03-04 13"},"coordinates":[2940,4895]},{"type":"Point","properties":{"Station_ID":"FORM5","Station_Nam":"FOREST LAKE 5NE","Latitude":"45.33170","Longitude":"-92.89820","Snowdepth":"11.000","Units":"in","Rept_Date":"2021-03-04 13"},"coordinates":[1019,5123]},{"type":"Point","properties":{"Station_ID":"FLDM5","Station_Nam":"FLOODWOOD,MN","Latitude":"47.00000","Longitude":"-92.91670","Snowdepth":"11.000","Units":"in","Rept_Date":"2021-03-04 14"},"coordinates":[1014,6395]},{"type":"Point","properties":{"Station_ID":"ENFV1","Station_Nam":"ENOSBURG FALLS 2","Latitude":"44.90960","Longitude":"-72.81370","Snowdepth":"11.000","Units":"in","Rept_Date":"2021-03-04 10"},"coordinates":[5732,4801]},{"type":"Point","properties":{"Station_ID":"DLHM5","Station_Nam":"DULUTH NWS","Latitude":"46.83680","Longitude":"-92.21080","Snowdepth":"11.000","Units":"in","Rept_Date":"2021-03-05 06"},"coordinates":[1180,6270]},{"type":"Point","properties":{"Station_ID":"DLH","Station_Nam":"DULUTH, MN","Latitude":"46.83690","Longitude":"-92.21030","Snowdepth":"11.000","Units":"in","Rept_Date":"2021-03-05 00"},"coordinates":[1180,6271]},{"type":"Point","properties":{"Station_ID":"CEFM4","Station_Nam":"EXPERIMENT FARM #2","Latitude":"46.33330","Longitude":"-86.91670","Snowdepth":"11.000","Units":"in","Rept_Date":"2021-03-04 13"},"coordinates":[2422,5887]},{"type":"Point","properties":{"Station_ID":"CAN-ON-118","Station_Nam":"DURHAM 1.4 S, CAN","Latitude":"44.16525","Longitude":"-80.82064","Snowdepth":"11.000","Units":"in","Rept_Date":"2021-03-04 12"},"coordinates":[3853,4234]},{"type":"Point","properties":{"Station_ID":"CAN-MB-368","Station_Nam":"WHITESHELL 1.3 NE, CAN","Latitude":"49.74405","Longitude":"-95.19123","Snowdepth":"10.800","Units":"in","Rept_Date":"2021-03-04 14"},"coordinates":[481,8487]},{"type":"Point","properties":{"Station_ID":"WI-SC-21","Station_Nam":"CLEAR LAKE 4.0 S, WI","Latitude":"45.19250","Longitude":"-92.27860","Snowdepth":"10.500","Units":"in","Rept_Date":"2021-03-04 14"},"coordinates":[1164,5017]},{"type":"Point","properties":{"Station_ID":"NH-GR-1","Station_Nam":"BRISTOL 0.4 SSE, NH","Latitude":"43.59490","Longitude":"-71.74140","Snowdepth":"10.500","Units":"in","Rept_Date":"2021-03-04 12"},"coordinates":[5984,3799]},{"type":"Point","properties":{"Station_ID":"MI-BZ-1","Station_Nam":"BENZONIA 5.3 S, MI","Latitude":"44.53976","Longitude":"-86.10650","Snowdepth":"10.500","Units":"in","Rept_Date":"2021-03-04 13"},"coordinates":[2613,4519]},{"type":"Point","properties":{"Station_ID":"MA-HS-2","Station_Nam":"WESTHAMPTON 1.8 SW, MA","Latitude":"42.27943","Longitude":"-72.78700","Snowdepth":"10.500","Units":"in","Rept_Date":"2021-03-04 13"},"coordinates":[5739,2796]},{"type":"Point","properties":{"Station_ID":"MA-FR-17","Station_Nam":"BUCKLAND 1.8 ESE, MA","Latitude":"42.58900","Longitude":"-72.75110","Snowdepth":"10.500","Units":"in","Rept_Date":"2021-03-04 13"},"coordinates":[5747,3032]},{"type":"Point","properties":{"Station_ID":"WDRV1","Station_Nam":"WILDER,VT","Latitude":"43.67030","Longitude":"-72.30810","Snowdepth":"10.200","Units":"in","Rept_Date":"2021-03-04 12"},"coordinates":[5851,3856]},{"type":"Point","properties":{"Station_ID":"CAN-ON-804","Station_Nam":"KEMBLE 1.6 S - GSCA, CAN","Latitude":"44.71013","Longitude":"-80.92735","Snowdepth":"10.200","Units":"in","Rept_Date":"2021-03-04 13"},"coordinates":[3828,4649]},{"type":"Point","properties":{"Station_ID":"QCX","Station_Nam":"QCX","Latitude":"51.32830","Longitude":"-70.08060","Snowdepth":"10.118","Units":"in","Rept_Date":"2021-03-04 12"},"coordinates":[6374,9695]},{"type":"Point","properties":{"Station_ID":"UNSN3","Station_Nam":"UPPER AMMONOOSUC-NASH STREAM","Latitude":"44.65000","Longitude":"-71.46530","Snowdepth":"10.100","Units":"in","Rept_Date":"2021-03-04 18"},"coordinates":[6049,4603]},{"type":"Point","properties":{"Station_ID":"WTHM1","Station_Nam":"WINTHROP","Latitude":"44.30650","Longitude":"-69.97010","Snowdepth":"10.000","Units":"in","Rept_Date":"2021-03-04 13"},"coordinates":[6400,4341]},{"type":"Point","properties":{"Station_ID":"WSFW3","Station_Nam":"TOWN OF WESTFORD","Latitude":"43.47190","Longitude":"-88.88250","Snowdepth":"10.000","Units":"in","Rept_Date":"2021-03-04 13"},"coordinates":[1961,3705]},{"type":"Point","properties":{"Station_ID":"WILW3","Station_Nam":"RESERVOIR","Latitude":"45.70000","Longitude":"-89.83330","Snowdepth":"10.000","Units":"in","Rept_Date":"2021-03-04 12"},"coordinates":[1738,5404]},{"type":"Point","properties":{"Station_ID":"WI-JF-22","Station_Nam":"SULLIVAN 2.6 SW, WI","Latitude":"42.98562","Longitude":"-88.62498","Snowdepth":"10.000","Units":"in","Rept_Date":"2021-03-04 14"},"coordinates":[2022,3334]},{"type":"Point","properties":{"Station_ID":"WI-DD-16","Station_Nam":"BEAVER DAM 2.4 WNW, WI","Latitude":"43.47210","Longitude":"-88.88280","Snowdepth":"10.000","Units":"in","Rept_Date":"2021-03-04 13"},"coordinates":[1961,3705]},{"type":"Point","properties":{"Station_ID":"WI-BN-6","Station_Nam":"SUAMICO 4.4 WNW, WI","Latitude":"44.66111","Longitude":"-88.11780","Snowdepth":"10.000","Units":"in","Rept_Date":"2021-03-04 13"},"coordinates":[2141,4612]},{"type":"Point","properties":{"Station_ID":"WENN3","Station_Nam":"P.O. BOX 197 WENTWORTH, NH","Latitude":"43.95190","Longitude":"-71.91560","Snowdepth":"10.000","Units":"in","Rept_Date":"2021-03-04 12"},"coordinates":[5943,4071]},{"type":"Point","properties":{"Station_ID":"WELM4","Station_Nam":"WELLSTON TIPPY DAM","Latitude":"44.25860","Longitude":"-85.93940","Snowdepth":"10.000","Units":"in","Rept_Date":"2021-03-04 13"},"coordinates":[2652,4305]},{"type":"Point","properties":{"Station_ID":"VRGV1","Station_Nam":"VERGENNES","Latitude":"44.17190","Longitude":"-73.24720","Snowdepth":"10.000","Units":"in","Rept_Date":"2021-03-04 11"},"coordinates":[5631,4239]},{"type":"Point","properties":{"Station_ID":"STIM4","Station_Nam":"ST IGNACE","Latitude":"45.86080","Longitude":"-84.71960","Snowdepth":"10.000","Units":"in","Rept_Date":"2021-03-04 12"},"coordinates":[2938,5526]},{"type":"Point","properties":{"Station_ID":"SGVN6","Station_Nam":"SPRINGVILLE","Latitude":"42.54970","Longitude":"-78.57670","Snowdepth":"10.000","Units":"in","Rept_Date":"2021-03-04 23"},"coordinates":[4380,3002]},{"type":"Point","properties":{"Station_ID":"ROBM1","Station_Nam":"ROBBINSTON","Latitude":"45.08520","Longitude":"-67.12050","Snowdepth":"10.000","Units":"in","Rept_Date":"2021-03-05 05"},"coordinates":[7069,4935]},{"type":"Point","properties":{"Station_ID":"PA-BR-7","Station_Nam":"FLEETWOOD 2.0 ESE, PA","Latitude":"40.44292","Longitude":"-75.78720","Snowdepth":"10.000","Units":"in","Rept_Date":"2021-03-04 13"},"coordinates":[5034,1395]},{"type":"Point","properties":{"Station_ID":"NY-TM-45","Station_Nam":"NEWFIELD HAMLET 4.3 S, NY","Latitude":"42.29650","Longitude":"-76.60676","Snowdepth":"10.000","Units":"in","Rept_Date":"2021-03-04 14"},"coordinates":[4842,2809]},{"type":"Point","properties":{"Station_ID":"NY-BM-14","Station_Nam":"WHITNEY POINT 1.7 SSE, NY","Latitude":"42.30837","Longitude":"-75.95690","Snowdepth":"10.000","Units":"in","Rept_Date":"2021-03-04 12"},"coordinates":[4995,2818]},{"type":"Point","properties":{"Station_ID":"NJ-SS-1","Station_Nam":"ANDOVER TWP 1.7 W, NJ","Latitude":"41.01974","Longitude":"-74.76110","Snowdepth":"10.000","Units":"in","Rept_Date":"2021-03-04 12"},"coordinates":[5275,1835]},{"type":"Point","properties":{"Station_ID":"NH-BK-26","Station_Nam":"MEREDITH 3.3 NNE, NH","Latitude":"43.69844","Longitude":"-71.46930","Snowdepth":"10.000","Units":"in","Rept_Date":"2021-03-04 13"},"coordinates":[6048,3878]},{"type":"Point","properties":{"Station_ID":"MNPV1","Station_Nam":"MONTPELIER 2","Latitude":"44.25530","Longitude":"-72.60060","Snowdepth":"10.000","Units":"in","Rept_Date":"2021-03-04 12"},"coordinates":[5782,4302]},{"type":"Point","properties":{"Station_ID":"MI-MC-4","Station_Nam":"ST. IGNACE 0.5SE, MI","Latitude":"45.86057","Longitude":"-84.71980","Snowdepth":"10.000","Units":"in","Rept_Date":"2021-03-04 12"},"coordinates":[2938,5526]},{"type":"Point","properties":{"Station_ID":"ME-WL-27","Station_Nam":"PROSPECT 2.6 W, ME","Latitude":"44.55719","Longitude":"-68.91732","Snowdepth":"10.000","Units":"in","Rept_Date":"2021-03-04 12"},"coordinates":[6647,4532]},{"type":"Point","properties":{"Station_ID":"MA-ES-48","Station_Nam":"ANDOVER 0.6 E, MA","Latitude":"42.65659","Longitude":"-71.13048","Snowdepth":"10.000","Units":"in","Rept_Date":"2021-03-04 10"},"coordinates":[6127,3083]},{"type":"Point","properties":{"Station_ID":"LGEW3","Station_Nam":"LAKE GENEVA, WI","Latitude":"42.60000","Longitude":"-88.43440","Snowdepth":"10.000","Units":"in","Rept_Date":"2021-03-04 13"},"coordinates":[2066,3040]},{"type":"Point","properties":{"Station_ID":"HTLM4","Station_Nam":"SNOW PAID OBSERVER FOR KHTL","Latitude":"44.34470","Longitude":"-84.67730","Snowdepth":"10.000","Units":"in","Rept_Date":"2021-03-04 18"},"coordinates":[2948,4370]},{"type":"Point","properties":{"Station_ID":"HTL","Station_Nam":"ROSCOMMON COUNTY AIRPORT","Latitude":"44.35000","Longitude":"-84.66670","Snowdepth":"10.000","Units":"in","Rept_Date":"2021-03-05 00"},"coordinates":[2951,4374]},{"type":"Point","properties":{"Station_ID":"ERRW3","Station_Nam":"MERRILL-4 W","Latitude":"45.17360","Longitude":"-89.77580","Snowdepth":"10.000","Units":"in","Rept_Date":"2021-03-04 22"},"coordinates":[1751,5002]},{"type":"Point","properties":{"Station_ID":"CAN-PE-10","Station_Nam":"NEW LONDON 1.6 ENE, CA","Latitude":"46.46985","Longitude":"-63.49200","Snowdepth":"10.000","Units":"in","Rept_Date":"2021-03-04 12"},"coordinates":[7920,5991]},{"type":"Point","properties":{"Station_ID":"CAN-NS-60","Station_Nam":"SYDNEY FORKS, CAN","Latitude":"46.05645","Longitude":"-60.31510","Snowdepth":"10.000","Units":"in","Rept_Date":"2021-03-04 13"},"coordinates":[8666,5676]},{"type":"Point","properties":{"Station_ID":"CAN-NB-104","Station_Nam":"PENNFIELD RIDGE 2.7 SSW, CAN","Latitude":"45.09355","Longitude":"-66.71389","Snowdepth":"10.000","Units":"in","Rept_Date":"2021-03-04 11"},"coordinates":[7164,4941]},{"type":"Point","properties":{"Station_ID":"BREW3","Station_Nam":"SURING","Latitude":"44.99580","Longitude":"-88.37860","Snowdepth":"10.000","Units":"in","Rept_Date":"2021-03-04 13"},"coordinates":[2079,4867]},{"type":"Point","properties":{"Station_ID":"BFHW3","Station_Nam":"BAYFIELD FISH HATCHERY","Latitude":"46.78670","Longitude":"-90.86420","Snowdepth":"10.000","Units":"in","Rept_Date":"2021-03-04 14"},"coordinates":[1496,6232]},{"type":"Point","properties":{"Station_ID":"ATAN6","Station_Nam":"ATTICA 7 SW","Latitude":"42.81070","Longitude":"-78.39790","Snowdepth":"10.000","Units":"in","Rept_Date":"2021-03-04 11"},"coordinates":[4422,3201]},{"type":"Point","properties":{"Station_ID":"APXM4","Station_Nam":"GAYLORD 9SSW","Latitude":"44.90720","Longitude":"-84.71880","Snowdepth":"10.000","Units":"in","Rept_Date":"2021-03-05 05"},"coordinates":[2938,4799]},{"type":"Point","properties":{"Station_ID":"LITM1","Station_Nam":"LITCHFIELD SN","Latitude":"44.16270","Longitude":"-69.96340","Snowdepth":"9.800","Units":"in","Rept_Date":"2021-03-04 18"},"coordinates":[6401,4232]},{"type":"Point","properties":{"Station_ID":"CAN-ON-452","Station_Nam":"CHATSWORTH 1.8 ENE - GSCA, CAN","Latitude":"44.46118","Longitude":"-80.87506","Snowdepth":"9.800","Units":"in","Rept_Date":"2021-03-04 12"},"coordinates":[3840,4459]},{"type":"Point","properties":{"Station_ID":"QIQ","Station_Nam":"QIQ","Latitude":"49.82390","Longitude":"-68.54310","Snowdepth":"9.567","Units":"in","Rept_Date":"2021-03-04 12"},"coordinates":[6735,8548]},{"type":"Point","properties":{"Station_ID":"WI-DA-87","Station_Nam":"DUNKIRK 0.1 NW, WI","Latitude":"42.88356","Longitude":"-89.21056","Snowdepth":"9.500","Units":"in","Rept_Date":"2021-03-04 12"},"coordinates":[1884,3256]},{"type":"Point","properties":{"Station_ID":"VT-RT-24","Station_Nam":"MIDDLETOWN SPRINGS 0.9 WNW, VT","Latitude":"43.49194","Longitude":"-73.13350","Snowdepth":"9.500","Units":"in","Rept_Date":"2021-03-04 12"},"coordinates":[5657,3720]},{"type":"Point","properties":{"Station_ID":"NY-CR-1","Station_Nam":"FREETOWN 1.0 NE, NY","Latitude":"42.53299","Longitude":"-76.02111","Snowdepth":"9.500","Units":"in","Rept_Date":"2021-03-04 12"},"coordinates":[4980,2989]},{"type":"Point","properties":{"Station_ID":"NH-ST-31","Station_Nam":"STRAFFORD 2.9 N, NH","Latitude":"43.31175","Longitude":"-71.13510","Snowdepth":"9.500","Units":"in","Rept_Date":"2021-03-04 13"},"coordinates":[6126,3583]},{"type":"Point","properties":{"Station_ID":"MN-SL-115","Station_Nam":"COTTON 5.7 ESE, MN","Latitude":"47.15142","Longitude":"-92.35772","Snowdepth":"9.500","Units":"in","Rept_Date":"2021-03-04 14"},"coordinates":[1146,6510]},{"type":"Point","properties":{"Station_ID":"MN-SL-108","Station_Nam":"IRON JUNCTION 3.4 NNW, MN","Latitude":"47.46150","Longitude":"-92.63130","Snowdepth":"9.500","Units":"in","Rept_Date":"2021-03-04 13"},"coordinates":[1081,6747]},{"type":"Point","properties":{"Station_ID":"VT-AD-28","Station_Nam":"MONKTON 1.5 NE, VT","Latitude":"44.26760","Longitude":"-73.09940","Snowdepth":"9.300","Units":"in","Rept_Date":"2021-03-04 12"},"coordinates":[5665,4312]},{"type":"Point","properties":{"Station_ID":"CAN-QC-16","Station_Nam":"SAINT-ARMAND 3.6 W, CAN","Latitude":"45.02631","Longitude":"-73.08795","Snowdepth":"9.300","Units":"in","Rept_Date":"2021-03-04 12"},"coordinates":[5668,4890]},{"type":"Point","properties":{"Station_ID":"WSWN6","Station_Nam":"WARSAW","Latitude":"42.74220","Longitude":"-78.20850","Snowdepth":"9.000","Units":"in","Rept_Date":"2021-03-04 12"},"coordinates":[4466,3149]},{"type":"Point","properties":{"Station_ID":"WLKW3","Station_Nam":"WHITE LAKE 1 SE","Latitude":"45.14520","Longitude":"-88.74160","Snowdepth":"9.000","Units":"in","Rept_Date":"2021-03-04 14"},"coordinates":[1994,4981]},{"type":"Point","properties":{"Station_ID":"WLDM5","Station_Nam":"WILD RIVER STATE PARK","Latitude":"45.52310","Longitude":"-92.74890","Snowdepth":"9.000","Units":"in","Rept_Date":"2021-03-04 14"},"coordinates":[1054,5269]},{"type":"Point","properties":{"Station_ID":"WI-OC-1","Station_Nam":"MOUNTAIN 1.1 SW, WI","Latitude":"45.17239","Longitude":"-88.48990","Snowdepth":"9.000","Units":"in","Rept_Date":"2021-03-04 13"},"coordinates":[2053,5001]},{"type":"Point","properties":{"Station_ID":"WI-JF-24","Station_Nam":"LAC LABELLE 1.2 SW, WI","Latitude":"43.13126","Longitude":"-88.53959","Snowdepth":"9.000","Units":"in","Rept_Date":"2021-03-04 12"},"coordinates":[2042,3445]},{"type":"Point","properties":{"Station_ID":"WI-CB-5","Station_Nam":"PORTAGE 7.2 SW, WI","Latitude":"43.47933","Longitude":"-89.57370","Snowdepth":"9.000","Units":"in","Rept_Date":"2021-03-04 13"},"coordinates":[1799,3711]},{"type":"Point","properties":{"Station_ID":"WI-BR-2","Station_Nam":"CHETEK 2.0 SE, WI","Latitude":"45.29427","Longitude":"-91.62470","Snowdepth":"9.000","Units":"in","Rept_Date":"2021-03-04 13"},"coordinates":[1318,5094]},{"type":"Point","properties":{"Station_ID":"PROP1","Station_Nam":"PROMPTON DAM","Latitude":"41.58900","Longitude":"-75.33030","Snowdepth":"9.000","Units":"in","Rept_Date":"2021-03-04 12"},"coordinates":[5142,2269]},{"type":"Point","properties":{"Station_ID":"PA-BR-21","Station_Nam":"ALBURTIS 4.7 SW, PA","Latitude":"40.46515","Longitude":"-75.66820","Snowdepth":"9.000","Units":"in","Rept_Date":"2021-03-04 12"},"coordinates":[5062,1412]},{"type":"Point","properties":{"Station_ID":"NY-TG-15","Station_Nam":"BERKSHIRE 1.9 ENE, NY","Latitude":"42.31910","Longitude":"-76.21940","Snowdepth":"9.000","Units":"in","Rept_Date":"2021-03-04 13"},"coordinates":[4933,2826]},{"type":"Point","properties":{"Station_ID":"NY-RL-8","Station_Nam":"STONY POINT 0.7 NW, NY","Latitude":"41.23490","Longitude":"-74.00790","Snowdepth":"9.000","Units":"in","Rept_Date":"2021-03-04 12"},"coordinates":[5452,1999]},{"type":"Point","properties":{"Station_ID":"NY-MD-10","Station_Nam":"CAZENOVIA 2.9 SE, NY","Latitude":"42.90003","Longitude":"-75.81140","Snowdepth":"9.000","Units":"in","Rept_Date":"2021-03-04 12"},"coordinates":[5029,3269]},{"type":"Point","properties":{"Station_ID":"NY-ER-75","Station_Nam":"ELMA CENTER 0.7 SE, NY","Latitude":"42.81936","Longitude":"-78.62140","Snowdepth":"9.000","Units":"in","Rept_Date":"2021-03-04 13"},"coordinates":[4369,3207]},{"type":"Point","properties":{"Station_ID":"NY-CT-22","Station_Nam":"FRANKLINVILLE 0.5 NNE, NY","Latitude":"42.34166","Longitude":"-78.45280","Snowdepth":"9.000","Units":"in","Rept_Date":"2021-03-04 13"},"coordinates":[4409,2843]},{"type":"Point","properties":{"Station_ID":"NH-RC-48","Station_Nam":"NORTHWOOD 2.9 WSW, NH","Latitude":"43.20114","Longitude":"-71.25750","Snowdepth":"9.000","Units":"in","Rept_Date":"2021-03-04 12"},"coordinates":[6098,3498]},{"type":"Point","properties":{"Station_ID":"MTQM4","Station_Nam":"MANISTIQUE WWTP","Latitude":"45.95120","Longitude":"-86.25130","Snowdepth":"9.000","Units":"in","Rept_Date":"2021-03-04 12"},"coordinates":[2579,5595]},{"type":"Point","properties":{"Station_ID":"MOUW3","Station_Nam":"MOUNTAIN 1 SW","Latitude":"45.17220","Longitude":"-88.49390","Snowdepth":"9.000","Units":"in","Rept_Date":"2021-03-04 13"},"coordinates":[2052,5001]},{"type":"Point","properties":{"Station_ID":"MN-SL-15","Station_Nam":"CHISHOLM 0.4 WSW, MN","Latitude":"47.48557","Longitude":"-92.88690","Snowdepth":"9.000","Units":"in","Rept_Date":"2021-03-04 13"},"coordinates":[1021,6765]},{"type":"Point","properties":{"Station_ID":"MN-GH-28","Station_Nam":"CANNON FALLS 0.5 SE, MN","Latitude":"44.50866","Longitude":"-92.89526","Snowdepth":"9.000","Units":"in","Rept_Date":"2021-03-04 14"},"coordinates":[1019,4495]},{"type":"Point","properties":{"Station_ID":"MLLW3","Station_Nam":"MERRILL 8W","Latitude":"45.17810","Longitude":"-89.84810","Snowdepth":"9.000","Units":"in","Rept_Date":"2021-03-04 12"},"coordinates":[1735,5006]},{"type":"Point","properties":{"Station_ID":"MA-FR-13","Station_Nam":"CONWAY 2.9 NW, MA","Latitude":"42.54419","Longitude":"-72.72743","Snowdepth":"9.000","Units":"in","Rept_Date":"2021-03-04 12"},"coordinates":[5753,2998]},{"type":"Point","properties":{"Station_ID":"LAUP1","Station_Nam":"1.5MI S OF RT 30 ON SMIT (LAUREL RIDGE)","Latitude":"40.05000","Longitude":"-79.22060","Snowdepth":"9.000","Units":"in","Rept_Date":"2021-03-04 12"},"coordinates":[4229,1096]},{"type":"Point","properties":{"Station_ID":"KABM5","Station_Nam":"KABETOGAMA LAKE VISITOR CTR","Latitude":"48.40880","Longitude":"-93.04840","Snowdepth":"9.000","Units":"in","Rept_Date":"2021-03-04 13"},"coordinates":[983,7469]},{"type":"Point","properties":{"Station_ID":"HMYM1","Station_Nam":"HARMONY","Latitude":"44.94660","Longitude":"-69.54560","Snowdepth":"9.000","Units":"in","Rept_Date":"2021-03-04 11"},"coordinates":[6499,4829]},{"type":"Point","properties":{"Station_ID":"FLAM4","Station_Nam":"FIFE LAKE 2WNW","Latitude":"44.58480","Longitude":"-85.36530","Snowdepth":"9.000","Units":"in","Rept_Date":"2021-03-04 12"},"coordinates":[2787,4553]},{"type":"Point","properties":{"Station_ID":"ELVM5","Station_Nam":"EVELETH,MN","Latitude":"47.46670","Longitude":"-92.56670","Snowdepth":"9.000","Units":"in","Rept_Date":"2021-03-04 13"},"coordinates":[1096,6751]},{"type":"Point","properties":{"Station_ID":"CT-LT-9","Station_Nam":"NEW HARTFORD CENTER 3.2 SW, CT","Latitude":"41.84170","Longitude":"-73.00920","Snowdepth":"9.000","Units":"in","Rept_Date":"2021-03-04 12"},"coordinates":[5686,2462]},{"type":"Point","properties":{"Station_ID":"CT-HR-28","Station_Nam":"NORTH CANTON 0.8 SSW, CT","Latitude":"41.88514","Longitude":"-72.89729","Snowdepth":"9.000","Units":"in","Rept_Date":"2021-03-04 12"},"coordinates":[5713,2495]},{"type":"Point","properties":{"Station_ID":"CSPP1","Station_Nam":"COUDERSPORT 1 SW","Latitude":"41.77500","Longitude":"-78.04170","Snowdepth":"9.000","Units":"in","Rept_Date":"2021-03-04 12"},"coordinates":[4505,2411]},{"type":"Point","properties":{"Station_ID":"CSLM5","Station_Nam":"CASS LAKE,MN","Latitude":"47.38470","Longitude":"-94.61470","Snowdepth":"9.000","Units":"in","Rept_Date":"2021-03-04 14"},"coordinates":[616,6688]},{"type":"Point","properties":{"Station_ID":"COVP1","Station_Nam":"COVINGTON 2WSW","Latitude":"41.73330","Longitude":"-77.11670","Snowdepth":"9.000","Units":"in","Rept_Date":"2021-03-04 11"},"coordinates":[4722,2379]},{"type":"Point","properties":{"Station_ID":"CNDP1","Station_Nam":"CANADENSIS","Latitude":"41.18980","Longitude":"-75.23830","Snowdepth":"9.000","Units":"in","Rept_Date":"2021-03-04 12"},"coordinates":[5163,1965]},{"type":"Point","properties":{"Station_ID":"CAN-ON-451","Station_Nam":"OWEN SOUND 1.2 N - GSCA, CAN","Latitude":"44.58092","Longitude":"-80.93025","Snowdepth":"9.000","Units":"in","Rept_Date":"2021-03-04 13"},"coordinates":[3827,4550]},{"type":"Point","properties":{"Station_ID":"BKBW2","Station_Nam":"DAVIS.","Latitude":"39.09830","Longitude":"-79.43190","Snowdepth":"9.000","Units":"in","Rept_Date":"2021-03-04 12"},"coordinates":[4179,370]},{"type":"Point","properties":{"Station_ID":"BDDN3","Station_Nam":"BRADFORD 2","Latitude":"43.25880","Longitude":"-72.00210","Snowdepth":"9.000","Units":"in","Rept_Date":"2021-03-04 16"},"coordinates":[5923,3542]},{"type":"Point","properties":{"Station_ID":"BAKC3","Station_Nam":"BAKERSVILLE","Latitude":"41.84180","Longitude":"-73.00850","Snowdepth":"9.000","Units":"in","Rept_Date":"2021-03-04 12"},"coordinates":[5687,2462]},{"type":"Point","properties":{"Station_ID":"AROM4","Station_Nam":"ARNOLD,MI","Latitude":"46.06670","Longitude":"-87.48330","Snowdepth":"9.000","Units":"in","Rept_Date":"2021-03-04 13"},"coordinates":[2290,5683]},{"type":"Point","properties":{"Station_ID":"WI-RK-12","Station_Nam":"JANESVILLE 3.1 W, WI","Latitude":"42.67576","Longitude":"-89.07614","Snowdepth":"8.500","Units":"in","Rept_Date":"2021-03-04 13"},"coordinates":[1916,3098]},{"type":"Point","properties":{"Station_ID":"WI-LN-2","Station_Nam":"MERRILL 7.0 W, WI","Latitude":"45.17746","Longitude":"-89.84820","Snowdepth":"8.500","Units":"in","Rept_Date":"2021-03-04 12"},"coordinates":[1734,5005]},{"type":"Point","properties":{"Station_ID":"WI-DA-99","Station_Nam":"FITCHBURG 1.1 NW, WI","Latitude":"42.99740","Longitude":"-89.44046","Snowdepth":"8.500","Units":"in","Rept_Date":"2021-03-04 13"},"coordinates":[1830,3343]},{"type":"Point","properties":{"Station_ID":"PA-MN-7","Station_Nam":"STROUDSBURG 5.1 W, PA","Latitude":"40.98869","Longitude":"-75.29590","Snowdepth":"8.500","Units":"in","Rept_Date":"2021-03-04 13"},"coordinates":[5150,1812]},{"type":"Point","properties":{"Station_ID":"NY-UL-28","Station_Nam":"KERHONKSON 3.7 N, NY","Latitude":"41.83214","Longitude":"-74.30115","Snowdepth":"8.500","Units":"in","Rept_Date":"2021-03-04 12"},"coordinates":[5383,2455]},{"type":"Point","properties":{"Station_ID":"NY-PT-2","Station_Nam":"BEACON 4.2 ESE, NY","Latitude":"41.48070","Longitude":"-73.89110","Snowdepth":"8.500","Units":"in","Rept_Date":"2021-03-04 12"},"coordinates":[5479,2187]},{"type":"Point","properties":{"Station_ID":"NJ-MS-94","Station_Nam":"JEFFERSON TWP 4.4 SW, NJ","Latitude":"40.96404","Longitude":"-74.62162","Snowdepth":"8.500","Units":"in","Rept_Date":"2021-03-04 12"},"coordinates":[5308,1793]},{"type":"Point","properties":{"Station_ID":"ME-AN-41","Station_Nam":"AUBURN 2.1 NNW, ME","Latitude":"44.11275","Longitude":"-70.26452","Snowdepth":"8.500","Units":"in","Rept_Date":"2021-03-04 12"},"coordinates":[6331,4194]},{"type":"Point","properties":{"Station_ID":"MA-BE-24","Station_Nam":"HANCOCK 3.6 NNE, MA","Latitude":"42.59130","Longitude":"-73.29530","Snowdepth":"8.500","Units":"in","Rept_Date":"2021-03-04 17"},"coordinates":[5619,3033]},{"type":"Point","properties":{"Station_ID":"ME-CM-54","Station_Nam":"WINDHAM 3.9 NW, ME","Latitude":"43.85787","Longitude":"-70.46200","Snowdepth":"8.400","Units":"in","Rept_Date":"2021-03-04 12"},"coordinates":[6284,3999]},{"type":"Point","properties":{"Station_ID":"ZNOM4","Station_Nam":"NORWAY","Latitude":"45.77810","Longitude":"-87.89560","Snowdepth":"8.000","Units":"in","Rept_Date":"2021-03-05 01"},"coordinates":[2193,5463]},{"type":"Point","properties":{"Station_ID":"WNDM1","Station_Nam":"WINDHAM 2NW","Latitude":"43.85670","Longitude":"-70.46630","Snowdepth":"8.000","Units":"in","Rept_Date":"2021-03-04 12"},"coordinates":[6283,3998]},{"type":"Point","properties":{"Station_ID":"WLLP1","Station_Nam":"WELLSBORO 4 SW","Latitude":"41.70030","Longitude":"-77.38940","Snowdepth":"8.000","Units":"in","Rept_Date":"2021-03-04 12"},"coordinates":[4658,2354]},{"type":"Point","properties":{"Station_ID":"WI-WN-9","Station_Nam":"NEENAH 1.1 ENE, WI","Latitude":"44.17370","Longitude":"-88.45130","Snowdepth":"8.000","Units":"in","Rept_Date":"2021-03-04 13"},"coordinates":[2062,4240]},{"type":"Point","properties":{"Station_ID":"WI-WK-34","Station_Nam":"MUKWONAGO 5.3 W, WI","Latitude":"42.85380","Longitude":"-88.43550","Snowdepth":"8.000","Units":"in","Rept_Date":"2021-03-04 13"},"coordinates":[2066,3234]},{"type":"Point","properties":{"Station_ID":"WI-RS-3","Station_Nam":"BRUCE 1.9 E, WI","Latitude":"45.45415","Longitude":"-91.23510","Snowdepth":"8.000","Units":"in","Rept_Date":"2021-03-04 13"},"coordinates":[1409,5216]},{"type":"Point","properties":{"Station_ID":"WI-GL-4","Station_Nam":"GREEN LAKE 0.8 E, WI","Latitude":"43.84369","Longitude":"-88.94066","Snowdepth":"8.000","Units":"in","Rept_Date":"2021-03-04 13"},"coordinates":[1947,3988]},