{"type":"Topology","objects":{"snowdepth_geo":{"type":"GeometryCollection","name":"snowdepth","crs":{"type":"name","properties":{"name":"urn:ogc:def:crs:OGC:1.3:CRS84"}},"geometries":[{"type":"Point","properties":{"Station_ID":"PRKM4","Station_Nam":"MUNISING EAST","Latitude":"46.42580","Longitude":"-86.62000","Snowdepth":"76.500","Units":"in","Rept_Date":"2019-12-07 06"},"coordinates":[2391,6701]},{"type":"Point","properties":{"Station_ID":"OGIQ6","Station_Nam":"OGOKI CAMP","Latitude":"50.76680","Longitude":"-87.85820","Snowdepth":"61.100","Units":"in","Rept_Date":"2019-12-07 06"},"coordinates":[2112,9402]},{"type":"Point","properties":{"Station_ID":"AUDQ6","Station_Nam":"AUDEN","Latitude":"48.52600","Longitude":"-82.57570","Snowdepth":"47.640","Units":"in","Rept_Date":"2019-12-07 06"},"coordinates":[3301,8008]},{"type":"Point","properties":{"Station_ID":"DVLQ6","Station_Nam":"DEVIOUS LAKE","Latitude":"49.19890","Longitude":"-87.76440","Snowdepth":"43.460","Units":"in","Rept_Date":"2019-12-07 06"},"coordinates":[2133,8426]},{"type":"Point","properties":{"Station_ID":"IWOM4","Station_Nam":"IRONWOOD#2","Latitude":"46.46520","Longitude":"-90.13820","Snowdepth":"31.000","Units":"in","Rept_Date":"2019-12-06 13"},"coordinates":[1599,6725]},{"type":"Point","properties":{"Station_ID":"GMSM4","Station_Nam":"GRAND MARAIS 10S","Latitude":"46.50940","Longitude":"-85.96310","Snowdepth":"30.000","Units":"in","Rept_Date":"2019-12-06 12"},"coordinates":[2539,6753]},{"type":"Point","properties":{"Station_ID":"HURW3","Station_Nam":"HURLEY","Latitude":"46.46250","Longitude":"-90.19550","Snowdepth":"28.000","Units":"in","Rept_Date":"2019-12-06 14"},"coordinates":[1586,6724]},{"type":"Point","properties":{"Station_ID":"SWTW3","Station_Nam":"SUPERIOR WWTP","Latitude":"46.72700","Longitude":"-92.07200","Snowdepth":"27.000","Units":"in","Rept_Date":"2019-12-07 06"},"coordinates":[1163,6888]},{"type":"Point","properties":{"Station_ID":"PDLM4","Station_Nam":"PAINESDALE","Latitude":"47.04160","Longitude":"-88.67170","Snowdepth":"26.000","Units":"in","Rept_Date":"2019-12-06 13"},"coordinates":[1929,7084]},{"type":"Point","properties":{"Station_ID":"HTLN3","Station_Nam":"HERMIT LAKE SNOWPLOT","Latitude":"44.26130","Longitude":"-71.28330","Snowdepth":"26.000","Units":"in","Rept_Date":"2019-12-06 11"},"coordinates":[5844,5354]},{"type":"Point","properties":{"Station_ID":"VT-WH-9","Station_Nam":"WEST HALIFAX 0.2 SE, VT","Latitude":"42.78561","Longitude":"-72.76950","Snowdepth":"24.500","Units":"in","Rept_Date":"2019-12-06 13"},"coordinates":[5509,4436]},{"type":"Point","properties":{"Station_ID":"BERM4","Station_Nam":"BERGLAND DAM","Latitude":"46.58690","Longitude":"-89.54750","Snowdepth":"24.000","Units":"in","Rept_Date":"2019-12-06 13"},"coordinates":[1732,6801]},{"type":"Point","properties":{"Station_ID":"MQT","Station_Nam":"MARQUETTE, MI","Latitude":"46.53140","Longitude":"-87.54920","Snowdepth":"23.000","Units":"in","Rept_Date":"2019-12-07 06"},"coordinates":[2182,6767]},{"type":"Point","properties":{"Station_ID":"MAIW3","Station_Nam":"MADELINE ISLAND","Latitude":"46.78330","Longitude":"-90.76670","Snowdepth":"23.000","Units":"in","Rept_Date":"2019-12-06 13"},"coordinates":[1457,6923]},{"type":"Point","properties":{"Station_ID":"WRSM5","Station_Nam":"WRENSHALL","Latitude":"46.61550","Longitude":"-92.38380","Snowdepth":"22.000","Units":"in","Rept_Date":"2019-12-06 14"},"coordinates":[1093,6819]},{"type":"Point","properties":{"Station_ID":"WI-IR-3","Station_Nam":"PENCE 0.1 E, WI","Latitude":"46.41555","Longitude":"-90.27013","Snowdepth":"22.000","Units":"in","Rept_Date":"2019-12-06 13"},"coordinates":[1569,6695]},{"type":"Point","properties":{"Station_ID":"VT-BN-12","Station_Nam":"STAMFORD 5.0 NNE, VT","Latitude":"42.82000","Longitude":"-73.02000","Snowdepth":"22.000","Units":"in","Rept_Date":"2019-12-06 21"},"coordinates":[5453,4458]},{"type":"Point","properties":{"Station_ID":"MI-MQ-25","Station_Nam":"ISHPEMING 6.3 NW, MI","Latitude":"46.54140","Longitude":"-87.77153","Snowdepth":"22.000","Units":"in","Rept_Date":"2019-12-06 16"},"coordinates":[2132,6773]},{"type":"Point","properties":{"Station_ID":"KISM4","Station_Nam":"K.I. SAWYER WWTP","Latitude":"46.33410","Longitude":"-87.37790","Snowdepth":"22.000","Units":"in","Rept_Date":"2019-12-06 13"},"coordinates":[2220,6644]},{"type":"Point","properties":{"Station_ID":"HVCN3","Station_Nam":"HARVARD CABIN SNOWPLOT","Latitude":"44.26630","Longitude":"-71.27790","Snowdepth":"22.000","Units":"in","Rept_Date":"2019-12-06 10"},"coordinates":[5845,5357]},{"type":"Point","properties":{"Station_ID":"ABNM3","Station_Nam":"ASHBURNHAM NORTH","Latitude":"42.66170","Longitude":"-71.93590","Snowdepth":"22.000","Units":"in","Rept_Date":"2019-12-06 12"},"coordinates":[5697,4359]},{"type":"Point","properties":{"Station_ID":"MI-HG-18","Station_Nam":"CALUMET 0.7 W (TAMARACK), MI","Latitude":"47.24560","Longitude":"-88.46791","Snowdepth":"21.000","Units":"in","Rept_Date":"2019-12-06 13"},"coordinates":[1975,7211]},{"type":"Point","properties":{"Station_ID":"LVDW3","Station_Nam":"LAC VIEUX DESERT","Latitude":"46.12110","Longitude":"-89.07580","Snowdepth":"21.000","Units":"in","Rept_Date":"2019-12-06 15"},"coordinates":[1838,6511]},{"type":"Point","properties":{"Station_ID":"GNLM4","Station_Nam":"GREENLAND 6N","Latitude":"46.87360","Longitude":"-89.10060","Snowdepth":"21.000","Units":"in","Rept_Date":"2019-12-06 13"},"coordinates":[1832,6980]},{"type":"Point","properties":{"Station_ID":"NY-SC-2","Station_Nam":"SCOTIA 1.1 NW, NY","Latitude":"42.84473","Longitude":"-73.97480","Snowdepth":"20.500","Units":"in","Rept_Date":"2019-12-06 11"},"coordinates":[5238,4473]},{"type":"Point","properties":{"Station_ID":"MI-BG-3","Station_Nam":"L'ANSE 17.8 SE, MI","Latitude":"46.55730","Longitude":"-88.20770","Snowdepth":"20.500","Units":"in","Rept_Date":"2019-12-06 13"},"coordinates":[2033,6783]},{"type":"Point","properties":{"Station_ID":"GREN3","Station_Nam":"GREENVILLE 1 NNE","Latitude":"42.78270","Longitude":"-71.79850","Snowdepth":"20.000","Units":"in","Rept_Date":"2019-12-06 12"},"coordinates":[5728,4434]},{"type":"Point","properties":{"Station_ID":"CLQM5","Station_Nam":"CLOQUET","Latitude":"46.70470","Longitude":"-92.52530","Snowdepth":"20.000","Units":"in","Rept_Date":"2019-12-06 14"},"coordinates":[1061,6874]},{"type":"Point","properties":{"Station_ID":"BBEM4","Station_Nam":"BIG BAY 9SW","Latitude":"46.74620","Longitude":"-87.88160","Snowdepth":"20.000","Units":"in","Rept_Date":"2019-12-06 13"},"coordinates":[2107,6900]},{"type":"Point","properties":{"Station_ID":"QGD","Station_Nam":"QGD","Latitude":"51.11140","Longitude":"-67.13940","Snowdepth":"19.331","Units":"in","Rept_Date":"2019-12-06 12"},"coordinates":[6777,9616]},{"type":"Point","properties":{"Station_ID":"WLFM5","Station_Nam":"WOLF RIDGE ENVIRON LEARNING CENTER","Latitude":"47.38240","Longitude":"-91.19730","Snowdepth":"19.000","Units":"in","Rept_Date":"2019-12-06 13"},"coordinates":[1360,7296]},{"type":"Point","properties":{"Station_ID":"WI-BY-14","Station_Nam":"ASHLAND 9.8 W, WI","Latitude":"46.59742","Longitude":"-91.07856","Snowdepth":"19.000","Units":"in","Rept_Date":"2019-12-06 12"},"coordinates":[1387,6808]},{"type":"Point","properties":{"Station_ID":"PDGM4","Station_Nam":"PAULDING","Latitude":"46.39760","Longitude":"-89.17940","Snowdepth":"19.000","Units":"in","Rept_Date":"2019-12-06 13"},"coordinates":[1815,6683]},{"type":"Point","properties":{"Station_ID":"NY-AB-54","Station_Nam":"ALTAMONT 2.9 SW, NY","Latitude":"42.68182","Longitude":"-74.08326","Snowdepth":"19.000","Units":"in","Rept_Date":"2019-12-06 12"},"coordinates":[5213,4372]},{"type":"Point","properties":{"Station_ID":"MMNV1","Station_Nam":"MT. MANSFIELD","Latitude":"44.52480","Longitude":"-72.81540","Snowdepth":"19.000","Units":"in","Rept_Date":"2019-12-06 21"},"coordinates":[5499,5518]},{"type":"Point","properties":{"Station_ID":"JWTN6","Station_Nam":"EAST JEWETT","Latitude":"42.23430","Longitude":"-74.14430","Snowdepth":"19.000","Units":"in","Rept_Date":"2019-12-06 12"},"coordinates":[5200,4093]},{"type":"Point","properties":{"Station_ID":"ILIM5","Station_Nam":"ISLAND LAKE","Latitude":"47.02400","Longitude":"-92.07000","Snowdepth":"19.000","Units":"in","Rept_Date":"2019-12-06 15"},"coordinates":[1164,7073]},{"type":"Point","properties":{"Station_ID":"GLDM4","Station_Nam":"GLADSTONE NO. 2","Latitude":"45.84330","Longitude":"-87.03910","Snowdepth":"19.000","Units":"in","Rept_Date":"2019-12-06 12"},"coordinates":[2296,6339]},{"type":"Point","properties":{"Station_ID":"ESGM1","Station_Nam":"EAST SANGERVILLE","Latitude":"45.13690","Longitude":"-69.28060","Snowdepth":"19.000","Units":"in","Rept_Date":"2019-12-06 12"},"coordinates":[6295,5899]},{"type":"Point","properties":{"Station_ID":"ESAM4","Station_Nam":"ESCANABA","Latitude":"45.74380","Longitude":"-87.04060","Snowdepth":"19.000","Units":"in","Rept_Date":"2019-12-06 12"},"coordinates":[2296,6277]},{"type":"Point","properties":{"Station_ID":"ENGM4","Station_Nam":"ENGADINE MDOT","Latitude":"46.12800","Longitude":"-85.56960","Snowdepth":"19.000","Units":"in","Rept_Date":"2019-12-06 12"},"coordinates":[2627,6516]},{"type":"Point","properties":{"Station_ID":"BFHW3","Station_Nam":"BAYFIELD FISH HATCHERY","Latitude":"46.78670","Longitude":"-90.86420","Snowdepth":"19.000","Units":"in","Rept_Date":"2019-12-06 14"},"coordinates":[1435,6926]},{"type":"Point","properties":{"Station_ID":"NH-HL-48","Station_Nam":"GREENVILLE 1.1 ENE, NH","Latitude":"42.77674","Longitude":"-71.77990","Snowdepth":"18.500","Units":"in","Rept_Date":"2019-12-06 13"},"coordinates":[5732,4431]},{"type":"Point","properties":{"Station_ID":"WI-WB-2","Station_Nam":"STONE LAKE 2.0 NW, WI","Latitude":"45.85960","Longitude":"-91.57710","Snowdepth":"18.000","Units":"in","Rept_Date":"2019-12-06 13"},"coordinates":[1275,6349]},{"type":"Point","properties":{"Station_ID":"WI-FL-3","Station_Nam":"FLORENCE 0.7 ESE, WI","Latitude":"45.91760","Longitude":"-88.23900","Snowdepth":"18.000","Units":"in","Rept_Date":"2019-12-06 15"},"coordinates":[2026,6385]},{"type":"Point","properties":{"Station_ID":"WI-AS-4","Station_Nam":"ASHLAND 0.5 WNW, WI","Latitude":"46.58240","Longitude":"-90.88390","Snowdepth":"18.000","Units":"in","Rept_Date":"2019-12-06 13"},"coordinates":[1431,6798]},{"type":"Point","properties":{"Station_ID":"QNCM4","Station_Nam":"QUINCY HILL","Latitude":"47.13640","Longitude":"-88.57950","Snowdepth":"18.000","Units":"in","Rept_Date":"2019-12-06 12"},"coordinates":[1950,7143]},{"type":"Point","properties":{"Station_ID":"PHEW3","Station_Nam":"PHELPS","Latitude":"46.06630","Longitude":"-89.07520","Snowdepth":"18.000","Units":"in","Rept_Date":"2019-12-06 13"},"coordinates":[1838,6477]},{"type":"Point","properties":{"Station_ID":"NWCM4","Station_Nam":"NEWBERRY CITY","Latitude":"46.35720","Longitude":"-85.51780","Snowdepth":"18.000","Units":"in","Rept_Date":"2019-12-06 12"},"coordinates":[2639,6658]},{"type":"Point","properties":{"Station_ID":"MN-SL-18","Station_Nam":"DULUTH 1.4 NNW, MN","Latitude":"46.80321","Longitude":"-92.11240","Snowdepth":"18.000","Units":"in","Rept_Date":"2019-12-06 14"},"coordinates":[1154,6936]},{"type":"Point","properties":{"Station_ID":"ME-AR-18","Station_Nam":"NEW SWEDEN 4.9 NNW, ME","Latitude":"47.01080","Longitude":"-68.14390","Snowdepth":"18.000","Units":"in","Rept_Date":"2019-12-06 12"},"coordinates":[6551,7065]},{"type":"Point","properties":{"Station_ID":"MA-WR-22","Station_Nam":"FITCHBURG 2.0 NNE, MA","Latitude":"42.61671","Longitude":"-71.80100","Snowdepth":"18.000","Units":"in","Rept_Date":"2019-12-06 13"},"coordinates":[5727,4331]},{"type":"Point","properties":{"Station_ID":"KSGM4","Station_Nam":"KEARSARGE","Latitude":"47.27520","Longitude":"-88.41700","Snowdepth":"18.000","Units":"in","Rept_Date":"2019-12-06 13"},"coordinates":[1986,7229]},{"type":"Point","properties":{"Station_ID":"FCHM3","Station_Nam":"FITCHBURG COOP","Latitude":"42.61680","Longitude":"-71.80170","Snowdepth":"18.000","Units":"in","Rept_Date":"2019-12-06 13"},"coordinates":[5727,4331]},{"type":"Point","properties":{"Station_ID":"DLSN6","Station_Nam":"DELANSON 2NE","Latitude":"42.76720","Longitude":"-74.17110","Snowdepth":"18.000","Units":"in","Rept_Date":"2019-12-06 12"},"coordinates":[5194,4425]},{"type":"Point","properties":{"Station_ID":"DLHM5","Station_Nam":"DULUTH NWS","Latitude":"46.83680","Longitude":"-92.21080","Snowdepth":"18.000","Units":"in","Rept_Date":"2019-12-07 06"},"coordinates":[1132,6957]},{"type":"Point","properties":{"Station_ID":"DLH","Station_Nam":"DULUTH, MN","Latitude":"46.83690","Longitude":"-92.21030","Snowdepth":"18.000","Units":"in","Rept_Date":"2019-12-07 00"},"coordinates":[1132,6957]},{"type":"Point","properties":{"Station_ID":"COBN6","Station_Nam":"COBLESKILL 2ESE","Latitude":"42.66710","Longitude":"-74.44230","Snowdepth":"18.000","Units":"in","Rept_Date":"2019-12-06 13"},"coordinates":[5133,4363]},{"type":"Point","properties":{"Station_ID":"AWXW3","Station_Nam":"ASHLAND","Latitude":"46.58240","Longitude":"-90.88390","Snowdepth":"18.000","Units":"in","Rept_Date":"2019-12-06 13"},"coordinates":[1431,6798]},{"type":"Point","properties":{"Station_ID":"ME-AR-23","Station_Nam":"MADAWASKA 2.5 E, ME","Latitude":"47.34933","Longitude":"-68.28141","Snowdepth":"17.500","Units":"in","Rept_Date":"2019-12-06 11"},"coordinates":[6520,7276]},{"type":"Point","properties":{"Station_ID":"RPDM4","Station_Nam":"RAPID RIVER 4SSE","Latitude":"45.87270","Longitude":"-86.94960","Snowdepth":"17.000","Units":"in","Rept_Date":"2019-12-06 14"},"coordinates":[2317,6357]},{"type":"Point","properties":{"Station_ID":"MNSM4","Station_Nam":"MUNISING","Latitude":"46.41210","Longitude":"-86.66250","Snowdepth":"17.000","Units":"in","Rept_Date":"2019-12-06 11"},"coordinates":[2381,6692]},{"type":"Point","properties":{"Station_ID":"MI-KW-2","Station_Nam":"DELAWARE 5.2 SW, MI","Latitude":"47.36928","Longitude":"-88.17919","Snowdepth":"17.000","Units":"in","Rept_Date":"2019-12-06 09"},"coordinates":[2040,7288]},{"type":"Point","properties":{"Station_ID":"MI-HG-17","Station_Nam":"CALUMET 0.5 NE (CALUMET LAKE), MI","Latitude":"47.25300","Longitude":"-88.44652","Snowdepth":"17.000","Units":"in","Rept_Date":"2019-12-06 13"},"coordinates":[1980,7216]},{"type":"Point","properties":{"Station_ID":"MI-HG-11","Station_Nam":"HOUGHTON 3.0 SSW, MI","Latitude":"47.07704","Longitude":"-88.59680","Snowdepth":"17.000","Units":"in","Rept_Date":"2019-12-06 13"},"coordinates":[1946,7106]},{"type":"Point","properties":{"Station_ID":"MA-WR-8","Station_Nam":"FITCHBURG 1.6 SSW, MA","Latitude":"42.56674","Longitude":"-71.82170","Snowdepth":"17.000","Units":"in","Rept_Date":"2019-12-06 11"},"coordinates":[5723,4300]},{"type":"Point","properties":{"Station_ID":"LNCM1","Station_Nam":"LINCOLN WATER DISTRICT","Latitude":"45.32410","Longitude":"-68.58300","Snowdepth":"17.000","Units":"in","Rept_Date":"2019-12-06 13"},"coordinates":[6452,6016]},{"type":"Point","properties":{"Station_ID":"GGRM4","Station_Nam":"GREEN GARDEN NO.2","Latitude":"46.45330","Longitude":"-87.30380","Snowdepth":"17.000","Units":"in","Rept_Date":"2019-12-06 11"},"coordinates":[2237,6718]},{"type":"Point","properties":{"Station_ID":"FLNW3","Station_Nam":"FLORENCE","Latitude":"45.93360","Longitude":"-88.25830","Snowdepth":"17.000","Units":"in","Rept_Date":"2019-12-06 13"},"coordinates":[2022,6395]},{"type":"Point","properties":{"Station_ID":"ASBM3","Station_Nam":"ASHBURNHAM","Latitude":"42.61780","Longitude":"-71.91590","Snowdepth":"17.000","Units":"in","Rept_Date":"2019-12-06 12"},"coordinates":[5701,4332]},{"type":"Point","properties":{"Station_ID":"ME-PN-45","Station_Nam":"MILLINOCKET 2.7 ESE, ME","Latitude":"45.65002","Longitude":"-68.64472","Snowdepth":"16.500","Units":"in","Rept_Date":"2019-12-06 13"},"coordinates":[6438,6218]},{"type":"Point","properties":{"Station_ID":"MA-WR-54","Station_Nam":"BARRE 1.4 NNE, MA","Latitude":"42.44082","Longitude":"-72.09591","Snowdepth":"16.500","Units":"in","Rept_Date":"2019-12-06 12"},"coordinates":[5661,4222]},{"type":"Point","properties":{"Station_ID":"MA-WR-44","Station_Nam":"WESTMINSTER 0.6 WSW, MA","Latitude":"42.54505","Longitude":"-71.91032","Snowdepth":"16.500","Units":"in","Rept_Date":"2019-12-06 12"},"coordinates":[5703,4287]},{"type":"Point","properties":{"Station_ID":"MA-MD-47","Station_Nam":"WEST TOWNSEND 0.5 W, MA","Latitude":"42.67623","Longitude":"-71.74983","Snowdepth":"16.500","Units":"in","Rept_Date":"2019-12-06 11"},"coordinates":[5739,4368]},{"type":"Point","properties":{"Station_ID":"WTRM4","Station_Nam":"WATERSMEET 12WSW","Latitude":"46.22310","Longitude":"-89.40850","Snowdepth":"16.000","Units":"in","Rept_Date":"2019-12-06 12"},"coordinates":[1763,6575]},{"type":"Point","properties":{"Station_ID":"WRPW3","Station_Nam":"WATER PURIFICATION PLANT","Latitude":"44.38800","Longitude":"-89.80550","Snowdepth":"16.000","Units":"in","Rept_Date":"2019-12-06 12"},"coordinates":[1674,5433]},{"type":"Point","properties":{"Station_ID":"SUAW3","Station_Nam":"SUAMICO","Latitude":"44.60190","Longitude":"-88.09780","Snowdepth":"16.000","Units":"in","Rept_Date":"2019-12-06 12"},"coordinates":[2058,5566]},{"type":"Point","properties":{"Station_ID":"NY-GR-7","Station_Nam":"GREENVILLE 0.7 E, NY","Latitude":"42.41400","Longitude":"-74.00900","Snowdepth":"16.000","Units":"in","Rept_Date":"2019-12-06 10"},"coordinates":[5230,4205]},{"type":"Point","properties":{"Station_ID":"NH-CS-10","Station_Nam":"RANDOLPH 1.4 NE, NH","Latitude":"44.38824","Longitude":"-71.26950","Snowdepth":"16.000","Units":"in","Rept_Date":"2019-12-06 12"},"coordinates":[5847,5433]},{"type":"Point","properties":{"Station_ID":"LBKV1","Station_Nam":"LYE BROOK","Latitude":"43.05000","Longitude":"-73.03330","Snowdepth":"16.000","Units":"in","Rept_Date":"2019-12-07 06"},"coordinates":[5450,4601]},{"type":"Point","properties":{"Station_ID":"JAPN3","Station_Nam":"JAFFREY SILVER RANCH AIRPARK","Latitude":"42.80880","Longitude":"-72.00530","Snowdepth":"16.000","Units":"in","Rept_Date":"2019-12-06 12"},"coordinates":[5681,4451]},{"type":"Point","properties":{"Station_ID":"IRMM4","Station_Nam":"WWTP","Latitude":"46.46670","Longitude":"-90.18330","Snowdepth":"16.000","Units":"in","Rept_Date":"2019-12-06 13"},"coordinates":[1589,6726]},{"type":"Point","properties":{"Station_ID":"CRVW3","Station_Nam":"CRIVITZ HIGH FALLS","Latitude":"45.35750","Longitude":"-88.19190","Snowdepth":"16.000","Units":"in","Rept_Date":"2019-12-06 13"},"coordinates":[2037,6036]},{"type":"Point","properties":{"Station_ID":"COUW3","Station_Nam":"COUDERAY,WI","Latitude":"45.86670","Longitude":"-91.45000","Snowdepth":"16.000","Units":"in","Rept_Date":"2019-12-06 22"},"coordinates":[1303,6353]},{"type":"Point","properties":{"Station_ID":"CAN-NB-2","Station_Nam":"GRAFTON 2.7 NNE, CA","Latitude":"46.17062","Longitude":"-67.55330","Snowdepth":"16.000","Units":"in","Rept_Date":"2019-12-06 10"},"coordinates":[6684,6542]},{"type":"Point","properties":{"Station_ID":"BRDM1","Station_Nam":"BRIDGEWATER","Latitude":"46.42870","Longitude":"-67.84370","Snowdepth":"16.000","Units":"in","Rept_Date":"2019-12-06 23"},"coordinates":[6618,6703]},{"type":"Point","properties":{"Station_ID":"BARM3","Station_Nam":"BARRE FALLS DAM","Latitude":"42.42800","Longitude":"-72.02750","Snowdepth":"16.000","Units":"in","Rept_Date":"2019-12-06 12"},"coordinates":[5676,4214]},{"type":"Point","properties":{"Station_ID":"ASTW3","Station_Nam":"ATHELSTANE","Latitude":"45.42500","Longitude":"-88.05750","Snowdepth":"16.000","Units":"in","Rept_Date":"2019-12-06 12"},"coordinates":[2067,6078]},{"type":"Point","properties":{"Station_ID":"AROM4","Station_Nam":"ARNOLD,MI","Latitude":"46.06670","Longitude":"-87.48330","Snowdepth":"16.000","Units":"in","Rept_Date":"2019-12-06 14"},"coordinates":[2196,6478]},{"type":"Point","properties":{"Station_ID":"WI-VL-10","Station_Nam":"LAND O LAKES 4.3 WNW, WI","Latitude":"46.17440","Longitude":"-89.30380","Snowdepth":"15.500","Units":"in","Rept_Date":"2019-12-06 13"},"coordinates":[1787,6545]},{"type":"Point","properties":{"Station_ID":"MA-HS-7","Station_Nam":"PLAINFIELD 2.2 SW, MA","Latitude":"42.49272","Longitude":"-72.94540","Snowdepth":"15.500","Units":"in","Rept_Date":"2019-12-06 13"},"coordinates":[5470,4254]},{"type":"Point","properties":{"Station_ID":"MA-BE-20","Station_Nam":"LEE 3.7 SE, MA","Latitude":"42.27242","Longitude":"-73.19763","Snowdepth":"15.500","Units":"in","Rept_Date":"2019-12-06 13"},"coordinates":[5413,4117]},{"type":"Point","properties":{"Station_ID":"QOU","Station_Nam":"QOU","Latitude":"50.79250","Longitude":"-69.67470","Snowdepth":"15.315","Units":"in","Rept_Date":"2019-12-06 12"},"coordinates":[6206,9418]},{"type":"Point","properties":{"Station_ID":"QCU","Station_Nam":"QCU","Latitude":"47.82750","Longitude":"-76.59830","Snowdepth":"15.315","Units":"in","Rept_Date":"2019-12-06 12"},"coordinates":[4647,7573]},{"type":"Point","properties":{"Station_ID":"WORM3","Station_Nam":"WORTHINGTON","Latitude":"42.38690","Longitude":"-72.92100","Snowdepth":"15.000","Units":"in","Rept_Date":"2019-12-06 12"},"coordinates":[5475,4188]},{"type":"Point","properties":{"Station_ID":"WI-VL-9","Station_Nam":"LAND O' LAKES 11.7 W, WI","Latitude":"46.19023","Longitude":"-89.45790","Snowdepth":"15.000","Units":"in","Rept_Date":"2019-12-06 13"},"coordinates":[1752,6554]},{"type":"Point","properties":{"Station_ID":"WI-BY-2","Station_Nam":"MELLEN 18.6 SW, WI","Latitude":"46.16937","Longitude":"-90.98090","Snowdepth":"15.000","Units":"in","Rept_Date":"2019-12-06 13"},"coordinates":[1409,6541]},{"type":"Point","properties":{"Station_ID":"RLKW3","Station_Nam":"REST LAKE","Latitude":"46.12220","Longitude":"-89.87720","Snowdepth":"15.000","Units":"in","Rept_Date":"2019-12-06 12"},"coordinates":[1657,6512]},{"type":"Point","properties":{"Station_ID":"RANM1","Station_Nam":"RANGELEY,ME","Latitude":"44.96670","Longitude":"-70.65000","Snowdepth":"15.000","Units":"in","Rept_Date":"2019-12-06 11"},"coordinates":[5986,5793]},{"type":"Point","properties":{"Station_ID":"PRNW3","Station_Nam":"PRENTICE,WI","Latitude":"45.54780","Longitude":"-90.30000","Snowdepth":"15.000","Units":"in","Rept_Date":"2019-12-06 14"},"coordinates":[1562,6155]},{"type":"Point","properties":{"Station_ID":"PHON6","Station_Nam":"PHOENICIA 2SW","Latitude":"42.06420","Longitude":"-74.34080","Snowdepth":"15.000","Units":"in","Rept_Date":"2019-12-06 12"},"coordinates":[5155,3987]},{"type":"Point","properties":{"Station_ID":"NY-AB-23","Station_Nam":"ALBANY 0.7 SW, NY","Latitude":"42.66019","Longitude":"-73.81030","Snowdepth":"15.000","Units":"in","Rept_Date":"2019-12-06 12"},"coordinates":[5275,4358]},{"type":"Point","properties":{"Station_ID":"MA-HD-25","Station_Nam":"LUDLOW 2.3 SW, MA","Latitude":"42.14523","Longitude":"-72.51650","Snowdepth":"15.000","Units":"in","Rept_Date":"2019-12-06 12"},"coordinates":[5566,4038]},{"type":"Point","properties":{"Station_ID":"LTMW3","Station_Nam":"LAKE TOMAHAWK 2 SE","Latitude":"45.80750","Longitude":"-89.55830","Snowdepth":"15.000","Units":"in","Rept_Date":"2019-12-06 12"},"coordinates":[1729,6316]},{"type":"Point","properties":{"Station_ID":"LNOW3","Station_Nam":"LAND O LAKES","Latitude":"46.19000","Longitude":"-89.45700","Snowdepth":"15.000","Units":"in","Rept_Date":"2019-12-06 13"},"coordinates":[1752,6554]},{"type":"Point","properties":{"Station_ID":"HRVM4","Station_Nam":"HARVEY","Latitude":"46.49080","Longitude":"-87.35470","Snowdepth":"15.000","Units":"in","Rept_Date":"2019-12-06 12"},"coordinates":[2225,6741]},{"type":"Point","properties":{"Station_ID":"HERM4","Station_Nam":"HERMAN,MI","Latitude":"46.65000","Longitude":"-88.33330","Snowdepth":"15.000","Units":"in","Rept_Date":"2019-12-06 13"},"coordinates":[2005,6840]},{"type":"Point","properties":{"Station_ID":"HCKN3","Station_Nam":"HANCOCK","Latitude":"42.96940","Longitude":"-71.95290","Snowdepth":"15.000","Units":"in","Rept_Date":"2019-12-06 12"},"coordinates":[5693,4551]},{"type":"Point","properties":{"Station_ID":"EHYM3","Station_Nam":"EAST HAWLEY","Latitude":"42.57410","Longitude":"-72.86790","Snowdepth":"15.000","Units":"in","Rept_Date":"2019-12-06 12"},"coordinates":[5487,4305]},{"type":"Point","properties":{"Station_ID":"CMKW3","Station_Nam":"CLAM LAKE 4W","Latitude":"46.16940","Longitude":"-90.98080","Snowdepth":"15.000","Units":"in","Rept_Date":"2019-12-06 13"},"coordinates":[1409,6541]},{"type":"Point","properties":{"Station_ID":"CBVM1","Station_Nam":"CARRABASSETT VALLEY","Latitude":"45.08040","Longitude":"-70.30310","Snowdepth":"15.000","Units":"in","Rept_Date":"2019-12-06 12"},"coordinates":[6065,5864]},{"type":"Point","properties":{"Station_ID":"CARM1","Station_Nam":"CARIBOU WFO","Latitude":"46.86810","Longitude":"-68.01250","Snowdepth":"15.000","Units":"in","Rept_Date":"2019-12-07 05"},"coordinates":[6580,6976]},{"type":"Point","properties":{"Station_ID":"CAR","Station_Nam":"CARIBOU, ME","Latitude":"46.86830","Longitude":"-68.01360","Snowdepth":"15.000","Units":"in","Rept_Date":"2019-12-06 12"},"coordinates":[6580,6976]},{"type":"Point","properties":{"Station_ID":"BIRM3","Station_Nam":"BIRCH HILL DAM","Latitude":"42.63240","Longitude":"-72.12270","Snowdepth":"15.000","Units":"in","Rept_Date":"2019-12-06 12"},"coordinates":[5655,4341]},{"type":"Point","properties":{"Station_ID":"ASXW3","Station_Nam":"ASHLAND,WI","Latitude":"46.55220","Longitude":"-90.91610","Snowdepth":"15.000","Units":"in","Rept_Date":"2019-12-06 14"},"coordinates":[1424,6780]},{"type":"Point","properties":{"Station_ID":"ACVN6","Station_Nam":"ALCOVE DAM","Latitude":"42.46970","Longitude":"-73.92670","Snowdepth":"15.000","Units":"in","Rept_Date":"2019-12-06 13"},"coordinates":[5249,4240]},{"type":"Point","properties":{"Station_ID":"ABGW3","Station_Nam":"AMBERG 9 E","Latitude":"45.48250","Longitude":"-87.81190","Snowdepth":"15.000","Units":"in","Rept_Date":"2019-12-06 12"},"coordinates":[2122,6114]},{"type":"Point","properties":{"Station_ID":"CAN-NB-105","Station_Nam":"SISSON BROOK 3.8 E, CAN","Latitude":"46.98305","Longitude":"-67.32532","Snowdepth":"14.600","Units":"in","Rept_Date":"2019-12-06 12"},"coordinates":[6735,7048]},{"type":"Point","properties":{"Station_ID":"NY-SC-11","Station_Nam":"SCHENECTADY 3.3 E, NY","Latitude":"42.79382","Longitude":"-73.86390","Snowdepth":"14.500","Units":"in","Rept_Date":"2019-12-06 14"},"coordinates":[5263,4441]},{"type":"Point","properties":{"Station_ID":"NY-OT-31","Station_Nam":"MARYLAND 1.8 W, NY","Latitude":"42.53310","Longitude":"-74.92090","Snowdepth":"14.500","Units":"in","Rept_Date":"2019-12-06 22"},"coordinates":[5025,4279]},{"type":"Point","properties":{"Station_ID":"NH-HL-49","Station_Nam":"MONT VERNON 1.3 SSW, NH","Latitude":"42.87616","Longitude":"-71.68280","Snowdepth":"14.500","Units":"in","Rept_Date":"2019-12-06 12"},"coordinates":[5754,4493]},{"type":"Point","properties":{"Station_ID":"MFU","Station_Nam":"MFU","Latitude":"51.52170","Longitude":"-66.91110","Snowdepth":"14.173","Units":"in","Rept_Date":"2019-12-06 12"},"coordinates":[6828,9871]},{"type":"Point","properties":{"Station_ID":"WI-PR-2","Station_Nam":"BUTTERNUT 5.9 SW, WI","Latitude":"45.96501","Longitude":"-90.59750","Snowdepth":"14.000","Units":"in","Rept_Date":"2019-12-06 12"},"coordinates":[1495,6414]},{"type":"Point","properties":{"Station_ID":"WI-IR-2","Station_Nam":"MERCER 2.0 SE, WI","Latitude":"46.14749","Longitude":"-90.03097","Snowdepth":"14.000","Units":"in","Rept_Date":"2019-12-06 13"},"coordinates":[1623,6528]},{"type":"Point","properties":{"Station_ID":"STGW3","Station_Nam":"ST GERMAIN","Latitude":"45.91550","Longitude":"-89.48940","Snowdepth":"14.000","Units":"in","Rept_Date":"2019-12-06 12"},"coordinates":[1745,6383]},{"type":"Point","properties":{"Station_ID":"SHHN6","Station_Nam":"SCHOHARIE VILLAGE","Latitude":"42.66500","Longitude":"-74.30360","Snowdepth":"14.000","Units":"in","Rept_Date":"2019-12-06 12"},"coordinates":[5164,4361]},{"type":"Point","properties":{"Station_ID":"ROWM3","Station_Nam":"ROWE 3NE","Latitude":"42.73500","Longitude":"-72.86920","Snowdepth":"14.000","Units":"in","Rept_Date":"2019-12-06 12"},"coordinates":[5487,4405]},{"type":"Point","properties":{"Station_ID":"RGNM1","Station_Nam":"RANGELEY 2NW","Latitude":"44.98940","Longitude":"-70.67220","Snowdepth":"14.000","Units":"in","Rept_Date":"2019-12-06 11"},"coordinates":[5981,5807]},{"type":"Point","properties":{"Station_ID":"NY-SC-20","Station_Nam":"ROTTERDAM 0.9 NW, NY","Latitude":"42.78862","Longitude":"-73.96671","Snowdepth":"14.000","Units":"in","Rept_Date":"2019-12-06 13"},"coordinates":[5240,4438]},{"type":"Point","properties":{"Station_ID":"NY-GR-6","Station_Nam":"FREEHOLD 3.4 E, NY","Latitude":"42.36045","Longitude":"-73.98350","Snowdepth":"14.000","Units":"in","Rept_Date":"2019-12-06 10"},"coordinates":[5236,4172]},{"type":"Point","properties":{"Station_ID":"NY-GR-14","Station_Nam":"LEXINGTON 1.5 N, NY","Latitude":"42.26024","Longitude":"-74.35875","Snowdepth":"14.000","Units":"in","Rept_Date":"2019-12-06 12"},"coordinates":[5151,4109]},{"type":"Point","properties":{"Station_ID":"MTQM4","Station_Nam":"MANISTIQUE WWTP","Latitude":"45.95120","Longitude":"-86.25130","Snowdepth":"14.000","Units":"in","Rept_Date":"2019-12-06 12"},"coordinates":[2474,6406]},{"type":"Point","properties":{"Station_ID":"MRLV1","Station_Nam":"MARLBORO","Latitude":"42.86000","Longitude":"-72.72000","Snowdepth":"14.000","Units":"in","Rept_Date":"2019-12-06 12"},"coordinates":[5520,4483]},{"type":"Point","properties":{"Station_ID":"MRAM4","Station_Nam":"MORAN","Latitude":"45.99030","Longitude":"-84.83610","Snowdepth":"14.000","Units":"in","Rept_Date":"2019-12-06 13"},"coordinates":[2792,6430]},{"type":"Point","properties":{"Station_ID":"MI-MQ-2","Station_Nam":"MARQUETTE 6.5 SSE, MI","Latitude":"46.46461","Longitude":"-87.34064","Snowdepth":"14.000","Units":"in","Rept_Date":"2019-12-06 14"},"coordinates":[2229,6725]},{"type":"Point","properties":{"Station_ID":"MI-HG-14","Station_Nam":"HOUGHTON 0.6 SE, MI","Latitude":"47.10847","Longitude":"-88.55235","Snowdepth":"14.000","Units":"in","Rept_Date":"2019-12-06 13"},"coordinates":[1956,7126]},{"type":"Point","properties":{"Station_ID":"MI-DL-1","Station_Nam":"GARDEN CORNERS 0.8 NW, MI","Latitude":"45.89815","Longitude":"-86.54850","Snowdepth":"14.000","Units":"in","Rept_Date":"2019-12-06 13"},"coordinates":[2407,6373]},{"type":"Point","properties":{"Station_ID":"HRKM3","Station_Nam":"HARDWICK 2 ESE","Latitude":"42.34570","Longitude":"-72.15410","Snowdepth":"14.000","Units":"in","Rept_Date":"2019-12-06 13"},"coordinates":[5648,4163]},{"type":"Point","properties":{"Station_ID":"GHMN3","Station_Nam":"PINKHAM NOTCH","Latitude":"44.25800","Longitude":"-71.25250","Snowdepth":"14.000","Units":"in","Rept_Date":"2019-12-06 10"},"coordinates":[5851,5352]},{"type":"Point","properties":{"Station_ID":"GDCM4","Station_Nam":"GARDEN CORNERS","Latitude":"45.89830","Longitude":"-86.54850","Snowdepth":"14.000","Units":"in","Rept_Date":"2019-12-06 13"},"coordinates":[2407,6373]},{"type":"Point","properties":{"Station_ID":"DFXM1","Station_Nam":"DOVER-FOXCROFT","Latitude":"45.18720","Longitude":"-69.18350","Snowdepth":"14.000","Units":"in","Rept_Date":"2019-12-06 12"},"coordinates":[6317,5930]},{"type":"Point","properties":{"Station_ID":"QGO","Station_Nam":"QGO","Latitude":"48.85500","Longitude":"-74.20640","Snowdepth":"13.898","Units":"in","Rept_Date":"2019-12-06 12"},"coordinates":[5186,8212]},{"type":"Point","properties":{"Station_ID":"NY-RN-1","Station_Nam":"AVERILL PARK 0.9 WNW, NY","Latitude":"42.63910","Longitude":"-73.56980","Snowdepth":"13.500","Units":"in","Rept_Date":"2019-12-06 13"},"coordinates":[5329,4345]},{"type":"Point","properties":{"Station_ID":"MI-HG-1","Station_Nam":"HOUGHTON 1.6 ESE, MI","Latitude":"47.10774","Longitude":"-88.52940","Snowdepth":"13.500","Units":"in","Rept_Date":"2019-12-06 13"},"coordinates":[1961,7125]},{"type":"Point","properties":{"Station_ID":"ME-YK-52","Station_Nam":"YORK 5.2 N, ME","Latitude":"43.23585","Longitude":"-70.63400","Snowdepth":"13.500","Units":"in","Rept_Date":"2019-12-06 12"},"coordinates":[5990,4716]},{"type":"Point","properties":{"Station_ID":"MLZ","Station_Nam":"MLZ","Latitude":"50.66170","Longitude":"-68.82360","Snowdepth":"13.425","Units":"in","Rept_Date":"2019-12-06 12"},"coordinates":[6398,9336]},{"type":"Point","properties":{"Station_ID":"WI-PR-6","Station_Nam":"PHILLIPS 1.3 S, WI","Latitude":"45.67677","Longitude":"-90.39543","Snowdepth":"13.000","Units":"in","Rept_Date":"2019-12-06 12"},"coordinates":[1541,6235]},{"type":"Point","properties":{"Station_ID":"VANM1","Station_Nam":"VAN BUREN","Latitude":"47.16600","Longitude":"-67.93900","Snowdepth":"13.000","Units":"in","Rept_Date":"2019-12-06 12"},"coordinates":[6597,7161]},{"type":"Point","properties":{"Station_ID":"SDLM3","Station_Nam":"SUNDERLAND","Latitude":"42.44480","Longitude":"-72.55290","Snowdepth":"13.000","Units":"in","Rept_Date":"2019-12-06 12"},"coordinates":[5558,4224]},{"type":"Point","properties":{"Station_ID":"NY-OD-43","Station_Nam":"HOLLAND PATENT 1.1 WNW, NY","Latitude":"43.24707","Longitude":"-75.27750","Snowdepth":"13.000","Units":"in","Rept_Date":"2019-12-06 12"},"coordinates":[4945,4723]},{"type":"Point","properties":{"Station_ID":"NY-DL-28","Station_Nam":"FLEISCHMANNS 5.7 N, NY","Latitude":"42.23779","Longitude":"-74.52335","Snowdepth":"13.000","Units":"in","Rept_Date":"2019-12-06 12"},"coordinates":[5114,4095]},{"type":"Point","properties":{"Station_ID":"NEDM1","Station_Nam":"CAPE NEDDICK","Latitude":"43.22410","Longitude":"-70.63880","Snowdepth":"13.000","Units":"in","Rept_Date":"2019-12-06 12"},"coordinates":[5989,4709]},{"type":"Point","properties":{"Station_ID":"MN-SL-139","Station_Nam":"DULUTH 1.2 SE, MN","Latitude":"46.77000","Longitude":"-92.08826","Snowdepth":"13.000","Units":"in","Rept_Date":"2019-12-06 12"},"coordinates":[1160,6915]},{"type":"Point","properties":{"Station_ID":"MI-HG-6","Station_Nam":"CALUMET 5.8 ENE, MI","Latitude":"47.27200","Longitude":"-88.33400","Snowdepth":"13.000","Units":"in","Rept_Date":"2019-12-06 11"},"coordinates":[2005,7227]},{"type":"Point","properties":{"Station_ID":"MHT","Station_Nam":"MANCHESTER AIRPORT GRENIER INDSTRL ARPK","Latitude":"42.93440","Longitude":"-71.43690","Snowdepth":"13.000","Units":"in","Rept_Date":"2019-12-06 12"},"coordinates":[5809,4529]},{"type":"Point","properties":{"Station_ID":"MA-MD-125","Station_Nam":"TEWKSBURY 3.6 SSE, MA","Latitude":"42.57083","Longitude":"-71.19813","Snowdepth":"13.000","Units":"in","Rept_Date":"2019-12-06 11"},"coordinates":[5863,4303]},{"type":"Point","properties":{"Station_ID":"MA-HD-28","Station_Nam":"WESTFIELD 2.8 SE, MA","Latitude":"42.10685","Longitude":"-72.72148","Snowdepth":"13.000","Units":"in","Rept_Date":"2019-12-06 11"},"coordinates":[5520,4014]},{"type":"Point","properties":{"Station_ID":"LILM1","Station_Nam":"LILLE","Latitude":"47.27770","Longitude":"-68.10520","Snowdepth":"13.000","Units":"in","Rept_Date":"2019-12-06 12"},"coordinates":[6559,7231]},{"type":"Point","properties":{"Station_ID":"KMHT","Station_Nam":"MANCHESTER AIRPORT","Latitude":"42.93333","Longitude":"-71.43333","Snowdepth":"13.000","Units":"in","Rept_Date":"2019-12-07 06"},"coordinates":[5810,4528]},{"type":"Point","properties":{"Station_ID":"JCBM4","Station_Nam":"JACOBSVILLE","Latitude":"47.00830","Longitude":"-88.43180","Snowdepth":"13.000","Units":"in","Rept_Date":"2019-12-06 12"},"coordinates":[1983,7063]},{"type":"Point","properties":{"Station_ID":"IMNM4","Station_Nam":"IRON MOUTAIN 5N","Latitude":"45.87580","Longitude":"-88.04030","Snowdepth":"13.000","Units":"in","Rept_Date":"2019-12-06 15"},"coordinates":[2071,6359]},{"type":"Point","properties":{"Station_ID":"HUDN3","Station_Nam":"HUDSON 1 SSE","Latitude":"42.78300","Longitude":"-71.41480","Snowdepth":"13.000","Units":"in","Rept_Date":"2019-12-06 12"},"coordinates":[5814,4435]},{"type":"Point","properties":{"Station_ID":"EGRW3","Station_Nam":"EAGLE RIVER-SOUTH","Latitude":"45.91360","Longitude":"-89.24360","Snowdepth":"13.000","Units":"in","Rept_Date":"2019-12-06 13"},"coordinates":[1800,6382]},{"type":"Point","properties":{"Station_ID":"CRLM5","Station_Nam":"CROSS LAKE DAM","Latitude":"46.66930","Longitude":"-94.11060","Snowdepth":"13.000","Units":"in","Rept_Date":"2019-12-06 14"},"coordinates":[704,6852]},{"type":"Point","properties":{"Station_ID":"CAN-NB-13","Station_Nam":"BATHURST 3.8 NW, CAN","Latitude":"47.64212","Longitude":"-65.68756","Snowdepth":"13.000","Units":"in","Rept_Date":"2019-12-06 11"},"coordinates":[7104,7458]},{"type":"Point","properties":{"Station_ID":"CAN-NB-11","Station_Nam":"MIRAMICHI 3.3 S, CAN","Latitude":"46.99343","Longitude":"-65.50690","Snowdepth":"13.000","Units":"in","Rept_Date":"2019-12-06 12"},"coordinates":[7144,7054]},{"type":"Point","properties":{"Station_ID":"BSKN6","Station_Nam":"BUSKIRK","Latitude":"42.93610","Longitude":"-73.43250","Snowdepth":"13.000","Units":"in","Rept_Date":"2019-12-06 12"},"coordinates":[5360,4530]},{"type":"Point","properties":{"Station_ID":"BRMM5","Station_Nam":"BRIMSON 2S","Latitude":"47.24720","Longitude":"-91.86240","Snowdepth":"13.000","Units":"in","Rept_Date":"2019-12-07 01"},"coordinates":[1210,7212]},{"type":"Point","properties":{"Station_ID":"BNDM5","Station_Nam":"ELY 25E","Latitude":"47.97190","Longitude":"-91.44860","Snowdepth":"13.000","Units":"in","Rept_Date":"2019-12-06 13"},"coordinates":[1304,7663]},{"type":"Point","properties":{"Station_ID":"VT-WH-29","Station_Nam":"BRATTLEBORO 0.7 S, VT","Latitude":"42.84030","Longitude":"-72.55580","Snowdepth":"12.500","Units":"in","Rept_Date":"2019-12-06 12"},"coordinates":[5557,4470]},{"type":"Point","properties":{"Station_ID":"NY-OD-2","Station_Nam":"POINT ROCK 0.6 SE, NY","Latitude":"43.37335","Longitude":"-75.53840","Snowdepth":"12.500","Units":"in","Rept_Date":"2019-12-06 13"},"coordinates":[4886,4802]},{"type":"Point","properties":{"Station_ID":"NY-GR-13","Station_Nam":"TANNERSVILLE 4.5 SSE, NY","Latitude":"42.13884","Longitude":"-74.08697","Snowdepth":"12.500","Units":"in","Rept_Date":"2019-12-06 12"},"coordinates":[5213,4034]},{"type":"Point","properties":{"Station_ID":"NY-AB-46","Station_Nam":"RAVENA 1.4 NNW, NY","Latitude":"42.49571","Longitude":"-73.82175","Snowdepth":"12.500","Units":"in","Rept_Date":"2019-12-06 13"},"coordinates":[5272,4256]},{"type":"Point","properties":{"Station_ID":"MN-AT-5","Station_Nam":"TAMARACK 1.4 SW, MN","Latitude":"46.63760","Longitude":"-93.14554","Snowdepth":"12.500","Units":"in","Rept_Date":"2019-12-06 13"},"coordinates":[922,6833]},{"type":"Point","properties":{"Station_ID":"QCX","Station_Nam":"QCX","Latitude":"51.32830","Longitude":"-70.08060","Snowdepth":"12.087","Units":"in","Rept_Date":"2019-12-06 12"},"coordinates":[6115,9751]},{"type":"Point","properties":{"Station_ID":"PTLQ6","Station_Nam":"PORTAGE LAKE","Latitude":"49.06950","Longitude":"-86.65940","Snowdepth":"12.050","Units":"in","Rept_Date":"2019-12-07 06"},"coordinates":[2382,8346]},{"type":"Point","properties":{"Station_ID":"ZBWN3","Station_Nam":"NASHUA CWSU","Latitude":"42.73440","Longitude":"-71.48030","Snowdepth":"12.000","Units":"in","Rept_Date":"2019-12-06 13"},"coordinates":[5800,4404]},{"type":"Point","properties":{"Station_ID":"WILW3","Station_Nam":"RESERVOIR","Latitude":"45.70000","Longitude":"-89.83330","Snowdepth":"12.000","Units":"in","Rept_Date":"2019-12-06 12"},"coordinates":[1667,6249]},{"type":"Point","properties":{"Station_ID":"WI-VL-14","Station_Nam":"BOULDER JUNCTION 1.4 NE, WI","Latitude":"46.12840","Longitude":"-89.62470","Snowdepth":"12.000","Units":"in","Rept_Date":"2019-12-06 13"},"coordinates":[1714,6516]},{"type":"Point","properties":{"Station_ID":"WI-TY-2","Station_Nam":"SHELDON 8.1 ENE, WI","Latitude":"45.35598","Longitude":"-90.80296","Snowdepth":"12.000","Units":"in","Rept_Date":"2019-12-06 13"},"coordinates":[1449,6035]},{"type":"Point","properties":{"Station_ID":"WI-SR-5","Station_Nam":"HAYWARD 9.7 NE, WI","Latitude":"46.12030","Longitude":"-91.35370","Snowdepth":"12.000","Units":"in","Rept_Date":"2019-12-06 14"},"coordinates":[1325,6511]},{"type":"Point","properties":{"Station_ID":"WI-RS-1","Station_Nam":"LADYSMITH 2.8 WNW, WI","Latitude":"45.48180","Longitude":"-91.14680","Snowdepth":"12.000","Units":"in","Rept_Date":"2019-12-06 13"},"coordinates":[1372,6114]},{"type":"Point","properties":{"Station_ID":"WI-BY-6","Station_Nam":"BARNES 2.2 S, WI","Latitude":"46.30264","Longitude":"-91.50320","Snowdepth":"12.000","Units":"in","Rept_Date":"2019-12-06 13"},"coordinates":[1291,6624]},{"type":"Point","properties":{"Station_ID":"RHLW3","Station_Nam":"RHINELANDER 4NE","Latitude":"45.65270","Longitude":"-89.30740","Snowdepth":"12.000","Units":"in","Rept_Date":"2019-12-06 12"},"coordinates":[1786,6220]},{"type":"Point","properties":{"Station_ID":"RHIW3","Station_Nam":"RHINELANDER","Latitude":"45.59860","Longitude":"-89.45080","Snowdepth":"12.000","Units":"in","Rept_Date":"2019-12-06 13"},"coordinates":[1753,6186]},{"type":"Point","properties":{"Station_ID":"PARM4","Station_Nam":"PARENT BAY","Latitude":"45.79610","Longitude":"-86.40110","Snowdepth":"12.000","Units":"in","Rept_Date":"2019-12-06 16"},"coordinates":[2440,6309]},{"type":"Point","properties":{"Station_ID":"NY-SR-16","Station_Nam":"BALLSTON SPA 2.9 ESE, NY","Latitude":"42.99000","Longitude":"-73.80000","Snowdepth":"12.000","Units":"in","Rept_Date":"2019-12-06 13"},"coordinates":[5277,4563]},{"type":"Point","properties":{"Station_ID":"NY-HR-18","Station_Nam":"SALISBURY CENTER 1.8 NW, NY","Latitude":"43.16260","Longitude":"-74.80880","Snowdepth":"12.000","Units":"in","Rept_Date":"2019-12-06 11"},"coordinates":[5050,4671]},{"type":"Point","properties":{"Station_ID":"MWTM1","Station_Nam":"MILLINOCKET WWTP","Latitude":"45.64030","Longitude":"-68.67480","Snowdepth":"12.000","Units":"in","Rept_Date":"2019-12-06 11"},"coordinates":[6431,6212]},{"type":"Point","properties":{"Station_ID":"MN-SL-115","Station_Nam":"COTTON 5.7 ESE, MN","Latitude":"47.15142","Longitude":"-92.35772","Snowdepth":"12.000","Units":"in","Rept_Date":"2019-12-06 14"},"coordinates":[1099,7152]},{"type":"Point","properties":{"Station_ID":"MLLW3","Station_Nam":"MERRILL 8W","Latitude":"45.17810","Longitude":"-89.84810","Snowdepth":"12.000","Units":"in","Rept_Date":"2019-12-06 12"},"coordinates":[1664,5925]},{"type":"Point","properties":{"Station_ID":"MI-HG-12","Station_Nam":"DOLLAR BAY 0.2 ENE, MI","Latitude":"47.12067","Longitude":"-88.49895","Snowdepth":"12.000","Units":"in","Rept_Date":"2019-12-06 13"},"coordinates":[1968,7133]},{"type":"Point","properties":{"Station_ID":"MA-FR-13","Station_Nam":"CONWAY 2.9 NW, MA","Latitude":"42.54419","Longitude":"-72.72743","Snowdepth":"12.000","Units":"in","Rept_Date":"2019-12-06 12"},"coordinates":[5519,4286]},{"type":"Point","properties":{"Station_ID":"KALB","Station_Nam":"ALBANY INTERNATIONAL AIRPORT","Latitude":"42.75000","Longitude":"-73.80000","Snowdepth":"12.000","Units":"in","Rept_Date":"2019-12-07 06"},"coordinates":[5277,4414]},{"type":"Point","properties":{"Station_ID":"HMYM1","Station_Nam":"HARMONY","Latitude":"44.94660","Longitude":"-69.54560","Snowdepth":"12.000","Units":"in","Rept_Date":"2019-12-06 12"},"coordinates":[6235,5781]},{"type":"Point","properties":{"Station_ID":"COPN6","Station_Nam":"COOPERSTOWN","Latitude":"42.71660","Longitude":"-74.92660","Snowdepth":"12.000","Units":"in","Rept_Date":"2019-12-07 05"},"coordinates":[5024,4393]},{"type":"Point","properties":{"Station_ID":"CLKM4","Station_Nam":"CLARKSBURG","Latitude":"46.49910","Longitude":"-87.84500","Snowdepth":"12.000","Units":"in","Rept_Date":"2019-12-06 12"},"coordinates":[2115,6747]},{"type":"Point","properties":{"Station_ID":"CGPM4","Station_Nam":"DOLLAR BAY","Latitude":"47.11670","Longitude":"-88.51370","Snowdepth":"12.000","Units":"in","Rept_Date":"2019-12-06 13"},"coordinates":[1964,7131]},{"type":"Point","properties":{"Station_ID":"ALB","Station_Nam":"ALBANY INTL AP","Latitude":"42.74810","Longitude":"-73.80330","Snowdepth":"12.000","Units":"in","Rept_Date":"2019-12-07 00"},"coordinates":[5276,4413]},{"type":"Point","properties":{"Station_ID":"QFT","Station_Nam":"QFT","Latitude":"50.83280","Longitude":"-74.40390","Snowdepth":"11.693","Units":"in","Rept_Date":"2019-12-06 12"},"coordinates":[5141,9443]},{"type":"Point","properties":{"Station_ID":"WI-PR-8","Station_Nam":"PHILLIPS 0.4 SSW, WI","Latitude":"45.69086","Longitude":"-90.40200","Snowdepth":"11.500","Units":"in","Rept_Date":"2019-12-06 13"},"coordinates":[1539,6244]},{"type":"Point","properties":{"Station_ID":"WI-ON-6","Station_Nam":"RHINELANDER 5.2 N, WI","Latitude":"45.71388","Longitude":"-89.42150","Snowdepth":"11.500","Units":"in","Rept_Date":"2019-12-06 14"},"coordinates":[1760,6258]},{"type":"Point","properties":{"Station_ID":"WI-LN-2","Station_Nam":"MERRILL 7.0 W, WI","Latitude":"45.17746","Longitude":"-89.84820","Snowdepth":"11.500","Units":"in","Rept_Date":"2019-12-06 12"},"coordinates":[1664,5924]},{"type":"Point","properties":{"Station_ID":"WI-BT-14","Station_Nam":"OAKLAND 9.0 ENE, WI","Latitude":"45.95184","Longitude":"-92.21653","Snowdepth":"11.500","Units":"in","Rept_Date":"2019-12-06 13"},"coordinates":[1131,6406]},{"type":"Point","properties":{"Station_ID":"MN-SL-15","Station_Nam":"CHISHOLM 0.4 WSW, MN","Latitude":"47.48557","Longitude":"-92.88690","Snowdepth":"11.500","Units":"in","Rept_Date":"2019-12-06 13"},"coordinates":[980,7360]},{"type":"Point","properties":{"Station_ID":"MA-FR-17","Station_Nam":"BUCKLAND 1.8 ESE, MA","Latitude":"42.58900","Longitude":"-72.75110","Snowdepth":"11.500","Units":"in","Rept_Date":"2019-12-06 13"},"coordinates":[5513,4314]},{"type":"Point","properties":{"Station_ID":"CAN-NB-97","Station_Nam":"NEW MARYLAND 0.6 NW, CAN","Latitude":"45.90112","Longitude":"-66.68739","Snowdepth":"11.400","Units":"in","Rept_Date":"2019-12-06 11"},"coordinates":[6879,6375]},{"type":"Point","properties":{"Station_ID":"QCO","Station_Nam":"QCO","Latitude":"51.45280","Longitude":"-72.20110","Snowdepth":"11.142","Units":"in","Rept_Date":"2019-12-06 12"},"coordinates":[5637,9828]},{"type":"Point","properties":{"Station_ID":"WLKW3","Station_Nam":"WHITE LAKE 1 SE","Latitude":"45.14520","Longitude":"-88.74160","Snowdepth":"11.000","Units":"in","Rept_Date":"2019-12-06 14"},"coordinates":[1913,5904]},{"type":"Point","properties":{"Station_ID":"TOHM5","Station_Nam":"TWO HARBORS WWTP","Latitude":"47.01760","Longitude":"-91.66480","Snowdepth":"11.000","Units":"in","Rept_Date":"2019-12-06 13"},"coordinates":[1255,7069]},{"type":"Point","properties":{"Station_ID":"STMM4","Station_Nam":"STAMBAUGH 2SSE","Latitude":"46.05550","Longitude":"-88.62780","Snowdepth":"11.000","Units":"in","Rept_Date":"2019-12-06 13"},"coordinates":[1939,6471]},{"type":"Point","properties":{"Station_ID":"PSM","Station_Nam":"PEASE INTL TRADEPORT AP","Latitude":"43.07810","Longitude":"-70.82330","Snowdepth":"11.000","Units":"in","Rept_Date":"2019-12-06 12"},"coordinates":[5947,4618]},{"type":"Point","properties":{"Station_ID":"PRDM4","Station_Nam":"PARADISE","Latitude":"46.60380","Longitude":"-85.03960","Snowdepth":"11.000","Units":"in","Rept_Date":"2019-12-06 11"},"coordinates":[2747,6812]},{"type":"Point","properties":{"Station_ID":"NY-HR-12","Station_Nam":"DOLGEVILLE 1.9 NW, NY","Latitude":"43.12320","Longitude":"-74.79740","Snowdepth":"11.000","Units":"in","Rept_Date":"2019-12-06 12"},"coordinates":[5053,4646]},{"type":"Point","properties":{"Station_ID":"NY-CY-27","Station_Nam":"MORAVIA 5.9 ENE, NY","Latitude":"42.73491","Longitude":"-76.31137","Snowdepth":"11.000","Units":"in","Rept_Date":"2019-12-06 12"},"coordinates":[4712,4405]},{"type":"Point","properties":{"Station_ID":"NEWM3","Station_Nam":"NEWBURYPORT","Latitude":"42.83200","Longitude":"-70.91520","Snowdepth":"11.000","Units":"in","Rept_Date":"2019-12-06 13"},"coordinates":[5927,4465]},{"type":"Point","properties":{"Station_ID":"NBLN6","Station_Nam":"LANSING MANOR","Latitude":"42.44860","Longitude":"-74.46530","Snowdepth":"11.000","Units":"in","Rept_Date":"2019-12-06 13"},"coordinates":[5127,4227]},{"type":"Point","properties":{"Station_ID":"MI-DL-4","Station_Nam":"GLADSTONE 2.1 SW, MI","Latitude":"45.83218","Longitude":"-87.05727","Snowdepth":"11.000","Units":"in","Rept_Date":"2019-12-06 12"},"coordinates":[2292,6332]},{"type":"Point","properties":{"Station_ID":"MA-BE-11","Station_Nam":"GREAT BARRINGTON 3.0 N, MA","Latitude":"42.23790","Longitude":"-73.35030","Snowdepth":"11.000","Units":"in","Rept_Date":"2019-12-06 12"},"coordinates":[5378,4096]},{"type":"Point","properties":{"Station_ID":"LLLM3","Station_Nam":"LOWELL","Latitude":"42.64090","Longitude":"-71.36370","Snowdepth":"11.000","Units":"in","Rept_Date":"2019-12-06 11"},"coordinates":[5826,4346]},{"type":"Point","properties":{"Station_ID":"LEVM3","Station_Nam":"LEVERETT NO.2","Latitude":"42.44680","Longitude":"-72.53000","Snowdepth":"11.000","Units":"in","Rept_Date":"2019-12-06 12"},"coordinates":[5563,4225]},{"type":"Point","properties":{"Station_ID":"KPSM","Station_Nam":"PEASE AIR FORCE BASE / PORTSMOUTH","Latitude":"43.08333","Longitude":"-70.81666","Snowdepth":"11.000","Units":"in","Rept_Date":"2019-12-07 06"},"coordinates":[5949,4621]},{"type":"Point","properties":{"Station_ID":"KGTB","Station_Nam":"FORT DRUM / WHEELER-SACK U. S. ARMY AIRFIELD","Latitude":"44.05000","Longitude":"-75.73333","Snowdepth":"11.000","Units":"in","Rept_Date":"2019-12-07 00"},"coordinates":[4842,5223]},{"type":"Point","properties":{"Station_ID":"KCEF","Station_Nam":"CHICOPEE FALLS / WESTOVER AIR FORCE BASE","Latitude":"42.20000","Longitude":"-72.53333","Snowdepth":"11.000","Units":"in","Rept_Date":"2019-12-07 00"},"coordinates":[5562,4072]},{"type":"Point","properties":{"Station_ID":"HMPN3","Station_Nam":"WEST HAMPSTEAD","Latitude":"42.91080","Longitude":"-71.20200","Snowdepth":"11.000","Units":"in","Rept_Date":"2019-12-06 12"},"coordinates":[5862,4514]},{"type":"Point","properties":{"Station_ID":"EPPN3","Station_Nam":"EPPING","Latitude":"43.03020","Longitude":"-71.08380","Snowdepth":"11.000","Units":"in","Rept_Date":"2019-12-06 12"},"coordinates":[5889,4588]},{"type":"Point","properties":{"Station_ID":"CT-HR-8","Station_Nam":"NORTH GRANBY 1.3 ENE, CT","Latitude":"42.02440","Longitude":"-72.82070","Snowdepth":"11.000","Units":"in","Rept_Date":"2019-12-06 12"},"coordinates":[5498,3963]},{"type":"Point","properties":{"Station_ID":"CORM1","Station_Nam":"CORINNA","Latitude":"44.91980","Longitude":"-69.24180","Snowdepth":"11.000","Units":"in","Rept_Date":"2019-12-06 14"},"coordinates":[6304,5764]},{"type":"Point","properties":{"Station_ID":"CLGM5","Station_Nam":"COLLEGEVILLE ST JOHN","Latitude":"45.57940","Longitude":"-94.39200","Snowdepth":"11.000","Units":"in","Rept_Date":"2019-12-07 00"},"coordinates":[641,6174]},{"type":"Point","properties":{"Station_ID":"BRAM5","Station_Nam":"BRAINERD","Latitude":"46.34320","Longitude":"-94.20900","Snowdepth":"11.000","Units":"in","Rept_Date":"2019-12-06 13"},"coordinates":[682,6650]},{"type":"Point","properties":{"Station_ID":"BCNM3","Station_Nam":"BELCHERTOWN","Latitude":"42.27960","Longitude":"-72.34820","Snowdepth":"11.000","Units":"in","Rept_Date":"2019-12-06 12"},"coordinates":[5604,4121]},{"type":"Point","properties":{"Station_ID":"QTM","Station_Nam":"QTM","Latitude":"51.05780","Longitude":"-72.57190","Snowdepth":"10.591","Units":"in","Rept_Date":"2019-12-06 12"},"coordinates":[5554,9583]},{"type":"Point","properties":{"Station_ID":"QLB","Station_Nam":"QLB","Latitude":"50.72360","Longitude":"-75.10000","Snowdepth":"10.551","Units":"in","Rept_Date":"2019-12-06 12"},"coordinates":[4985,9375]},{"type":"Point","properties":{"Station_ID":"NY-SR-4","Station_Nam":"SARATOGA SPRINGS 0.5 S, NY","Latitude":"43.06032","Longitude":"-73.78010","Snowdepth":"10.500","Units":"in","Rept_Date":"2019-12-06 11"},"coordinates":[5282,4607]},{"type":"Point","properties":{"Station_ID":"NH-RC-33","Station_Nam":"HAMPSTEAD 1.6 NNE, NH","Latitude":"42.89614","Longitude":"-71.16850","Snowdepth":"10.500","Units":"in","Rept_Date":"2019-12-06 12"},"coordinates":[5870,4505]},{"type":"Point","properties":{"Station_ID":"ND-CS-25","Station_Nam":"FARGO 2.1 N, ND","Latitude":"46.90816","Longitude":"-96.77937","Snowdepth":"10.500","Units":"in","Rept_Date":"2019-12-06 14"},"coordinates":[103,7001]},{"type":"Point","properties":{"Station_ID":"MI-OT-17","Station_Nam":"GAYLORD 4.1 S, MI","Latitude":"44.96388","Longitude":"-84.68467","Snowdepth":"10.500","Units":"in","Rept_Date":"2019-12-06 12"},"coordinates":[2827,5791]},{"type":"Point","properties":{"Station_ID":"MA-WR-76","Station_Nam":"WORCESTER 1.7 N, MA","Latitude":"42.29380","Longitude":"-71.80516","Snowdepth":"10.500","Units":"in","Rept_Date":"2019-12-06 11"},"coordinates":[5726,4130]},{"type":"Point","properties":{"Station_ID":"QMD","Station_Nam":"QMD","Latitude":"49.29060","Longitude":"-75.84500","Snowdepth":"10.472","Units":"in","Rept_Date":"2019-12-06 12"},"coordinates":[4817,8483]},{"type":"Point","properties":{"Station_ID":"QWE","Station_Nam":"QWE","Latitude":"47.84610","Longitude":"-73.80670","Snowdepth":"10.079","Units":"in","Rept_Date":"2019-12-06 12"},"coordinates":[5276,7585]},{"type":"Point","properties":{"Station_ID":"WTNM4","Station_Nam":"WATTON 2WSW","Latitude":"46.52660","Longitude":"-88.64240","Snowdepth":"10.000","Units":"in","Rept_Date":"2019-12-06 13"},"coordinates":[1935,6764]},{"type":"Point","properties":{"Station_ID":"WSKW3","Station_Nam":"WAUSAUKEE","Latitude":"45.38020","Longitude":"-87.95660","Snowdepth":"10.000","Units":"in","Rept_Date":"2019-12-06 14"},"coordinates":[2090,6050]},{"type":"Point","properties":{"Station_ID":"WI-SR-1","Station_Nam":"HAYWARD 9.2 NNE, WI","Latitude":"46.13255","Longitude":"-91.40500","Snowdepth":"10.000","Units":"in","Rept_Date":"2019-12-06 12"},"coordinates":[1313,6519]},{"type":"Point","properties":{"Station_ID":"WI-BR-2","Station_Nam":"CHETEK 2.0 SE, WI","Latitude":"45.29427","Longitude":"-91.62470","Snowdepth":"10.000","Units":"in","Rept_Date":"2019-12-06 13"},"coordinates":[1264,5997]},{"type":"Point","properties":{"Station_ID":"VT-WR-6","Station_Nam":"LUDLOW 3.4 S, VT","Latitude":"43.34720","Longitude":"-72.69680","Snowdepth":"10.000","Units":"in","Rept_Date":"2019-12-06 12"},"coordinates":[5526,4786]},{"type":"Point","properties":{"Station_ID":"VT-WH-26","Station_Nam":"WESTMINSTER 5.5 NW, VT","Latitude":"43.12572","Longitude":"-72.53419","Snowdepth":"10.000","Units":"in","Rept_Date":"2019-12-06 12"},"coordinates":[5562,4648]},{"type":"Point","properties":{"Station_ID":"VT-WH-25","Station_Nam":"PUTNEY 0.7 NE, VT","Latitude":"42.98326","Longitude":"-72.51215","Snowdepth":"10.000","Units":"in","Rept_Date":"2019-12-06 15"},"coordinates":[5567,4559]},{"type":"Point","properties":{"Station_ID":"VT-BN-7","Station_Nam":"MANCHESTER 2.8 ENE, VT","Latitude":"43.17274","Longitude":"-73.01811","Snowdepth":"10.000","Units":"in","Rept_Date":"2019-12-06 12"},"coordinates":[5453,4677]},{"type":"Point","properties":{"Station_ID":"SULW3","Station_Nam":"SUMMIT LAKE","Latitude":"45.37880","Longitude":"-89.19410","Snowdepth":"10.000","Units":"in","Rept_Date":"2019-12-06 11"},"coordinates":[1811,6050]},{"type":"Point","properties":{"Station_ID":"SFVC3","Station_Nam":"STAFFORDVILLE","Latitude":"41.99840","Longitude":"-72.26060","Snowdepth":"10.000","Units":"in","Rept_Date":"2019-12-06 10"},"coordinates":[5624,3946]},{"type":"Point","properties":{"Station_ID":"RBLW3","Station_Nam":"RIB LAKE","Latitude":"45.31530","Longitude":"-90.20640","Snowdepth":"10.000","Units":"in","Rept_Date":"2019-12-06 13"},"coordinates":[1583,6010]},{"type":"Point","properties":{"Station_ID":"PEKN6","Station_Nam":"PECK LAKE","Latitude":"43.11500","Longitude":"-74.42360","Snowdepth":"10.000","Units":"in","Rept_Date":"2019-12-06 13"},"coordinates":[5137,4641]},{"type":"Point","properties":{"Station_ID":"NY-DL-32","Station_Nam":"DELHI 6.6 WNW, NY","Latitude":"42.32118","Longitude":"-75.02991","Snowdepth":"10.000","Units":"in","Rept_Date":"2019-12-06 12"},"coordinates":[5000,4147]},{"type":"Point","properties":{"Station_ID":"NH-RC-48","Station_Nam":"NORTHWOOD 2.9 WSW, NH","Latitude":"43.20114","Longitude":"-71.25750","Snowdepth":"10.000","Units":"in","Rept_Date":"2019-12-06 12"},"coordinates":[5850,4695]},{"type":"Point","properties":{"Station_ID":"NH-RC-18","Station_Nam":"DEERFIELD 3.2 WSW, NH","Latitude":"43.13350","Longitude":"-71.27940","Snowdepth":"10.000","Units":"in","Rept_Date":"2019-12-06 12"},"coordinates":[5845,4653]},{"type":"Point","properties":{"Station_ID":"NH-CS-4","Station_Nam":"PITTSBURG 6.1 NE, NH","Latitude":"45.11060","Longitude":"-71.29760","Snowdepth":"10.000","Units":"in","Rept_Date":"2019-12-06 12"},"coordinates":[5841,5883]},{"type":"Point","properties":{"Station_ID":"NFKC3","Station_Nam":"NORFOLK","Latitude":"41.97250","Longitude":"-73.22080","Snowdepth":"10.000","Units":"in","Rept_Date":"2019-12-06 13"},"coordinates":[5408,3930]},{"type":"Point","properties":{"Station_ID":"MQRW3","Station_Nam":"MINOCQUA","Latitude":"45.88630","Longitude":"-89.73220","Snowdepth":"10.000","Units":"in","Rept_Date":"2019-12-06 12"},"coordinates":[1690,6365]},{"type":"Point","properties":{"Station_ID":"MIEM4","Station_Nam":"MICHIGAMME 3WNW","Latitude":"46.54530","Longitude":"-88.18000","Snowdepth":"10.000","Units":"in","Rept_Date":"2019-12-06 13"},"coordinates":[2040,6775]},{"type":"Point","properties":{"Station_ID":"MI-HG-13","Station_Nam":"HOUGHTON 1.2 WNW, MI","Latitude":"47.12035","Longitude":"-88.58525","Snowdepth":"10.000","Units":"in","Rept_Date":"2019-12-06 13"},"coordinates":[1948,7133]},{"type":"Point","properties":{"Station_ID":"MA-MD-12","Station_Nam":"ACTON 1.3 SW, MA","Latitude":"42.46746","Longitude":"-71.48200","Snowdepth":"10.000","Units":"in","Rept_Date":"2019-12-06 12"},"coordinates":[5799,4238]},{"type":"Point","properties":{"Station_ID":"MA-BE-3","Station_Nam":"STOCKBRIDGE .2 NNE, MA","Latitude":"42.28983","Longitude":"-73.31950","Snowdepth":"10.000","Units":"in","Rept_Date":"2019-12-06 11"},"coordinates":[5385,4128]},{"type":"Point","properties":{"Station_ID":"MA-BE-21","Station_Nam":"CHESHIRE 0.5 NNW, MA","Latitude":"42.56315","Longitude":"-73.15701","Snowdepth":"10.000","Units":"in","Rept_Date":"2019-12-06 12"},"coordinates":[5422,4298]},{"type":"Point","properties":{"Station_ID":"LNKM1","Station_Nam":"LINCOLN SANITARY DISTRICT/WTP","Latitude":"45.37520","Longitude":"-68.50820","Snowdepth":"10.000","Units":"in","Rept_Date":"2019-12-06 12"},"coordinates":[6469,6047]},{"type":"Point","properties":{"Station_ID":"LADW3","Station_Nam":"LADYSMITH WTP","Latitude":"45.44290","Longitude":"-91.08970","Snowdepth":"10.000","Units":"in","Rept_Date":"2019-12-06 13"},"coordinates":[1384,6089]},{"type":"Point","properties":{"Station_ID":"HGHN4","Station_Nam":"HIGHLAND LAKES 1SW","Latitude":"41.16330","Longitude":"-74.45930","Snowdepth":"10.000","Units":"in","Rept_Date":"2019-12-06 10"},"coordinates":[5129,3427]},{"type":"Point","properties":{"Station_ID":"CT-TL-2","Station_Nam":"STAFFORDVILLE 0.4 NNW, CT","Latitude":"41.99874","Longitude":"-72.26100","Snowdepth":"10.000","Units":"in","Rept_Date":"2019-12-06 10"},"coordinates":[5624,3947]},{"type":"Point","properties":{"Station_ID":"CBLW3","Station_Nam":"CUMBERLAND","Latitude":"45.53310","Longitude":"-92.02260","Snowdepth":"10.000","Units":"in","Rept_Date":"2019-12-06 13"},"coordinates":[1174,6146]},{"type":"Point","properties":{"Station_ID":"CAN-ON-245","Station_Nam":"PHELPSTON 3.1 ESE, CAN","Latitude":"44.50564","Longitude":"-79.81035","Snowdepth":"10.000","Units":"in","Rept_Date":"2019-12-06 13"},"coordinates":[3924,5506]},{"type":"Point","properties":{"Station_ID":"BOON6","Station_Nam":"BOONVILLE 4 SSW","Latitude":"43.43610","Longitude":"-75.36970","Snowdepth":"10.000","Units":"in","Rept_Date":"2019-12-06 12"},"coordinates":[4924,4841]},{"type":"Point","properties":{"Station_ID":"AVTW3","Station_Nam":"ARBOR VITAE-JOHNSON LAKE","Latitude":"45.89940","Longitude":"-89.72670","Snowdepth":"10.000","Units":"in","Rept_Date":"2019-12-06 12"},"coordinates":[1691,6373]},{"type":"Point","properties":{"Station_ID":"AUW","Station_Nam":"WAUSAU MUNICIPAL AIRPORT","Latitude":"44.92580","Longitude":"-89.62560","Snowdepth":"10.000","Units":"in","Rept_Date":"2019-12-07 00"},"coordinates":[1714,5768]},{"type":"Point","properties":{"Station_ID":"APXM4","Station_Nam":"GAYLORD 9SSW","Latitude":"44.90720","Longitude":"-84.71880","Snowdepth":"10.000","Units":"in","Rept_Date":"2019-12-07 06"},"coordinates":[2819,5756]},{"type":"Point","properties":{"Station_ID":"AGNW3","Station_Nam":"ARGONNE-1.5 NW","Latitude":"45.67360","Longitude":"-88.90380","Snowdepth":"10.000","Units":"in","Rept_Date":"2019-12-06 13"},"coordinates":[1877,6233]},{"type":"Point","properties":{"Station_ID":"MA-ES-48","Station_Nam":"ANDOVER 0.6 E, MA","Latitude":"42.65659","Longitude":"-71.13048","Snowdepth":"9.900","Units":"in","Rept_Date":"2019-12-06 09"},"coordinates":[5878,4356]},{"type":"Point","properties":{"Station_ID":"QLP","Station_Nam":"QLP","Latitude":"48.13920","Longitude":"-72.63830","Snowdepth":"9.803","Units":"in","Rept_Date":"2019-12-06 12"},"coordinates":[5539,7767]},{"type":"Point","properties":{"Station_ID":"CAN-ON-526","Station_Nam":"HILTON BEACH 0.7 SW - MNRF, CAN","Latitude":"46.25357","Longitude":"-83.90014","Snowdepth":"9.800","Units":"in","Rept_Date":"2019-12-06 12"},"coordinates":[3003,6594]},{"type":"Point","properties":{"Station_ID":"TRIQ6","Station_Nam":"TRIO LAKE","Latitude":"49.22880","Longitude":"-87.22920","Snowdepth":"9.720","Units":"in","Rept_Date":"2019-12-07 06"},"coordinates":[2254,8445]},{"type":"Point","properties":{"Station_ID":"QTV","Station_Nam":"QTV","Latitude":"49.66000","Longitude":"-69.35690","Snowdepth":"9.685","Units":"in","Rept_Date":"2019-12-06 12"},"coordinates":[6278,8713]},{"type":"Point","properties":{"Station_ID":"QLM","Station_Nam":"QLM","Latitude":"48.92030","Longitude":"-70.25280","Snowdepth":"9.646","Units":"in","Rept_Date":"2019-12-06 12"},"coordinates":[6076,8253]},{"type":"Point","properties":{"Station_ID":"QYR","Station_Nam":"QYR","Latitude":"48.87220","Longitude":"-75.61470","Snowdepth":"9.606","Units":"in","Rept_Date":"2019-12-06 12"},"coordinates":[4869,8223]},{"type":"Point","properties":{"Station_ID":"NY-SR-22","Station_Nam":"GREENFIELD CENTER 1.6 W, NY","Latitude":"43.12684","Longitude":"-73.87860","Snowdepth":"9.500","Units":"in","Rept_Date":"2019-12-06 14"},"coordinates":[5260,4649]},{"type":"Point","properties":{"Station_ID":"NY-OT-11","Station_Nam":"HARTWICK, NY","Latitude":"42.65990","Longitude":"-75.05000","Snowdepth":"9.500","Units":"in","Rept_Date":"2019-12-06 13"},"coordinates":[4996,4358]},{"type":"Point","properties":{"Station_ID":"NH-MR-41","Station_Nam":"NEWBURY 1.6 NW, NH","Latitude":"43.33667","Longitude":"-72.06060","Snowdepth":"9.500","Units":"in","Rept_Date":"2019-12-06 12"},"coordinates":[5669,4779]},{"type":"Point","properties":{"Station_ID":"MA-MD-51","Station_Nam":"MAYNARD 0.7 ESE, MA","Latitude":"42.42027","Longitude":"-71.44484","Snowdepth":"9.500","Units":"in","Rept_Date":"2019-12-06 12"},"coordinates":[5807,4209]},{"type":"Point","properties":{"Station_ID":"MA-FR-10","Station_Nam":"CONWAY 0.9 SW, MA","Latitude":"42.50879","Longitude":"-72.69730","Snowdepth":"9.500","Units":"in","Rept_Date":"2019-12-06 13"},"coordinates":[5526,4264]},{"type":"Point","properties":{"Station_ID":"SVBQ6","Station_Nam":"SAVANT BASE","Latitude":"50.28730","Longitude":"-90.65670","Snowdepth":"9.020","Units":"in","Rept_Date":"2019-12-07 06"},"coordinates":[1482,9103]},{"type":"Point","properties":{"Station_ID":"QGA","Station_Nam":"QGA","Latitude":"47.25640","Longitude":"-73.73810","Snowdepth":"9.016","Units":"in","Rept_Date":"2019-12-06 12"},"coordinates":[5291,7218]},{"type":"Point","properties":{"Station_ID":"ZNOM4","Station_Nam":"NORWAY","Latitude":"45.77810","Longitude":"-87.89560","Snowdepth":"9.000","Units":"in","Rept_Date":"2019-12-06 13"},"coordinates":[2104,6298]},{"type":"Point","properties":{"Station_ID":"WNDP1","Station_Nam":"WINDBER COUNTY CLUB","Latitude":"40.28780","Longitude":"-78.77530","Snowdepth":"9.000","Units":"in","Rept_Date":"2019-12-06 12"},"coordinates":[4157,2882]},{"type":"Point","properties":{"Station_ID":"WI-DN-1","Station_Nam":"BOYCEVILLE 3.3 N, WI","Latitude":"45.08913","Longitude":"-92.02760","Snowdepth":"9.000","Units":"in","Rept_Date":"2019-12-06 13"},"coordinates":[1173,5869]},{"type":"Point","properties":{"Station_ID":"WI-CH-3","Station_Nam":"CORNELL 4.1 W, WI","Latitude":"45.17024","Longitude":"-91.23610","Snowdepth":"9.000","Units":"in","Rept_Date":"2019-12-06 14"},"coordinates":[1351,5920]},{"type":"Point","properties":{"Station_ID":"WASW3","Station_Nam":"WASHINGTON IS","Latitude":"45.35800","Longitude":"-86.89110","Snowdepth":"9.000","Units":"in","Rept_Date":"2019-12-06 13"},"coordinates":[2330,6037]},{"type":"Point","properties":{"Station_ID":"TOPM1","Station_Nam":"TOPSFIELD","Latitude":"45.43470","Longitude":"-67.72020","Snowdepth":"9.000","Units":"in","Rept_Date":"2019-12-06 12"},"coordinates":[6646,6084]},{"type":"Point","properties":{"Station_ID":"SURN3","Station_Nam":"SURRY MOUNTAIN LAKE","Latitude":"42.99630","Longitude":"-72.31310","Snowdepth":"9.000","Units":"in","Rept_Date":"2019-12-06 12"},"coordinates":[5612,4567]},{"type":"Point","properties":{"Station_ID":"STIM4","Station_Nam":"ST IGNACE","Latitude":"45.86080","Longitude":"-84.71960","Snowdepth":"9.000","Units":"in","Rept_Date":"2019-12-06 12"},"coordinates":[2819,6349]},{"type":"Point","properties":{"Station_ID":"SBEW3","Station_Nam":"EXP. FARM","Latitude":"44.86670","Longitude":"-87.33330","Snowdepth":"9.000","Units":"in","Rept_Date":"2019-12-06 13"},"coordinates":[2230,5731]},{"type":"Point","properties":{"Station_ID":"OXFM3","Station_Nam":"BUFFUMVILLE LAKE","Latitude":"42.11630","Longitude":"-71.90740","Snowdepth":"9.000","Units":"in","Rept_Date":"2019-12-06 12"},"coordinates":[5703,4020]},{"type":"Point","properties":{"Station_ID":"OCON6","Station_Nam":"OSCEOLA","Latitude":"43.49910","Longitude":"-75.71210","Snowdepth":"9.000","Units":"in","Rept_Date":"2019-12-06 12"},"coordinates":[4847,4880]},{"type":"Point","properties":{"Station_ID":"NY-UL-16","Station_Nam":"ROSENDALE VILLAGE 1.8 WNW, NY","Latitude":"41.86083","Longitude":"-74.10750","Snowdepth":"9.000","Units":"in","Rept_Date":"2019-12-06 12"},"coordinates":[5208,3861]},{"type":"Point","properties":{"Station_ID":"NY-TG-15","Station_Nam":"BERKSHIRE 1.9 ENE, NY","Latitude":"42.31910","Longitude":"-76.21940","Snowdepth":"9.000","Units":"in","Rept_Date":"2019-12-06 13"},"coordinates":[4732,4146]},{"type":"Point","properties":{"Station_ID":"NY-OG-10","Station_Nam":"CAMILLUS 1.0 W, NY","Latitude":"43.03962","Longitude":"-76.32830","Snowdepth":"9.000","Units":"in","Rept_Date":"2019-12-06 12"},"coordinates":[4708,4594]},{"type":"Point","properties":{"Station_ID":"NY-DT-37","Station_Nam":"RHINEBECK 3.4 N, NY","Latitude":"41.97735","Longitude":"-73.90559","Snowdepth":"9.000","Units":"in","Rept_Date":"2019-12-06 12"},"coordinates":[5253,3933]},{"type":"Point","properties":{"Station_ID":"NY-CR-1","Station_Nam":"FREETOWN 1.0 NE, NY","Latitude":"42.53299","Longitude":"-76.02111","Snowdepth":"9.000","Units":"in","Rept_Date":"2019-12-06 12"},"coordinates":[4777,4279]},{"type":"Point","properties":{"Station_ID":"NRWN6","Station_Nam":"NORWICH","Latitude":"42.51170","Longitude":"-75.51970","Snowdepth":"9.000","Units":"in","Rept_Date":"2019-12-06 11"},"coordinates":[4890,4266]},{"type":"Point","properties":{"Station_ID":"NHBN6","Station_Nam":"HEBRON","Latitude":"43.29540","Longitude":"-73.39830","Snowdepth":"9.000","Units":"in","Rept_Date":"2019-12-06 12"},"coordinates":[5368,4753]},{"type":"Point","properties":{"Station_ID":"MOOM5","Station_Nam":"MOOSE LAKE,MN","Latitude":"46.45000","Longitude":"-92.75780","Snowdepth":"9.000","Units":"in","Rept_Date":"2019-12-07 06"},"coordinates":[1009,6716]},{"type":"Point","properties":{"Station_ID":"MN-CW-22","Station_Nam":"FORT RIPLEY 0.8 N, MN","Latitude":"46.18089","Longitude":"-94.36510","Snowdepth":"9.000","Units":"in","Rept_Date":"2019-12-06 12"},"coordinates":[647,6549]},{"type":"Point","properties":{"Station_ID":"MI-MC-4","Station_Nam":"ST. IGNACE 0.5SE, MI","Latitude":"45.86057","Longitude":"-84.71980","Snowdepth":"9.000","Units":"in","Rept_Date":"2019-12-06 12"},"coordinates":[2819,6349]},{"type":"Point","properties":{"Station_ID":"MI-AT-6","Station_Nam":"MANCELONA 0.5 ESE, MI","Latitude":"44.89981","Longitude":"-85.05100","Snowdepth":"9.000","Units":"in","Rept_Date":"2019-12-06 13"},"coordinates":[2744,5752]},{"type":"Point","properties":{"Station_ID":"MECN6","Station_Nam":"MECKLENBURG 4 SW","Latitude":"42.44220","Longitude":"-76.75740","Snowdepth":"9.000","Units":"in","Rept_Date":"2019-12-06 12"},"coordinates":[4611,4223]},{"type":"Point","properties":{"Station_ID":"ME-YK-28","Station_Nam":"BIDDEFORD 1.5 NNE, ME","Latitude":"43.48679","Longitude":"-70.43470","Snowdepth":"9.000","Units":"in","Rept_Date":"2019-12-06 12"},"coordinates":[6035,4872]},{"type":"Point","properties":{"Station_ID":"ME-SM-10","Station_Nam":"NORTH NEW PORTLAND 0.3 WSW, ME","Latitude":"44.92353","Longitude":"-70.02788","Snowdepth":"9.000","Units":"in","Rept_Date":"2019-12-06 12"},"coordinates":[6127,5766]},{"type":"Point","properties":{"Station_ID":"MA-MD-89","Station_Nam":"SUDBURY 3.6 W, MA","Latitude":"42.36394","Longitude":"-71.47012","Snowdepth":"9.000","Units":"in","Rept_Date":"2019-12-06 12"},"coordinates":[5802,4174]},{"type":"Point","properties":{"Station_ID":"KEEN3","Station_Nam":"KEENE","Latitude":"42.93900","Longitude":"-72.32470","Snowdepth":"9.000","Units":"in","Rept_Date":"2019-12-06 11"},"coordinates":[5609,4532]},{"type":"Point","properties":{"Station_ID":"KBDL","Station_Nam":"BRADLEY INTERNATIONAL AIRPORT","Latitude":"41.93333","Longitude":"-72.68333","Snowdepth":"9.000","Units":"in","Rept_Date":"2019-12-07 06"},"coordinates":[5529,3906]},{"type":"Point","properties":{"Station_ID":"HOLW3","Station_Nam":"HOLCOMBE","Latitude":"45.22370","Longitude":"-91.12700","Snowdepth":"9.000","Units":"in","Rept_Date":"2019-12-06 13"},"coordinates":[1376,5953]},{"type":"Point","properties":{"Station_ID":"GRFM3","Station_Nam":"GREENFIELD NO. 3","Latitude":"42.57190","Longitude":"-72.59750","Snowdepth":"9.000","Units":"in","Rept_Date":"2019-12-06 13"},"coordinates":[5548,4303]},{"type":"Point","properties":{"Station_ID":"FLDM5","Station_Nam":"FLOODWOOD,MN","Latitude":"47.00000","Longitude":"-92.91670","Snowdepth":"9.000","Units":"in","Rept_Date":"2019-12-06 14"},"coordinates":[973,7058]},{"type":"Point","properties":{"Station_ID":"EMBM5","Station_Nam":"EMBARASS,MN","Latitude":"47.65810","Longitude":"-92.19580","Snowdepth":"9.000","Units":"in","Rept_Date":"2019-12-06 12"},"coordinates":[1135,7468]},{"type":"Point","properties":{"Station_ID":"CT-LT-9","Station_Nam":"NEW HARTFORD CENTER 3.2 SW, CT","Latitude":"41.84170","Longitude":"-73.00920","Snowdepth":"9.000","Units":"in","Rept_Date":"2019-12-06 12"},"coordinates":[5455,3849]},{"type":"Point","properties":{"Station_ID":"CT-HR-28","Station_Nam":"NORTH CANTON 0.8 SSW, CT","Latitude":"41.88514","Longitude":"-72.89729","Snowdepth":"9.000","Units":"in","Rept_Date":"2019-12-06 12"},"coordinates":[5480,3876]},{"type":"Point","properties":{"Station_ID":"BALW3","Station_Nam":"BALDWIN","Latitude":"44.96330","Longitude":"-92.39050","Snowdepth":"9.000","Units":"in","Rept_Date":"2019-12-06 13"},"coordinates":[1092,5791]},{"type":"Point","properties":{"Station_ID":"BAKC3","Station_Nam":"BAKERSVILLE","Latitude":"41.84180","Longitude":"-73.00850","Snowdepth":"9.000","Units":"in","Rept_Date":"2019-12-06 12"},"coordinates":[5455,3849]},{"type":"Point","properties":{"Station_ID":"CAN-NB-98","Station_Nam":"HOYT 4.2 S, CAN","Latitude":"45.54763","Longitude":"-66.55440","Snowdepth":"8.700","Units":"in","Rept_Date":"2019-12-06 11"},"coordinates":[6909,6155]},{"type":"Point","properties":{"Station_ID":"WI-DR-5","Station_Nam":"ELLISON BAY 2.2 E, WI","Latitude":"45.25750","Longitude":"-87.02670","Snowdepth":"8.500","Units":"in","Rept_Date":"2019-12-06 13"},"coordinates":[2299,5974]},{"type":"Point","properties":{"Station_ID":"NY-OT-4","Station_Nam":"BRIDGEWATER 4.3 SSE, NY","Latitude":"42.81667","Longitude":"-75.23330","Snowdepth":"8.500","Units":"in","Rept_Date":"2019-12-06 11"},"coordinates":[4955,4456]},{"type":"Point","properties":{"Station_ID":"NY-OG-61","Station_Nam":"SKANEATELES 0.8 NNW, NY","Latitude":"42.95538","Longitude":"-76.43362","Snowdepth":"8.500","Units":"in","Rept_Date":"2019-12-06 14"},"coordinates":[4684,4542]},{"type":"Point","properties":{"Station_ID":"NY-DL-25","Station_Nam":"HOBART 4.8 ESE, NY","Latitude":"42.35230","Longitude":"-74.57830","Snowdepth":"8.500","Units":"in","Rept_Date":"2019-12-06 12"},"coordinates":[5102,4167]},{"type":"Point","properties":{"Station_ID":"NY-CN-9","Station_Nam":"NORWICH 5.4 W, NY","Latitude":"42.53356","Longitude":"-75.63060","Snowdepth":"8.500","Units":"in","Rept_Date":"2019-12-06 12"},"coordinates":[4865,4279]},{"type":"Point","properties":{"Station_ID":"NJ-SS-54","Station_Nam":"SPARTA TWP 3.6 SSW, NJ","Latitude":"41.00503","Longitude":"-74.66358","Snowdepth":"8.500","Units":"in","Rept_Date":"2019-12-06 11"},"coordinates":[5083,3328]},{"type":"Point","properties":{"Station_ID":"MN-BK-6","Station_Nam":"LAKE PARK 6.0 S, MN","Latitude":"46.79850","Longitude":"-96.12180","Snowdepth":"8.500","Units":"in","Rept_Date":"2019-12-06 13"},"coordinates":[251,6933]},{"type":"Point","properties":{"Station_ID":"ME-FR-22","Station_Nam":"FARMINGTON 4.8 NNW, ME","Latitude":"44.73396","Longitude":"-70.18007","Snowdepth":"8.300","Units":"in","Rept_Date":"2019-12-06 14"},"coordinates":[6092,5648]},{"type":"Point","properties":{"Station_ID":"NJ-SS-3","Station_Nam":"VERNON TWP 1.7 N, NJ","Latitude":"41.22151","Longitude":"-74.48800","Snowdepth":"8.200","Units":"in","Rept_Date":"2019-12-06 12"},"coordinates":[5122,3463]},{"type":"Point","properties":{"Station_ID":"FTHQ6","Station_Nam":"FORT HOPE","Latitude":"51.55820","Longitude":"-87.90510","Snowdepth":"8.110","Units":"in","Rept_Date":"2019-12-07 06"},"coordinates":[2101,9894]},{"type":"Point","properties":{"Station_ID":"NY-CR-3","Station_Nam":"WILLET 1.8 E, NY","Latitude":"42.47385","Longitude":"-75.87250","Snowdepth":"8.100","Units":"in","Rept_Date":"2019-12-06 12"},"coordinates":[4811,4242]},{"type":"Point","properties":{"Station_ID":"WHTN6","Station_Nam":"WHITESVILLE","Latitude":"42.05980","Longitude":"-77.75530","Snowdepth":"8.000","Units":"in","Rept_Date":"2019-12-06 12"},"coordinates":[4387,3985]},{"type":"Point","properties":{"Station_ID":"WBSN6","Station_Nam":"WEBSTER 2 NE","Latitude":"43.24190","Longitude":"-77.38820","Snowdepth":"8.000","Units":"in","Rept_Date":"2019-12-07 01"},"coordinates":[4469,4720]},{"type":"Point","properties":{"Station_ID":"WALN6","Station_Nam":"WALTON 2","Latitude":"42.18470","Longitude":"-75.14550","Snowdepth":"8.000","Units":"in","Rept_Date":"2019-12-06 10"},"coordinates":[4974,4062]},{"type":"Point","properties":{"Station_ID":"SHHW3","Station_Nam":"SHAWANO 2SSW","Latitude":"44.76310","Longitude":"-88.61830","Snowdepth":"8.000","Units":"in","Rept_Date":"2019-12-06 14"},"coordinates":[1941,5667]},{"type":"Point","properties":{"Station_ID":"SAUW3","Station_Nam":"WAUSAU WSAW TV","Latitude":"44.94630","Longitude":"-89.62220","Snowdepth":"8.000","Units":"in","Rept_Date":"2019-12-07 04"},"coordinates":[1715,5781]},{"type":"Point","properties":{"Station_ID":"RHRW3","Station_Nam":"RHINELANDER WJFW TV-12","Latitude":"45.62220","Longitude":"-89.41000","Snowdepth":"8.000","Units":"in","Rept_Date":"2019-12-07 04"},"coordinates":[1763,6201]},{"type":"Point","properties":{"Station_ID":"RHI","Station_Nam":"RHINELANDER-ONEIDA COUNTY AIRPORT","Latitude":"45.63080","Longitude":"-89.46530","Snowdepth":"8.000","Units":"in","Rept_Date":"2019-12-07 00"},"coordinates":[1750,6206]},{"type":"Point","properties":{"Station_ID":"RDFN6","Station_Nam":"REDFIELD 8N","Latitude":"43.64130","Longitude":"-75.88400","Snowdepth":"8.000","Units":"in","Rept_Date":"2019-12-06 12"},"coordinates":[4808,4969]},{"type":"Point","properties":{"Station_ID":"PLEP1","Station_Nam":"PLEASANT MOUNT 1 W","Latitude":"41.73940","Longitude":"-75.44650","Snowdepth":"8.000","Units":"in","Rept_Date":"2019-12-06 13"},"coordinates":[4907,3785]},{"type":"Point","properties":{"Station_ID":"PERV1","Station_Nam":"PERU","Latitude":"43.26670","Longitude":"-72.90000","Snowdepth":"8.000","Units":"in","Rept_Date":"2019-12-06 12"},"coordinates":[5480,4736]},{"type":"Point","properties":{"Station_ID":"PA-PK-22","Station_Nam":"MILFORD 8.7 NW, PA","Latitude":"41.42018","Longitude":"-74.90953","Snowdepth":"8.000","Units":"in","Rept_Date":"2019-12-06 12"},"coordinates":[5027,3587]},{"type":"Point","properties":{"Station_ID":"NY-UL-23","Station_Nam":"WEST HURLEY 0.1 S, NY","Latitude":"42.00455","Longitude":"-74.11094","Snowdepth":"8.000","Units":"in","Rept_Date":"2019-12-06 12"},"coordinates":[5207,3950]},{"type":"Point","properties":{"Station_ID":"NY-TG-5","Station_Nam":"BERKSHIRE 2.0 N, NY","Latitude":"42.33463","Longitude":"-76.18990","Snowdepth":"8.000","Units":"in","Rept_Date":"2019-12-06 12"},"coordinates":[4739,4156]},{"type":"Point","properties":{"Station_ID":"NY-HR-16","Station_Nam":"ILION 0.7 WSW, NY","Latitude":"43.00880","Longitude":"-75.05390","Snowdepth":"8.000","Units":"in","Rept_Date":"2019-12-06 12"},"coordinates":[4995,4575]},{"type":"Point","properties":{"Station_ID":"NY-BM-34","Station_Nam":"VESTAL 3.2 E, NY","Latitude":"42.08258","Longitude":"-75.99120","Snowdepth":"8.000","Units":"in","Rept_Date":"2019-12-06 14"},"coordinates":[4784,3999]},{"type":"Point","properties":{"Station_ID":"NY-BM-14","Station_Nam":"WHITNEY POINT 1.7 SSE, NY","Latitude":"42.30837","Longitude":"-75.95690","Snowdepth":"8.000","Units":"in","Rept_Date":"2019-12-06 13"},"coordinates":[4792,4139]},{"type":"Point","properties":{"Station_ID":"NVLN6","Station_Nam":"NORTHVILLE","Latitude":"43.23330","Longitude":"-74.16670","Snowdepth":"8.000","Units":"in","Rept_Date":"2019-12-06 13"},"coordinates":[5195,4715]},{"type":"Point","properties":{"Station_ID":"MRAM5","Station_Nam":"MORA","Latitude":"45.87760","Longitude":"-93.31470","Snowdepth":"8.000","Units":"in","Rept_Date":"2019-12-06 13"},"coordinates":[883,6360]},{"type":"Point","properties":{"Station_ID":"MN7TCHCK","Station_Nam":"COOK 0.2 ENE","Latitude":"47.85225","Longitude":"-92.68378","Snowdepth":"8.000","Units":"in","Rept_Date":"2019-12-06 12"},"coordinates":[1026,7588]},{"type":"Point","properties":{"Station_ID":"MN-WK-5","Station_Nam":"WOLVERTON 1.1 ENE, MN","Latitude":"46.56920","Longitude":"-96.71540","Snowdepth":"8.000","Units":"in","Rept_Date":"2019-12-06 13"},"coordinates":[118,6790]},{"type":"Point","properties":{"Station_ID":"MN-SL-108","Station_Nam":"IRON JUNCTION 3.4 NNW, MN","Latitude":"47.46150","Longitude":"-92.63130","Snowdepth":"8.000","Units":"in","Rept_Date":"2019-12-06 14"},"coordinates":[1037,7345]},{"type":"Point","properties":{"Station_ID":"MN-IT-23","Station_Nam":"BOVEY 13.4 N, MN","Latitude":"47.48855","Longitude":"-93.43497","Snowdepth":"8.000","Units":"in","Rept_Date":"2019-12-06 13"},"coordinates":[856,7362]},{"type":"Point","properties":{"Station_ID":"MN-CW-29","Station_Nam":"BRAINERD 7.7 SSE, MN","Latitude":"46.24996","Longitude":"-94.14576","Snowdepth":"8.000","Units":"in","Rept_Date":"2019-12-06 13"},"coordinates":[696,6592]},{"type":"Point","properties":{"Station_ID":"MI-OT-16","Station_Nam":"GAYLORD 2.2 SSE, MI","Latitude":"44.99441","Longitude":"-84.65820","Snowdepth":"8.000","Units":"in","Rept_Date":"2019-12-06 11"},"coordinates":[2832,5810]},{"type":"Point","properties":{"Station_ID":"MI-CX-4","Station_Nam":"CHARLEVOIX 4.3 SSE, MI","Latitude":"45.25720","Longitude":"-85.21650","Snowdepth":"8.000","Units":"in","Rept_Date":"2019-12-06 12"},"coordinates":[2707,5974]},{"type":"Point","properties":{"Station_ID":"MI-CF-9","Station_Nam":"GRAYLING 15.8 NE, MI","Latitude":"44.80464","Longitude":"-84.46313","Snowdepth":"8.000","Units":"in","Rept_Date":"2019-12-06 11"},"coordinates":[2876,5692]},{"type":"Point","properties":{"Station_ID":"ME-SM-4","Station_Nam":"SOLON 3.9 ESE, ME","Latitude":"44.94705","Longitude":"-69.77790","Snowdepth":"8.000","Units":"in","Rept_Date":"2019-12-06 12"},"coordinates":[6183,5781]},{"type":"Point","properties":{"Station_ID":"MA-MD-52","Station_Nam":"LEXINGTON 0.6 SW, MA","Latitude":"42.43983","Longitude":"-71.24047","Snowdepth":"8.000","Units":"in","Rept_Date":"2019-12-06 12"},"coordinates":[5854,4221]},{"type":"Point","properties":{"Station_ID":"LEIM5","Station_Nam":"ORR 3E","Latitude":"48.05810","Longitude":"-92.75220","Snowdepth":"8.000","Units":"in","Rept_Date":"2019-12-06 12"},"coordinates":[1010,7716]},{"type":"Point","properties":{"Station_ID":"KSYR","Station_Nam":"SYRACUSE HANCOCK INTERNATIONAL  AIRPORT","Latitude":"43.11666","Longitude":"-76.10000","Snowdepth":"8.000","Units":"in","Rept_Date":"2019-12-06 18"},"coordinates":[4759,4642]},{"type":"Point","properties":{"Station_ID":"KGFK","Station_Nam":"GRAND FORKS INTERNATIONAL","Latitude":"47.95000","Longitude":"-97.18333","Snowdepth":"8.000","Units":"in","Rept_Date":"2019-12-07 06"},"coordinates":[12,7649]},{"type":"Point","properties":{"Station_ID":"JKMM1","Station_Nam":"JACKMAN","Latitude":"45.62600","Longitude":"-70.24600","Snowdepth":"8.000","Units":"in","Rept_Date":"2019-12-06 12"},"coordinates":[6077,6203]},{"type":"Point","properties":{"Station_ID":"ITHN6","Station_Nam":"ITHACA,NY","Latitude":"42.45000","Longitude":"-76.45000","Snowdepth":"8.000","Units":"in","Rept_Date":"2019-12-06 12"},"coordinates":[4681,4227]},{"type":"Point","properties":{"Station_ID":"GRBM5","Station_Nam":"GRAND RAPIDS 12N","Latitude":"47.39800","Longitude":"-93.51330","Snowdepth":"8.000","Units":"in","Rept_Date":"2019-12-06 13"},"coordinates":[839,7306]},{"type":"Point","properties":{"Station_ID":"GNEN6","Station_Nam":"GREENE","Latitude":"42.32440","Longitude":"-75.77170","Snowdepth":"8.000","Units":"in","Rept_Date":"2019-12-06 12"},"coordinates":[4833,4149]},{"type":"Point","properties":{"Station_ID":"GFK","Station_Nam":"GRAND FORKS INTERNATIONAL AIRPORT","Latitude":"47.94920","Longitude":"-97.17610","Snowdepth":"8.000","Units":"in","Rept_Date":"2019-12-07 00"},"coordinates":[14,7649]},{"type":"Point","properties":{"Station_ID":"FVLN6","Station_Nam":"FREEVILLE,NY","Latitude":"42.51670","Longitude":"-76.33330","Snowdepth":"8.000","Units":"in","Rept_Date":"2019-12-06 13"},"coordinates":[4707,4269]},{"type":"Point","properties":{"Station_ID":"FISW3","Station_Nam":"FISH CREEK 1 E WWTP","Latitude":"45.12420","Longitude":"-87.22920","Snowdepth":"8.000","Units":"in","Rept_Date":"2019-12-06 15"},"coordinates":[2254,5891]},{"type":"Point","properties":{"Station_ID":"DTVM4","Station_Nam":"DETOUR VILLAGE","Latitude":"45.99830","Longitude":"-83.90130","Snowdepth":"8.000","Units":"in","Rept_Date":"2019-12-06 13"},"coordinates":[3003,6435]},{"type":"Point","properties":{"Station_ID":"COTM5","Station_Nam":"COTTON","Latitude":"47.16870","Longitude":"-92.46290","Snowdepth":"8.000","Units":"in","Rept_Date":"2019-12-06 13"},"coordinates":[1075,7163]},{"type":"Point","properties":{"Station_ID":"COKM5","Station_Nam":"COOK","Latitude":"47.85060","Longitude":"-92.69250","Snowdepth":"8.000","Units":"in","Rept_Date":"2019-12-06 12"},"coordinates":[1024,7587]},{"type":"Point","properties":{"Station_ID":"CHBM4","Station_Nam":"CHEBOYGAN","Latitude":"45.65270","Longitude":"-84.47250","Snowdepth":"8.000","Units":"in","Rept_Date":"2019-12-06 13"},"coordinates":[2874,6220]},{"type":"Point","properties":{"Station_ID":"CAN-ON-118","Station_Nam":"DURHAM 1.4 S, CAN","Latitude":"44.16525","Longitude":"-80.82064","Snowdepth":"8.000","Units":"in","Rept_Date":"2019-12-06 12"},"coordinates":[3697,5295]},{"type":"Point","properties":{"Station_ID":"BGMN6","Station_Nam":"BINGHAMTON WFO","Latitude":"42.21160","Longitude":"-75.98580","Snowdepth":"8.000","Units":"in","Rept_Date":"2019-12-07 05"},"coordinates":[4785,4079]},{"type":"Point","properties":{"Station_ID":"AUBN6","Station_Nam":"AUBURN","Latitude":"42.93270","Longitude":"-76.54470","Snowdepth":"8.000","Units":"in","Rept_Date":"2019-12-06 12"},"coordinates":[4659,4528]},{"type":"Point","properties":{"Station_ID":"ANDM1","Station_Nam":"ANDOVER 2","Latitude":"44.65300","Longitude":"-70.79410","Snowdepth":"8.000","Units":"in","Rept_Date":"2019-12-06 12"},"coordinates":[5954,5598]},{"type":"Point","properties":{"Station_ID":"AHRM3","Station_Nam":"AMHERST","Latitude":"42.38610","Longitude":"-72.53750","Snowdepth":"8.000","Units":"in","Rept_Date":"2019-12-06 12"},"coordinates":[5561,4188]},{"type":"Point","properties":{"Station_ID":"ADDN6","Station_Nam":"ADDISON","Latitude":"42.10130","Longitude":"-77.23440","Snowdepth":"8.000","Units":"in","Rept_Date":"2019-12-06 12"},"coordinates":[4504,4011]},{"type":"Point","properties":{"Station_ID":"WI-EC-23","Station_Nam":"EAU CLAIRE 3.7 S, WI","Latitude":"44.76858","Longitude":"-91.49898","Snowdepth":"7.500","Units":"in","Rept_Date":"2019-12-06 14"},"coordinates":[1292,5670]},{"type":"Point","properties":{"Station_ID":"WI-CH-7","Station_Nam":"CHIPPEWA FALLS 1.2 E, WI","Latitude":"44.92920","Longitude":"-91.36730","Snowdepth":"7.500","Units":"in","Rept_Date":"2019-12-06 13"},"coordinates":[1322,5770]},{"type":"Point","properties":{"Station_ID":"VT-OL-12","Station_Nam":"GREENSBORO 3.9 NNE, VT","Latitude":"44.63100","Longitude":"-72.28000","Snowdepth":"7.500","Units":"in","Rept_Date":"2019-12-06 13"},"coordinates":[5619,5584]},{"type":"Point","properties":{"Station_ID":"NY-TM-38","Station_Nam":"TRUMANSBURG 0.4 WNW, NY","Latitude":"42.54205","Longitude":"-76.66870","Snowdepth":"7.500","Units":"in","Rept_Date":"2019-12-06 12"},"coordinates":[4631,4285]},{"type":"Point","properties":{"Station_ID":"NY-TG-20","Station_Nam":"CANDOR 1.8 N, NY","Latitude":"42.25308","Longitude":"-76.33780","Snowdepth":"7.500","Units":"in","Rept_Date":"2019-12-06 12"},"coordinates":[4706,4105]},{"type":"Point","properties":{"Station_ID":"NY-SY-1","Station_Nam":"SMITH VALLEY 1.9 SE, NY","Latitude":"42.39072","Longitude":"-76.71760","Snowdepth":"7.500","Units":"in","Rept_Date":"2019-12-06 12"},"coordinates":[4620,4191]},{"type":"Point","properties":{"Station_ID":"NY-ST-3","Station_Nam":"SOUTH CORNING 4.7 S, NY","Latitude":"42.05672","Longitude":"-77.04850","Snowdepth":"7.500","Units":"in","Rept_Date":"2019-12-06 14"},"coordinates":[4546,3983]},{"type":"Point","properties":{"Station_ID":"NY-MR-26","Station_Nam":"WEBSTER 3.2 W, NY","Latitude":"43.20992","Longitude":"-77.48510","Snowdepth":"7.500","Units":"in","Rept_Date":"2019-12-07 05"},"coordinates":[4448,4700]},{"type":"Point","properties":{"Station_ID":"NY-MD-9","Station_Nam":"EARLVILLE 0.4 W, NY","Latitude":"42.73982","Longitude":"-75.55200","Snowdepth":"7.500","Units":"in","Rept_Date":"2019-12-06 12"},"coordinates":[4883,4408]},{"type":"Point","properties":{"Station_ID":"NH-MR-4","Station_Nam":"BOW 1.6 NW, NH","Latitude":"43.14994","Longitude":"-71.55650","Snowdepth":"7.500","Units":"in","Rept_Date":"2019-12-06 12"},"coordinates":[5782,4663]},{"type":"Point","properties":{"Station_ID":"MI-CX-7","Station_Nam":"EAST JORDAN 2.1 NNW, MI","Latitude":"45.18639","Longitude":"-85.14750","Snowdepth":"7.500","Units":"in","Rept_Date":"2019-12-06 13"},"coordinates":[2722,5930]},{"type":"Point","properties":{"Station_ID":"ME-PN-30","Station_Nam":"OLD TOWN 4.1 ESE, ME","Latitude":"44.93543","Longitude":"-68.65840","Snowdepth":"7.500","Units":"in","Rept_Date":"2019-12-06 12"},"coordinates":[6435,5774]},{"type":"Point","properties":{"Station_ID":"MA-WR-18","Station_Nam":"NORTHBOROUGH 0.6 SSE, MA","Latitude":"42.30367","Longitude":"-71.64620","Snowdepth":"7.500","Units":"in","Rept_Date":"2019-12-06 14"},"coordinates":[5762,4136]},{"type":"Point","properties":{"Station_ID":"CT-HR-63","Station_Nam":"WEST HARTFORD 1.1 NNE, CT","Latitude":"41.78213","Longitude":"-72.74506","Snowdepth":"7.500","Units":"in","Rept_Date":"2019-12-06 12"},"coordinates":[5515,3812]},{"type":"Point","properties":{"Station_ID":"QMA","Station_Nam":"QMA","Latitude":"50.10330","Longitude":"-70.47190","Snowdepth":"7.402","Units":"in","Rept_Date":"2019-12-06 12"},"coordinates":[6027,8989]},{"type":"Point","properties":{"Station_ID":"CT-LT-15","Station_Nam":"COLEBROOK 1.0 NE, CT","Latitude":"42.00200","Longitude":"-73.08250","Snowdepth":"7.400","Units":"in","Rept_Date":"2019-12-06 12"},"coordinates":[5439,3949]},{"type":"Point","properties":{"Station_ID":"QIQ","Station_Nam":"QIQ","Latitude":"49.82390","Longitude":"-68.54310","Snowdepth":"7.205","Units":"in","Rept_Date":"2019-12-06 12"},"coordinates":[6461,8815]},{"type":"Point","properties":{"Station_ID":"WSTN6","Station_Nam":"WESTMORELAND 4 N","Latitude":"43.15950","Longitude":"-75.46110","Snowdepth":"7.000","Units":"in","Rept_Date":"2019-12-06 12"},"coordinates":[4903,4669]},{"type":"Point","properties":{"Station_ID":"WRSN6","Station_Nam":"WARSAW 6SW","Latitude":"42.68550","Longitude":"-78.22020","Snowdepth":"7.000","Units":"in","Rept_Date":"2019-12-06 12"},"coordinates":[4282,4374]},{"type":"Point","properties":{"Station_ID":"WI-MT-14","Station_Nam":"MOSINEE 2.7 WSW, WI","Latitude":"44.77240","Longitude":"-89.73441","Snowdepth":"7.000","Units":"in","Rept_Date":"2019-12-06 13"},"coordinates":[1690,5672]},{"type":"Point","properties":{"Station_ID":"WI-DR-6","Station_Nam":"SISTER BAY 1.3 NNE, WI","Latitude":"45.20296","Longitude":"-87.11326","Snowdepth":"7.000","Units":"in","Rept_Date":"2019-12-06 13"},"coordinates":[2280,5940]},{"type":"Point","properties":{"Station_ID":"WHFN6","Station_Nam":"WILMINGTON 2W","Latitude":"44.39310","Longitude":"-73.85890","Snowdepth":"7.000","Units":"in","Rept_Date":"2019-12-06 13"},"coordinates":[5264,5436]},{"type":"Point","properties":{"Station_ID":"VT-WR-17","Station_Nam":"ROCHESTER 2.3 NE, VT","Latitude":"43.89418","Longitude":"-72.76992","Snowdepth":"7.000","Units":"in","Rept_Date":"2019-12-06 12"},"coordinates":[5509,5126]},{"type":"Point","properties":{"Station_ID":"VT-OL-1","Station_Nam":"WESTFIELD 0.7 WNW, VT","Latitude":"44.89160","Longitude":"-72.44350","Snowdepth":"7.000","Units":"in","Rept_Date":"2019-12-06 12"},"coordinates":[5583,5746]},{"type":"Point","properties":{"Station_ID":"SUXN4","Station_Nam":"SUSSEX 3 WNW","Latitude":"41.20000","Longitude":"-74.60000","Snowdepth":"7.000","Units":"in","Rept_Date":"2019-12-06 12"},"coordinates":[5097,3450]},{"type":"Point","properties":{"Station_ID":"SSMM4","Station_Nam":"SAULT STE MARIE","Latitude":"46.48660","Longitude":"-84.40250","Snowdepth":"7.000","Units":"in","Rept_Date":"2019-12-06 13"},"coordinates":[2890,6739]},{"type":"Point","properties":{"Station_ID":"SIBI4","Station_Nam":"SIBLEY","Latitude":"43.40470","Longitude":"-95.74830","Snowdepth":"7.000","Units":"in","Rept_Date":"2019-12-06 13"},"coordinates":[336,4821]},{"type":"Point","properties":{"Station_ID":"SHBN6","Station_Nam":"SHERBURNE","Latitude":"42.67730","Longitude":"-75.50660","Snowdepth":"7.000","Units":"in","Rept_Date":"2019-12-06 11"},"coordinates":[4893,4369]},{"type":"Point","properties":{"Station_ID":"SGVN6","Station_Nam":"SPRINGVILLE","Latitude":"42.54970","Longitude":"-78.57670","Snowdepth":"7.000","Units":"in","Rept_Date":"2019-12-06 22"},"coordinates":[4202,4289]},{"type":"Point","properties":{"Station_ID":"SCRW3","Station_Nam":"ST CROIX FALLS","Latitude":"45.41170","Longitude":"-92.64660","Snowdepth":"7.000","Units":"in","Rept_Date":"2019-12-06 13"},"coordinates":[1034,6070]},{"type":"Point","properties":{"Station_ID":"RRLW3","Station_Nam":"MERRILL,WI","Latitude":"45.17860","Longitude":"-89.66170","Snowdepth":"7.000","Units":"in","Rept_Date":"2019-12-06 14"},"coordinates":[1706,5925]},{"type":"Point","properties":{"Station_ID":"PTBN3","Station_Nam":"DAM WITHIN","Latitude":"45.05000","Longitude":"-71.38330","Snowdepth":"7.000","Units":"in","Rept_Date":"2019-12-06 12"},"coordinates":[5821,5845]},{"type":"Point","properties":{"Station_ID":"OTTN3","Station_Nam":"OTTER BROOK LAKE","Latitude":"42.95000","Longitude":"-72.23330","Snowdepth":"7.000","Units":"in","Rept_Date":"2019-12-06 12"},"coordinates":[5630,4539]},{"type":"Point","properties":{"Station_ID":"OTTM5","Station_Nam":"OTTERTAIL,MN","Latitude":"46.41670","Longitude":"-95.56670","Snowdepth":"7.000","Units":"in","Rept_Date":"2019-12-06 14"},"coordinates":[376,6695]},{"type":"Point","properties":{"Station_ID":"NY-PT-2","Station_Nam":"BEACON 4.2 ESE, NY","Latitude":"41.48070","Longitude":"-73.89110","Snowdepth":"7.000","Units":"in","Rept_Date":"2019-12-06 12"},"coordinates":[5257,3624]},{"type":"Point","properties":{"Station_ID":"NY-OG-46","Station_Nam":"BALDWINSVILLE 3.5 NE, NY","Latitude":"43.19506","Longitude":"-76.28830","Snowdepth":"7.000","Units":"in","Rept_Date":"2019-12-06 13"},"coordinates":[4717,4691]},{"type":"Point","properties":{"Station_ID":"NY-OG-2","Station_Nam":"DE WITT 1.4 WSW, NY","Latitude":"43.03333","Longitude":"-76.10000","Snowdepth":"7.000","Units":"in","Rept_Date":"2019-12-06 12"},"coordinates":[4759,4590]},{"type":"Point","properties":{"Station_ID":"NY-OD-21","Station_Nam":"ROME 4.8 SSE, NY","Latitude":"43.16000","Longitude":"-75.46000","Snowdepth":"7.000","Units":"in","Rept_Date":"2019-12-06 12"},"coordinates":[4903,4669]},{"type":"Point","properties":{"Station_ID":"NY-OD-19","Station_Nam":"NEW HARTFORD 0.8 S, NY","Latitude":"43.06182","Longitude":"-75.28990","Snowdepth":"7.000","Units":"in","Rept_Date":"2019-12-06 12"},"coordinates":[4942,4608]},{"type":"Point","properties":{"Station_ID":"NY-MD-10","Station_Nam":"CAZENOVIA 2.9 SE, NY","Latitude":"42.90003","Longitude":"-75.81140","Snowdepth":"7.000","Units":"in","Rept_Date":"2019-12-06 12"},"coordinates":[4824,4507]},{"type":"Point","properties":{"Station_ID":"NY-FK-7","Station_Nam":"SARANAC LAKE 6.2 N, NY","Latitude":"44.41359","Longitude":"-74.15211","Snowdepth":"7.000","Units":"in","Rept_Date":"2019-12-06 12"},"coordinates":[5198,5449]},{"type":"Point","properties":{"Station_ID":"NY-ER-77","Station_Nam":"COLDEN 2.4 ENE, NY","Latitude":"42.65088","Longitude":"-78.61060","Snowdepth":"7.000","Units":"in","Rept_Date":"2019-12-06 13"},"coordinates":[4194,4352]},{"type":"Point","properties":{"Station_ID":"NY-ER-166","Station_Nam":"BOSTON 2.5 NE, NY","Latitude":"42.65480","Longitude":"-78.70300","Snowdepth":"7.000","Units":"in","Rept_Date":"2019-12-06 12"},"coordinates":[4173,4355]},{"type":"Point","properties":{"Station_ID":"NY-DL-24","Station_Nam":"WALTON 6.5 W, NY","Latitude":"42.16534","Longitude":"-75.25850","Snowdepth":"7.000","Units":"in","Rept_Date":"2019-12-06 12"},"coordinates":[4949,4050]},{"type":"Point","properties":{"Station_ID":"NY-CT-22","Station_Nam":"FRANKLINVILLE 0.5 NNE, NY","Latitude":"42.34166","Longitude":"-78.45280","Snowdepth":"7.000","Units":"in","Rept_Date":"2019-12-06 12"},"coordinates":[4230,4160]},{"type":"Point","properties":{"Station_ID":"NY-CB-8","Station_Nam":"LIVINGSTON 0.7 SSW, NY","Latitude":"42.13308","Longitude":"-73.78540","Snowdepth":"7.000","Units":"in","Rept_Date":"2019-12-06 12"},"coordinates":[5281,4030]},{"type":"Point","properties":{"Station_ID":"NTHM3","Station_Nam":"NORTHBRIDGE 2","Latitude":"42.11500","Longitude":"-71.67600","Snowdepth":"7.000","Units":"in","Rept_Date":"2019-12-06 12"},"coordinates":[5755,4019]},{"type":"Point","properties":{"Station_ID":"NSKN6","Station_Nam":"NISKAYUNA","Latitude":"42.79580","Longitude":"-73.87670","Snowdepth":"7.000","Units":"in","Rept_Date":"2019-12-06 12"},"coordinates":[5260,4443]},{"type":"Point","properties":{"Station_ID":"NOHM5","Station_Nam":"NORTHOME","Latitude":"47.83590","Longitude":"-94.25550","Snowdepth":"7.000","Units":"in","Rept_Date":"2019-12-06 13"},"coordinates":[672,7578]},{"type":"Point","properties":{"Station_ID":"ND-CS-1","Station_Nam":"WEST FARGO 3.8 SSE, ND","Latitude":"46.82750","Longitude":"-96.85280","Snowdepth":"7.000","Units":"in","Rept_Date":"2019-12-06 13"},"coordinates":[87,6951]},{"type":"Point","properties":{"Station_ID":"NCBN6","Station_Nam":"NEWCOMB","Latitude":"43.97070","Longitude":"-74.22200","Snowdepth":"7.000","Units":"in","Rept_Date":"2019-12-06 13"},"coordinates":[5182,5174]},{"type":"Point","properties":{"Station_ID":"MXON6","Station_Nam":"MEXICO","Latitude":"43.43830","Longitude":"-76.26560","Snowdepth":"7.000","Units":"in","Rept_Date":"2019-12-06 12"},"coordinates":[4722,4842]},{"type":"Point","properties":{"Station_ID":"MTOM5","Station_Nam":"MANKATO 4E","Latitude":"44.16730","Longitude":"-93.91020","Snowdepth":"7.000","Units":"in","Rept_Date":"2019-12-06 12"},"coordinates":[749,5296]},{"type":"Point","properties":{"Station_ID":"MNOW3","Station_Nam":"CEDAR FALLS HYDRO PLANT","Latitude":"44.93550","Longitude":"-91.88850","Snowdepth":"7.000","Units":"in","Rept_Date":"2019-12-06 13"},"coordinates":[1205,5774]},{"type":"Point","properties":{"Station_ID":"MN-MR-4","Station_Nam":"LITTLE FALLS 1.2 SW, MN","Latitude":"45.96886","Longitude":"-94.37720","Snowdepth":"7.000","Units":"in","Rept_Date":"2019-12-06 13"},"coordinates":[644,6417]},{"type":"Point","properties":{"Station_ID":"MN-DK-53","Station_Nam":"LAKEVILLE 3.8 ENE, MN","Latitude":"44.70423","Longitude":"-93.18460","Snowdepth":"7.000","Units":"in","Rept_Date":"2019-12-06 13"},"coordinates":[913,5630]},{"type":"Point","properties":{"Station_ID":"MLCM5","Station_Nam":"MILACA","Latitude":"45.75320","Longitude":"-93.66170","Snowdepth":"7.000","Units":"in","Rept_Date":"2019-12-06 13"},"coordinates":[805,6283]},{"type":"Point","properties":{"Station_ID":"MILM3","Station_Nam":"MILFORD","Latitude":"42.16330","Longitude":"-71.51190","Snowdepth":"7.000","Units":"in","Rept_Date":"2019-12-06 12"},"coordinates":[5792,4049]},{"type":"Point","properties":{"Station_ID":"MI-OT-4","Station_Nam":"GAYLORD 1.7 WNW, MI","Latitude":"45.03280","Longitude":"-84.71090","Snowdepth":"7.000","Units":"in","Rept_Date":"2019-12-06 13"},"coordinates":[2821,5834]},{"type":"Point","properties":{"Station_ID":"MI-CP-7","Station_Nam":"DRUMMOND 2.9 NE, MI","Latitude":"46.05329","Longitude":"-83.69060","Snowdepth":"7.000","Units":"in","Rept_Date":"2019-12-06 14"},"coordinates":[3050,6469]},{"type":"Point","properties":{"Station_ID":"MI-BZ-1","Station_Nam":"BENZONIA 5.3 S, MI","Latitude":"44.53976","Longitude":"-86.10650","Snowdepth":"7.000","Units":"in","Rept_Date":"2019-12-06 14"},"coordinates":[2506,5528]},{"type":"Point","properties":{"Station_ID":"ME-YK-5","Station_Nam":"KENNEBUNK 1.8 WNW, ME","Latitude":"43.39320","Longitude":"-70.58060","Snowdepth":"7.000","Units":"in","Rept_Date":"2019-12-06 12"},"coordinates":[6002,4814]},{"type":"Point","properties":{"Station_ID":"ME-YK-3","Station_Nam":"HOLLIS CENTER 5.4 NW, ME","Latitude":"43.64750","Longitude":"-70.67510","Snowdepth":"7.000","Units":"in","Rept_Date":"2019-12-06 12"},"coordinates":[5981,4972]},{"type":"Point","properties":{"Station_ID":"MA-WR-42","Station_Nam":"NORTHBOROUGH 2.3 N, MA","Latitude":"42.34535","Longitude":"-71.64390","Snowdepth":"7.000","Units":"in","Rept_Date":"2019-12-06 12"},"coordinates":[5763,4162]},{"type":"Point","properties":{"Station_ID":"MA-MD-7","Station_Nam":"WINCHESTER 0.7 SE, MA","Latitude":"42.44594","Longitude":"-71.13580","Snowdepth":"7.000","Units":"in","Rept_Date":"2019-12-06 12"},"coordinates":[5877,4225]},{"type":"Point","properties":{"Station_ID":"MA-ES-41","Station_Nam":"DANVERS 0.8 ESE, MA","Latitude":"42.56849","Longitude":"-70.93526","Snowdepth":"7.000","Units":"in","Rept_Date":"2019-12-06 13"},"coordinates":[5922,4301]},{"type":"Point","properties":{"Station_ID":"LPLN6","Station_Nam":"LAKE PLACID 2 S","Latitude":"44.30420","Longitude":"-73.98390","Snowdepth":"7.000","Units":"in","Rept_Date":"2019-12-06 11"},"coordinates":[5236,5381]},{"type":"Point","properties":{"Station_ID":"LNGM5","Station_Nam":"LONG PRAIRIE","Latitude":"45.96460","Longitude":"-94.88920","Snowdepth":"7.000","Units":"in","Rept_Date":"2019-12-06 12"},"coordinates":[529,6414]},{"type":"Point","properties":{"Station_ID":"LEWM4","Station_Nam":"LEWISTON 3W","Latitude":"44.88210","Longitude":"-84.36540","Snowdepth":"7.000","Units":"in","Rept_Date":"2019-12-06 13"},"coordinates":[2898,5741]},