{"type":"Topology","objects":{"snowdepth_geo":{"type":"GeometryCollection","name":"snowdepth","crs":{"type":"name","properties":{"name":"urn:ogc:def:crs:OGC:1.3:CRS84"}},"geometries":[{"type":"Point","properties":{"Station_ID":"PRKM4","Station_Nam":"MUNISING EAST","Latitude":"46.42580","Longitude":"-86.62000","Snowdepth":"76.500","Units":"in","Rept_Date":"2020-04-09 06"},"coordinates":[2111,3033]},{"type":"Point","properties":{"Station_ID":"HTLN3","Station_Nam":"HERMIT LAKE SNOWPLOT","Latitude":"44.26130","Longitude":"-71.28330","Snowdepth":"63.000","Units":"in","Rept_Date":"2020-04-08 09"},"coordinates":[5893,96]},{"type":"Point","properties":{"Station_ID":"OGIQ6","Station_Nam":"OGOKI CAMP","Latitude":"50.76680","Longitude":"-87.85820","Snowdepth":"61.100","Units":"in","Rept_Date":"2020-04-09 06"},"coordinates":[1806,8925]},{"type":"Point","properties":{"Station_ID":"HVCN3","Station_Nam":"HARVARD CABIN SNOWPLOT","Latitude":"44.26630","Longitude":"-71.27790","Snowdepth":"50.000","Units":"in","Rept_Date":"2020-04-08 09"},"coordinates":[5895,103]},{"type":"Point","properties":{"Station_ID":"AUDQ6","Station_Nam":"AUDEN","Latitude":"48.52600","Longitude":"-82.57570","Snowdepth":"47.640","Units":"in","Rept_Date":"2020-04-09 06"},"coordinates":[3109,5884]},{"type":"Point","properties":{"Station_ID":"DVLQ6","Station_Nam":"DEVIOUS LAKE","Latitude":"49.19890","Longitude":"-87.76440","Snowdepth":"43.460","Units":"in","Rept_Date":"2020-04-09 06"},"coordinates":[1829,6797]},{"type":"Point","properties":{"Station_ID":"PDLM4","Station_Nam":"PAINESDALE","Latitude":"47.04160","Longitude":"-88.67170","Snowdepth":"29.000","Units":"in","Rept_Date":"2020-04-08 12"},"coordinates":[1605,3869]},{"type":"Point","properties":{"Station_ID":"CAN-NL-82","Station_Nam":"GANDER 2.7 NW, CAN","Latitude":"48.97737","Longitude":"-54.63396","Snowdepth":"27.200","Units":"in","Rept_Date":"2020-04-08 10"},"coordinates":[9999,6496]},{"type":"Point","properties":{"Station_ID":"MNSM4","Station_Nam":"MUNISING","Latitude":"46.41210","Longitude":"-86.66250","Snowdepth":"22.000","Units":"in","Rept_Date":"2020-04-08 10"},"coordinates":[2101,3015]},{"type":"Point","properties":{"Station_ID":"CAN-NB-13","Station_Nam":"BATHURST 3.8 NW, CAN","Latitude":"47.64212","Longitude":"-65.68756","Snowdepth":"21.500","Units":"in","Rept_Date":"2020-04-08 09"},"coordinates":[7273,4684]},{"type":"Point","properties":{"Station_ID":"WLFM5","Station_Nam":"WOLF RIDGE ENVIRON LEARNING CENTER","Latitude":"47.38240","Longitude":"-91.19730","Snowdepth":"21.000","Units":"in","Rept_Date":"2020-04-08 12"},"coordinates":[983,4332]},{"type":"Point","properties":{"Station_ID":"QNCM4","Station_Nam":"QUINCY HILL","Latitude":"47.13640","Longitude":"-88.57950","Snowdepth":"18.000","Units":"in","Rept_Date":"2020-04-08 11"},"coordinates":[1628,3998]},{"type":"Point","properties":{"Station_ID":"ME-AR-18","Station_Nam":"NEW SWEDEN 4.9 NNW, ME","Latitude":"47.01080","Longitude":"-68.14390","Snowdepth":"17.500","Units":"in","Rept_Date":"2020-04-08 12"},"coordinates":[6667,3827]},{"type":"Point","properties":{"Station_ID":"KSGM4","Station_Nam":"KEARSARGE","Latitude":"47.27520","Longitude":"-88.41700","Snowdepth":"17.000","Units":"in","Rept_Date":"2020-04-08 12"},"coordinates":[1668,4186]},{"type":"Point","properties":{"Station_ID":"CAN-NB-11","Station_Nam":"MIRAMICHI 3.3 S, CAN","Latitude":"46.99343","Longitude":"-65.50690","Snowdepth":"16.500","Units":"in","Rept_Date":"2020-04-08 09"},"coordinates":[7318,3804]},{"type":"Point","properties":{"Station_ID":"PTLQ6","Station_Nam":"PORTAGE LAKE","Latitude":"49.06950","Longitude":"-86.65940","Snowdepth":"16.100","Units":"in","Rept_Date":"2020-04-09 06"},"coordinates":[2102,6621]},{"type":"Point","properties":{"Station_ID":"HERM4","Station_Nam":"HERMAN,MI","Latitude":"46.65000","Longitude":"-88.33330","Snowdepth":"16.000","Units":"in","Rept_Date":"2020-04-08 12"},"coordinates":[1689,3338]},{"type":"Point","properties":{"Station_ID":"TRIQ6","Station_Nam":"TRIO LAKE","Latitude":"49.22880","Longitude":"-87.22920","Snowdepth":"15.870","Units":"in","Rept_Date":"2020-04-09 06"},"coordinates":[1961,6838]},{"type":"Point","properties":{"Station_ID":"MI-BG-3","Station_Nam":"L'ANSE 17.8 SE, MI","Latitude":"46.55730","Longitude":"-88.20770","Snowdepth":"15.000","Units":"in","Rept_Date":"2020-04-08 13"},"coordinates":[1720,3212]},{"type":"Point","properties":{"Station_ID":"CAN-QC-47","Station_Nam":"SAINTE-FOY 1.8 ENE, CAN","Latitude":"46.76934","Longitude":"-71.27124","Snowdepth":"14.200","Units":"in","Rept_Date":"2020-04-08 12"},"coordinates":[5896,3500]},{"type":"Point","properties":{"Station_ID":"IBLM5","Station_Nam":"ISABELLA 14W","Latitude":"47.59360","Longitude":"-91.65140","Snowdepth":"14.000","Units":"in","Rept_Date":"2020-04-08 14"},"coordinates":[871,4618]},{"type":"Point","properties":{"Station_ID":"FISM1","Station_Nam":"FORT KENT COOP","Latitude":"47.23850","Longitude":"-68.61240","Snowdepth":"14.000","Units":"in","Rept_Date":"2020-04-08 11"},"coordinates":[6552,4136]},{"type":"Point","properties":{"Station_ID":"SVBQ6","Station_Nam":"SAVANT BASE","Latitude":"50.28730","Longitude":"-90.65670","Snowdepth":"13.390","Units":"in","Rept_Date":"2020-04-09 06"},"coordinates":[1116,8274]},{"type":"Point","properties":{"Station_ID":"STEM4","Station_Nam":"STEUBEN","Latitude":"46.18530","Longitude":"-86.46410","Snowdepth":"13.000","Units":"in","Rept_Date":"2020-04-08 13"},"coordinates":[2150,2707]},{"type":"Point","properties":{"Station_ID":"NH-CS-10","Station_Nam":"RANDOLPH 1.4 NE, NH","Latitude":"44.38824","Longitude":"-71.26950","Snowdepth":"13.000","Units":"in","Rept_Date":"2020-04-08 12"},"coordinates":[5897,268]},{"type":"Point","properties":{"Station_ID":"CAN-NB-96","Station_Nam":"SAINT-IGNACE 2.6 NE, CAN","Latitude":"46.71424","Longitude":"-65.05609","Snowdepth":"12.600","Units":"in","Rept_Date":"2020-04-08 11"},"coordinates":[7429,3425]},{"type":"Point","properties":{"Station_ID":"MQT","Station_Nam":"MARQUETTE, MI","Latitude":"46.53140","Longitude":"-87.54920","Snowdepth":"12.000","Units":"in","Rept_Date":"2020-04-09 06"},"coordinates":[1882,3177]},{"type":"Point","properties":{"Station_ID":"BRAM1","Station_Nam":"BRASSUA DAM","Latitude":"45.66020","Longitude":"-69.81190","Snowdepth":"12.000","Units":"in","Rept_Date":"2020-04-08 11"},"coordinates":[6256,1994]},{"type":"Point","properties":{"Station_ID":"RGNM1","Station_Nam":"RANGELEY 2NW","Latitude":"44.98940","Longitude":"-70.67220","Snowdepth":"11.000","Units":"in","Rept_Date":"2020-04-08 10"},"coordinates":[6044,1084]},{"type":"Point","properties":{"Station_ID":"MWN","Station_Nam":"MOUNT WASHINGTON","Latitude":"44.26670","Longitude":"-71.30000","Snowdepth":"11.000","Units":"in","Rept_Date":"2020-04-08 12"},"coordinates":[5889,103]},{"type":"Point","properties":{"Station_ID":"KMWN","Station_Nam":"MOUNT WASHINGTON","Latitude":"44.26666","Longitude":"-71.30000","Snowdepth":"11.000","Units":"in","Rept_Date":"2020-04-09 06"},"coordinates":[5889,103]},{"type":"Point","properties":{"Station_ID":"ME-FR-2","Station_Nam":"TEMPLE 1.8 W, ME","Latitude":"44.68329","Longitude":"-70.26420","Snowdepth":"10.500","Units":"in","Rept_Date":"2020-04-08 11"},"coordinates":[6145,669]},{"type":"Point","properties":{"Station_ID":"MI-HG-6","Station_Nam":"CALUMET 5.8 ENE, MI","Latitude":"47.27200","Longitude":"-88.33400","Snowdepth":"9.500","Units":"in","Rept_Date":"2020-04-08 11"},"coordinates":[1689,4182]},{"type":"Point","properties":{"Station_ID":"RKWM1","Station_Nam":"MOOSEHEAD LAKE","Latitude":"45.58330","Longitude":"-69.71670","Snowdepth":"9.000","Units":"in","Rept_Date":"2020-04-08 11"},"coordinates":[6280,1890]},{"type":"Point","properties":{"Station_ID":"MI-HG-1","Station_Nam":"HOUGHTON 1.6 ESE, MI","Latitude":"47.10774","Longitude":"-88.52940","Snowdepth":"9.000","Units":"in","Rept_Date":"2020-04-08 13"},"coordinates":[1640,3959]},{"type":"Point","properties":{"Station_ID":"CARM1","Station_Nam":"CARIBOU WFO","Latitude":"46.86810","Longitude":"-68.01250","Snowdepth":"9.000","Units":"in","Rept_Date":"2020-04-09 04"},"coordinates":[6700,3634]},{"type":"Point","properties":{"Station_ID":"CAR","Station_Nam":"CARIBOU, ME","Latitude":"46.86830","Longitude":"-68.01360","Snowdepth":"9.000","Units":"in","Rept_Date":"2020-04-08 12"},"coordinates":[6700,3634]},{"type":"Point","properties":{"Station_ID":"MN-CK-18","Station_Nam":"GRAND MARAIS 4.4 WSW, MN","Latitude":"47.74462","Longitude":"-90.43796","Snowdepth":"8.500","Units":"in","Rept_Date":"2020-04-08 13"},"coordinates":[1170,4823]},{"type":"Point","properties":{"Station_ID":"PRDM4","Station_Nam":"PARADISE","Latitude":"46.60380","Longitude":"-85.03960","Snowdepth":"8.000","Units":"in","Rept_Date":"2020-04-08 09"},"coordinates":[2501,3275]},{"type":"Point","properties":{"Station_ID":"CAN-NS-103","Station_Nam":"TRAFALGAR 4.9 WSW, CAN","Latitude":"45.26217","Longitude":"-62.72285","Snowdepth":"8.000","Units":"in","Rept_Date":"2020-04-08 12"},"coordinates":[8004,1454]},{"type":"Point","properties":{"Station_ID":"CAN-NB-105","Station_Nam":"SISSON BROOK 3.8 E, CAN","Latitude":"46.98305","Longitude":"-67.32532","Snowdepth":"7.900","Units":"in","Rept_Date":"2020-04-08 12"},"coordinates":[6869,3790]},{"type":"Point","properties":{"Station_ID":"WI-IR-3","Station_Nam":"PENCE 0.1 E, WI","Latitude":"46.41555","Longitude":"-90.27013","Snowdepth":"7.000","Units":"in","Rept_Date":"2020-04-08 13"},"coordinates":[1211,3020]},{"type":"Point","properties":{"Station_ID":"VANM1","Station_Nam":"VAN BUREN","Latitude":"47.16600","Longitude":"-67.93900","Snowdepth":"7.000","Units":"in","Rept_Date":"2020-04-08 11"},"coordinates":[6718,4038]},{"type":"Point","properties":{"Station_ID":"GHMN3","Station_Nam":"PINKHAM NOTCH","Latitude":"44.25800","Longitude":"-71.25250","Snowdepth":"7.000","Units":"in","Rept_Date":"2020-04-08 10"},"coordinates":[5901,91]},{"type":"Point","properties":{"Station_ID":"KABQ6","Station_Nam":"CAB LAKE","Latitude":"49.59950","Longitude":"-89.17990","Snowdepth":"6.850","Units":"in","Rept_Date":"2020-04-09 06"},"coordinates":[1480,7341]},{"type":"Point","properties":{"Station_ID":"VT-CL-3","Station_Nam":"GROTON 4.4 WSW, VT","Latitude":"44.19440","Longitude":"-72.28240","Snowdepth":"6.500","Units":"in","Rept_Date":"2020-04-08 11"},"coordinates":[5647,5]},{"type":"Point","properties":{"Station_ID":"WI-VL-9","Station_Nam":"LAND O' LAKES 11.7 W, WI","Latitude":"46.19023","Longitude":"-89.45790","Snowdepth":"6.000","Units":"in","Rept_Date":"2020-04-08 13"},"coordinates":[1411,2714]},{"type":"Point","properties":{"Station_ID":"RANM1","Station_Nam":"RANGELEY","Latitude":"44.98910","Longitude":"-70.67190","Snowdepth":"6.000","Units":"in","Rept_Date":"2020-04-08 10"},"coordinates":[6044,1084]},{"type":"Point","properties":{"Station_ID":"MN-CK-6","Station_Nam":"GRAND MARAIS 4.4 W, MN","Latitude":"47.74865","Longitude":"-90.43760","Snowdepth":"6.000","Units":"in","Rept_Date":"2020-04-08 13"},"coordinates":[1170,4829]},{"type":"Point","properties":{"Station_ID":"LNOW3","Station_Nam":"LAND O LAKES","Latitude":"46.19000","Longitude":"-89.45700","Snowdepth":"6.000","Units":"in","Rept_Date":"2020-04-08 12"},"coordinates":[1412,2713]},{"type":"Point","properties":{"Station_ID":"KISM4","Station_Nam":"K.I. SAWYER WWTP","Latitude":"46.33410","Longitude":"-87.37790","Snowdepth":"6.000","Units":"in","Rept_Date":"2020-04-08 12"},"coordinates":[1924,2909]},{"type":"Point","properties":{"Station_ID":"FTHQ6","Station_Nam":"FORT HOPE","Latitude":"51.55820","Longitude":"-87.90510","Snowdepth":"5.710","Units":"in","Rept_Date":"2020-04-09 06"},"coordinates":[1794,9999]},{"type":"Point","properties":{"Station_ID":"SOCQ6","Station_Nam":"SOCKET LAKE","Latitude":"50.77870","Longitude":"-91.79300","Snowdepth":"5.120","Units":"in","Rept_Date":"2020-04-09 06"},"coordinates":[836,8941]},{"type":"Point","properties":{"Station_ID":"WRPW3","Station_Nam":"WATER PURIFICATION PLANT","Latitude":"44.38800","Longitude":"-89.80550","Snowdepth":"5.000","Units":"in","Rept_Date":"2020-04-08 11"},"coordinates":[1326,268]},{"type":"Point","properties":{"Station_ID":"LVDW3","Station_Nam":"LAC VIEUX DESERT","Latitude":"46.12110","Longitude":"-89.07580","Snowdepth":"5.000","Units":"in","Rept_Date":"2020-04-08 14"},"coordinates":[1506,2620]},{"type":"Point","properties":{"Station_ID":"BNDM5","Station_Nam":"ELY 25E","Latitude":"47.97190","Longitude":"-91.44860","Snowdepth":"5.000","Units":"in","Rept_Date":"2020-04-08 12"},"coordinates":[921,5132]},{"type":"Point","properties":{"Station_ID":"WI-VL-10","Station_Nam":"LAND O LAKES 4.3 WNW, WI","Latitude":"46.17440","Longitude":"-89.30380","Snowdepth":"4.500","Units":"in","Rept_Date":"2020-04-08 13"},"coordinates":[1449,2692]},{"type":"Point","properties":{"Station_ID":"MI-MQ-19","Station_Nam":"ISHPEMING 7.2 SW, MI","Latitude":"46.40550","Longitude":"-87.75670","Snowdepth":"4.000","Units":"in","Rept_Date":"2020-04-08 11"},"coordinates":[1831,3006]},{"type":"Point","properties":{"Station_ID":"MI-GG-4","Station_Nam":"WATERSMEET 5.0 SE, MI","Latitude":"46.20333","Longitude":"-89.13170","Snowdepth":"4.000","Units":"in","Rept_Date":"2020-04-08 14"},"coordinates":[1492,2732]},{"type":"Point","properties":{"Station_ID":"CAN-ON-97","Station_Nam":"THUNDER BAY 3.7 SSW - LRCA, CAN","Latitude":"48.37666","Longitude":"-89.25695","Snowdepth":"4.000","Units":"in","Rept_Date":"2020-04-08 12"},"coordinates":[1461,5681]},{"type":"Point","properties":{"Station_ID":"HPN04_MADIS","Station_Nam":"HANOVER","Latitude":"45.16770","Longitude":"-93.63430","Snowdepth":"3.880","Units":"in","Rept_Date":"2020-04-09 06"},"coordinates":[382,1326]},{"type":"Point","properties":{"Station_ID":"MN7TCHCK","Station_Nam":"COOK 0.2 ENE","Latitude":"47.85225","Longitude":"-92.68378","Snowdepth":"3.000","Units":"in","Rept_Date":"2020-04-08 10"},"coordinates":[616,4969]},{"type":"Point","properties":{"Station_ID":"LILM1","Station_Nam":"LILLE","Latitude":"47.27770","Longitude":"-68.10520","Snowdepth":"3.000","Units":"in","Rept_Date":"2020-04-08 11"},"coordinates":[6677,4190]},{"type":"Point","properties":{"Station_ID":"COKM5","Station_Nam":"COOK","Latitude":"47.85060","Longitude":"-92.69250","Snowdepth":"3.000","Units":"in","Rept_Date":"2020-04-08 11"},"coordinates":[614,4967]},{"type":"Point","properties":{"Station_ID":"CAN-PE-7","Station_Nam":"MORELL 1.4 NNW, CA","Latitude":"46.42741","Longitude":"-62.70870","Snowdepth":"3.000","Units":"in","Rept_Date":"2020-04-08 12"},"coordinates":[8008,3036]},{"type":"Point","properties":{"Station_ID":"CAN-PE-3","Station_Nam":"WELLINGTON 1.6 NE, CA","Latitude":"46.46672","Longitude":"-63.98920","Snowdepth":"3.000","Units":"in","Rept_Date":"2020-04-08 11"},"coordinates":[7692,3089]},{"type":"Point","properties":{"Station_ID":"NH-CR-15","Station_Nam":"JACKSON 3.7 NW, NH","Latitude":"44.19069","Longitude":"-71.22598","Snowdepth":"2.500","Units":"in","Rept_Date":"2020-04-08 12"},"coordinates":[5907,0]},{"type":"Point","properties":{"Station_ID":"CAN-NS-163","Station_Nam":"SYDNEY MINES 2.2 WNW, CAN","Latitude":"46.24851","Longitude":"-60.25161","Snowdepth":"2.400","Units":"in","Rept_Date":"2020-04-08 12"},"coordinates":[8614,2793]},{"type":"Point","properties":{"Station_ID":"WI-VL-14","Station_Nam":"BOULDER JUNCTION 1.4 NE, WI","Latitude":"46.12840","Longitude":"-89.62470","Snowdepth":"2.000","Units":"in","Rept_Date":"2020-04-08 13"},"coordinates":[1370,2630]},{"type":"Point","properties":{"Station_ID":"WI-ON-8","Station_Nam":"HAZELHURST 2.1 SSE, WI","Latitude":"45.78186","Longitude":"-89.70330","Snowdepth":"2.000","Units":"in","Rept_Date":"2020-04-08 13"},"coordinates":[1351,2160]},{"type":"Point","properties":{"Station_ID":"MN7M8EBJ","Station_Nam":"LUTSEN 15.7 NNW","Latitude":"47.85324","Longitude":"-89.92908","Snowdepth":"2.000","Units":"in","Rept_Date":"2020-04-08 13"},"coordinates":[1295,4971]},{"type":"Point","properties":{"Station_ID":"MN-SL-15","Station_Nam":"CHISHOLM 0.4 WSW, MN","Latitude":"47.48557","Longitude":"-92.88690","Snowdepth":"2.000","Units":"in","Rept_Date":"2020-04-08 13"},"coordinates":[566,4472]},{"type":"Point","properties":{"Station_ID":"GRBM5","Station_Nam":"GRAND RAPIDS 12N","Latitude":"47.39800","Longitude":"-93.51330","Snowdepth":"2.000","Units":"in","Rept_Date":"2020-04-08 12"},"coordinates":[411,4353]},{"type":"Point","properties":{"Station_ID":"CLKM4","Station_Nam":"CLARKSBURG","Latitude":"46.49910","Longitude":"-87.84500","Snowdepth":"2.000","Units":"in","Rept_Date":"2020-04-08 11"},"coordinates":[1809,3133]},{"type":"Point","properties":{"Station_ID":"CAN-NB-97","Station_Nam":"NEW MARYLAND 0.6 NW, CAN","Latitude":"45.90112","Longitude":"-66.68739","Snowdepth":"1.400","Units":"in","Rept_Date":"2020-04-08 11"},"coordinates":[7027,2321]},{"type":"Point","properties":{"Station_ID":"SSMM4","Station_Nam":"SAULT STE MARIE","Latitude":"46.48660","Longitude":"-84.40250","Snowdepth":"1.000","Units":"in","Rept_Date":"2020-04-08 12"},"coordinates":[2658,3116]},{"type":"Point","properties":{"Station_ID":"RLWM5","Station_Nam":"CAMP NORRIS DNR","Latitude":"48.61000","Longitude":"-95.18170","Snowdepth":"1.000","Units":"in","Rept_Date":"2020-04-08 14"},"coordinates":[0,5998]},{"type":"Point","properties":{"Station_ID":"KINM1","Station_Nam":"KINGFIELD","Latitude":"44.95950","Longitude":"-70.17530","Snowdepth":"1.000","Units":"in","Rept_Date":"2020-04-08 11"},"coordinates":[6167,1043]},{"type":"Point","properties":{"Station_ID":"JKMM1","Station_Nam":"JACKMAN","Latitude":"45.62600","Longitude":"-70.24600","Snowdepth":"1.000","Units":"in","Rept_Date":"2020-04-08 11"},"coordinates":[6149,1948]},{"type":"Point","properties":{"Station_ID":"COVM4","Station_Nam":"COVINGTON","Latitude":"46.55880","Longitude":"-88.54190","Snowdepth":"1.000","Units":"in","Rept_Date":"2020-04-08 12"},"coordinates":[1637,3214]},{"type":"Point","properties":{"Station_ID":"BRDM1","Station_Nam":"BRIDGEWATER","Latitude":"46.42870","Longitude":"-67.84370","Snowdepth":"1.000","Units":"in","Rept_Date":"2020-04-08 22"},"coordinates":[6742,3037]},{"type":"Point","properties":{"Station_ID":"ANJM4","Station_Nam":"SNOW PAID OBSERVER FOR KANJ","Latitude":"46.48670","Longitude":"-84.40260","Snowdepth":"1.000","Units":"in","Rept_Date":"2020-04-08 12"},"coordinates":[2658,3116]},{"type":"Point","properties":{"Station_ID":"ANJ","Station_Nam":"SAULT STE MARIE","Latitude":"46.46670","Longitude":"-84.36670","Snowdepth":"1.000","Units":"in","Rept_Date":"2020-04-09 00"},"coordinates":[2667,3089]}]}},"arcs":[],"transform":{"scale":[0.004055179517951796,0.0007368246824682471],"translate":[-95.1817,44.19069]}}