{"type":"Topology","objects":{"snowdepth_geo":{"type":"GeometryCollection","name":"snowdepth","crs":{"type":"name","properties":{"name":"urn:ogc:def:crs:OGC:1.3:CRS84"}},"geometries":[{"type":"Point","properties":{"Station_ID":"PRKM4","Station_Nam":"MUNISING EAST","Latitude":"46.42580","Longitude":"-86.62000","Snowdepth":"76.500","Units":"in","Rept_Date":"2020-01-24 06"},"coordinates":[2492,6319]},{"type":"Point","properties":{"Station_ID":"OGIQ6","Station_Nam":"OGOKI CAMP","Latitude":"50.76680","Longitude":"-87.85820","Snowdepth":"61.100","Units":"in","Rept_Date":"2020-01-24 06"},"coordinates":[2202,9333]},{"type":"Point","properties":{"Station_ID":"CLUM4","Station_Nam":"CALUMET-TAMARACK","Latitude":"47.24550","Longitude":"-88.46790","Snowdepth":"48.000","Units":"in","Rept_Date":"2020-01-23 14"},"coordinates":[2058,6888]},{"type":"Point","properties":{"Station_ID":"PDLM4","Station_Nam":"PAINESDALE","Latitude":"47.04160","Longitude":"-88.67170","Snowdepth":"47.000","Units":"in","Rept_Date":"2020-01-23 13"},"coordinates":[2011,6746]},{"type":"Point","properties":{"Station_ID":"KSGM4","Station_Nam":"KEARSARGE","Latitude":"47.27520","Longitude":"-88.41700","Snowdepth":"45.000","Units":"in","Rept_Date":"2020-01-23 13"},"coordinates":[2070,6909]},{"type":"Point","properties":{"Station_ID":"WLFM5","Station_Nam":"WOLF RIDGE ENVIRON LEARNING CENTER","Latitude":"47.38240","Longitude":"-91.19730","Snowdepth":"43.000","Units":"in","Rept_Date":"2020-01-23 13"},"coordinates":[1418,6983]},{"type":"Point","properties":{"Station_ID":"GMSM4","Station_Nam":"GRAND MARAIS 10S","Latitude":"46.50940","Longitude":"-85.96310","Snowdepth":"43.000","Units":"in","Rept_Date":"2020-01-23 12"},"coordinates":[2646,6377]},{"type":"Point","properties":{"Station_ID":"HTLN3","Station_Nam":"HERMIT LAKE SNOWPLOT","Latitude":"44.26130","Longitude":"-71.28330","Snowdepth":"41.000","Units":"in","Rept_Date":"2020-01-23 10"},"coordinates":[6092,4816]},{"type":"Point","properties":{"Station_ID":"CAN-NL-81","Station_Nam":"GRAND FALLS-WINDSOR 1.2 S, CAN","Latitude":"48.93123","Longitude":"-55.65333","Snowdepth":"39.400","Units":"in","Rept_Date":"2020-01-23 10"},"coordinates":[9760,8058]},{"type":"Point","properties":{"Station_ID":"MQT","Station_Nam":"MARQUETTE, MI","Latitude":"46.53140","Longitude":"-87.54920","Snowdepth":"35.000","Units":"in","Rept_Date":"2020-01-24 06"},"coordinates":[2274,6392]},{"type":"Point","properties":{"Station_ID":"ILIM5","Station_Nam":"ISLAND LAKE","Latitude":"47.02400","Longitude":"-92.07000","Snowdepth":"34.000","Units":"in","Rept_Date":"2020-01-23 15"},"coordinates":[1213,6734]},{"type":"Point","properties":{"Station_ID":"QNCM4","Station_Nam":"QUINCY HILL","Latitude":"47.13640","Longitude":"-88.57950","Snowdepth":"32.000","Units":"in","Rept_Date":"2020-01-23 12"},"coordinates":[2032,6812]},{"type":"Point","properties":{"Station_ID":"MI-BG-3","Station_Nam":"L'ANSE 17.8 SE, MI","Latitude":"46.55730","Longitude":"-88.20770","Snowdepth":"32.000","Units":"in","Rept_Date":"2020-01-23 13"},"coordinates":[2119,6410]},{"type":"Point","properties":{"Station_ID":"LVDW3","Station_Nam":"LAC VIEUX DESERT","Latitude":"46.12110","Longitude":"-89.07580","Snowdepth":"32.000","Units":"in","Rept_Date":"2020-01-23 14"},"coordinates":[1916,6107]},{"type":"Point","properties":{"Station_ID":"STEM4","Station_Nam":"STEUBEN","Latitude":"46.18530","Longitude":"-86.46410","Snowdepth":"31.000","Units":"in","Rept_Date":"2020-01-23 14"},"coordinates":[2529,6152]},{"type":"Point","properties":{"Station_ID":"NWCM4","Station_Nam":"NEWBERRY CITY","Latitude":"46.35720","Longitude":"-85.51780","Snowdepth":"31.000","Units":"in","Rept_Date":"2020-01-23 12"},"coordinates":[2751,6271]},{"type":"Point","properties":{"Station_ID":"MAIW3","Station_Nam":"MADELINE ISLAND","Latitude":"46.78330","Longitude":"-90.76670","Snowdepth":"31.000","Units":"in","Rept_Date":"2020-01-23 14"},"coordinates":[1519,6567]},{"type":"Point","properties":{"Station_ID":"HVCN3","Station_Nam":"HARVARD CABIN SNOWPLOT","Latitude":"44.26630","Longitude":"-71.27790","Snowdepth":"31.000","Units":"in","Rept_Date":"2020-01-23 10"},"coordinates":[6093,4820]},{"type":"Point","properties":{"Station_ID":"BERM4","Station_Nam":"BERGLAND DAM","Latitude":"46.58690","Longitude":"-89.54750","Snowdepth":"31.000","Units":"in","Rept_Date":"2020-01-23 13"},"coordinates":[1805,6431]},{"type":"Point","properties":{"Station_ID":"CAN-NL-82","Station_Nam":"GANDER 2.7 NW, CAN","Latitude":"48.97737","Longitude":"-54.63396","Snowdepth":"30.700","Units":"in","Rept_Date":"2020-01-23 10"},"coordinates":[9999,8090]},{"type":"Point","properties":{"Station_ID":"WI-VL-10","Station_Nam":"LAND O LAKES 4.3 WNW, WI","Latitude":"46.17440","Longitude":"-89.30380","Snowdepth":"30.500","Units":"in","Rept_Date":"2020-01-23 13"},"coordinates":[1862,6144]},{"type":"Point","properties":{"Station_ID":"IA-IA-13","Station_Nam":"PARNELL 0.1 SSW, IA","Latitude":"41.58238","Longitude":"-92.00541","Snowdepth":"30.400","Units":"in","Rept_Date":"2020-01-23 13"},"coordinates":[1228,2957]},{"type":"Point","properties":{"Station_ID":"WRPW3","Station_Nam":"WATER PURIFICATION PLANT","Latitude":"44.38800","Longitude":"-89.80550","Snowdepth":"30.000","Units":"in","Rept_Date":"2020-01-23 12"},"coordinates":[1744,4904]},{"type":"Point","properties":{"Station_ID":"IWOM4","Station_Nam":"IRONWOOD#2","Latitude":"46.46520","Longitude":"-90.13820","Snowdepth":"30.000","Units":"in","Rept_Date":"2020-01-23 13"},"coordinates":[1666,6346]},{"type":"Point","properties":{"Station_ID":"MN-CK-6","Station_Nam":"GRAND MARAIS 4.4 W, MN","Latitude":"47.74865","Longitude":"-90.43760","Snowdepth":"29.000","Units":"in","Rept_Date":"2020-01-23 13"},"coordinates":[1596,7237]},{"type":"Point","properties":{"Station_ID":"MI-MQ-19","Station_Nam":"ISHPEMING 7.2 SW, MI","Latitude":"46.40550","Longitude":"-87.75670","Snowdepth":"29.000","Units":"in","Rept_Date":"2020-01-23 11"},"coordinates":[2225,6305]},{"type":"Point","properties":{"Station_ID":"HURW3","Station_Nam":"HURLEY","Latitude":"46.46250","Longitude":"-90.19550","Snowdepth":"29.000","Units":"in","Rept_Date":"2020-01-23 14"},"coordinates":[1653,6344]},{"type":"Point","properties":{"Station_ID":"MN-SL-15","Station_Nam":"CHISHOLM 0.4 WSW, MN","Latitude":"47.48557","Longitude":"-92.88690","Snowdepth":"28.500","Units":"in","Rept_Date":"2020-01-23 13"},"coordinates":[1021,7055]},{"type":"Point","properties":{"Station_ID":"LNOW3","Station_Nam":"LAND O LAKES","Latitude":"46.19000","Longitude":"-89.45700","Snowdepth":"28.000","Units":"in","Rept_Date":"2020-01-23 13"},"coordinates":[1826,6155]},{"type":"Point","properties":{"Station_ID":"WI-VL-9","Station_Nam":"LAND O' LAKES 11.7 W, WI","Latitude":"46.19023","Longitude":"-89.45790","Snowdepth":"27.500","Units":"in","Rept_Date":"2020-01-23 13"},"coordinates":[1826,6155]},{"type":"Point","properties":{"Station_ID":"WTRM4","Station_Nam":"WATERSMEET 12WSW","Latitude":"46.22310","Longitude":"-89.40850","Snowdepth":"27.000","Units":"in","Rept_Date":"2020-01-23 12"},"coordinates":[1838,6178]},{"type":"Point","properties":{"Station_ID":"WI-WB-2","Station_Nam":"STONE LAKE 2.0 NW, WI","Latitude":"45.85960","Longitude":"-91.57710","Snowdepth":"27.000","Units":"in","Rept_Date":"2020-01-23 13"},"coordinates":[1329,5926]},{"type":"Point","properties":{"Station_ID":"UPSW3","Station_Nam":"UPSON,WI","Latitude":"46.36780","Longitude":"-90.41220","Snowdepth":"27.000","Units":"in","Rept_Date":"2020-01-24 00"},"coordinates":[1602,6279]},{"type":"Point","properties":{"Station_ID":"STGW3","Station_Nam":"ST GERMAIN","Latitude":"45.91550","Longitude":"-89.48940","Snowdepth":"27.000","Units":"in","Rept_Date":"2020-01-23 12"},"coordinates":[1819,5965]},{"type":"Point","properties":{"Station_ID":"MNSM4","Station_Nam":"MUNISING","Latitude":"46.41210","Longitude":"-86.66250","Snowdepth":"27.000","Units":"in","Rept_Date":"2020-01-23 11"},"coordinates":[2482,6309]},{"type":"Point","properties":{"Station_ID":"MN-IT-23","Station_Nam":"BOVEY 13.4 N, MN","Latitude":"47.48855","Longitude":"-93.43497","Snowdepth":"27.000","Units":"in","Rept_Date":"2020-01-23 13"},"coordinates":[893,7057]},{"type":"Point","properties":{"Station_ID":"MI-HG-6","Station_Nam":"CALUMET 5.8 ENE, MI","Latitude":"47.27200","Longitude":"-88.33400","Snowdepth":"27.000","Units":"in","Rept_Date":"2020-01-23 11"},"coordinates":[2090,6906]},{"type":"Point","properties":{"Station_ID":"DLHM5","Station_Nam":"DULUTH NWS","Latitude":"46.83680","Longitude":"-92.21080","Snowdepth":"27.000","Units":"in","Rept_Date":"2020-01-24 06"},"coordinates":[1180,6604]},{"type":"Point","properties":{"Station_ID":"ANTW3","Station_Nam":"ANTIGO,WI","Latitude":"45.13330","Longitude":"-89.15000","Snowdepth":"27.000","Units":"in","Rept_Date":"2020-01-23 14"},"coordinates":[1898,5422]},{"type":"Point","properties":{"Station_ID":"WI-BY-14","Station_Nam":"ASHLAND 9.8 W, WI","Latitude":"46.59742","Longitude":"-91.07856","Snowdepth":"26.000","Units":"in","Rept_Date":"2020-01-23 12"},"coordinates":[1446,6438]},{"type":"Point","properties":{"Station_ID":"PDGM4","Station_Nam":"PAULDING","Latitude":"46.39760","Longitude":"-89.17940","Snowdepth":"26.000","Units":"in","Rept_Date":"2020-01-23 13"},"coordinates":[1891,6299]},{"type":"Point","properties":{"Station_ID":"KABM5","Station_Nam":"KABETOGAMA LAKE VISITOR CTR","Latitude":"48.40880","Longitude":"-93.04840","Snowdepth":"26.000","Units":"in","Rept_Date":"2020-01-23 12"},"coordinates":[983,7696]},{"type":"Point","properties":{"Station_ID":"HRVM4","Station_Nam":"HARVEY","Latitude":"46.49080","Longitude":"-87.35470","Snowdepth":"26.000","Units":"in","Rept_Date":"2020-01-23 12"},"coordinates":[2320,6364]},{"type":"Point","properties":{"Station_ID":"GMRM5","Station_Nam":"GRAND MARIAS WATER TREATMENT PLANT","Latitude":"47.75180","Longitude":"-90.32820","Snowdepth":"26.000","Units":"in","Rept_Date":"2020-01-23 14"},"coordinates":[1622,7239]},{"type":"Point","properties":{"Station_ID":"FLNW3","Station_Nam":"FLORENCE","Latitude":"45.93360","Longitude":"-88.25830","Snowdepth":"26.000","Units":"in","Rept_Date":"2020-01-23 13"},"coordinates":[2108,5977]},{"type":"Point","properties":{"Station_ID":"EVRW3","Station_Nam":"EAGLE RIVER-4 E","Latitude":"45.91890","Longitude":"-89.15280","Snowdepth":"26.000","Units":"in","Rept_Date":"2020-01-23 12"},"coordinates":[1898,5967]},{"type":"Point","properties":{"Station_ID":"DLH","Station_Nam":"DULUTH, MN","Latitude":"46.83690","Longitude":"-92.21030","Snowdepth":"26.000","Units":"in","Rept_Date":"2020-01-24 00"},"coordinates":[1180,6604]},{"type":"Point","properties":{"Station_ID":"BNDM5","Station_Nam":"ELY 25E","Latitude":"47.97190","Longitude":"-91.44860","Snowdepth":"26.000","Units":"in","Rept_Date":"2020-01-23 13"},"coordinates":[1359,7392]},{"type":"Point","properties":{"Station_ID":"PTLQ6","Station_Nam":"PORTAGE LAKE","Latitude":"49.06950","Longitude":"-86.65940","Snowdepth":"25.200","Units":"in","Rept_Date":"2020-01-24 06"},"coordinates":[2483,8154]},{"type":"Point","properties":{"Station_ID":"WI-IR-3","Station_Nam":"PENCE 0.1 E, WI","Latitude":"46.41555","Longitude":"-90.27013","Snowdepth":"25.000","Units":"in","Rept_Date":"2020-01-23 13"},"coordinates":[1635,6312]},{"type":"Point","properties":{"Station_ID":"SUAW3","Station_Nam":"SUAMICO","Latitude":"44.60190","Longitude":"-88.09780","Snowdepth":"25.000","Units":"in","Rept_Date":"2020-01-23 12"},"coordinates":[2145,5053]},{"type":"Point","properties":{"Station_ID":"PRDM4","Station_Nam":"PARADISE","Latitude":"46.60380","Longitude":"-85.03960","Snowdepth":"25.000","Units":"in","Rept_Date":"2020-01-23 11"},"coordinates":[2863,6443]},{"type":"Point","properties":{"Station_ID":"MN-IT-1","Station_Nam":"GRAND RAPIDS 2.0 E, MN","Latitude":"47.22266","Longitude":"-93.49600","Snowdepth":"25.000","Units":"in","Rept_Date":"2020-01-23 12"},"coordinates":[878,6872]},{"type":"Point","properties":{"Station_ID":"MI-HG-1","Station_Nam":"HOUGHTON 1.6 ESE, MI","Latitude":"47.10774","Longitude":"-88.52940","Snowdepth":"25.000","Units":"in","Rept_Date":"2020-01-23 15"},"coordinates":[2044,6792]},{"type":"Point","properties":{"Station_ID":"ME-AR-23","Station_Nam":"MADAWASKA 2.5 E, ME","Latitude":"47.34933","Longitude":"-68.28141","Snowdepth":"25.000","Units":"in","Rept_Date":"2020-01-23 12"},"coordinates":[6796,6960]},{"type":"Point","properties":{"Station_ID":"ME-AR-18","Station_Nam":"NEW SWEDEN 4.9 NNW, ME","Latitude":"47.01080","Longitude":"-68.14390","Snowdepth":"25.000","Units":"in","Rept_Date":"2020-01-23 12"},"coordinates":[6828,6725]},{"type":"Point","properties":{"Station_ID":"GLDM4","Station_Nam":"GLADSTONE NO. 2","Latitude":"45.84330","Longitude":"-87.03910","Snowdepth":"25.000","Units":"in","Rept_Date":"2020-01-23 12"},"coordinates":[2394,5915]},{"type":"Point","properties":{"Station_ID":"EMBM5","Station_Nam":"EMBARASS,MN","Latitude":"47.65810","Longitude":"-92.19580","Snowdepth":"25.000","Units":"in","Rept_Date":"2020-01-23 12"},"coordinates":[1184,7174]},{"type":"Point","properties":{"Station_ID":"CSLM5","Station_Nam":"CASS LAKE,MN","Latitude":"47.38470","Longitude":"-94.61470","Snowdepth":"25.000","Units":"in","Rept_Date":"2020-01-23 14"},"coordinates":[616,6985]},{"type":"Point","properties":{"Station_ID":"CRVW3","Station_Nam":"CRIVITZ HIGH FALLS","Latitude":"45.35750","Longitude":"-88.19190","Snowdepth":"25.000","Units":"in","Rept_Date":"2020-01-23 13"},"coordinates":[2123,5577]},{"type":"Point","properties":{"Station_ID":"SVBQ6","Station_Nam":"SAVANT BASE","Latitude":"50.28730","Longitude":"-90.65670","Snowdepth":"24.680","Units":"in","Rept_Date":"2020-01-24 06"},"coordinates":[1545,9000]},{"type":"Point","properties":{"Station_ID":"WI-VL-14","Station_Nam":"BOULDER JUNCTION 1.4 NE, WI","Latitude":"46.12840","Longitude":"-89.62470","Snowdepth":"24.000","Units":"in","Rept_Date":"2020-01-23 13"},"coordinates":[1787,6113]},{"type":"Point","properties":{"Station_ID":"TOHM5","Station_Nam":"TWO HARBORS WWTP","Latitude":"47.01760","Longitude":"-91.66480","Snowdepth":"24.000","Units":"in","Rept_Date":"2020-01-23 13"},"coordinates":[1308,6730]},{"type":"Point","properties":{"Station_ID":"NYMM5","Station_Nam":"NEW YORK MILLS","Latitude":"46.50920","Longitude":"-95.37990","Snowdepth":"24.000","Units":"in","Rept_Date":"2020-01-23 13"},"coordinates":[436,6377]},{"type":"Point","properties":{"Station_ID":"MN-BK-6","Station_Nam":"LAKE PARK 6.0 S, MN","Latitude":"46.79850","Longitude":"-96.12180","Snowdepth":"24.000","Units":"in","Rept_Date":"2020-01-23 13"},"coordinates":[262,6578]},{"type":"Point","properties":{"Station_ID":"LEIM5","Station_Nam":"ORR 3E","Latitude":"48.05810","Longitude":"-92.75220","Snowdepth":"24.000","Units":"in","Rept_Date":"2020-01-23 12"},"coordinates":[1053,7452]},{"type":"Point","properties":{"Station_ID":"KABQ6","Station_Nam":"CAB LAKE","Latitude":"49.59950","Longitude":"-89.17990","Snowdepth":"23.620","Units":"in","Rept_Date":"2020-01-24 06"},"coordinates":[1891,8522]},{"type":"Point","properties":{"Station_ID":"DVLQ6","Station_Nam":"DEVIOUS LAKE","Latitude":"49.19890","Longitude":"-87.76440","Snowdepth":"23.310","Units":"in","Rept_Date":"2020-01-24 06"},"coordinates":[2224,8244]},{"type":"Point","properties":{"Station_ID":"WI-OC-1","Station_Nam":"MOUNTAIN 1.1 SW, WI","Latitude":"45.17239","Longitude":"-88.48990","Snowdepth":"23.000","Units":"in","Rept_Date":"2020-01-23 13"},"coordinates":[2053,5449]},{"type":"Point","properties":{"Station_ID":"WI-DG-20","Station_Nam":"SOLON SPRINGS 1.2 W, WI","Latitude":"46.35217","Longitude":"-91.84405","Snowdepth":"23.000","Units":"in","Rept_Date":"2020-01-23 13"},"coordinates":[1266,6268]},{"type":"Point","properties":{"Station_ID":"WI-BY-2","Station_Nam":"MELLEN 18.6 SW, WI","Latitude":"46.16937","Longitude":"-90.98090","Snowdepth":"23.000","Units":"in","Rept_Date":"2020-01-23 13"},"coordinates":[1469,6141]},{"type":"Point","properties":{"Station_ID":"RLWM5","Station_Nam":"CAMP NORRIS DNR","Latitude":"48.61000","Longitude":"-95.18170","Snowdepth":"23.000","Units":"in","Rept_Date":"2020-01-23 14"},"coordinates":[483,7835]},{"type":"Point","properties":{"Station_ID":"IRMM4","Station_Nam":"WWTP","Latitude":"46.46670","Longitude":"-90.18330","Snowdepth":"23.000","Units":"in","Rept_Date":"2020-01-23 13"},"coordinates":[1656,6347]},{"type":"Point","properties":{"Station_ID":"INL","Station_Nam":"FALLS INTERNATIONAL ARPT","Latitude":"48.56640","Longitude":"-93.40310","Snowdepth":"23.000","Units":"in","Rept_Date":"2020-01-24 00"},"coordinates":[900,7805]},{"type":"Point","properties":{"Station_ID":"IMNM4","Station_Nam":"IRON MOUTAIN 5N","Latitude":"45.87580","Longitude":"-88.04030","Snowdepth":"23.000","Units":"in","Rept_Date":"2020-01-24 00"},"coordinates":[2159,5937]},{"type":"Point","properties":{"Station_ID":"IFSM5","Station_Nam":"INTERNATIONAL FALLS SNOW","Latitude":"48.57780","Longitude":"-93.39640","Snowdepth":"23.000","Units":"in","Rept_Date":"2020-01-23 12"},"coordinates":[902,7813]},{"type":"Point","properties":{"Station_ID":"FEDM5","Station_Nam":"LEECH LAKE DAM","Latitude":"47.24670","Longitude":"-94.22280","Snowdepth":"23.000","Units":"in","Rept_Date":"2020-01-23 14"},"coordinates":[708,6889]},{"type":"Point","properties":{"Station_ID":"EGRW3","Station_Nam":"EAGLE RIVER-SOUTH","Latitude":"45.91360","Longitude":"-89.24360","Snowdepth":"23.000","Units":"in","Rept_Date":"2020-01-23 13"},"coordinates":[1876,5963]},{"type":"Point","properties":{"Station_ID":"COKM5","Station_Nam":"COOK","Latitude":"47.85060","Longitude":"-92.69250","Snowdepth":"23.000","Units":"in","Rept_Date":"2020-01-23 12"},"coordinates":[1067,7308]},{"type":"Point","properties":{"Station_ID":"CMKW3","Station_Nam":"CLAM LAKE 4W","Latitude":"46.16940","Longitude":"-90.98080","Snowdepth":"23.000","Units":"in","Rept_Date":"2020-01-23 13"},"coordinates":[1469,6141]},{"type":"Point","properties":{"Station_ID":"BBEM4","Station_Nam":"BIG BAY 9SW","Latitude":"46.74620","Longitude":"-87.88160","Snowdepth":"23.000","Units":"in","Rept_Date":"2020-01-23 13"},"coordinates":[2196,6541]},{"type":"Point","properties":{"Station_ID":"AROM4","Station_Nam":"ARNOLD,MI","Latitude":"46.06670","Longitude":"-87.48330","Snowdepth":"23.000","Units":"in","Rept_Date":"2020-01-23 13"},"coordinates":[2290,6070]},{"type":"Point","properties":{"Station_ID":"WI-ON-8","Station_Nam":"HAZELHURST 2.1 SSE, WI","Latitude":"45.78186","Longitude":"-89.70330","Snowdepth":"22.500","Units":"in","Rept_Date":"2020-01-23 13"},"coordinates":[1768,5872]},{"type":"Point","properties":{"Station_ID":"MN-SL-108","Station_Nam":"IRON JUNCTION 3.4 NNW, MN","Latitude":"47.46150","Longitude":"-92.63130","Snowdepth":"22.500","Units":"in","Rept_Date":"2020-01-23 13"},"coordinates":[1081,7038]},{"type":"Point","properties":{"Station_ID":"AUDQ6","Station_Nam":"AUDEN","Latitude":"48.52600","Longitude":"-82.57570","Snowdepth":"22.400","Units":"in","Rept_Date":"2020-01-24 06"},"coordinates":[3441,7777]},{"type":"Point","properties":{"Station_ID":"WI-BY-1","Station_Nam":"BAYFIELD 8.8 N, WI","Latitude":"46.93855","Longitude":"-90.83490","Snowdepth":"22.000","Units":"in","Rept_Date":"2020-01-23 13"},"coordinates":[1503,6675]},{"type":"Point","properties":{"Station_ID":"AVTW3","Station_Nam":"ARBOR VITAE-JOHNSON LAKE","Latitude":"45.89940","Longitude":"-89.72670","Snowdepth":"22.000","Units":"in","Rept_Date":"2020-01-23 13"},"coordinates":[1763,5954]},{"type":"Point","properties":{"Station_ID":"AMAM4","Station_Nam":"AMASA 1W","Latitude":"46.23470","Longitude":"-88.45440","Snowdepth":"22.000","Units":"in","Rept_Date":"2020-01-23 14"},"coordinates":[2062,6186]},{"type":"Point","properties":{"Station_ID":"WI-CK-3","Station_Nam":"COLBY 5.9 WSW, WI","Latitude":"44.87209","Longitude":"-90.42463","Snowdepth":"21.900","Units":"in","Rept_Date":"2020-01-24 01"},"coordinates":[1599,5240]},{"type":"Point","properties":{"Station_ID":"ND-CS-25","Station_Nam":"FARGO 2.1 N, ND","Latitude":"46.90816","Longitude":"-96.77937","Snowdepth":"21.500","Units":"in","Rept_Date":"2020-01-23 14"},"coordinates":[108,6654]},{"type":"Point","properties":{"Station_ID":"TRIQ6","Station_Nam":"TRIO LAKE","Latitude":"49.22880","Longitude":"-87.22920","Snowdepth":"21.460","Units":"in","Rept_Date":"2020-01-24 06"},"coordinates":[2349,8265]},{"type":"Point","properties":{"Station_ID":"MTQM4","Station_Nam":"MANISTIQUE WWTP","Latitude":"45.95120","Longitude":"-86.25130","Snowdepth":"21.000","Units":"in","Rept_Date":"2020-01-23 12"},"coordinates":[2579,5990]},{"type":"Point","properties":{"Station_ID":"MN-BM-15","Station_Nam":"BEMIDJI 7.8 ENE, MN","Latitude":"47.52043","Longitude":"-94.72121","Snowdepth":"21.000","Units":"in","Rept_Date":"2020-01-23 13"},"coordinates":[591,7079]},{"type":"Point","properties":{"Station_ID":"LNCM1","Station_Nam":"LINCOLN WATER DISTRICT","Latitude":"45.32410","Longitude":"-68.58300","Snowdepth":"21.000","Units":"in","Rept_Date":"2020-01-23 12"},"coordinates":[6725,5554]},{"type":"Point","properties":{"Station_ID":"GGRM4","Station_Nam":"GREEN GARDEN NO.2","Latitude":"46.45330","Longitude":"-87.30380","Snowdepth":"21.000","Units":"in","Rept_Date":"2020-01-23 11"},"coordinates":[2332,6338]},{"type":"Point","properties":{"Station_ID":"COTM5","Station_Nam":"COTTON","Latitude":"47.16870","Longitude":"-92.46290","Snowdepth":"21.000","Units":"in","Rept_Date":"2020-01-23 12"},"coordinates":[1121,6835]},{"type":"Point","properties":{"Station_ID":"CAN-NB-18","Station_Nam":"MCLEOD HILL 1.1 ENE, CA","Latitude":"46.02725","Longitude":"-66.67460","Snowdepth":"21.000","Units":"in","Rept_Date":"2020-01-23 12"},"coordinates":[7173,6042]},{"type":"Point","properties":{"Station_ID":"BRAM5","Station_Nam":"BRAINERD","Latitude":"46.34320","Longitude":"-94.20900","Snowdepth":"21.000","Units":"in","Rept_Date":"2020-01-23 13"},"coordinates":[711,6262]},{"type":"Point","properties":{"Station_ID":"AURW3","Station_Nam":"AURORA","Latitude":"45.77000","Longitude":"-88.11810","Snowdepth":"21.000","Units":"in","Rept_Date":"2020-01-23 13"},"coordinates":[2141,5864]},{"type":"Point","properties":{"Station_ID":"SOCQ6","Station_Nam":"SOCKET LAKE","Latitude":"50.77870","Longitude":"-91.79300","Snowdepth":"20.040","Units":"in","Rept_Date":"2020-01-24 06"},"coordinates":[1278,9341]},{"type":"Point","properties":{"Station_ID":"RHRW3","Station_Nam":"RHINELANDER WJFW TV-12","Latitude":"45.62220","Longitude":"-89.41000","Snowdepth":"20.000","Units":"in","Rept_Date":"2020-01-24 04"},"coordinates":[1837,5761]},{"type":"Point","properties":{"Station_ID":"OTTM5","Station_Nam":"OTTERTAIL,MN","Latitude":"46.41670","Longitude":"-95.56670","Snowdepth":"20.000","Units":"in","Rept_Date":"2020-01-23 13"},"coordinates":[392,6313]},{"type":"Point","properties":{"Station_ID":"MN-CW-22","Station_Nam":"FORT RIPLEY 0.8 N, MN","Latitude":"46.18089","Longitude":"-94.36510","Snowdepth":"20.000","Units":"in","Rept_Date":"2020-01-23 13"},"coordinates":[674,6149]},{"type":"Point","properties":{"Station_ID":"INDM5","Station_Nam":"INDUS,MN","Latitude":"48.61670","Longitude":"-93.90000","Snowdepth":"20.000","Units":"in","Rept_Date":"2020-01-23 14"},"coordinates":[784,7840]},{"type":"Point","properties":{"Station_ID":"GLLM5","Station_Nam":"GULL LAKE DAM","Latitude":"46.41190","Longitude":"-94.35000","Snowdepth":"20.000","Units":"in","Rept_Date":"2020-01-23 14"},"coordinates":[678,6309]},{"type":"Point","properties":{"Station_ID":"CLKM4","Station_Nam":"CLARKSBURG","Latitude":"46.49910","Longitude":"-87.84500","Snowdepth":"20.000","Units":"in","Rept_Date":"2020-01-23 12"},"coordinates":[2205,6370]},{"type":"Point","properties":{"Station_ID":"CAN-NB-11","Station_Nam":"MIRAMICHI 3.3 S, CAN","Latitude":"46.99343","Longitude":"-65.50690","Snowdepth":"20.000","Units":"in","Rept_Date":"2020-01-23 12"},"coordinates":[7447,6713]},{"type":"Point","properties":{"Station_ID":"BRVM5","Station_Nam":"BROWNS VALLEY,MN","Latitude":"45.61670","Longitude":"-96.83330","Snowdepth":"20.000","Units":"in","Rept_Date":"2020-01-23 12"},"coordinates":[95,5757]},{"type":"Point","properties":{"Station_ID":"AGNW3","Station_Nam":"ARGONNE-1.5 NW","Latitude":"45.67360","Longitude":"-88.90380","Snowdepth":"20.000","Units":"in","Rept_Date":"2020-01-23 13"},"coordinates":[1956,5797]},{"type":"Point","properties":{"Station_ID":"CAN-QC-47","Station_Nam":"SAINTE-FOY 1.8 ENE, CAN","Latitude":"46.76934","Longitude":"-71.27124","Snowdepth":"19.700","Units":"in","Rept_Date":"2020-01-23 12"},"coordinates":[6094,6557]},{"type":"Point","properties":{"Station_ID":"CATQ6","Station_Nam":"CAT LAKE","Latitude":"51.72690","Longitude":"-91.82210","Snowdepth":"19.530","Units":"in","Rept_Date":"2020-01-24 06"},"coordinates":[1271,9999]},{"type":"Point","properties":{"Station_ID":"WI-SR-1","Station_Nam":"HAYWARD 9.2 NNE, WI","Latitude":"46.13255","Longitude":"-91.40500","Snowdepth":"19.500","Units":"in","Rept_Date":"2020-01-23 12"},"coordinates":[1369,6115]},{"type":"Point","properties":{"Station_ID":"WI-ON-6","Station_Nam":"RHINELANDER 5.2 N, WI","Latitude":"45.71388","Longitude":"-89.42150","Snowdepth":"19.500","Units":"in","Rept_Date":"2020-01-23 14"},"coordinates":[1835,5825]},{"type":"Point","properties":{"Station_ID":"WI-AS-4","Station_Nam":"ASHLAND 0.5 WNW, WI","Latitude":"46.58240","Longitude":"-90.88390","Snowdepth":"19.500","Units":"in","Rept_Date":"2020-01-23 13"},"coordinates":[1491,6428]},{"type":"Point","properties":{"Station_ID":"ZNOM4","Station_Nam":"NORWAY","Latitude":"45.77810","Longitude":"-87.89560","Snowdepth":"19.000","Units":"in","Rept_Date":"2020-01-24 01"},"coordinates":[2193,5869]},{"type":"Point","properties":{"Station_ID":"WI-PR-8","Station_Nam":"PHILLIPS 0.4 SSW, WI","Latitude":"45.69086","Longitude":"-90.40200","Snowdepth":"19.000","Units":"in","Rept_Date":"2020-01-23 13"},"coordinates":[1605,5809]},{"type":"Point","properties":{"Station_ID":"WI-CH-3","Station_Nam":"CORNELL 4.1 W, WI","Latitude":"45.17024","Longitude":"-91.23610","Snowdepth":"19.000","Units":"in","Rept_Date":"2020-01-23 14"},"coordinates":[1409,5447]},{"type":"Point","properties":{"Station_ID":"VANM1","Station_Nam":"VAN BUREN","Latitude":"47.16600","Longitude":"-67.93900","Snowdepth":"19.000","Units":"in","Rept_Date":"2020-01-23 13"},"coordinates":[6876,6833]},{"type":"Point","properties":{"Station_ID":"SULW3","Station_Nam":"SUMMIT LAKE","Latitude":"45.37880","Longitude":"-89.19410","Snowdepth":"19.000","Units":"in","Rept_Date":"2020-01-23 11"},"coordinates":[1888,5592]},{"type":"Point","properties":{"Station_ID":"STMM4","Station_Nam":"STAMBAUGH 2SSE","Latitude":"46.05550","Longitude":"-88.62780","Snowdepth":"19.000","Units":"in","Rept_Date":"2020-01-23 13"},"coordinates":[2021,6062]},{"type":"Point","properties":{"Station_ID":"SAUW3","Station_Nam":"WAUSAU WSAW TV","Latitude":"44.94630","Longitude":"-89.62220","Snowdepth":"19.000","Units":"in","Rept_Date":"2020-01-24 04"},"coordinates":[1788,5292]},{"type":"Point","properties":{"Station_ID":"RBLW3","Station_Nam":"RIB LAKE","Latitude":"45.31530","Longitude":"-90.20640","Snowdepth":"19.000","Units":"in","Rept_Date":"2020-01-23 19"},"coordinates":[1650,5548]},{"type":"Point","properties":{"Station_ID":"RARM4","Station_Nam":"RAPID RIVER 1 SW","Latitude":"45.91500","Longitude":"-86.98800","Snowdepth":"19.000","Units":"in","Rept_Date":"2020-01-23 12"},"coordinates":[2406,5964]},{"type":"Point","properties":{"Station_ID":"MN-CW-8","Station_Nam":"BRAINERD 11.5 E, MN","Latitude":"46.38556","Longitude":"-93.95720","Snowdepth":"19.000","Units":"in","Rept_Date":"2020-01-23 14"},"coordinates":[770,6291]},{"type":"Point","properties":{"Station_ID":"MIEM4","Station_Nam":"MICHIGAMME 3WNW","Latitude":"46.54530","Longitude":"-88.18000","Snowdepth":"19.000","Units":"in","Rept_Date":"2020-01-23 13"},"coordinates":[2126,6402]},{"type":"Point","properties":{"Station_ID":"LTMW3","Station_Nam":"LAKE TOMAHAWK 2 SE","Latitude":"45.80750","Longitude":"-89.55830","Snowdepth":"19.000","Units":"in","Rept_Date":"2020-01-23 12"},"coordinates":[1803,5890]},{"type":"Point","properties":{"Station_ID":"KGFK","Station_Nam":"GRAND FORKS INTERNATIONAL","Latitude":"47.95000","Longitude":"-97.18333","Snowdepth":"19.000","Units":"in","Rept_Date":"2020-01-24 00"},"coordinates":[13,7377]},{"type":"Point","properties":{"Station_ID":"GFK","Station_Nam":"GRAND FORKS INTERNATIONAL AIRPORT","Latitude":"47.94920","Longitude":"-97.17610","Snowdepth":"19.000","Units":"in","Rept_Date":"2020-01-24 00"},"coordinates":[15,7377]},{"type":"Point","properties":{"Station_ID":"FDRN8","Station_Nam":"FARGO 3S","Latitude":"46.82930","Longitude":"-96.79620","Snowdepth":"19.000","Units":"in","Rept_Date":"2020-01-24 06"},"coordinates":[104,6599]},{"type":"Point","properties":{"Station_ID":"FAR","Station_Nam":"HECTOR INTERNATIONAL ARPT","Latitude":"46.91560","Longitude":"-96.81440","Snowdepth":"19.000","Units":"in","Rept_Date":"2020-01-24 00"},"coordinates":[100,6659]},{"type":"Point","properties":{"Station_ID":"CNRM1","Station_Nam":"CONNOR TWP","Latitude":"46.95830","Longitude":"-68.03330","Snowdepth":"19.000","Units":"in","Rept_Date":"2020-01-23 12"},"coordinates":[6854,6689]},{"type":"Point","properties":{"Station_ID":"CNNW3","Station_Nam":"CRANDON","Latitude":"45.55110","Longitude":"-88.89830","Snowdepth":"19.000","Units":"in","Rept_Date":"2020-01-23 12"},"coordinates":[1957,5712]},{"type":"Point","properties":{"Station_ID":"CLGM5","Station_Nam":"COLLEGEVILLE ST JOHN","Latitude":"45.57940","Longitude":"-94.39200","Snowdepth":"19.000","Units":"in","Rept_Date":"2020-01-24 00"},"coordinates":[668,5731]},{"type":"Point","properties":{"Station_ID":"CARM1","Station_Nam":"CARIBOU WFO","Latitude":"46.86810","Longitude":"-68.01250","Snowdepth":"19.000","Units":"in","Rept_Date":"2020-01-24 05"},"coordinates":[6859,6626]},{"type":"Point","properties":{"Station_ID":"CAR","Station_Nam":"CARIBOU, ME","Latitude":"46.86830","Longitude":"-68.01360","Snowdepth":"19.000","Units":"in","Rept_Date":"2020-01-23 12"},"coordinates":[6859,6626]},{"type":"Point","properties":{"Station_ID":"BRDM1","Station_Nam":"BRIDGEWATER","Latitude":"46.42870","Longitude":"-67.84370","Snowdepth":"19.000","Units":"in","Rept_Date":"2020-01-23 23"},"coordinates":[6899,6321]},{"type":"Point","properties":{"Station_ID":"AWXW3","Station_Nam":"ASHLAND","Latitude":"46.58240","Longitude":"-90.88390","Snowdepth":"19.000","Units":"in","Rept_Date":"2020-01-23 13"},"coordinates":[1491,6428]},{"type":"Point","properties":{"Station_ID":"ASTW3","Station_Nam":"ATHELSTANE","Latitude":"45.42500","Longitude":"-88.05750","Snowdepth":"19.000","Units":"in","Rept_Date":"2020-01-23 12"},"coordinates":[2155,5624]},{"type":"Point","properties":{"Station_ID":"WI-LN-2","Station_Nam":"MERRILL 7.0 W, WI","Latitude":"45.17746","Longitude":"-89.84820","Snowdepth":"18.500","Units":"in","Rept_Date":"2020-01-23 12"},"coordinates":[1734,5452]},{"type":"Point","properties":{"Station_ID":"WI-PR-2","Station_Nam":"BUTTERNUT 5.9 SW, WI","Latitude":"45.96501","Longitude":"-90.59750","Snowdepth":"18.000","Units":"in","Rept_Date":"2020-01-23 12"},"coordinates":[1559,5999]},{"type":"Point","properties":{"Station_ID":"WI-MT-14","Station_Nam":"MOSINEE 2.7 WSW, WI","Latitude":"44.77240","Longitude":"-89.73441","Snowdepth":"18.000","Units":"in","Rept_Date":"2020-01-23 12"},"coordinates":[1761,5171]},{"type":"Point","properties":{"Station_ID":"SUTV1","Station_Nam":"SUTTON","Latitude":"44.61220","Longitude":"-72.04810","Snowdepth":"18.000","Units":"in","Rept_Date":"2020-01-23 13"},"coordinates":[5912,5060]},{"type":"Point","properties":{"Station_ID":"STRW3","Station_Nam":"STRATFORD 1NW","Latitude":"44.81750","Longitude":"-90.08990","Snowdepth":"18.000","Units":"in","Rept_Date":"2020-01-23 12"},"coordinates":[1678,5202]},{"type":"Point","properties":{"Station_ID":"NH-CS-10","Station_Nam":"RANDOLPH 1.4 NE, NH","Latitude":"44.38824","Longitude":"-71.26950","Snowdepth":"18.000","Units":"in","Rept_Date":"2020-01-23 12"},"coordinates":[6095,4905]},{"type":"Point","properties":{"Station_ID":"MN-AT-5","Station_Nam":"TAMARACK 1.4 SW, MN","Latitude":"46.63760","Longitude":"-93.14554","Snowdepth":"18.000","Units":"in","Rept_Date":"2020-01-23 13"},"coordinates":[961,6466]},{"type":"Point","properties":{"Station_ID":"MI-OT-17","Station_Nam":"GAYLORD 4.1 S, MI","Latitude":"44.96388","Longitude":"-84.68467","Snowdepth":"18.000","Units":"in","Rept_Date":"2020-01-23 12"},"coordinates":[2946,5304]},{"type":"Point","properties":{"Station_ID":"MI-DL-1","Station_Nam":"GARDEN CORNERS 0.8 NW, MI","Latitude":"45.89815","Longitude":"-86.54850","Snowdepth":"18.000","Units":"in","Rept_Date":"2020-01-23 13"},"coordinates":[2509,5953]},{"type":"Point","properties":{"Station_ID":"MI-AT-6","Station_Nam":"MANCELONA 0.5 ESE, MI","Latitude":"44.89981","Longitude":"-85.05100","Snowdepth":"18.000","Units":"in","Rept_Date":"2020-01-23 13"},"coordinates":[2860,5260]},{"type":"Point","properties":{"Station_ID":"LUCW3","Station_Nam":"LUCK","Latitude":"45.57330","Longitude":"-92.48520","Snowdepth":"18.000","Units":"in","Rept_Date":"2020-01-23 22"},"coordinates":[1116,5727]},{"type":"Point","properties":{"Station_ID":"JCBM4","Station_Nam":"JACOBSVILLE","Latitude":"47.00830","Longitude":"-88.43180","Snowdepth":"18.000","Units":"in","Rept_Date":"2020-01-23 12"},"coordinates":[2067,6723]},{"type":"Point","properties":{"Station_ID":"GDCM4","Station_Nam":"GARDEN CORNERS","Latitude":"45.89830","Longitude":"-86.54850","Snowdepth":"18.000","Units":"in","Rept_Date":"2020-01-23 13"},"coordinates":[2509,5953]},{"type":"Point","properties":{"Station_ID":"EPTW3","Station_Nam":"EAU PLEINE TENDER","Latitude":"44.77220","Longitude":"-89.76720","Snowdepth":"18.000","Units":"in","Rept_Date":"2020-01-23 13"},"coordinates":[1753,5171]},{"type":"Point","properties":{"Station_ID":"COUW3","Station_Nam":"COUDERAY,WI","Latitude":"45.86670","Longitude":"-91.45000","Snowdepth":"18.000","Units":"in","Rept_Date":"2020-01-23 22"},"coordinates":[1359,5931]},{"type":"Point","properties":{"Station_ID":"CAN-NB-89","Station_Nam":"MEMRAMCOOK 4.0 W, CAN","Latitude":"46.01133","Longitude":"-64.60244","Snowdepth":"17.700","Units":"in","Rept_Date":"2020-01-23 13"},"coordinates":[7659,6031]},{"type":"Point","properties":{"Station_ID":"WI-WB-16","Station_Nam":"SARONA 4.5 NNE, WI","Latitude":"45.77030","Longitude":"-91.76890","Snowdepth":"17.500","Units":"in","Rept_Date":"2020-01-23 14"},"coordinates":[1284,5864]},{"type":"Point","properties":{"Station_ID":"WI-DN-1","Station_Nam":"BOYCEVILLE 3.3 N, WI","Latitude":"45.08913","Longitude":"-92.02760","Snowdepth":"17.500","Units":"in","Rept_Date":"2020-01-23 13"},"coordinates":[1223,5391]},{"type":"Point","properties":{"Station_ID":"VT-CL-40","Station_Nam":"LYNDONVILLE 4.2 NNW, VT","Latitude":"44.59440","Longitude":"-72.02389","Snowdepth":"17.500","Units":"in","Rept_Date":"2020-01-23 12"},"coordinates":[5918,5048]},{"type":"Point","properties":{"Station_ID":"MN-BK-10","Station_Nam":"DETROIT LAKES 5.7 N, MN","Latitude":"46.88666","Longitude":"-95.84444","Snowdepth":"17.500","Units":"in","Rept_Date":"2020-01-23 10"},"coordinates":[327,6639]},{"type":"Point","properties":{"Station_ID":"WUNW3","Station_Nam":"WAUSAU-NORTHEAST","Latitude":"44.97310","Longitude":"-89.61690","Snowdepth":"17.000","Units":"in","Rept_Date":"2020-01-23 11"},"coordinates":[1789,5311]},{"type":"Point","properties":{"Station_ID":"WI-SR-5","Station_Nam":"HAYWARD 9.7 NE, WI","Latitude":"46.12030","Longitude":"-91.35370","Snowdepth":"17.000","Units":"in","Rept_Date":"2020-01-23 14"},"coordinates":[1381,6107]},{"type":"Point","properties":{"Station_ID":"WI-MT-1","Station_Nam":"SCHOFIELD 3.3 E, WI","Latitude":"44.91806","Longitude":"-89.54470","Snowdepth":"17.000","Units":"in","Rept_Date":"2020-01-23 13"},"coordinates":[1806,5272]},{"type":"Point","properties":{"Station_ID":"VT-OL-1","Station_Nam":"WESTFIELD 0.7 WNW, VT","Latitude":"44.89160","Longitude":"-72.44350","Snowdepth":"17.000","Units":"in","Rept_Date":"2020-01-23 12"},"coordinates":[5819,5254]},{"type":"Point","properties":{"Station_ID":"PKFW3","Station_Nam":"PARK FALLS,WI","Latitude":"45.93360","Longitude":"-90.45060","Snowdepth":"17.000","Units":"in","Rept_Date":"2020-01-23 14"},"coordinates":[1593,5977]},{"type":"Point","properties":{"Station_ID":"MQRW3","Station_Nam":"MINOCQUA","Latitude":"45.88630","Longitude":"-89.73220","Snowdepth":"17.000","Units":"in","Rept_Date":"2020-01-23 12"},"coordinates":[1762,5944]},{"type":"Point","properties":{"Station_ID":"MOOM5","Station_Nam":"MOOSE LAKE,MN","Latitude":"46.45000","Longitude":"-92.75780","Snowdepth":"17.000","Units":"in","Rept_Date":"2020-01-24 06"},"coordinates":[1052,6336]},{"type":"Point","properties":{"Station_ID":"KSEM4","Station_Nam":"KALKASKA 11SE","Latitude":"44.58970","Longitude":"-85.04860","Snowdepth":"17.000","Units":"in","Rept_Date":"2020-01-23 13"},"coordinates":[2861,5044]},{"type":"Point","properties":{"Station_ID":"KINM1","Station_Nam":"KINGFIELD","Latitude":"44.95950","Longitude":"-70.17530","Snowdepth":"17.000","Units":"in","Rept_Date":"2020-01-23 13"},"coordinates":[6352,5301]},{"type":"Point","properties":{"Station_ID":"GRFN8","Station_Nam":"UNIVERSITY","Latitude":"47.93330","Longitude":"-97.08330","Snowdepth":"17.000","Units":"in","Rept_Date":"2020-01-24 06"},"coordinates":[36,7365]},{"type":"Point","properties":{"Station_ID":"EAHV1","Station_Nam":"EAST HAVEN","Latitude":"44.64250","Longitude":"-71.89120","Snowdepth":"17.000","Units":"in","Rept_Date":"2020-01-23 12"},"coordinates":[5949,5081]},{"type":"Point","properties":{"Station_ID":"ANJM4","Station_Nam":"SNOW PAID OBSERVER FOR KANJ","Latitude":"46.48670","Longitude":"-84.40260","Snowdepth":"17.000","Units":"in","Rept_Date":"2020-01-24 06"},"coordinates":[3013,6361]},{"type":"Point","properties":{"Station_ID":"MN-CW-29","Station_Nam":"BRAINERD 7.7 SSE, MN","Latitude":"46.24996","Longitude":"-94.14576","Snowdepth":"16.500","Units":"in","Rept_Date":"2020-01-23 13"},"coordinates":[726,6197]},{"type":"Point","properties":{"Station_ID":"ME-PN-45","Station_Nam":"MILLINOCKET 2.7 ESE, ME","Latitude":"45.65002","Longitude":"-68.64472","Snowdepth":"16.500","Units":"in","Rept_Date":"2020-01-23 12"},"coordinates":[6711,5780]},{"type":"Point","properties":{"Station_ID":"CAN-NB-2","Station_Nam":"GRAFTON 2.7 NNE, CA","Latitude":"46.17062","Longitude":"-67.55330","Snowdepth":"16.500","Units":"in","Rept_Date":"2020-01-23 11"},"coordinates":[6967,6142]},{"type":"Point","properties":{"Station_ID":"CAN-NS-163","Station_Nam":"SYDNEY MINES 2.2 WNW, CAN","Latitude":"46.24851","Longitude":"-60.25161","Snowdepth":"16.100","Units":"in","Rept_Date":"2020-01-23 12"},"coordinates":[8681,6196]},{"type":"Point","properties":{"Station_ID":"WI-EC-23","Station_Nam":"EAU CLAIRE 3.7 S, WI","Latitude":"44.76858","Longitude":"-91.49898","Snowdepth":"16.000","Units":"in","Rept_Date":"2020-01-23 14"},"coordinates":[1347,5169]},{"type":"Point","properties":{"Station_ID":"WI-CH-7","Station_Nam":"CHIPPEWA FALLS 1.2 E, WI","Latitude":"44.92920","Longitude":"-91.36730","Snowdepth":"16.000","Units":"in","Rept_Date":"2020-01-23 13"},"coordinates":[1378,5280]},{"type":"Point","properties":{"Station_ID":"SSMM4","Station_Nam":"SAULT STE MARIE","Latitude":"46.48660","Longitude":"-84.40250","Snowdepth":"16.000","Units":"in","Rept_Date":"2020-01-23 13"},"coordinates":[3013,6361]},{"type":"Point","properties":{"Station_ID":"SPCW3","Station_Nam":"SPENCER-WWTP","Latitude":"44.75390","Longitude":"-90.28920","Snowdepth":"16.000","Units":"in","Rept_Date":"2020-01-23 13"},"coordinates":[1631,5158]},{"type":"Point","properties":{"Station_ID":"RRLW3","Station_Nam":"MERRILL,WI","Latitude":"45.17860","Longitude":"-89.66170","Snowdepth":"16.000","Units":"in","Rept_Date":"2020-01-23 14"},"coordinates":[1778,5453]},{"type":"Point","properties":{"Station_ID":"MLLW3","Station_Nam":"MERRILL 8W","Latitude":"45.17810","Longitude":"-89.84810","Snowdepth":"16.000","Units":"in","Rept_Date":"2020-01-23 12"},"coordinates":[1735,5453]},{"type":"Point","properties":{"Station_ID":"MFDW3","Station_Nam":"MARSHFIELD EXP FARM","Latitude":"44.64110","Longitude":"-90.13330","Snowdepth":"16.000","Units":"in","Rept_Date":"2020-01-23 13"},"coordinates":[1668,5080]},{"type":"Point","properties":{"Station_ID":"MEDW3","Station_Nam":"MEDFORD","Latitude":"45.13080","Longitude":"-90.34390","Snowdepth":"16.000","Units":"in","Rept_Date":"2020-01-23 14"},"coordinates":[1618,5420]},{"type":"Point","properties":{"Station_ID":"ME-CM-125","Station_Nam":"CUMBERLAND CENTER 4.4 NW, ME","Latitude":"43.84640","Longitude":"-70.31340","Snowdepth":"16.000","Units":"in","Rept_Date":"2020-01-23 12"},"coordinates":[6319,4528]},{"type":"Point","properties":{"Station_ID":"MADM5","Station_Nam":"MADISON WWTP","Latitude":"45.00230","Longitude":"-96.16610","Snowdepth":"16.000","Units":"in","Rept_Date":"2020-01-23 14"},"coordinates":[252,5331]},{"type":"Point","properties":{"Station_ID":"GLWM5","Station_Nam":"GLENWOOD 1N","Latitude":"45.66580","Longitude":"-95.38690","Snowdepth":"16.000","Units":"in","Rept_Date":"2020-01-23 13"},"coordinates":[435,5791]},{"type":"Point","properties":{"Station_ID":"FISM1","Station_Nam":"FORT KENT COOP","Latitude":"47.23850","Longitude":"-68.61240","Snowdepth":"16.000","Units":"in","Rept_Date":"2020-01-23 12"},"coordinates":[6718,6883]},{"type":"Point","properties":{"Station_ID":"DFXM1","Station_Nam":"DOVER-FOXCROFT","Latitude":"45.18720","Longitude":"-69.18350","Snowdepth":"16.000","Units":"in","Rept_Date":"2020-01-23 12"},"coordinates":[6584,5459]},{"type":"Point","properties":{"Station_ID":"CORV1","Station_Nam":"CORINTH","Latitude":"44.00690","Longitude":"-72.31940","Snowdepth":"16.000","Units":"in","Rept_Date":"2020-01-23 12"},"coordinates":[5848,4640]},{"type":"Point","properties":{"Station_ID":"CBLW3","Station_Nam":"CUMBERLAND","Latitude":"45.53310","Longitude":"-92.02260","Snowdepth":"16.000","Units":"in","Rept_Date":"2020-01-23 13"},"coordinates":[1224,5699]},{"type":"Point","properties":{"Station_ID":"CAN-PE-19","Station_Nam":"CHARLOTTETOWN 6.5 NNW, CAN","Latitude":"46.29235","Longitude":"-63.17271","Snowdepth":"16.000","Units":"in","Rept_Date":"2020-01-23 12"},"coordinates":[7995,6226]},{"type":"Point","properties":{"Station_ID":"ANJ","Station_Nam":"SAULT STE MARIE","Latitude":"46.46670","Longitude":"-84.36670","Snowdepth":"16.000","Units":"in","Rept_Date":"2020-01-24 00"},"coordinates":[3021,6347]},{"type":"Point","properties":{"Station_ID":"ALXM5","Station_Nam":"ALEXANDRIA","Latitude":"45.87820","Longitude":"-95.38270","Snowdepth":"16.000","Units":"in","Rept_Date":"2020-01-23 12"},"coordinates":[436,5939]},{"type":"Point","properties":{"Station_ID":"MI-CX-7","Station_Nam":"EAST JORDAN 2.1 NNW, MI","Latitude":"45.18639","Longitude":"-85.14750","Snowdepth":"15.500","Units":"in","Rept_Date":"2020-01-23 13"},"coordinates":[2838,5459]},{"type":"Point","properties":{"Station_ID":"WI-TY-3","Station_Nam":"MEDFORD 0.8 ENE, WI","Latitude":"45.14370","Longitude":"-90.33338","Snowdepth":"15.000","Units":"in","Rept_Date":"2020-01-23 13"},"coordinates":[1621,5429]},{"type":"Point","properties":{"Station_ID":"WI-TY-2","Station_Nam":"SHELDON 8.1 ENE, WI","Latitude":"45.35598","Longitude":"-90.80296","Snowdepth":"15.000","Units":"in","Rept_Date":"2020-01-23 13"},"coordinates":[1510,5576]},{"type":"Point","properties":{"Station_ID":"VT-OL-12","Station_Nam":"GREENSBORO 3.9 NNE, VT","Latitude":"44.63100","Longitude":"-72.28000","Snowdepth":"15.000","Units":"in","Rept_Date":"2020-01-23 12"},"coordinates":[5858,5073]},{"type":"Point","properties":{"Station_ID":"TAKW3","Station_Nam":"RICE RESERVOIR NO. 2","Latitude":"45.53770","Longitude":"-89.73220","Snowdepth":"15.000","Units":"in","Rept_Date":"2020-01-23 13"},"coordinates":[1762,5702]},{"type":"Point","properties":{"Station_ID":"RSTW3","Station_Nam":"ROSHOLT","Latitude":"44.62710","Longitude":"-89.30600","Snowdepth":"15.000","Units":"in","Rept_Date":"2020-01-23 13"},"coordinates":[1862,5070]},{"type":"Point","properties":{"Station_ID":"OWEW3","Station_Nam":"OWEN 1E","Latitude":"44.94610","Longitude":"-90.55170","Snowdepth":"15.000","Units":"in","Rept_Date":"2020-01-23 13"},"coordinates":[1569,5292]},{"type":"Point","properties":{"Station_ID":"NELW3","Station_Nam":"NEILLSVILLE 3ESE","Latitude":"44.53780","Longitude":"-90.53500","Snowdepth":"15.000","Units":"in","Rept_Date":"2020-01-23 13"},"coordinates":[1573,5008]},{"type":"Point","properties":{"Station_ID":"MN-PK-15","Station_Nam":"MENTOR 2.5 SSW, MN","Latitude":"47.66625","Longitude":"-96.17328","Snowdepth":"15.000","Units":"in","Rept_Date":"2020-01-23 13"},"coordinates":[250,7180]},{"type":"Point","properties":{"Station_ID":"ME-FR-4","Station_Nam":"NEW SHARON 2.0 NW, ME","Latitude":"44.66582","Longitude":"-70.02720","Snowdepth":"15.000","Units":"in","Rept_Date":"2020-01-23 12"},"coordinates":[6386,5097]},{"type":"Point","properties":{"Station_ID":"ME-CM-98","Station_Nam":"SEBAGO 2.4 ESE, ME","Latitude":"43.88000","Longitude":"-70.63000","Snowdepth":"15.000","Units":"in","Rept_Date":"2020-01-23 14"},"coordinates":[6245,4552]},{"type":"Point","properties":{"Station_ID":"LNGM5","Station_Nam":"LONG PRAIRIE","Latitude":"45.96460","Longitude":"-94.88920","Snowdepth":"15.000","Units":"in","Rept_Date":"2020-01-23 12"},"coordinates":[551,5999]},{"type":"Point","properties":{"Station_ID":"LILM1","Station_Nam":"LILLE","Latitude":"47.27770","Longitude":"-68.10520","Snowdepth":"15.000","Units":"in","Rept_Date":"2020-01-23 12"},"coordinates":[6837,6910]},{"type":"Point","properties":{"Station_ID":"LGRN8","Station_Nam":"LIDGERWOOD,ND","Latitude":"46.06670","Longitude":"-97.16670","Snowdepth":"15.000","Units":"in","Rept_Date":"2020-01-23 13"},"coordinates":[17,6070]},{"type":"Point","properties":{"Station_ID":"JIMW3","Station_Nam":"JIM FALLS 3NW","Latitude":"45.08270","Longitude":"-91.33130","Snowdepth":"15.000","Units":"in","Rept_Date":"2020-01-23 12"},"coordinates":[1386,5387]},{"type":"Point","properties":{"Station_ID":"ISEM5","Station_Nam":"ISLE 12N","Latitude":"46.31970","Longitude":"-93.50140","Snowdepth":"15.000","Units":"in","Rept_Date":"2020-01-23 14"},"coordinates":[877,6245]},{"type":"Point","properties":{"Station_ID":"HOLM1","Station_Nam":"HOLLIS","Latitude":"43.64750","Longitude":"-70.67490","Snowdepth":"15.000","Units":"in","Rept_Date":"2020-01-23 11"},"coordinates":[6234,4390]},{"type":"Point","properties":{"Station_ID":"ENGM4","Station_Nam":"ENGADINE MDOT","Latitude":"46.12800","Longitude":"-85.56960","Snowdepth":"15.000","Units":"in","Rept_Date":"2020-01-23 12"},"coordinates":[2739,6112]},{"type":"Point","properties":{"Station_ID":"EJNM4","Station_Nam":"EAST JORDAN 2NW","Latitude":"45.18630","Longitude":"-85.14770","Snowdepth":"15.000","Units":"in","Rept_Date":"2020-01-23 13"},"coordinates":[2838,5459]},{"type":"Point","properties":{"Station_ID":"EAU","Station_Nam":"CHIPPEWA VALLEY REGIONAL AIRPORT","Latitude":"44.86650","Longitude":"-91.48790","Snowdepth":"15.000","Units":"in","Rept_Date":"2020-01-23 12"},"coordinates":[1350,5237]},{"type":"Point","properties":{"Station_ID":"CAN-PE-20","Station_Nam":"BONSHAW 6.6 NNE, CAN","Latitude":"46.25082","Longitude":"-63.33409","Snowdepth":"15.000","Units":"in","Rept_Date":"2020-01-23 12"},"coordinates":[7957,6198]},{"type":"Point","properties":{"Station_ID":"CAN-NB-13","Station_Nam":"BATHURST 3.8 NW, CAN","Latitude":"47.64212","Longitude":"-65.68756","Snowdepth":"15.000","Units":"in","Rept_Date":"2020-01-23 11"},"coordinates":[7405,7163]},{"type":"Point","properties":{"Station_ID":"BOWW3","Station_Nam":"STOCKBRIDGE-MUNSEE RESERVATION","Latitude":"44.87000","Longitude":"-88.90440","Snowdepth":"15.000","Units":"in","Rept_Date":"2020-01-23 14"},"coordinates":[1956,5239]},{"type":"Point","properties":{"Station_ID":"BALW3","Station_Nam":"BALDWIN","Latitude":"44.96330","Longitude":"-92.39050","Snowdepth":"15.000","Units":"in","Rept_Date":"2020-01-23 13"},"coordinates":[1138,5304]},{"type":"Point","properties":{"Station_ID":"AVLV1","Station_Nam":"AVERILL","Latitude":"45.00570","Longitude":"-71.69030","Snowdepth":"15.000","Units":"in","Rept_Date":"2020-01-23 13"},"coordinates":[5996,5333]},{"type":"Point","properties":{"Station_ID":"APXM4","Station_Nam":"GAYLORD 9SSW","Latitude":"44.90720","Longitude":"-84.71880","Snowdepth":"15.000","Units":"in","Rept_Date":"2020-01-24 06"},"coordinates":[2938,5265]},{"type":"Point","properties":{"Station_ID":"CAN-ON-757","Station_Nam":"SAULT STE. MARIE 2.8 ESE - GLFC, CAN","Latitude":"46.50300","Longitude":"-84.30300","Snowdepth":"14.800","Units":"in","Rept_Date":"2020-01-23 13"},"coordinates":[3036,6373]},{"type":"Point","properties":{"Station_ID":"CAN-PE-7","Station_Nam":"MORELL 1.4 NNW, CA","Latitude":"46.42741","Longitude":"-62.70870","Snowdepth":"14.700","Units":"in","Rept_Date":"2020-01-23 12"},"coordinates":[8104,6320]},{"type":"Point","properties":{"Station_ID":"MN-MR-13","Station_Nam":"LITTLE FALLS 8.0 NE, MN","Latitude":"46.06785","Longitude":"-94.24789","Snowdepth":"14.500","Units":"in","Rept_Date":"2020-01-23 13"},"coordinates":[702,6070]},{"type":"Point","properties":{"Station_ID":"MI-DL-4","Station_Nam":"GLADSTONE 2.1 SW, MI","Latitude":"45.83218","Longitude":"-87.05727","Snowdepth":"14.500","Units":"in","Rept_Date":"2020-01-23 12"},"coordinates":[2389,5907]},{"type":"Point","properties":{"Station_ID":"ME-YK-3","Station_Nam":"HOLLIS CENTER 5.4 NW, ME","Latitude":"43.64750","Longitude":"-70.67510","Snowdepth":"14.500","Units":"in","Rept_Date":"2020-01-23 12"},"coordinates":[6234,4390]},{"type":"Point","properties":{"Station_ID":"CAN-MB-32","Station_Nam":"PINAWA 1.0 SW, CA","Latitude":"50.14747","Longitude":"-95.89020","Snowdepth":"14.500","Units":"in","Rept_Date":"2020-01-23 13"},"coordinates":[316,8903]},{"type":"Point","properties":{"Station_ID":"WSKW3","Station_Nam":"WAUSAUKEE","Latitude":"45.38020","Longitude":"-87.95660","Snowdepth":"14.000","Units":"in","Rept_Date":"2020-01-23 14"},"coordinates":[2178,5593]},{"type":"Point","properties":{"Station_ID":"WLKM5","Station_Nam":"AH-GWAH-CHING","Latitude":"47.15000","Longitude":"-94.65000","Snowdepth":"14.000","Units":"in","Rept_Date":"2020-01-23 11"},"coordinates":[608,6822]},{"type":"Point","properties":{"Station_ID":"WILW3","Station_Nam":"RESERVOIR","Latitude":"45.70000","Longitude":"-89.83330","Snowdepth":"14.000","Units":"in","Rept_Date":"2020-01-23 12"},"coordinates":[1738,5815]},{"type":"Point","properties":{"Station_ID":"VT-OG-11","Station_Nam":"VERSHIRE 1.5 ESE, VT","Latitude":"43.96138","Longitude":"-72.29777","Snowdepth":"14.000","Units":"in","Rept_Date":"2020-01-23 13"},"coordinates":[5853,4608]},{"type":"Point","properties":{"Station_ID":"VT-ES-1","Station_Nam":"GRANBY 1.4 NW, VT","Latitude":"44.58330","Longitude":"-71.77870","Snowdepth":"14.000","Units":"in","Rept_Date":"2020-01-23 12"},"coordinates":[5975,5040]},{"type":"Point","properties":{"Station_ID":"SD-RB-4","Station_Nam":"SISSETON 10.4 ENE, SD","Latitude":"45.69480","Longitude":"-96.83480","Snowdepth":"14.000","Units":"in","Rept_Date":"2020-01-23 13"},"coordinates":[95,5812]},{"type":"Point","properties":{"Station_ID":"RGNM1","Station_Nam":"RANGELEY 2NW","Latitude":"44.98940","Longitude":"-70.67220","Snowdepth":"14.000","Units":"in","Rept_Date":"2020-01-23 11"},"coordinates":[6235,5322]},{"type":"Point","properties":{"Station_ID":"RCEM5","Station_Nam":"RICE","Latitude":"45.75760","Longitude":"-94.20720","Snowdepth":"14.000","Units":"in","Rept_Date":"2020-01-23 13"},"coordinates":[711,5855]},{"type":"Point","properties":{"Station_ID":"ONMM5","Station_Nam":"ONAMIA RANGER STATION","Latitude":"46.06770","Longitude":"-93.66660","Snowdepth":"14.000","Units":"in","Rept_Date":"2020-01-23 14"},"coordinates":[838,6070]},{"type":"Point","properties":{"Station_ID":"NUMN3","Station_Nam":"NORTHUMBERLAND","Latitude":"44.52830","Longitude":"-71.50440","Snowdepth":"14.000","Units":"in","Rept_Date":"2020-01-23 13"},"coordinates":[6040,5002]},{"type":"Point","properties":{"Station_ID":"MRAM4","Station_Nam":"MORAN","Latitude":"45.99030","Longitude":"-84.83610","Snowdepth":"14.000","Units":"in","Rept_Date":"2020-01-23 13"},"coordinates":[2911,6017]},{"type":"Point","properties":{"Station_ID":"MN-MR-4","Station_Nam":"LITTLE FALLS 1.2 SW, MN","Latitude":"45.96886","Longitude":"-94.37720","Snowdepth":"14.000","Units":"in","Rept_Date":"2020-01-23 13"},"coordinates":[672,6002]},{"type":"Point","properties":{"Station_ID":"MLCM5","Station_Nam":"MILACA","Latitude":"45.75320","Longitude":"-93.66170","Snowdepth":"14.000","Units":"in","Rept_Date":"2020-01-23 13"},"coordinates":[839,5852]},{"type":"Point","properties":{"Station_ID":"MI-OT-4","Station_Nam":"GAYLORD 1.7 WNW, MI","Latitude":"45.03280","Longitude":"-84.71090","Snowdepth":"14.000","Units":"in","Rept_Date":"2020-01-23 13"},"coordinates":[2940,5352]},{"type":"Point","properties":{"Station_ID":"GAYM4","Station_Nam":"GAYLORD","Latitude":"45.03320","Longitude":"-84.71130","Snowdepth":"14.000","Units":"in","Rept_Date":"2020-01-23 13"},"coordinates":[2940,5352]},{"type":"Point","properties":{"Station_ID":"FARM1","Station_Nam":"FARMINGTON","Latitude":"44.68930","Longitude":"-70.15640","Snowdepth":"14.000","Units":"in","Rept_Date":"2020-01-23 12"},"coordinates":[6356,5113]},{"type":"Point","properties":{"Station_ID":"ETTW3","Station_Nam":"ETTRICK 4WNW","Latitude":"44.19000","Longitude":"-91.34240","Snowdepth":"14.000","Units":"in","Rept_Date":"2020-01-23 13"},"coordinates":[1384,4767]},{"type":"Point","properties":{"Station_ID":"CHRM4","Station_Nam":"CHARLEVOIX","Latitude":"45.31720","Longitude":"-85.26720","Snowdepth":"14.000","Units":"in","Rept_Date":"2020-01-23 13"},"coordinates":[2810,5549]},{"type":"Point","properties":{"Station_ID":"BREW3","Station_Nam":"SURING","Latitude":"44.99580","Longitude":"-88.37860","Snowdepth":"14.000","Units":"in","Rept_Date":"2020-01-23 14"},"coordinates":[2079,5326]},{"type":"Point","properties":{"Station_ID":"BRAM1","Station_Nam":"BRASSUA DAM","Latitude":"45.66020","Longitude":"-69.81190","Snowdepth":"14.000","Units":"in","Rept_Date":"2020-01-23 12"},"coordinates":[6437,5787]},{"type":"Point","properties":{"Station_ID":"ARTM5","Station_Nam":"ARTICHOKE LAKE 1 E","Latitude":"45.38560","Longitude":"-96.12570","Snowdepth":"14.000","Units":"in","Rept_Date":"2020-01-24 00"},"coordinates":[261,5597]},{"type":"Point","properties":{"Station_ID":"ABGW3","Station_Nam":"AMBERG 9 E","Latitude":"45.48250","Longitude":"-87.81190","Snowdepth":"14.000","Units":"in","Rept_Date":"2020-01-23 12"},"coordinates":[2212,5664]},{"type":"Point","properties":{"Station_ID":"FTHQ6","Station_Nam":"FORT HOPE","Latitude":"51.55820","Longitude":"-87.90510","Snowdepth":"13.980","Units":"in","Rept_Date":"2020-01-24 06"},"coordinates":[2191,9882]},{"type":"Point","properties":{"Station_ID":"CAN-NS-159","Station_Nam":"NORTHPORT 0.1 NE, CAN","Latitude":"45.93299","Longitude":"-63.86711","Snowdepth":"13.800","Units":"in","Rept_Date":"2020-01-23 11"},"coordinates":[7832,5977]},{"type":"Point","properties":{"Station_ID":"VT-OL-9","Station_Nam":"GREENSBORO 2.1 NNW, VT","Latitude":"44.60528","Longitude":"-72.30940","Snowdepth":"13.500","Units":"in","Rept_Date":"2020-01-23 12"},"coordinates":[5851,5055]},{"type":"Point","properties":{"Station_ID":"VT-CL-14","Station_Nam":"LYNDONVILLE 1.1 W, VT","Latitude":"44.53582","Longitude":"-72.02867","Snowdepth":"13.500","Units":"in","Rept_Date":"2020-01-23 12"},"coordinates":[5917,5007]},{"type":"Point","properties":{"Station_ID":"SD-CD-30","Station_Nam":"WATERTOWN 2.3 E, SD","Latitude":"44.91604","Longitude":"-97.11925","Snowdepth":"13.500","Units":"in","Rept_Date":"2020-01-23 13"},"coordinates":[28,5271]},{"type":"Point","properties":{"Station_ID":"NH-GR-49","Station_Nam":"PLYMOUTH 3.7 N, NH","Latitude":"43.79048","Longitude":"-71.68413","Snowdepth":"13.500","Units":"in","Rept_Date":"2020-01-23 12"},"coordinates":[5997,4490]},{"type":"Point","properties":{"Station_ID":"NH-CR-11","Station_Nam":"NORTH CONWAY 1.4 SSW, NH","Latitude":"44.03556","Longitude":"-71.14010","Snowdepth":"13.500","Units":"in","Rept_Date":"2020-01-23 12"},"coordinates":[6125,4660]},{"type":"Point","properties":{"Station_ID":"MI-CP-14","Station_Nam":"SAULT STE. MARIE 2.2 E, MI","Latitude":"46.48933","Longitude":"-84.31971","Snowdepth":"13.500","Units":"in","Rept_Date":"2020-01-23 12"},"coordinates":[3032,6363]},{"type":"Point","properties":{"Station_ID":"ME-CM-3","Station_Nam":"NEW GLOUCESTER 3.0 SE, ME","Latitude":"43.92372","Longitude":"-70.25790","Snowdepth":"13.500","Units":"in","Rept_Date":"2020-01-23 12"},"coordinates":[6332,4582]},{"type":"Point","properties":{"Station_ID":"CAN-PE-3","Station_Nam":"WELLINGTON 1.6 NE, CA","Latitude":"46.46672","Longitude":"-63.98920","Snowdepth":"13.500","Units":"in","Rept_Date":"2020-01-23 11"},"coordinates":[7803,6347]},{"type":"Point","properties":{"Station_ID":"ME-AN-32","Station_Nam":"WINTHROP 9.4 W, ME","Latitude":"44.30476","Longitude":"-70.15835","Snowdepth":"13.400","Units":"in","Rept_Date":"2020-01-23 12"},"coordinates":[6356,4847]},{"type":"Point","properties":{"Station_ID":"CAN-NB-97","Station_Nam":"NEW MARYLAND 0.6 NW, CAN","Latitude":"45.90112","Longitude":"-66.68739","Snowdepth":"13.400","Units":"in","Rept_Date":"2020-01-23 11"},"coordinates":[7170,5955]},{"type":"Point","properties":{"Station_ID":"WI-PT-8","Station_Nam":"RUDOLPH 2.1 NNE, WI","Latitude":"44.52553","Longitude":"-89.78677","Snowdepth":"13.000","Units":"in","Rept_Date":"2020-01-23 11"},"coordinates":[1749,5000]},{"type":"Point","properties":{"Station_ID":"WI-DN-3","Station_Nam":"MENOMONIE 0.9 SSE, WI","Latitude":"44.87546","Longitude":"-91.91033","Snowdepth":"13.000","Units":"in","Rept_Date":"2020-01-23 13"},"coordinates":[1251,5243]},{"type":"Point","properties":{"Station_ID":"WABM5","Station_Nam":"WABASHA","Latitude":"44.38500","Longitude":"-92.04860","Snowdepth":"13.000","Units":"in","Rept_Date":"2020-01-23 13"},"coordinates":[1218,4902]},{"type":"Point","properties":{"Station_ID":"VANM4","Station_Nam":"VANDERBILT 11ENE","Latitude":"45.17020","Longitude":"-84.43970","Snowdepth":"13.000","Units":"in","Rept_Date":"2020-01-23 13"},"coordinates":[3004,5447]},{"type":"Point","properties":{"Station_ID":"SIWS2","Station_Nam":"SISSETON 3W","Latitude":"45.65870","Longitude":"-97.12450","Snowdepth":"13.000","Units":"in","Rept_Date":"2020-01-23 13"},"coordinates":[27,5786]},{"type":"Point","properties":{"Station_ID":"SIBI4","Station_Nam":"SIBLEY","Latitude":"43.40470","Longitude":"-95.74830","Snowdepth":"13.000","Units":"in","Rept_Date":"2020-01-23 13"},"coordinates":[350,4222]},{"type":"Point","properties":{"Station_ID":"SD-RB-1","Station_Nam":"SISSETON 3.8 W, SD","Latitude":"45.65865","Longitude":"-97.12370","Snowdepth":"13.000","Units":"in","Rept_Date":"2020-01-23 13"},"coordinates":[27,5786]},{"type":"Point","properties":{"Station_ID":"SD-BK-7","Station_Nam":"BROOKINGS 0.2 SSW, SD","Latitude":"44.30389","Longitude":"-96.78780","Snowdepth":"13.000","Units":"in","Rept_Date":"2020-01-23 13"},"coordinates":[106,4846]},{"type":"Point","properties":{"Station_ID":"SANI4","Station_Nam":"ST ANSGAR","Latitude":"43.38170","Longitude":"-92.92320","Snowdepth":"13.000","Units":"in","Rept_Date":"2020-01-23 12"},"coordinates":[1013,4206]},{"type":"Point","properties":{"Station_ID":"PBAN8","Station_Nam":"SITE 1-3MI.N","Latitude":"48.97420","Longitude":"-97.23860","Snowdepth":"13.000","Units":"in","Rept_Date":"2020-01-23 13"},"coordinates":[0,8088]},{"type":"Point","properties":{"Station_ID":"NH-GR-11","Station_Nam":"PLYMOUTH 1.6 NNE, NH","Latitude":"43.76032","Longitude":"-71.68890","Snowdepth":"13.000","Units":"in","Rept_Date":"2020-01-23 12"},"coordinates":[5996,4469]},{"type":"Point","properties":{"Station_ID":"NH-CR-26","Station_Nam":"CENTER SANDWICH 4.9 E, NH","Latitude":"43.80976","Longitude":"-71.34150","Snowdepth":"13.000","Units":"in","Rept_Date":"2020-01-23 12"},"coordinates":[6078,4503]},{"type":"Point","properties":{"Station_ID":"NH-CR-15","Station_Nam":"JACKSON 3.7 NW, NH","Latitude":"44.19069","Longitude":"-71.22598","Snowdepth":"13.000","Units":"in","Rept_Date":"2020-01-23 12"},"coordinates":[6105,4767]},{"type":"Point","properties":{"Station_ID":"MLBS2","Station_Nam":"MILBANK","Latitude":"45.22040","Longitude":"-96.62530","Snowdepth":"13.000","Units":"in","Rept_Date":"2020-01-23 13"},"coordinates":[144,5482]},{"type":"Point","properties":{"Station_ID":"ME-CM-18","Station_Nam":"PORTLAND 5.5 WNW, ME","Latitude":"43.70288","Longitude":"-70.30550","Snowdepth":"13.000","Units":"in","Rept_Date":"2020-01-23 12"},"coordinates":[6321,4429]},{"type":"Point","properties":{"Station_ID":"MAPM4","Station_Nam":"MAPLE CITY 1E","Latitude":"44.85500","Longitude":"-85.83520","Snowdepth":"13.000","Units":"in","Rept_Date":"2020-01-23 23"},"coordinates":[2676,5229]},{"type":"Point","properties":{"Station_ID":"KLKM4","Station_Nam":"KALKASKA","Latitude":"44.72800","Longitude":"-85.17270","Snowdepth":"13.000","Units":"in","Rept_Date":"2020-01-23 13"},"coordinates":[2832,5140]},{"type":"Point","properties":{"Station_ID":"ISLV1","Station_Nam":"ISLAND POND","Latitude":"44.81280","Longitude":"-71.89020","Snowdepth":"13.000","Units":"in","Rept_Date":"2020-01-23 16"},"coordinates":[5949,5199]},{"type":"Point","properties":{"Station_ID":"HRTM1","Station_Nam":"HARTFORD","Latitude":"44.37440","Longitude":"-70.31620","Snowdepth":"13.000","Units":"in","Rept_Date":"2020-01-23 12"},"coordinates":[6318,4895]},{"type":"Point","properties":{"Station_ID":"GRBM5","Station_Nam":"GRAND RAPIDS 12N","Latitude":"47.39800","Longitude":"-93.51330","Snowdepth":"13.000","Units":"in","Rept_Date":"2020-01-23 12"},"coordinates":[874,6994]},{"type":"Point","properties":{"Station_ID":"ESGM1","Station_Nam":"EAST SANGERVILLE","Latitude":"45.13690","Longitude":"-69.28060","Snowdepth":"13.000","Units":"in","Rept_Date":"2020-01-23 12"},"coordinates":[6562,5424]},{"type":"Point","properties":{"Station_ID":"ESDN3","Station_Nam":"EAST SANDWICH","Latitude":"43.80990","Longitude":"-71.34250","Snowdepth":"13.000","Units":"in","Rept_Date":"2020-01-23 11"},"coordinates":[6078,4503]},{"type":"Point","properties":{"Station_ID":"ENFV1","Station_Nam":"ENOSBURG FALLS 2","Latitude":"44.90960","Longitude":"-72.81370","Snowdepth":"13.000","Units":"in","Rept_Date":"2020-01-23 10"},"coordinates":[5732,5266]},{"type":"Point","properties":{"Station_ID":"CAN-ON-245","Station_Nam":"PHELPSTON 3.1 ESE, CAN","Latitude":"44.50564","Longitude":"-79.81035","Snowdepth":"13.000","Units":"in","Rept_Date":"2020-01-23 13"},"coordinates":[4090,4986]},{"type":"Point","properties":{"Station_ID":"CAN-NS-103","Station_Nam":"TRAFALGAR 4.9 WSW, CAN","Latitude":"45.26217","Longitude":"-62.72285","Snowdepth":"13.000","Units":"in","Rept_Date":"2020-01-23 12"},"coordinates":[8101,5511]},{"type":"Point","properties":{"Station_ID":"CAN-NB-64","Station_Nam":"KESWICK RIDGE 4.0 SE, CAN","Latitude":"45.97014","Longitude":"-66.85538","Snowdepth":"13.000","Units":"in","Rept_Date":"2020-01-23 12"},"coordinates":[7131,6003]},{"type":"Point","properties":{"Station_ID":"BROS2","Station_Nam":"BROOKINGS,SD","Latitude":"44.31670","Longitude":"-96.76670","Snowdepth":"13.000","Units":"in","Rept_Date":"2020-01-23 14"},"coordinates":[111,4855]},{"type":"Point","properties":{"Station_ID":"BKEM5","Station_Nam":"BRECKENRIDGE 4NE","Latitude":"46.30470","Longitude":"-96.52170","Snowdepth":"13.000","Units":"in","Rept_Date":"2020-01-23 19"},"coordinates":[168,6235]},{"type":"Point","properties":{"Station_ID":"ASXW3","Station_Nam":"ASHLAND,WI","Latitude":"46.55220","Longitude":"-90.91610","Snowdepth":"13.000","Units":"in","Rept_Date":"2020-01-23 14"},"coordinates":[1484,6407]},{"type":"Point","properties":{"Station_ID":"ALBM5","Station_Nam":"ALBERT LEA 3 SE","Latitude":"43.60640","Longitude":"-93.30190","Snowdepth":"13.000","Units":"in","Rept_Date":"2020-01-23 14"},"coordinates":[924,4362]},{"type":"Point","properties":{"Station_ID":"CAN-NS-60","Station_Nam":"SYDNEY FORKS, CAN","Latitude":"46.05645","Longitude":"-60.31510","Snowdepth":"12.800","Units":"in","Rept_Date":"2020-01-23 13"},"coordinates":[8666,6063]},{"type":"Point","properties":{"Station_ID":"WI-BR-2","Station_Nam":"CHETEK 2.0 SE, WI","Latitude":"45.29427","Longitude":"-91.62470","Snowdepth":"12.500","Units":"in","Rept_Date":"2020-01-23 13"},"coordinates":[1318,5533]},{"type":"Point","properties":{"Station_ID":"ERF21","Station_Nam":"DOTU NORTH LAKE","Latitude":"43.52000","Longitude":"-74.95000","Snowdepth":"12.330","Units":"in","Rept_Date":"2020-01-23 17"},"coordinates":[5231,4302]},{"type":"Point","properties":{"Station_ID":"WNNM5","Station_Nam":"WINNEBAGO","Latitude":"43.76920","Longitude":"-94.18730","Snowdepth":"12.000","Units":"in","Rept_Date":"2020-01-23 14"},"coordinates":[716,4475]},{"type":"Point","properties":{"Station_ID":"WMRM5","Station_Nam":"WILLMAR 5N","Latitude":"45.19010","Longitude":"-95.05860","Snowdepth":"12.000","Units":"in","Rept_Date":"2020-01-23 12"},"coordinates":[512,5461]},{"type":"Point","properties":{"Station_ID":"WI-DN-5","Station_Nam":"ELK MOUND 1.3 NE, WI","Latitude":"44.88627","Longitude":"-91.66680","Snowdepth":"12.000","Units":"in","Rept_Date":"2020-01-23 13"},"coordinates":[1308,5250]},{"type":"Point","properties":{"Station_ID":"TOPM1","Station_Nam":"TOPSFIELD","Latitude":"45.43470","Longitude":"-67.72020","Snowdepth":"12.000","Units":"in","Rept_Date":"2020-01-23 12"},"coordinates":[6928,5631]},{"type":"Point","properties":{"Station_ID":"THLM5","Station_Nam":"THEILMAN 1SSW","Latitude":"44.28130","Longitude":"-92.19430","Snowdepth":"12.000","Units":"in","Rept_Date":"2020-01-23 13"},"coordinates":[1184,4830]},{"type":"Point","properties":{"Station_ID":"STPW3","Station_Nam":"STEVENS POINT","Latitude":"44.51130","Longitude":"-89.58550","Snowdepth":"12.000","Units":"in","Rept_Date":"2020-01-23 13"},"coordinates":[1796,4990]},{"type":"Point","properties":{"Station_ID":"SD-BK-2","Station_Nam":"ASTORIA 2.2 SSE, SD","Latitude":"44.53093","Longitude":"-96.52270","Snowdepth":"12.000","Units":"in","Rept_Date":"2020-01-23 13"},"coordinates":[168,5004]},{"type":"Point","properties":{"Station_ID":"SCRW3","Station_Nam":"ST CROIX FALLS","Latitude":"45.41170","Longitude":"-92.64660","Snowdepth":"12.000","Units":"in","Rept_Date":"2020-01-23 13"},"coordinates":[1078,5615]},{"type":"Point","properties":{"Station_ID":"RANM1","Station_Nam":"RANGELEY","Latitude":"44.98910","Longitude":"-70.67190","Snowdepth":"12.000","Units":"in","Rept_Date":"2020-01-23 11"},"coordinates":[6235,5322]},{"type":"Point","properties":{"Station_ID":"PTBN3","Station_Nam":"PITTSBURG RESERVOIR","Latitude":"45.04690","Longitude":"-71.38300","Snowdepth":"12.000","Units":"in","Rept_Date":"2020-01-23 12"},"coordinates":[6068,5362]},{"type":"Point","properties":{"Station_ID":"NCON3","Station_Nam":"NORTH CONWAY","Latitude":"44.05620","Longitude":"-71.12970","Snowdepth":"12.000","Units":"in","Rept_Date":"2020-01-23 13"},"coordinates":[6128,4674]},{"type":"Point","properties":{"Station_ID":"MRAM5","Station_Nam":"MORA","Latitude":"45.87760","Longitude":"-93.31470","Snowdepth":"12.000","Units":"in","Rept_Date":"2020-01-23 13"},"coordinates":[921,5938]},{"type":"Point","properties":{"Station_ID":"MNOW3","Station_Nam":"CEDAR FALLS HYDRO PLANT","Latitude":"44.93550","Longitude":"-91.88850","Snowdepth":"12.000","Units":"in","Rept_Date":"2020-01-23 13"},"coordinates":[1256,5284]},{"type":"Point","properties":{"Station_ID":"MN76ACVS","Station_Nam":"GRAND MARAIS 3.0 WNW","Latitude":"47.76602","Longitude":"-90.26427","Snowdepth":"12.000","Units":"in","Rept_Date":"2020-01-23 13"},"coordinates":[1637,7249]},{"type":"Point","properties":{"Station_ID":"MN-SR-29","Station_Nam":"ALBANY 3.8 S, MN","Latitude":"45.57441","Longitude":"-94.55543","Snowdepth":"12.000","Units":"in","Rept_Date":"2020-01-23 13"},"coordinates":[630,5728]},{"type":"Point","properties":{"Station_ID":"MN-SH-985","Station_Nam":"PRINCETON 3.3 WSW, MN","Latitude":"45.55211","Longitude":"-93.64481","Snowdepth":"12.000","Units":"in","Rept_Date":"2020-01-23 10"},"coordinates":[843,5712]},{"type":"Point","properties":{"Station_ID":"MN-SH-10","Station_Nam":"BIG LAKE 5.6 NNE, MN","Latitude":"45.41409","Longitude":"-93.69190","Snowdepth":"12.000","Units":"in","Rept_Date":"2020-01-23 13"},"coordinates":[832,5617]},{"type":"Point","properties":{"Station_ID":"MLRM5","Station_Nam":"MELROSE","Latitude":"45.67710","Longitude":"-94.80200","Snowdepth":"12.000","Units":"in","Rept_Date":"2020-01-23 13"},"coordinates":[572,5799]},{"type":"Point","properties":{"Station_ID":"ME-YK-67","Station_Nam":"CORNISH 5.6 ESE, ME","Latitude":"43.78308","Longitude":"-70.69539","Snowdepth":"12.000","Units":"in","Rept_Date":"2020-01-23 12"},"coordinates":[6230,4484]},{"type":"Point","properties":{"Station_ID":"ME-FR-22","Station_Nam":"FARMINGTON 4.8 NNW, ME","Latitude":"44.73396","Longitude":"-70.18007","Snowdepth":"12.000","Units":"in","Rept_Date":"2020-01-23 14"},"coordinates":[6350,5144]},{"type":"Point","properties":{"Station_ID":"JEFN3","Station_Nam":"JEFFERSON","Latitude":"44.41690","Longitude":"-71.50080","Snowdepth":"12.000","Units":"in","Rept_Date":"2020-01-23 12"},"coordinates":[6040,4924]},{"type":"Point","properties":{"Station_ID":"HTLM4","Station_Nam":"SNOW PAID OBSERVER FOR KHTL","Latitude":"44.34470","Longitude":"-84.67730","Snowdepth":"12.000","Units":"in","Rept_Date":"2020-01-24 06"},"coordinates":[2948,4874]},{"type":"Point","properties":{"Station_ID":"FLAM4","Station_Nam":"FIFE LAKE 2WNW","Latitude":"44.58480","Longitude":"-85.36530","Snowdepth":"12.000","Units":"in","Rept_Date":"2020-01-23 12"},"coordinates":[2787,5041]},{"type":"Point","properties":{"Station_ID":"DURM1","Station_Nam":"DURHAM","Latitude":"43.99960","Longitude":"-70.09630","Snowdepth":"12.000","Units":"in","Rept_Date":"2020-01-23 12"},"coordinates":[6370,4635]},{"type":"Point","properties":{"Station_ID":"AMDW3","Station_Nam":"ALMOND-5 NE","Latitude":"44.30830","Longitude":"-89.34640","Snowdepth":"12.000","Units":"in","Rept_Date":"2020-01-23 14"},"coordinates":[1852,4849]},{"type":"Point","properties":{"Station_ID":"CAN-MB-298","Station_Nam":"GARDENTON 4.2 W - SRRCD, CAN","Latitude":"49.09480","Longitude":"-96.75446","Snowdepth":"11.800","Units":"in","Rept_Date":"2020-01-23 15"},"coordinates":[114,8172]},{"type":"Point","properties":{"Station_ID":"MN-ML-1","Station_Nam":"ONAMIA 4.3 NW, MN","Latitude":"46.10883","Longitude":"-93.73890","Snowdepth":"11.500","Units":"in","Rept_Date":"2020-01-23 14"},"coordinates":[821,6099]},{"type":"Point","properties":{"Station_ID":"CAN-NB-1","Station_Nam":"FREDERICTON 4.0 SSE, CA","Latitude":"45.92897","Longitude":"-66.62830","Snowdepth":"11.400","Units":"in","Rept_Date":"2020-01-23 11"},"coordinates":[7184,5974]},{"type":"Point","properties":{"Station_ID":"IA-KS-4","Station_Nam":"ALGONA 0.7 SE, IA","Latitude":"43.06627","Longitude":"-94.22214","Snowdepth":"11.200","Units":"in","Rept_Date":"2020-01-23 13"},"coordinates":[708,3987]},{"type":"Point","properties":{"Station_ID":"CAN-QC-51","Station_Nam":"BELOEIL 0.7 NW, CAN","Latitude":"45.58049","Longitude":"-73.21218","Snowdepth":"11.200","Units":"in","Rept_Date":"2020-01-23 12"},"coordinates":[5639,5732]},{"type":"Point","properties":{"Station_ID":"PIXN6","Station_Nam":"PIXLEY FALLS","Latitude":"43.40330","Longitude":"-75.34310","Snowdepth":"11.080","Units":"in","Rept_Date":"2020-01-23 17"},"coordinates":[5139,4221]},{"type":"Point","properties":{"Station_ID":"WSFW3","Station_Nam":"TOWN OF WESTFORD","Latitude":"43.47190","Longitude":"-88.88250","Snowdepth":"11.000","Units":"in","Rept_Date":"2020-01-23 13"},"coordinates":[1961,4268]},{"type":"Point","properties":{"Station_ID":"WNDM1","Station_Nam":"WINDHAM 2NW","Latitude":"43.85670","Longitude":"-70.46630","Snowdepth":"11.000","Units":"in","Rept_Date":"2020-01-23 12"},"coordinates":[6283,4536]},{"type":"Point","properties":{"Station_ID":"WMTI4","Station_Nam":"FORT DODGE,IA","Latitude":"42.50610","Longitude":"-94.20110","Snowdepth":"11.000","Units":"in","Rept_Date":"2020-01-23 13"},"coordinates":[713,3598]},{"type":"Point","properties":{"Station_ID":"WI-WD-2","Station_Nam":"WISCONSIN RAPIDS 4.6 SSE, WI","Latitude":"44.33823","Longitude":"-89.78200","Snowdepth":"11.000","Units":"in","Rept_Date":"2020-01-23 14"},"coordinates":[1750,4870]},{"type":"Point","properties":{"Station_ID":"WI-DD-16","Station_Nam":"BEAVER DAM 2.4 WNW, WI","Latitude":"43.47210","Longitude":"-88.88280","Snowdepth":"11.000","Units":"in","Rept_Date":"2020-01-23 13"},"coordinates":[1961,4269]},{"type":"Point","properties":{"Station_ID":"VT-WS-15","Station_Nam":"EAST CALAIS 1.5 SW, VT","Latitude":"44.35523","Longitude":"-72.45540","Snowdepth":"11.000","Units":"in","Rept_Date":"2020-01-23 12"},"coordinates":[5816,4882]},{"type":"Point","properties":{"Station_ID":"VT-OL-2","Station_Nam":"BARTON 3.0 ENE, VT","Latitude":"44.75863","Longitude":"-72.11680","Snowdepth":"11.000","Units":"in","Rept_Date":"2020-01-23 12"},"coordinates":[5896,5162]},{"type":"Point","properties":{"Station_ID":"TCEM4","Station_Nam":"TRAVERSE CITY 5ESE","Latitude":"44.73370","Longitude":"-85.51180","Snowdepth":"11.000","Units":"in","Rept_Date":"2020-01-23 12"},"coordinates":[2752,5144]},{"type":"Point","properties":{"Station_ID":"POLM1","Station_Nam":"POLAND","Latitude":"44.00700","Longitude":"-70.36140","Snowdepth":"11.000","Units":"in","Rept_Date":"2020-01-23 12"},"coordinates":[6308,4640]},{"type":"Point","properties":{"Station_ID":"MNG0GYSN","Station_Nam":"LONSDALE 1.1 SSW","Latitude":"44.46445","Longitude":"-93.43293","Snowdepth":"11.000","Units":"in","Rept_Date":"2020-01-23 12"},"coordinates":[893,4957]},{"type":"Point","properties":{"Station_ID":"MN-SL-139","Station_Nam":"DULUTH 1.2 SE, MN","Latitude":"46.77000","Longitude":"-92.08826","Snowdepth":"11.000","Units":"in","Rept_Date":"2020-01-23 12"},"coordinates":[1209,6558]},{"type":"Point","properties":{"Station_ID":"MN-RC-1","Station_Nam":"MONTGOMERY 3.2 ENE, MN","Latitude":"44.46400","Longitude":"-93.51980","Snowdepth":"11.000","Units":"in","Rept_Date":"2020-01-23 11"},"coordinates":[873,4957]},{"type":"Point","properties":{"Station_ID":"MN-CG-16","Station_Nam":"NORTH BRANCH 1.3 NNW, MN","Latitude":"45.53121","Longitude":"-92.97110","Snowdepth":"11.000","Units":"in","Rept_Date":"2020-01-23 12"},"coordinates":[1002,5698]},{"type":"Point","properties":{"Station_ID":"MI-GT-25","Station_Nam":"TRAVERSE CITY 4.7 ESE, MI","Latitude":"44.73370","Longitude":"-85.51189","Snowdepth":"11.000","Units":"in","Rept_Date":"2020-01-23 12"},"coordinates":[2752,5144]},{"type":"Point","properties":{"Station_ID":"ME-CM-54","Station_Nam":"WINDHAM 3.9 NW, ME","Latitude":"43.85787","Longitude":"-70.46200","Snowdepth":"11.000","Units":"in","Rept_Date":"2020-01-23 12"},"coordinates":[6284,4536]},{"type":"Point","properties":{"Station_ID":"LACN3","Station_Nam":"LACONIA","Latitude":"43.53010","Longitude":"-71.46260","Snowdepth":"11.000","Units":"in","Rept_Date":"2020-01-23 12"},"coordinates":[6049,4309]},{"type":"Point","properties":{"Station_ID":"HTL","Station_Nam":"ROSCOMMON COUNTY AIRPORT","Latitude":"44.35000","Longitude":"-84.66670","Snowdepth":"11.000","Units":"in","Rept_Date":"2020-01-24 00"},"coordinates":[2951,4878]},{"type":"Point","properties":{"Station_ID":"HMYM1","Station_Nam":"HARMONY","Latitude":"44.94660","Longitude":"-69.54560","Snowdepth":"11.000","Units":"in","Rept_Date":"2020-01-23 12"},"coordinates":[6499,5292]},{"type":"Point","properties":{"Station_ID":"GYX","Station_Nam":"PORTLAND, ME","Latitude":"43.89250","Longitude":"-70.25500","Snowdepth":"11.000","Units":"in","Rept_Date":"2020-01-23 12"},"coordinates":[6333,4560]},{"type":"Point","properties":{"Station_ID":"GHMN3","Station_Nam":"PINKHAM NOTCH","Latitude":"44.25800","Longitude":"-71.25250","Snowdepth":"11.000","Units":"in","Rept_Date":"2020-01-23 10"},"coordinates":[6099,4814]},{"type":"Point","properties":{"Station_ID":"FYTI4","Station_Nam":"FAYETTE","Latitude":"42.88300","Longitude":"-91.83020","Snowdepth":"11.000","Units":"in","Rept_Date":"2020-01-23 13"},"coordinates":[1269,3860]},{"type":"Point","properties":{"Station_ID":"FORM5","Station_Nam":"FOREST LAKE 5NE","Latitude":"45.33170","Longitude":"-92.89820","Snowdepth":"11.000","Units":"in","Rept_Date":"2020-01-23 13"},"coordinates":[1019,5559]},{"type":"Point","properties":{"Station_ID":"FFLN3","Station_Nam":"FRANKLIN FALLS DAM","Latitude":"43.47030","Longitude":"-71.65370","Snowdepth":"11.000","Units":"in","Rept_Date":"2020-01-23 12"},"coordinates":[6005,4267]},{"type":"Point","properties":{"Station_ID":"EVYI4","Station_Nam":"EVERLY,IA","Latitude":"43.18330","Longitude":"-95.36670","Snowdepth":"11.000","Units":"in","Rept_Date":"2020-01-23 13"},"coordinates":[439,4068]},{"type":"Point","properties":{"Station_ID":"EJDM4","Station_Nam":"EAST JORDAN","Latitude":"45.15190","Longitude":"-85.13220","Snowdepth":"11.000","Units":"in","Rept_Date":"2020-01-23 13"},"coordinates":[2841,5435]},{"type":"Point","properties":{"Station_ID":"CAN-PE-50","Station_Nam":"BEDFORD CORNER 3.9 WNW, CAN","Latitude":"46.34628","Longitude":"-63.06157","Snowdepth":"11.000","Units":"in","Rept_Date":"2020-01-23 11"},"coordinates":[8021,6264]},{"type":"Point","properties":{"Station_ID":"CAN-PE-10","Station_Nam":"NEW LONDON 1.6 ENE, CA","Latitude":"46.46985","Longitude":"-63.49200","Snowdepth":"11.000","Units":"in","Rept_Date":"2020-01-23 12"},"coordinates":[7920,6350]},{"type":"Point","properties":{"Station_ID":"CAN-ON-208","Station_Nam":"PAKENHAM 7.8 NNW, CAN","Latitude":"45.39166","Longitude":"-76.34111","Snowdepth":"11.000","Units":"in","Rept_Date":"2020-01-23 12"},"coordinates":[4904,5601]},{"type":"Point","properties":{"Station_ID":"BTLN3","Station_Nam":"BARTLETT","Latitude":"44.08380","Longitude":"-71.29340","Snowdepth":"11.000","Units":"in","Rept_Date":"2020-01-23 12"},"coordinates":[6089,4693]},{"type":"Point","properties":{"Station_ID":"ASTM5","Station_Nam":"AUSTIN WASTE WATER TREATMENT FACILITY","Latitude":"43.65420","Longitude":"-92.97390","Snowdepth":"11.000","Units":"in","Rept_Date":"2020-01-23 13"},"coordinates":[1001,4395]},{"type":"Point","properties":{"Station_ID":"ALTM5","Station_Nam":"ALTURA 5W","Latitude":"44.06330","Longitude":"-92.03970","Snowdepth":"11.000","Units":"in","Rept_Date":"2020-01-23 13"},"coordinates":[1220,4679]},{"type":"Point","properties":{"Station_ID":"ALMW3","Station_Nam":"ALMA DAM 4","Latitude":"44.32710","Longitude":"-91.91940","Snowdepth":"11.000","Units":"in","Rept_Date":"2020-01-23 14"},"coordinates":[1248,4862]},{"type":"Point","properties":{"Station_ID":"ALGI4","Station_Nam":"ALGONA,IA","Latitude":"43.06670","Longitude":"-94.30610","Snowdepth":"11.000","Units":"in","Rept_Date":"2020-01-23 13"},"coordinates":[688,3987]},{"type":"Point","properties":{"Station_ID":"WI-PC-5","Station_Nam":"RIVER FALLS 1.2 SSW, WI","Latitude":"44.84032","Longitude":"-92.63500","Snowdepth":"10.500","Units":"in","Rept_Date":"2020-01-23 13"},"coordinates":[1080,5218]},{"type":"Point","properties":{"Station_ID":"VT-WR-2","Station_Nam":"POMFRET 2.6 N, VT","Latitude":"43.74230","Longitude":"-72.52550","Snowdepth":"10.500","Units":"in","Rept_Date":"2020-01-23 12"},"coordinates":[5800,4456]},{"type":"Point","properties":{"Station_ID":"NH-GR-1","Station_Nam":"BRISTOL 0.4 SSE, NH","Latitude":"43.59490","Longitude":"-71.74140","Snowdepth":"10.500","Units":"in","Rept_Date":"2020-01-23 12"},"coordinates":[5984,4354]},{"type":"Point","properties":{"Station_ID":"MI-GT-21","Station_Nam":"KINGSLEY 2.7 ENE, MI","Latitude":"44.59871","Longitude":"-85.48426","Snowdepth":"10.500","Units":"in","Rept_Date":"2020-01-23 13"},"coordinates":[2759,5051]},{"type":"Point","properties":{"Station_ID":"WORV1","Station_Nam":"WORCESTER 2 W","Latitude":"44.37470","Longitude":"-72.58220","Snowdepth":"10.000","Units":"in","Rept_Date":"2020-01-23 12"},"coordinates":[5787,4895]},{"type":"Point","properties":{"Station_ID":"WIPW3","Station_Nam":"WISCONSIN RAPIDS-SOUTHEAST","Latitude":"44.38190","Longitude":"-89.80470","Snowdepth":"10.000","Units":"in","Rept_Date":"2020-01-23 12"},"coordinates":[1745,4900]},{"type":"Point","properties":{"Station_ID":"WI-PK-4","Station_Nam":"DRESSER 6.1 ESE, WI","Latitude":"45.32436","Longitude":"-92.52080","Snowdepth":"10.000","Units":"in","Rept_Date":"2020-01-23 14"},"coordinates":[1107,5554]},{"type":"Point","properties":{"Station_ID":"WDOM5","Station_Nam":"WINDOM","Latitude":"43.87700","Longitude":"-95.11590","Snowdepth":"10.000","Units":"in","Rept_Date":"2020-01-23 14"},"coordinates":[498,4550]},{"type":"Point","properties":{"Station_ID":"WASW3","Station_Nam":"WASHINGTON IS","Latitude":"45.35800","Longitude":"-86.89110","Snowdepth":"10.000","Units":"in","Rept_Date":"2020-01-23 13"},"coordinates":[2428,5578]},{"type":"Point","properties":{"Station_ID":"VT-WS-30","Station_Nam":"WOODBURY 3.4 NNW, VT","Latitude":"44.48825","Longitude":"-72.43258","Snowdepth":"10.000","Units":"in","Rept_Date":"2020-01-23 12"},"coordinates":[5822,4974]},{"type":"Point","properties":{"Station_ID":"VT-ES-3","Station_Nam":"LUNENBURG 2.3 NNW, VT","Latitude":"44.49324","Longitude":"-71.70446","Snowdepth":"10.000","Units":"in","Rept_Date":"2020-01-23 11"},"coordinates":[5993,4977]},{"type":"Point","properties":{"Station_ID":"VT-BN-12","Station_Nam":"STAMFORD 5.0 NNE, VT","Latitude":"42.82000","Longitude":"-73.02000","Snowdepth":"10.000","Units":"in","Rept_Date":"2020-01-23 21"},"coordinates":[5684,3816]},{"type":"Point","properties":{"Station_ID":"TURM1","Station_Nam":"TURNER","Latitude":"44.28220","Longitude":"-70.25610","Snowdepth":"10.000","Units":"in","Rept_Date":"2020-01-23 12"},"coordinates":[6333,4831]},{"type":"Point","properties":{"Station_ID":"TMWN3","Station_Nam":"TAMWORTH 4","Latitude":"43.86390","Longitude":"-71.26610","Snowdepth":"10.000","Units":"in","Rept_Date":"2020-01-23 12"},"coordinates":[6096,4541]},{"type":"Point","properties":{"Station_ID":"SSSS2","Station_Nam":"MILBANK-36MI.NW","Latitude":"45.66670","Longitude":"-97.00000","Snowdepth":"10.000","Units":"in","Rept_Date":"2020-01-24 04"},"coordinates":[56,5792]},{"type":"Point","properties":{"Station_ID":"OSAI4","Station_Nam":"OSAGE","Latitude":"43.27940","Longitude":"-92.81060","Snowdepth":"10.000","Units":"in","Rept_Date":"2020-01-23 13"},"coordinates":[1039,4135]},{"type":"Point","properties":{"Station_ID":"NY-FK-9","Station_Nam":"GABRIELS 1.3 SE, NY","Latitude":"44.41934","Longitude":"-74.16194","Snowdepth":"10.000","Units":"in","Rept_Date":"2020-01-23 12"},"coordinates":[5416,4926]},{"type":"Point","properties":{"Station_ID":"MYOM4","Station_Nam":"MIO WWTP","Latitude":"44.64660","Longitude":"-84.11580","Snowdepth":"10.000","Units":"in","Rept_Date":"2020-01-23 13"},"coordinates":[3080,5084]},{"type":"Point","properties":{"Station_ID":"MSCM5","Station_Nam":"MINNESOTA CITY","Latitude":"44.16000","Longitude":"-91.81220","Snowdepth":"10.000","Units":"in","Rept_Date":"2020-01-23 14"},"coordinates":[1274,4746]},{"type":"Point","properties":{"Station_ID":"MONS2","Station_Nam":"SIOUX FALLS-26MI.WNW","Latitude":"43.70190","Longitude":"-97.18330","Snowdepth":"10.000","Units":"in","Rept_Date":"2020-01-23 14"},"coordinates":[13,4428]},{"type":"Point","properties":{"Station_ID":"MN-MC-16","Station_Nam":"HUTCHINSON 0.1 ENE, MN","Latitude":"44.88633","Longitude":"-94.37503","Snowdepth":"10.000","Units":"in","Rept_Date":"2020-01-23 13"},"coordinates":[672,5250]},{"type":"Point","properties":{"Station_ID":"MN-HN-6","Station_Nam":"LONG LAKE 0.2 WSW, MN","Latitude":"44.98290","Longitude":"-93.57360","Snowdepth":"10.000","Units":"in","Rept_Date":"2020-01-23 13"},"coordinates":[860,5317]},{"type":"Point","properties":{"Station_ID":"MN-GH-3","Station_Nam":"LAKE CITY 1.2 NNW, MN","Latitude":"44.45597","Longitude":"-92.29070","Snowdepth":"10.000","Units":"in","Rept_Date":"2020-01-23 13"},"coordinates":[1161,4952]},{"type":"Point","properties":{"Station_ID":"MIAM5","Station_Nam":"MILAN 1NW","Latitude":"45.12190","Longitude":"-95.92690","Snowdepth":"10.000","Units":"in","Rept_Date":"2020-01-24 00"},"coordinates":[308,5414]},{"type":"Point","properties":{"Station_ID":"MI-BZ-1","Station_Nam":"BENZONIA 5.3 S, MI","Latitude":"44.53976","Longitude":"-86.10650","Snowdepth":"10.000","Units":"in","Rept_Date":"2020-01-23 14"},"coordinates":[2613,5010]},{"type":"Point","properties":{"Station_ID":"ME-YK-28","Station_Nam":"BIDDEFORD 1.5 NNE, ME","Latitude":"43.48679","Longitude":"-70.43470","Snowdepth":"10.000","Units":"in","Rept_Date":"2020-01-23 12"},"coordinates":[6291,4279]},{"type":"Point","properties":{"Station_ID":"ME-LN-21","Station_Nam":"WESTPORT ISLAND 2.2 SSW, ME","Latitude":"43.88806","Longitude":"-69.70890","Snowdepth":"10.000","Units":"in","Rept_Date":"2020-01-23 13"},"coordinates":[6461,4557]},{"type":"Point","properties":{"Station_ID":"MABM5","Station_Nam":"MABEL","Latitude":"43.52410","Longitude":"-91.76160","Snowdepth":"10.000","Units":"in","Rept_Date":"2020-01-23 13"},"coordinates":[1285,4305]},{"type":"Point","properties":{"Station_ID":"MA-HS-7","Station_Nam":"PLAINFIELD 2.2 SW, MA","Latitude":"42.49272","Longitude":"-72.94540","Snowdepth":"10.000","Units":"in","Rept_Date":"2020-01-23 13"},"coordinates":[5701,3589]},{"type":"Point","properties":{"Station_ID":"LPLN6","Station_Nam":"LAKE PLACID 2 S","Latitude":"44.30420","Longitude":"-73.98390","Snowdepth":"10.000","Units":"in","Rept_Date":"2020-01-23 12"},"coordinates":[5458,4846]},{"type":"Point","properties":{"Station_ID":"LMLI4","Station_Nam":"LAKE MILLS,IA","Latitude":"43.40000","Longitude":"-93.53330","Snowdepth":"10.000","Units":"in","Rept_Date":"2020-01-23 13"},"coordinates":[870,4218]},{"type":"Point","properties":{"Station_ID":"LBKV1","Station_Nam":"LYE BROOK","Latitude":"43.05000","Longitude":"-73.03330","Snowdepth":"10.000","Units":"in","Rept_Date":"2020-01-24 06"},"coordinates":[5681,3975]},{"type":"Point","properties":{"Station_ID":"LAKM5","Station_Nam":"LAKE CITY","Latitude":"44.43630","Longitude":"-92.27930","Snowdepth":"10.000","Units":"in","Rept_Date":"2020-01-23 13"},"coordinates":[1164,4938]},{"type":"Point","properties":{"Station_ID":"KIMM5","Station_Nam":"KIMBALL 3N","Latitude":"45.35330","Longitude":"-94.30560","Snowdepth":"10.000","Units":"in","Rept_Date":"2020-01-23 12"},"coordinates":[688,5574]},{"type":"Point","properties":{"Station_ID":"IA-DK-11","Station_Nam":"SPIRIT LAKE 1.7 SW, IA","Latitude":"43.40694","Longitude":"-95.13694","Snowdepth":"10.000","Units":"in","Rept_Date":"2020-01-23 13"},"coordinates":[493,4223]},{"type":"Point","properties":{"Station_ID":"EGNM5","Station_Nam":"ELGIN 2SSW","Latitude":"44.09700","Longitude":"-92.27010","Snowdepth":"10.000","Units":"in","Rept_Date":"2020-01-23 13"},"coordinates":[1166,4702]},{"type":"Point","properties":{"Station_ID":"DWSM5","Station_Nam":"DAWSON","Latitude":"44.93180","Longitude":"-96.04500","Snowdepth":"10.000","Units":"in","Rept_Date":"2020-01-23 13"},"coordinates":[280,5282]},{"type":"Point","properties":{"Station_ID":"CVZW3","Station_Nam":"WISCONSIN PUBLIC SERVICE","Latitude":"45.23530","Longitude":"-88.01360","Snowdepth":"10.000","Units":"in","Rept_Date":"2020-01-23 12"},"coordinates":[2165,5493]},{"type":"Point","properties":{"Station_ID":"CRCI4","Station_Nam":"CRESCO 1NE","Latitude":"43.38940","Longitude":"-92.09380","Snowdepth":"10.000","Units":"in","Rept_Date":"2020-01-23 14"},"coordinates":[1207,4211]},{"type":"Point","properties":{"Station_ID":"CHES2","Station_Nam":"CHESTER 2N","Latitude":"43.92830","Longitude":"-96.93160","Snowdepth":"10.000","Units":"in","Rept_Date":"2020-01-23 13"},"coordinates":[72,4585]},{"type":"Point","properties":{"Station_ID":"BRLW3","Station_Nam":"BRILLION,WI","Latitude":"44.18330","Longitude":"-88.06670","Snowdepth":"10.000","Units":"in","Rept_Date":"2020-01-23 12"},"coordinates":[2153,4762]},{"type":"Point","properties":{"Station_ID":"BRLN3","Station_Nam":"BERLIN","Latitude":"44.45350","Longitude":"-71.18540","Snowdepth":"10.000","Units":"in","Rept_Date":"2020-01-23 12"},"coordinates":[6115,4950]},{"type":"Point","properties":{"Station_ID":"8D3","Station_Nam":"SISSETON MUNICIPAL AP","Latitude":"45.67080","Longitude":"-96.99610","Snowdepth":"10.000","Units":"in","Rept_Date":"2020-01-23 12"},"coordinates":[57,5795]},{"type":"Point","properties":{"Station_ID":"MN-RM-2","Station_Nam":"NORTH SAINT PAUL 1.0 NNW, MN","Latitude":"45.02629","Longitude":"-93.00790","Snowdepth":"9.900","Units":"in","Rept_Date":"2020-01-23 13"},"coordinates":[993,5347]},{"type":"Point","properties":{"Station_ID":"CAN-NB-16","Station_Nam":"DORCHESTER 1.0 SSE, CAN","Latitude":"45.89160","Longitude":"-64.51269","Snowdepth":"9.900","Units":"in","Rept_Date":"2020-01-23 11"},"coordinates":[7681,5948]},{"type":"Point","properties":{"Station_ID":"CAN-ON-491","Station_Nam":"MILVERTON 1.1 ESE- CANWARN, CAN","Latitude":"43.56074","Longitude":"-80.90887","Snowdepth":"9.800","Units":"in","Rept_Date":"2020-01-23 11"},"coordinates":[3832,4330]},{"type":"Point","properties":{"Station_ID":"NY-OD-2","Station_Nam":"POINT ROCK 0.6 SE, NY","Latitude":"43.37335","Longitude":"-75.53840","Snowdepth":"9.500","Units":"in","Rept_Date":"2020-01-23 13"},"coordinates":[5093,4200]},{"type":"Point","properties":{"Station_ID":"NH-MR-45","Station_Nam":"NORTHFIELD 2.8 E, NH","Latitude":"43.43945","Longitude":"-71.53730","Snowdepth":"9.500","Units":"in","Rept_Date":"2020-01-23 12"},"coordinates":[6032,4246]},{"type":"Point","properties":{"Station_ID":"NH-CR-9","Station_Nam":"MADISON 1.7 SE, NH","Latitude":"43.87928","Longitude":"-71.12660","Snowdepth":"9.500","Units":"in","Rept_Date":"2020-01-23 12"},"coordinates":[6128,4551]},{"type":"Point","properties":{"Station_ID":"MN-SR-24","Station_Nam":"PAYNESVILLE 1.9 SSW, MN","Latitude":"45.35170","Longitude":"-94.73120","Snowdepth":"9.500","Units":"in","Rept_Date":"2020-01-23 13"},"coordinates":[588,5573]},{"type":"Point","properties":{"Station_ID":"MN-HN-19","Station_Nam":"EDINA 1.3 SW, MN","Latitude":"44.87830","Longitude":"-93.37890","Snowdepth":"9.500","Units":"in","Rept_Date":"2020-01-23 13"},"coordinates":[906,5245]},{"type":"Point","properties":{"Station_ID":"MN-DK-73","Station_Nam":"LAKEVILLE 2.6 NNE, MN","Latitude":"44.71250","Longitude":"-93.23043","Snowdepth":"9.500","Units":"in","Rept_Date":"2020-01-23 12"},"coordinates":[941,5130]},{"type":"Point","properties":{"Station_ID":"CAN-QC-16","Station_Nam":"SAINT-ARMAND 3.6 W, CAN","Latitude":"45.02631","Longitude":"-73.08795","Snowdepth":"9.500","Units":"in","Rept_Date":"2020-01-23 12"},"coordinates":[5668,5347]},{"type":"Point","properties":{"Station_ID":"WVLM1","Station_Nam":"WATERVILLE TREATMENT PLT","Latitude":"44.52720","Longitude":"-69.65440","Snowdepth":"9.000","Units":"in","Rept_Date":"2020-01-23 13"},"coordinates":[6474,5001]},{"type":"Point","properties":{"Station_ID":"WRSN6","Station_Nam":"WARSAW 6SW","Latitude":"42.68550","Longitude":"-78.22020","Snowdepth":"9.000","Units":"in","Rept_Date":"2020-01-23 12"},"coordinates":[4463,3722]},{"type":"Point","properties":{"Station_ID":"WRNW3","Station_Nam":"WARRENS 4WSW","Latitude":"44.10390","Longitude":"-90.58870","Snowdepth":"9.000","Units":"in","Rept_Date":"2020-01-23 13"},"coordinates":[1561,4707]},{"type":"Point","properties":{"Station_ID":"WOLN3","Station_Nam":"WOLFEBORO","Latitude":"43.59020","Longitude":"-71.20190","Snowdepth":"9.000","Units":"in","Rept_Date":"2020-01-23 12"},"coordinates":[6111,4350]},{"type":"Point","properties":{"Station_ID":"WITM1","Station_Nam":"WHITING","Latitude":"44.74240","Longitude":"-67.30520","Snowdepth":"9.000","Units":"in","Rept_Date":"2020-01-23 12"},"coordinates":[7025,5150]},{"type":"Point","properties":{"Station_ID":"WI-WS-5","Station_Nam":"JACKSON 0.2 WSW, WI","Latitude":"43.32007","Longitude":"-88.16820","Snowdepth":"9.000","Units":"in","Rept_Date":"2020-01-23 12"},"coordinates":[2129,4163]},{"type":"Point","properties":{"Station_ID":"WI-SB-18","Station_Nam":"PLYMOUTH 5.4 NE, WI","Latitude":"43.81185","Longitude":"-87.91054","Snowdepth":"9.000","Units":"in","Rept_Date":"2020-01-23 13"},"coordinates":[2189,4504]},{"type":"Point","properties":{"Station_ID":"WI-IW-3","Station_Nam":"MINERAL POINT 7.3 ENE, WI","Latitude":"42.91400","Longitude":"-90.05700","Snowdepth":"9.000","Units":"in","Rept_Date":"2020-01-23 13"},"coordinates":[1685,3881]},{"type":"Point","properties":{"Station_ID":"WI-DR-5","Station_Nam":"ELLISON BAY 2.2 E, WI","Latitude":"45.25750","Longitude":"-87.02670","Snowdepth":"9.000","Units":"in","Rept_Date":"2020-01-23 13"},"coordinates":[2397,5508]},{"type":"Point","properties":{"Station_ID":"WI-BN-6","Station_Nam":"SUAMICO 4.4 WNW, WI","Latitude":"44.66111","Longitude":"-88.11780","Snowdepth":"9.000","Units":"in","Rept_Date":"2020-01-23 14"},"coordinates":[2141,5094]},{"type":"Point","properties":{"Station_ID":"WHTM5","Station_Nam":"WHEATON,MN","Latitude":"45.80000","Longitude":"-96.48330","Snowdepth":"9.000","Units":"in","Rept_Date":"2020-01-23 14"},"coordinates":[177,5885]},{"type":"Point","properties":{"Station_ID":"WELM4","Station_Nam":"WELLSTON TIPPY DAM","Latitude":"44.25860","Longitude":"-85.93940","Snowdepth":"9.000","Units":"in","Rept_Date":"2020-01-23 13"},"coordinates":[2652,4815]},{"type":"Point","properties":{"Station_ID":"VT-WS-19","Station_Nam":"WATERBURY 3.0 NW, VT","Latitude":"44.36060","Longitude":"-72.80770","Snowdepth":"9.000","Units":"in","Rept_Date":"2020-01-23 11"},"coordinates":[5734,4885]},{"type":"Point","properties":{"Station_ID":"VQAW3","Station_Nam":"VIROQUA","Latitude":"43.55970","Longitude":"-90.87560","Snowdepth":"9.000","Units":"in","Rept_Date":"2020-01-23 13"},"coordinates":[1493,4329]},{"type":"Point","properties":{"Station_ID":"VOLI4","Station_Nam":"VOLGA 1NE","Latitude":"42.81150","Longitude":"-91.52300","Snowdepth":"9.000","Units":"in","Rept_Date":"2020-01-23 12"},"coordinates":[1341,3810]},{"type":"Point","properties":{"Station_ID":"UMNM5","Station_Nam":"UNIVERSITY OF MN ST. PAUL","Latitude":"44.99020","Longitude":"-93.17990","Snowdepth":"9.000","Units":"in","Rept_Date":"2020-01-23 14"},"coordinates":[953,5322]},{"type":"Point","properties":{"Station_ID":"STIM4","Station_Nam":"ST IGNACE","Latitude":"45.86080","Longitude":"-84.71960","Snowdepth":"9.000","Units":"in","Rept_Date":"2020-01-23 12"},"coordinates":[2938,5927]},{"type":"Point","properties":{"Station_ID":"SNYI4","Station_Nam":"STANLEY","Latitude":"42.63330","Longitude":"-91.86320","Snowdepth":"9.000","Units":"in","Rept_Date":"2020-01-23 13"},"coordinates":[1262,3686]},{"type":"Point","properties":{"Station_ID":"SHHW3","Station_Nam":"SHAWANO 2SSW","Latitude":"44.76310","Longitude":"-88.61830","Snowdepth":"9.000","Units":"in","Rept_Date":"2020-01-23 14"},"coordinates":[2023,5165]},{"type":"Point","properties":{"Station_ID":"SHDI4","Station_Nam":"SHELDON,IA","Latitude":"43.18080","Longitude":"-95.85280","Snowdepth":"9.000","Units":"in","Rept_Date":"2020-01-23 13"},"coordinates":[325,4066]},{"type":"Point","properties":{"Station_ID":"SD-MH-8","Station_Nam":"HARTFORD 6.4 S, SD","Latitude":"43.53128","Longitude":"-96.95020","Snowdepth":"9.000","Units":"in","Rept_Date":"2020-01-23 14"},"coordinates":[68,4310]},{"type":"Point","properties":{"Station_ID":"RST","Station_Nam":"ROCHESTER INTERNATIONAL ARPT","Latitude":"43.90890","Longitude":"-92.49780","Snowdepth":"9.000","Units":"in","Rept_Date":"2020-01-24 00"},"coordinates":[1113,4572]},{"type":"Point","properties":{"Station_ID":"RSRM5","Station_Nam":"ROCHESTER AP 2NE","Latitude":"43.92810","Longitude":"-92.47580","Snowdepth":"9.000","Units":"in","Rept_Date":"2020-01-24 06"},"coordinates":[1118,4585]},{"type":"Point","properties":{"Station_ID":"PLOW3","Station_Nam":"PLOVER","Latitude":"44.44280","Longitude":"-89.54530","Snowdepth":"9.000","Units":"in","Rept_Date":"2020-01-23 13"},"coordinates":[1806,4942]},{"type":"Point","properties":{"Station_ID":"OCNW3","Station_Nam":"OCONTO 4 W","Latitude":"44.89190","Longitude":"-87.95500","Snowdepth":"9.000","Units":"in","Rept_Date":"2020-01-23 13"},"coordinates":[2179,5254]},{"type":"Point","properties":{"Station_ID":"NY-ER-65","Station_Nam":"BOSTON 1.5 NE, NY","Latitude":"42.65470","Longitude":"-78.72010","Snowdepth":"9.000","Units":"in","Rept_Date":"2020-01-23 13"},"coordinates":[4346,3701]},{"type":"Point","properties":{"Station_ID":"NY-ER-166","Station_Nam":"BOSTON 2.5 NE, NY","Latitude":"42.65480","Longitude":"-78.70300","Snowdepth":"9.000","Units":"in","Rept_Date":"2020-01-23 12"},"coordinates":[4350,3701]},{"type":"Point","properties":{"Station_ID":"NY-ER-158","Station_Nam":"EAST AURORA 2.7 SSE, NY","Latitude":"42.72936","Longitude":"-78.60561","Snowdepth":"9.000","Units":"in","Rept_Date":"2020-01-23 14"},"coordinates":[4373,3753]},{"type":"Point","properties":{"Station_ID":"NUMM5","Station_Nam":"NEW ULM 3SE","Latitude":"44.29450","Longitude":"-94.40840","Snowdepth":"9.000","Units":"in","Rept_Date":"2020-01-23 11"},"coordinates":[664,4839]},{"type":"Point","properties":{"Station_ID":"NONW3","Station_Nam":"NEW LONDON","Latitude":"44.35890","Longitude":"-88.71890","Snowdepth":"9.000","Units":"in","Rept_Date":"2020-01-23 12"},"coordinates":[2000,4884]},{"type":"Point","properties":{"Station_ID":"NH-MR-60","Station_Nam":"SOUTH SUTTON 1.3 SE, NH","Latitude":"43.29531","Longitude":"-71.90238","Snowdepth":"9.000","Units":"in","Rept_Date":"2020-01-23 13"},"coordinates":[5946,4146]},{"type":"Point","properties":{"Station_ID":"NH-MR-41","Station_Nam":"NEWBURY 1.6 NW, NH","Latitude":"43.33667","Longitude":"-72.06060","Snowdepth":"9.000","Units":"in","Rept_Date":"2020-01-23 12"},"coordinates":[5909,4174]},{"type":"Point","properties":{"Station_ID":"NH-CS-7","Station_Nam":"LANCASTER 0.5 N, NH","Latitude":"44.49611","Longitude":"-71.57640","Snowdepth":"9.000","Units":"in","Rept_Date":"2020-01-23 12"},"coordinates":[6023,4979]},{"type":"Point","properties":{"Station_ID":"MWTM1","Station_Nam":"MILLINOCKET WWTP","Latitude":"45.64030","Longitude":"-68.67480","Snowdepth":"9.000","Units":"in","Rept_Date":"2020-01-23 11"},"coordinates":[6704,5774]},{"type":"Point","properties":{"Station_ID":"MSHI4","Station_Nam":"MARSHALLTOWN,IA","Latitude":"42.06670","Longitude":"-92.93330","Snowdepth":"9.000","Units":"in","Rept_Date":"2020-01-23 13"},"coordinates":[1010,3293]},{"type":"Point","properties":{"Station_ID":"MRFS2","Station_Nam":"MADISON,SD","Latitude":"44.00000","Longitude":"-97.23330","Snowdepth":"9.000","Units":"in","Rept_Date":"2020-01-23 15"},"coordinates":[1,4635]},{"type":"Point","properties":{"Station_ID":"MN0HS1SL","Station_Nam":"NORTH SAINT PAUL 1.6 NW","Latitude":"45.02800","Longitude":"-93.01506","Snowdepth":"9.000","Units":"in","Rept_Date":"2020-01-23 13"},"coordinates":[991,5349]},{"type":"Point","properties":{"Station_ID":"MN-WG-74","Station_Nam":"OAKDALE 0.4 S, MN","Latitude":"44.98208","Longitude":"-92.96510","Snowdepth":"9.000","Units":"in","Rept_Date":"2020-01-23 13"},"coordinates":[1003,5317]},{"type":"Point","properties":{"Station_ID":"MN-RM-63","Station_Nam":"NORTH SAINT PAUL 1.0 NW, MN","Latitude":"45.02410","Longitude":"-93.01400","Snowdepth":"9.000","Units":"in","Rept_Date":"2020-01-23 13"},"coordinates":[991,5346]},{"type":"Point","properties":{"Station_ID":"MN-HN-78","Station_Nam":"RICHFIELD 1.9 WNW, MN","Latitude":"44.89129","Longitude":"-93.31410","Snowdepth":"9.000","Units":"in","Rept_Date":"2020-01-23 11"},"coordinates":[921,5254]},{"type":"Point","properties":{"Station_ID":"MN-DK-70","Station_Nam":"EAGAN 2.0 NNW, MN","Latitude":"44.84322","Longitude":"-93.17899","Snowdepth":"9.000","Units":"in","Rept_Date":"2020-01-23 15"},"coordinates":[953,5220]},{"type":"Point","properties":{"Station_ID":"MN-DK-53","Station_Nam":"LAKEVILLE 3.8 ENE, MN","Latitude":"44.70423","Longitude":"-93.18460","Snowdepth":"9.000","Units":"in","Rept_Date":"2020-01-23 12"},"coordinates":[951,5124]},{"type":"Point","properties":{"Station_ID":"MN-DK-104","Station_Nam":"HASTINGS 1.6 NW, MN","Latitude":"44.74458","Longitude":"-92.88035","Snowdepth":"9.000","Units":"in","Rept_Date":"2020-01-23 13"},"coordinates":[1023,5152]},{"type":"Point","properties":{"Station_ID":"MLOW3","Station_Nam":"MONTELLO 1W (FROST DEPTH)","Latitude":"43.79420","Longitude":"-89.33780","Snowdepth":"9.000","Units":"in","Rept_Date":"2020-01-23 14"},"coordinates":[1854,4492]},