{"type":"Topology","objects":{"snowdepth_geo":{"type":"GeometryCollection","name":"snowdepth","crs":{"type":"name","properties":{"name":"urn:ogc:def:crs:OGC:1.3:CRS84"}},"geometries":[{"type":"Point","properties":{"Station_ID":"MMSV1","Station_Nam":"MOUNT MANSFIELD","Latitude":"44.53330","Longitude":"-72.83330","Snowdepth":"82.000","Units":"in","Rept_Date":"2019-12-05 05"},"coordinates":[6641,5524]},{"type":"Point","properties":{"Station_ID":"PRKM4","Station_Nam":"MUNISING EAST","Latitude":"46.42580","Longitude":"-86.62000","Snowdepth":"76.500","Units":"in","Rept_Date":"2019-12-05 06"},"coordinates":[2890,6701]},{"type":"Point","properties":{"Station_ID":"OGIQ6","Station_Nam":"OGOKI CAMP","Latitude":"50.76680","Longitude":"-87.85820","Snowdepth":"61.100","Units":"in","Rept_Date":"2019-12-05 06"},"coordinates":[2553,9402]},{"type":"Point","properties":{"Station_ID":"AUDQ6","Station_Nam":"AUDEN","Latitude":"48.52600","Longitude":"-82.57570","Snowdepth":"47.640","Units":"in","Rept_Date":"2019-12-05 06"},"coordinates":[3990,8008]},{"type":"Point","properties":{"Station_ID":"DVLQ6","Station_Nam":"DEVIOUS LAKE","Latitude":"49.19890","Longitude":"-87.76440","Snowdepth":"43.460","Units":"in","Rept_Date":"2019-12-05 06"},"coordinates":[2578,8426]},{"type":"Point","properties":{"Station_ID":"HURW3","Station_Nam":"HURLEY","Latitude":"46.46250","Longitude":"-90.19550","Snowdepth":"31.000","Units":"in","Rept_Date":"2019-12-04 14"},"coordinates":[1917,6724]},{"type":"Point","properties":{"Station_ID":"SWTW3","Station_Nam":"SUPERIOR WWTP","Latitude":"46.72700","Longitude":"-92.07200","Snowdepth":"27.000","Units":"in","Rept_Date":"2019-12-05 06"},"coordinates":[1406,6888]},{"type":"Point","properties":{"Station_ID":"GMSM4","Station_Nam":"GRAND MARAIS 10S","Latitude":"46.50940","Longitude":"-85.96310","Snowdepth":"27.000","Units":"in","Rept_Date":"2019-12-04 12"},"coordinates":[3068,6753]},{"type":"Point","properties":{"Station_ID":"PDLM4","Station_Nam":"PAINESDALE","Latitude":"47.04160","Longitude":"-88.67170","Snowdepth":"26.000","Units":"in","Rept_Date":"2019-12-04 13"},"coordinates":[2331,7084]},{"type":"Point","properties":{"Station_ID":"HTLN3","Station_Nam":"HERMIT LAKE SNOWPLOT","Latitude":"44.26130","Longitude":"-71.28330","Snowdepth":"26.000","Units":"in","Rept_Date":"2019-12-04 11"},"coordinates":[7063,5354]},{"type":"Point","properties":{"Station_ID":"WRSM5","Station_Nam":"WRENSHALL","Latitude":"46.61550","Longitude":"-92.38380","Snowdepth":"25.000","Units":"in","Rept_Date":"2019-12-04 14"},"coordinates":[1321,6819]},{"type":"Point","properties":{"Station_ID":"MQT","Station_Nam":"MARQUETTE, MI","Latitude":"46.53140","Longitude":"-87.54920","Snowdepth":"24.000","Units":"in","Rept_Date":"2019-12-05 06"},"coordinates":[2637,6767]},{"type":"Point","properties":{"Station_ID":"GREN3","Station_Nam":"GREENVILLE 1 NNE","Latitude":"42.78270","Longitude":"-71.79850","Snowdepth":"24.000","Units":"in","Rept_Date":"2019-12-04 12"},"coordinates":[6923,4434]},{"type":"Point","properties":{"Station_ID":"BARM3","Station_Nam":"BARRE FALLS DAM","Latitude":"42.42800","Longitude":"-72.02750","Snowdepth":"24.000","Units":"in","Rept_Date":"2019-12-04 12"},"coordinates":[6861,4214]},{"type":"Point","properties":{"Station_ID":"NH-HL-48","Station_Nam":"GREENVILLE 1.1 ENE, NH","Latitude":"42.77674","Longitude":"-71.77990","Snowdepth":"23.000","Units":"in","Rept_Date":"2019-12-04 13"},"coordinates":[6928,4431]},{"type":"Point","properties":{"Station_ID":"GNLM4","Station_Nam":"GREENLAND 6N","Latitude":"46.87360","Longitude":"-89.10060","Snowdepth":"23.000","Units":"in","Rept_Date":"2019-12-04 13"},"coordinates":[2215,6980]},{"type":"Point","properties":{"Station_ID":"WI-BY-1","Station_Nam":"BAYFIELD 8.8 N, WI","Latitude":"46.93855","Longitude":"-90.83490","Snowdepth":"22.000","Units":"in","Rept_Date":"2019-12-04 13"},"coordinates":[1743,7020]},{"type":"Point","properties":{"Station_ID":"NY-SC-16","Station_Nam":"NISKAYUNA 2.0 N, NY","Latitude":"42.84645","Longitude":"-73.89920","Snowdepth":"22.000","Units":"in","Rept_Date":"2019-12-04 12"},"coordinates":[6351,4474]},{"type":"Point","properties":{"Station_ID":"MI-MQ-19","Station_Nam":"ISHPEMING 7.2 SW, MI","Latitude":"46.40550","Longitude":"-87.75670","Snowdepth":"22.000","Units":"in","Rept_Date":"2019-12-04 11"},"coordinates":[2580,6688]},{"type":"Point","properties":{"Station_ID":"MA-WR-22","Station_Nam":"FITCHBURG 2.0 NNE, MA","Latitude":"42.61671","Longitude":"-71.80100","Snowdepth":"22.000","Units":"in","Rept_Date":"2019-12-04 13"},"coordinates":[6922,4331]},{"type":"Point","properties":{"Station_ID":"KISM4","Station_Nam":"K.I. SAWYER WWTP","Latitude":"46.33410","Longitude":"-87.37790","Snowdepth":"22.000","Units":"in","Rept_Date":"2019-12-04 13"},"coordinates":[2683,6644]},{"type":"Point","properties":{"Station_ID":"JAPN3","Station_Nam":"JAFFREY SILVER RANCH AIRPARK","Latitude":"42.80880","Longitude":"-72.00530","Snowdepth":"22.000","Units":"in","Rept_Date":"2019-12-04 12"},"coordinates":[6867,4451]},{"type":"Point","properties":{"Station_ID":"BFHW3","Station_Nam":"BAYFIELD FISH HATCHERY","Latitude":"46.78670","Longitude":"-90.86420","Snowdepth":"22.000","Units":"in","Rept_Date":"2019-12-04 14"},"coordinates":[1735,6926]},{"type":"Point","properties":{"Station_ID":"CAN-NB-50","Station_Nam":"DOYLEVILLE 2.4 WNW, CAN","Latitude":"47.90803","Longitude":"-66.13279","Snowdepth":"21.500","Units":"in","Rept_Date":"2019-12-04 13"},"coordinates":[8465,7623]},{"type":"Point","properties":{"Station_ID":"WI-BY-14","Station_Nam":"ASHLAND 9.8 W, WI","Latitude":"46.59742","Longitude":"-91.07856","Snowdepth":"21.000","Units":"in","Rept_Date":"2019-12-04 12"},"coordinates":[1676,6808]},{"type":"Point","properties":{"Station_ID":"VT-BN-12","Station_Nam":"STAMFORD 5.0 NNE, VT","Latitude":"42.82000","Longitude":"-73.02000","Snowdepth":"21.000","Units":"in","Rept_Date":"2019-12-04 21"},"coordinates":[6591,4458]},{"type":"Point","properties":{"Station_ID":"NY-AB-54","Station_Nam":"ALTAMONT 2.9 SW, NY","Latitude":"42.68182","Longitude":"-74.08326","Snowdepth":"21.000","Units":"in","Rept_Date":"2019-12-04 12"},"coordinates":[6301,4372]},{"type":"Point","properties":{"Station_ID":"WI-AS-4","Station_Nam":"ASHLAND 0.5 WNW, WI","Latitude":"46.58240","Longitude":"-90.88390","Snowdepth":"20.500","Units":"in","Rept_Date":"2019-12-04 13"},"coordinates":[1729,6798]},{"type":"Point","properties":{"Station_ID":"CAN-NB-2","Station_Nam":"GRAFTON 2.7 NNE, CA","Latitude":"46.17062","Longitude":"-67.55330","Snowdepth":"20.500","Units":"in","Rept_Date":"2019-12-04 10"},"coordinates":[8078,6542]},{"type":"Point","properties":{"Station_ID":"MI-BG-3","Station_Nam":"L'ANSE 17.8 SE, MI","Latitude":"46.55730","Longitude":"-88.20770","Snowdepth":"20.300","Units":"in","Rept_Date":"2019-12-04 13"},"coordinates":[2458,6783]},{"type":"Point","properties":{"Station_ID":"WORM3","Station_Nam":"WORTHINGTON","Latitude":"42.38690","Longitude":"-72.92100","Snowdepth":"20.000","Units":"in","Rept_Date":"2019-12-04 12"},"coordinates":[6617,4188]},{"type":"Point","properties":{"Station_ID":"WLFM5","Station_Nam":"WOLF RIDGE ENVIRON LEARNING CENTER","Latitude":"47.38240","Longitude":"-91.19730","Snowdepth":"20.000","Units":"in","Rept_Date":"2019-12-04 13"},"coordinates":[1644,7296]},{"type":"Point","properties":{"Station_ID":"WI-WB-2","Station_Nam":"STONE LAKE 2.0 NW, WI","Latitude":"45.85960","Longitude":"-91.57710","Snowdepth":"20.000","Units":"in","Rept_Date":"2019-12-04 13"},"coordinates":[1541,6349]},{"type":"Point","properties":{"Station_ID":"NH-HL-49","Station_Nam":"MONT VERNON 1.3 SSW, NH","Latitude":"42.87616","Longitude":"-71.68280","Snowdepth":"20.000","Units":"in","Rept_Date":"2019-12-04 11"},"coordinates":[6954,4493]},{"type":"Point","properties":{"Station_ID":"MA-WR-54","Station_Nam":"BARRE 1.4 NNE, MA","Latitude":"42.44082","Longitude":"-72.09591","Snowdepth":"20.000","Units":"in","Rept_Date":"2019-12-04 12"},"coordinates":[6842,4222]},{"type":"Point","properties":{"Station_ID":"LVDW3","Station_Nam":"LAC VIEUX DESERT","Latitude":"46.12110","Longitude":"-89.07580","Snowdepth":"20.000","Units":"in","Rept_Date":"2019-12-04 14"},"coordinates":[2221,6511]},{"type":"Point","properties":{"Station_ID":"KSGM4","Station_Nam":"KEARSARGE","Latitude":"47.27520","Longitude":"-88.41700","Snowdepth":"20.000","Units":"in","Rept_Date":"2019-12-04 12"},"coordinates":[2401,7229]},{"type":"Point","properties":{"Station_ID":"JWTN6","Station_Nam":"EAST JEWETT","Latitude":"42.23430","Longitude":"-74.14430","Snowdepth":"20.000","Units":"in","Rept_Date":"2019-12-04 12"},"coordinates":[6285,4093]},{"type":"Point","properties":{"Station_ID":"GLDM4","Station_Nam":"GLADSTONE NO. 2","Latitude":"45.84330","Longitude":"-87.03910","Snowdepth":"20.000","Units":"in","Rept_Date":"2019-12-04 12"},"coordinates":[2776,6339]},{"type":"Point","properties":{"Station_ID":"ESAM4","Station_Nam":"ESCANABA","Latitude":"45.74380","Longitude":"-87.04060","Snowdepth":"20.000","Units":"in","Rept_Date":"2019-12-04 12"},"coordinates":[2775,6277]},{"type":"Point","properties":{"Station_ID":"DLSN6","Station_Nam":"DELANSON 2NE","Latitude":"42.76720","Longitude":"-74.17110","Snowdepth":"20.000","Units":"in","Rept_Date":"2019-12-04 12"},"coordinates":[6277,4425]},{"type":"Point","properties":{"Station_ID":"AWXW3","Station_Nam":"ASHLAND","Latitude":"46.58240","Longitude":"-90.88390","Snowdepth":"20.000","Units":"in","Rept_Date":"2019-12-04 13"},"coordinates":[1729,6798]},{"type":"Point","properties":{"Station_ID":"ASBM3","Station_Nam":"ASHBURNHAM","Latitude":"42.61780","Longitude":"-71.91590","Snowdepth":"20.000","Units":"in","Rept_Date":"2019-12-04 12"},"coordinates":[6891,4332]},{"type":"Point","properties":{"Station_ID":"WI-DG-20","Station_Nam":"SOLON SPRINGS 1.2 W, WI","Latitude":"46.35217","Longitude":"-91.84405","Snowdepth":"19.000","Units":"in","Rept_Date":"2019-12-04 13"},"coordinates":[1468,6655]},{"type":"Point","properties":{"Station_ID":"QNCM4","Station_Nam":"QUINCY HILL","Latitude":"47.13640","Longitude":"-88.57950","Snowdepth":"19.000","Units":"in","Rept_Date":"2019-12-04 12"},"coordinates":[2356,7143]},{"type":"Point","properties":{"Station_ID":"NY-GR-7","Station_Nam":"GREENVILLE 0.7 E, NY","Latitude":"42.41400","Longitude":"-74.00900","Snowdepth":"19.000","Units":"in","Rept_Date":"2019-12-04 12"},"coordinates":[6321,4205]},{"type":"Point","properties":{"Station_ID":"NY-AB-23","Station_Nam":"ALBANY 0.7 SW, NY","Latitude":"42.66019","Longitude":"-73.81030","Snowdepth":"19.000","Units":"in","Rept_Date":"2019-12-04 12"},"coordinates":[6375,4358]},{"type":"Point","properties":{"Station_ID":"MN-SL-18","Station_Nam":"DULUTH 1.4 NNW, MN","Latitude":"46.80321","Longitude":"-92.11240","Snowdepth":"19.000","Units":"in","Rept_Date":"2019-12-04 14"},"coordinates":[1395,6936]},{"type":"Point","properties":{"Station_ID":"IRMM4","Station_Nam":"WWTP","Latitude":"46.46670","Longitude":"-90.18330","Snowdepth":"19.000","Units":"in","Rept_Date":"2019-12-04 13"},"coordinates":[1920,6726]},{"type":"Point","properties":{"Station_ID":"ILIM5","Station_Nam":"ISLAND LAKE","Latitude":"47.02400","Longitude":"-92.07000","Snowdepth":"19.000","Units":"in","Rept_Date":"2019-12-04 15"},"coordinates":[1407,7073]},{"type":"Point","properties":{"Station_ID":"ESGM1","Station_Nam":"EAST SANGERVILLE","Latitude":"45.13690","Longitude":"-69.28060","Snowdepth":"19.000","Units":"in","Rept_Date":"2019-12-04 12"},"coordinates":[7608,5899]},{"type":"Point","properties":{"Station_ID":"EMLN3","Station_Nam":"EAST MILFORD","Latitude":"42.82660","Longitude":"-71.62600","Snowdepth":"19.000","Units":"in","Rept_Date":"2019-12-04 12"},"coordinates":[6970,4462]},{"type":"Point","properties":{"Station_ID":"DLHM5","Station_Nam":"DULUTH NWS","Latitude":"46.83680","Longitude":"-92.21080","Snowdepth":"19.000","Units":"in","Rept_Date":"2019-12-05 06"},"coordinates":[1368,6957]},{"type":"Point","properties":{"Station_ID":"DLH","Station_Nam":"DULUTH, MN","Latitude":"46.83690","Longitude":"-92.21030","Snowdepth":"19.000","Units":"in","Rept_Date":"2019-12-05 00"},"coordinates":[1368,6957]},{"type":"Point","properties":{"Station_ID":"BIRM3","Station_Nam":"BIRCH HILL DAM","Latitude":"42.63240","Longitude":"-72.12270","Snowdepth":"19.000","Units":"in","Rept_Date":"2019-12-04 12"},"coordinates":[6835,4341]},{"type":"Point","properties":{"Station_ID":"ACVN6","Station_Nam":"ALCOVE DAM","Latitude":"42.46970","Longitude":"-73.92670","Snowdepth":"19.000","Units":"in","Rept_Date":"2019-12-04 13"},"coordinates":[6344,4240]},{"type":"Point","properties":{"Station_ID":"ME-PN-45","Station_Nam":"MILLINOCKET 2.7 ESE, ME","Latitude":"45.65002","Longitude":"-68.64472","Snowdepth":"18.500","Units":"in","Rept_Date":"2019-12-04 12"},"coordinates":[7781,6218]},{"type":"Point","properties":{"Station_ID":"MA-WR-44","Station_Nam":"WESTMINSTER 0.6 WSW, MA","Latitude":"42.54505","Longitude":"-71.91032","Snowdepth":"18.500","Units":"in","Rept_Date":"2019-12-04 12"},"coordinates":[6892,4287]},{"type":"Point","properties":{"Station_ID":"MA-HS-7","Station_Nam":"PLAINFIELD 2.2 SW, MA","Latitude":"42.49272","Longitude":"-72.94540","Snowdepth":"18.500","Units":"in","Rept_Date":"2019-12-04 13"},"coordinates":[6611,4254]},{"type":"Point","properties":{"Station_ID":"TWOM5","Station_Nam":"TWO HARBORS,MN","Latitude":"47.12580","Longitude":"-91.70750","Snowdepth":"18.000","Units":"in","Rept_Date":"2019-12-05 01"},"coordinates":[1505,7136]},{"type":"Point","properties":{"Station_ID":"TRYN6","Station_Nam":"TROY","Latitude":"42.75080","Longitude":"-73.68550","Snowdepth":"18.000","Units":"in","Rept_Date":"2019-12-04 12"},"coordinates":[6409,4415]},{"type":"Point","properties":{"Station_ID":"PDGM4","Station_Nam":"PAULDING","Latitude":"46.39760","Longitude":"-89.17940","Snowdepth":"18.000","Units":"in","Rept_Date":"2019-12-04 13"},"coordinates":[2193,6683]},{"type":"Point","properties":{"Station_ID":"NY-RN-20","Station_Nam":"TROY 2.1 NNE, NY","Latitude":"42.75930","Longitude":"-73.65283","Snowdepth":"18.000","Units":"in","Rept_Date":"2019-12-04 12"},"coordinates":[6418,4420]},{"type":"Point","properties":{"Station_ID":"MA-WR-75","Station_Nam":"WARREN 2.4 WSW, MA","Latitude":"42.20400","Longitude":"-72.23540","Snowdepth":"18.000","Units":"in","Rept_Date":"2019-12-04 12"},"coordinates":[6804,4074]},{"type":"Point","properties":{"Station_ID":"MA-MD-96","Station_Nam":"LEXINGTON 0.3 NE, MA","Latitude":"42.44944","Longitude":"-71.22791","Snowdepth":"18.000","Units":"in","Rept_Date":"2019-12-04 12"},"coordinates":[7078,4227]},{"type":"Point","properties":{"Station_ID":"MA-MD-47","Station_Nam":"WEST TOWNSEND 0.5 W, MA","Latitude":"42.67623","Longitude":"-71.74983","Snowdepth":"18.000","Units":"in","Rept_Date":"2019-12-04 11"},"coordinates":[6936,4368]},{"type":"Point","properties":{"Station_ID":"HRKM3","Station_Nam":"HARDWICK 2 ESE","Latitude":"42.34570","Longitude":"-72.15410","Snowdepth":"18.000","Units":"in","Rept_Date":"2019-12-04 13"},"coordinates":[6826,4163]},{"type":"Point","properties":{"Station_ID":"GGRM4","Station_Nam":"GREEN GARDEN NO.2","Latitude":"46.45330","Longitude":"-87.30380","Snowdepth":"18.000","Units":"in","Rept_Date":"2019-12-04 11"},"coordinates":[2704,6718]},{"type":"Point","properties":{"Station_ID":"ENGM4","Station_Nam":"ENGADINE MDOT","Latitude":"46.12800","Longitude":"-85.56960","Snowdepth":"18.000","Units":"in","Rept_Date":"2019-12-04 12"},"coordinates":[3175,6516]},{"type":"Point","properties":{"Station_ID":"EHYM3","Station_Nam":"EAST HAWLEY","Latitude":"42.57410","Longitude":"-72.86790","Snowdepth":"18.000","Units":"in","Rept_Date":"2019-12-04 13"},"coordinates":[6632,4305]},{"type":"Point","properties":{"Station_ID":"COUW3","Station_Nam":"COUDERAY,WI","Latitude":"45.86670","Longitude":"-91.45000","Snowdepth":"18.000","Units":"in","Rept_Date":"2019-12-04 22"},"coordinates":[1575,6353]},{"type":"Point","properties":{"Station_ID":"COBN6","Station_Nam":"COBLESKILL 2ESE","Latitude":"42.66710","Longitude":"-74.44230","Snowdepth":"18.000","Units":"in","Rept_Date":"2019-12-04 13"},"coordinates":[6203,4363]},{"type":"Point","properties":{"Station_ID":"CEFM4","Station_Nam":"EXPERIMENT FARM #2","Latitude":"46.33330","Longitude":"-86.91670","Snowdepth":"18.000","Units":"in","Rept_Date":"2019-12-04 13"},"coordinates":[2809,6643]},{"type":"Point","properties":{"Station_ID":"ASXW3","Station_Nam":"ASHLAND,WI","Latitude":"46.55220","Longitude":"-90.91610","Snowdepth":"18.000","Units":"in","Rept_Date":"2019-12-04 14"},"coordinates":[1721,6780]},{"type":"Point","properties":{"Station_ID":"MA-BE-20","Station_Nam":"LEE 3.7 SE, MA","Latitude":"42.27242","Longitude":"-73.19763","Snowdepth":"17.800","Units":"in","Rept_Date":"2019-12-04 12"},"coordinates":[6542,4117]},{"type":"Point","properties":{"Station_ID":"NY-SC-20","Station_Nam":"ROTTERDAM 0.9 NW, NY","Latitude":"42.78862","Longitude":"-73.96671","Snowdepth":"17.500","Units":"in","Rept_Date":"2019-12-04 13"},"coordinates":[6333,4438]},{"type":"Point","properties":{"Station_ID":"ME-AR-23","Station_Nam":"MADAWASKA 2.5 E, ME","Latitude":"47.34933","Longitude":"-68.28141","Snowdepth":"17.500","Units":"in","Rept_Date":"2019-12-04 10"},"coordinates":[7880,7276]},{"type":"Point","properties":{"Station_ID":"MA-WR-8","Station_Nam":"FITCHBURG 1.6 SSW, MA","Latitude":"42.56674","Longitude":"-71.82170","Snowdepth":"17.500","Units":"in","Rept_Date":"2019-12-04 11"},"coordinates":[6917,4300]},{"type":"Point","properties":{"Station_ID":"MA-MD-85","Station_Nam":"WILMINGTON 2.2 WNW, MA","Latitude":"42.56871","Longitude":"-71.20764","Snowdepth":"17.200","Units":"in","Rept_Date":"2019-12-04 12"},"coordinates":[7084,4301]},{"type":"Point","properties":{"Station_ID":"WRPW3","Station_Nam":"WATER PURIFICATION PLANT","Latitude":"44.38800","Longitude":"-89.80550","Snowdepth":"17.000","Units":"in","Rept_Date":"2019-12-04 12"},"coordinates":[2023,5433]},{"type":"Point","properties":{"Station_ID":"WI-IR-2","Station_Nam":"MERCER 2.0 SE, WI","Latitude":"46.14749","Longitude":"-90.03097","Snowdepth":"17.000","Units":"in","Rept_Date":"2019-12-04 13"},"coordinates":[1961,6528]},{"type":"Point","properties":{"Station_ID":"WI-BY-6","Station_Nam":"BARNES 2.2 S, WI","Latitude":"46.30264","Longitude":"-91.50320","Snowdepth":"17.000","Units":"in","Rept_Date":"2019-12-04 13"},"coordinates":[1561,6624]},{"type":"Point","properties":{"Station_ID":"WI-BY-2","Station_Nam":"MELLEN 18.6 SW, WI","Latitude":"46.16937","Longitude":"-90.98090","Snowdepth":"17.000","Units":"in","Rept_Date":"2019-12-04 13"},"coordinates":[1703,6541]},{"type":"Point","properties":{"Station_ID":"SUAW3","Station_Nam":"SUAMICO","Latitude":"44.60190","Longitude":"-88.09780","Snowdepth":"17.000","Units":"in","Rept_Date":"2019-12-04 12"},"coordinates":[2487,5566]},{"type":"Point","properties":{"Station_ID":"SDLM3","Station_Nam":"SUNDERLAND","Latitude":"42.44480","Longitude":"-72.55290","Snowdepth":"17.000","Units":"in","Rept_Date":"2019-12-04 12"},"coordinates":[6718,4224]},{"type":"Point","properties":{"Station_ID":"NY-SR-35","Station_Nam":"ROUND LAKE 4.1 NE, NY","Latitude":"42.97760","Longitude":"-73.73750","Snowdepth":"17.000","Units":"in","Rept_Date":"2019-12-04 12"},"coordinates":[6395,4556]},{"type":"Point","properties":{"Station_ID":"NY-RN-1","Station_Nam":"AVERILL PARK 0.9 WNW, NY","Latitude":"42.63910","Longitude":"-73.56980","Snowdepth":"17.000","Units":"in","Rept_Date":"2019-12-04 13"},"coordinates":[6441,4345]},{"type":"Point","properties":{"Station_ID":"NY-AB-46","Station_Nam":"RAVENA 1.4 NNW, NY","Latitude":"42.49571","Longitude":"-73.82175","Snowdepth":"17.000","Units":"in","Rept_Date":"2019-12-04 16"},"coordinates":[6372,4256]},{"type":"Point","properties":{"Station_ID":"MNSM4","Station_Nam":"MUNISING","Latitude":"46.41210","Longitude":"-86.66250","Snowdepth":"17.000","Units":"in","Rept_Date":"2019-12-04 11"},"coordinates":[2878,6692]},{"type":"Point","properties":{"Station_ID":"MA-HD-25","Station_Nam":"LUDLOW 2.3 SW, MA","Latitude":"42.14523","Longitude":"-72.51650","Snowdepth":"17.000","Units":"in","Rept_Date":"2019-12-04 12"},"coordinates":[6728,4038]},{"type":"Point","properties":{"Station_ID":"LNCM1","Station_Nam":"LINCOLN WATER DISTRICT","Latitude":"45.32410","Longitude":"-68.58300","Snowdepth":"17.000","Units":"in","Rept_Date":"2019-12-04 12"},"coordinates":[7798,6016]},{"type":"Point","properties":{"Station_ID":"HUDN3","Station_Nam":"HUDSON 1 SSE","Latitude":"42.78300","Longitude":"-71.41480","Snowdepth":"17.000","Units":"in","Rept_Date":"2019-12-04 12"},"coordinates":[7027,4435]},{"type":"Point","properties":{"Station_ID":"HMPN3","Station_Nam":"WEST HAMPSTEAD","Latitude":"42.91080","Longitude":"-71.20200","Snowdepth":"17.000","Units":"in","Rept_Date":"2019-12-04 12"},"coordinates":[7085,4514]},{"type":"Point","properties":{"Station_ID":"CRVW3","Station_Nam":"CRIVITZ HIGH FALLS","Latitude":"45.35750","Longitude":"-88.19190","Snowdepth":"17.000","Units":"in","Rept_Date":"2019-12-04 13"},"coordinates":[2462,6036]},{"type":"Point","properties":{"Station_ID":"CMKW3","Station_Nam":"CLAM LAKE 4W","Latitude":"46.16940","Longitude":"-90.98080","Snowdepth":"17.000","Units":"in","Rept_Date":"2019-12-04 13"},"coordinates":[1703,6541]},{"type":"Point","properties":{"Station_ID":"ASTW3","Station_Nam":"ATHELSTANE","Latitude":"45.42500","Longitude":"-88.05750","Snowdepth":"17.000","Units":"in","Rept_Date":"2019-12-04 12"},"coordinates":[2498,6078]},{"type":"Point","properties":{"Station_ID":"ABGW3","Station_Nam":"AMBERG 9 E","Latitude":"45.48250","Longitude":"-87.81190","Snowdepth":"17.000","Units":"in","Rept_Date":"2019-12-04 13"},"coordinates":[2565,6114]},{"type":"Point","properties":{"Station_ID":"QGD","Station_Nam":"QGD","Latitude":"51.11140","Longitude":"-67.13940","Snowdepth":"16.968","Units":"in","Rept_Date":"2019-12-04 12"},"coordinates":[8191,9616]},{"type":"Point","properties":{"Station_ID":"WI-VL-10","Station_Nam":"LAND O LAKES 4.3 WNW, WI","Latitude":"46.17440","Longitude":"-89.30380","Snowdepth":"16.500","Units":"in","Rept_Date":"2019-12-04 13"},"coordinates":[2159,6545]},{"type":"Point","properties":{"Station_ID":"NY-SC-11","Station_Nam":"SCHENECTADY 3.3 E, NY","Latitude":"42.79382","Longitude":"-73.86390","Snowdepth":"16.500","Units":"in","Rept_Date":"2019-12-04 14"},"coordinates":[6361,4441]},{"type":"Point","properties":{"Station_ID":"MA-MD-104","Station_Nam":"LITTLETON 2.8 NNW, MA","Latitude":"42.57170","Longitude":"-71.49910","Snowdepth":"16.500","Units":"in","Rept_Date":"2019-12-04 12"},"coordinates":[7004,4303]},{"type":"Point","properties":{"Station_ID":"MA-HD-28","Station_Nam":"WESTFIELD 2.8 SE, MA","Latitude":"42.10685","Longitude":"-72.72148","Snowdepth":"16.500","Units":"in","Rept_Date":"2019-12-04 11"},"coordinates":[6672,4014]},{"type":"Point","properties":{"Station_ID":"MA-FR-12","Station_Nam":"SUNDERLAND 1.3 SE, MA","Latitude":"42.45217","Longitude":"-72.56610","Snowdepth":"16.500","Units":"in","Rept_Date":"2019-12-04 12"},"coordinates":[6714,4229]},{"type":"Point","properties":{"Station_ID":"ZBWN3","Station_Nam":"NASHUA CWSU","Latitude":"42.73440","Longitude":"-71.48030","Snowdepth":"16.000","Units":"in","Rept_Date":"2019-12-04 12"},"coordinates":[7010,4404]},{"type":"Point","properties":{"Station_ID":"WTRM4","Station_Nam":"WATERSMEET 12WSW","Latitude":"46.22310","Longitude":"-89.40850","Snowdepth":"16.000","Units":"in","Rept_Date":"2019-12-04 12"},"coordinates":[2131,6575]},{"type":"Point","properties":{"Station_ID":"WI-VL-9","Station_Nam":"LAND O' LAKES 11.7 W, WI","Latitude":"46.19023","Longitude":"-89.45790","Snowdepth":"16.000","Units":"in","Rept_Date":"2019-12-04 13"},"coordinates":[2117,6554]},{"type":"Point","properties":{"Station_ID":"WI-PR-6","Station_Nam":"PHILLIPS 1.3 S, WI","Latitude":"45.67677","Longitude":"-90.39543","Snowdepth":"16.000","Units":"in","Rept_Date":"2019-12-04 11"},"coordinates":[1862,6235]},{"type":"Point","properties":{"Station_ID":"TOHM5","Station_Nam":"TWO HARBORS WWTP","Latitude":"47.01760","Longitude":"-91.66480","Snowdepth":"16.000","Units":"in","Rept_Date":"2019-12-04 13"},"coordinates":[1517,7069]},{"type":"Point","properties":{"Station_ID":"SHHN6","Station_Nam":"SCHOHARIE VILLAGE","Latitude":"42.66500","Longitude":"-74.30360","Snowdepth":"16.000","Units":"in","Rept_Date":"2019-12-04 12"},"coordinates":[6241,4361]},{"type":"Point","properties":{"Station_ID":"ROWM3","Station_Nam":"ROWE 3NE","Latitude":"42.73500","Longitude":"-72.86920","Snowdepth":"16.000","Units":"in","Rept_Date":"2019-12-04 12"},"coordinates":[6632,4405]},{"type":"Point","properties":{"Station_ID":"PHON6","Station_Nam":"PHOENICIA 2SW","Latitude":"42.06420","Longitude":"-74.34080","Snowdepth":"16.000","Units":"in","Rept_Date":"2019-12-04 11"},"coordinates":[6231,3987]},{"type":"Point","properties":{"Station_ID":"NY-SR-16","Station_Nam":"BALLSTON SPA 2.9 ESE, NY","Latitude":"42.99000","Longitude":"-73.80000","Snowdepth":"16.000","Units":"in","Rept_Date":"2019-12-04 11"},"coordinates":[6378,4563]},{"type":"Point","properties":{"Station_ID":"NY-GR-14","Station_Nam":"LEXINGTON 1.5 N, NY","Latitude":"42.26024","Longitude":"-74.35875","Snowdepth":"16.000","Units":"in","Rept_Date":"2019-12-04 12"},"coordinates":[6226,4109]},{"type":"Point","properties":{"Station_ID":"NY-AB-21","Station_Nam":"NWS ALBANY, NY","Latitude":"42.69180","Longitude":"-73.83110","Snowdepth":"16.000","Units":"in","Rept_Date":"2019-12-04 12"},"coordinates":[6370,4378]},{"type":"Point","properties":{"Station_ID":"NEDM1","Station_Nam":"CAPE NEDDICK","Latitude":"43.22410","Longitude":"-70.63880","Snowdepth":"16.000","Units":"in","Rept_Date":"2019-12-04 12"},"coordinates":[7239,4709]},{"type":"Point","properties":{"Station_ID":"MRLV1","Station_Nam":"MARLBORO","Latitude":"42.86000","Longitude":"-72.72000","Snowdepth":"16.000","Units":"in","Rept_Date":"2019-12-04 13"},"coordinates":[6672,4483]},{"type":"Point","properties":{"Station_ID":"MI-MQ-2","Station_Nam":"MARQUETTE 6.5 SSE, MI","Latitude":"46.46461","Longitude":"-87.34064","Snowdepth":"16.000","Units":"in","Rept_Date":"2019-12-04 13"},"coordinates":[2693,6725]},{"type":"Point","properties":{"Station_ID":"MI-KW-2","Station_Nam":"DELAWARE 5.2 SW, MI","Latitude":"47.36928","Longitude":"-88.17919","Snowdepth":"16.000","Units":"in","Rept_Date":"2019-12-04 09"},"coordinates":[2465,7288]},{"type":"Point","properties":{"Station_ID":"MI-HG-17","Station_Nam":"CALUMET 0.5 NE (CALUMET LAKE), MI","Latitude":"47.25300","Longitude":"-88.44652","Snowdepth":"16.000","Units":"in","Rept_Date":"2019-12-04 13"},"coordinates":[2393,7216]},{"type":"Point","properties":{"Station_ID":"MHT","Station_Nam":"MANCHESTER AIRPORT GRENIER INDSTRL ARPK","Latitude":"42.93440","Longitude":"-71.43690","Snowdepth":"16.000","Units":"in","Rept_Date":"2019-12-04 12"},"coordinates":[7021,4529]},{"type":"Point","properties":{"Station_ID":"ME-YK-52","Station_Nam":"YORK 5.2 N, ME","Latitude":"43.23585","Longitude":"-70.63400","Snowdepth":"16.000","Units":"in","Rept_Date":"2019-12-04 12"},"coordinates":[7240,4716]},{"type":"Point","properties":{"Station_ID":"ME-YK-18","Station_Nam":"WELLS 3.5 SW, ME","Latitude":"43.30140","Longitude":"-70.64470","Snowdepth":"16.000","Units":"in","Rept_Date":"2019-12-04 12"},"coordinates":[7237,4757]},{"type":"Point","properties":{"Station_ID":"MCDN3","Station_Nam":"EDWARD MACDOWELL LAKE","Latitude":"42.89410","Longitude":"-71.98420","Snowdepth":"16.000","Units":"in","Rept_Date":"2019-12-04 12"},"coordinates":[6872,4504]},{"type":"Point","properties":{"Station_ID":"LTMW3","Station_Nam":"LAKE TOMAHAWK 2 SE","Latitude":"45.80750","Longitude":"-89.55830","Snowdepth":"16.000","Units":"in","Rept_Date":"2019-12-04 12"},"coordinates":[2090,6316]},{"type":"Point","properties":{"Station_ID":"LNOW3","Station_Nam":"LAND O LAKES","Latitude":"46.19000","Longitude":"-89.45700","Snowdepth":"16.000","Units":"in","Rept_Date":"2019-12-04 13"},"coordinates":[2118,6554]},{"type":"Point","properties":{"Station_ID":"LLLM3","Station_Nam":"LOWELL","Latitude":"42.64090","Longitude":"-71.36370","Snowdepth":"16.000","Units":"in","Rept_Date":"2019-12-04 11"},"coordinates":[7041,4346]},{"type":"Point","properties":{"Station_ID":"CBVM1","Station_Nam":"CARRABASSETT VALLEY","Latitude":"45.08040","Longitude":"-70.30310","Snowdepth":"16.000","Units":"in","Rept_Date":"2019-12-04 12"},"coordinates":[7330,5864]},{"type":"Point","properties":{"Station_ID":"CARM1","Station_Nam":"CARIBOU WFO","Latitude":"46.86810","Longitude":"-68.01250","Snowdepth":"16.000","Units":"in","Rept_Date":"2019-12-05 05"},"coordinates":[7953,6976]},{"type":"Point","properties":{"Station_ID":"CAR","Station_Nam":"CARIBOU, ME","Latitude":"46.86830","Longitude":"-68.01360","Snowdepth":"16.000","Units":"in","Rept_Date":"2019-12-04 12"},"coordinates":[7953,6976]},{"type":"Point","properties":{"Station_ID":"BSKN6","Station_Nam":"BUSKIRK","Latitude":"42.93610","Longitude":"-73.43250","Snowdepth":"16.000","Units":"in","Rept_Date":"2019-12-04 12"},"coordinates":[6478,4530]},{"type":"Point","properties":{"Station_ID":"BRDM1","Station_Nam":"BRIDGEWATER","Latitude":"46.42870","Longitude":"-67.84370","Snowdepth":"16.000","Units":"in","Rept_Date":"2019-12-04 23"},"coordinates":[7999,6703]},{"type":"Point","properties":{"Station_ID":"BRAM1","Station_Nam":"BRASSUA DAM","Latitude":"45.66020","Longitude":"-69.81190","Snowdepth":"16.000","Units":"in","Rept_Date":"2019-12-04 12"},"coordinates":[7464,6225]},{"type":"Point","properties":{"Station_ID":"AURW3","Station_Nam":"AURORA","Latitude":"45.77000","Longitude":"-88.11810","Snowdepth":"16.000","Units":"in","Rept_Date":"2019-12-04 13"},"coordinates":[2482,6293]},{"type":"Point","properties":{"Station_ID":"NH-CS-10","Station_Nam":"RANDOLPH 1.4 NE, NH","Latitude":"44.38824","Longitude":"-71.26950","Snowdepth":"15.500","Units":"in","Rept_Date":"2019-12-04 12"},"coordinates":[7067,5433]},{"type":"Point","properties":{"Station_ID":"MI-HG-1","Station_Nam":"HOUGHTON 1.6 ESE, MI","Latitude":"47.10774","Longitude":"-88.52940","Snowdepth":"15.500","Units":"in","Rept_Date":"2019-12-04 13"},"coordinates":[2370,7125]},{"type":"Point","properties":{"Station_ID":"MA-WR-41","Station_Nam":"AUBURN 2.6 SW, MA","Latitude":"42.17336","Longitude":"-71.86869","Snowdepth":"15.500","Units":"in","Rept_Date":"2019-12-04 13"},"coordinates":[6904,4055]},{"type":"Point","properties":{"Station_ID":"WI-RS-1","Station_Nam":"LADYSMITH 2.8 WNW, WI","Latitude":"45.48180","Longitude":"-91.14680","Snowdepth":"15.000","Units":"in","Rept_Date":"2019-12-04 13"},"coordinates":[1658,6114]},{"type":"Point","properties":{"Station_ID":"WI-PR-2","Station_Nam":"BUTTERNUT 5.9 SW, WI","Latitude":"45.96501","Longitude":"-90.59750","Snowdepth":"15.000","Units":"in","Rept_Date":"2019-12-04 12"},"coordinates":[1807,6414]},{"type":"Point","properties":{"Station_ID":"VT-WH-29","Station_Nam":"BRATTLEBORO 0.7 S, VT","Latitude":"42.84030","Longitude":"-72.55580","Snowdepth":"15.000","Units":"in","Rept_Date":"2019-12-04 12"},"coordinates":[6717,4470]},{"type":"Point","properties":{"Station_ID":"VANM1","Station_Nam":"VAN BUREN","Latitude":"47.16600","Longitude":"-67.93900","Snowdepth":"15.000","Units":"in","Rept_Date":"2019-12-04 12"},"coordinates":[7973,7161]},{"type":"Point","properties":{"Station_ID":"STGW3","Station_Nam":"ST GERMAIN","Latitude":"45.91550","Longitude":"-89.48940","Snowdepth":"15.000","Units":"in","Rept_Date":"2019-12-04 12"},"coordinates":[2109,6383]},{"type":"Point","properties":{"Station_ID":"RANM1","Station_Nam":"RANGELEY,ME","Latitude":"44.96670","Longitude":"-70.65000","Snowdepth":"15.000","Units":"in","Rept_Date":"2019-12-04 11"},"coordinates":[7235,5793]},{"type":"Point","properties":{"Station_ID":"NY-GR-13","Station_Nam":"TANNERSVILLE 4.5 SSE, NY","Latitude":"42.13884","Longitude":"-74.08697","Snowdepth":"15.000","Units":"in","Rept_Date":"2019-12-04 12"},"coordinates":[6300,4034]},{"type":"Point","properties":{"Station_ID":"NSKN6","Station_Nam":"NISKAYUNA","Latitude":"42.79580","Longitude":"-73.87670","Snowdepth":"15.000","Units":"in","Rept_Date":"2019-12-04 12"},"coordinates":[6357,4443]},{"type":"Point","properties":{"Station_ID":"MTQM4","Station_Nam":"MANISTIQUE WWTP","Latitude":"45.95120","Longitude":"-86.25130","Snowdepth":"15.000","Units":"in","Rept_Date":"2019-12-04 12"},"coordinates":[2990,6406]},{"type":"Point","properties":{"Station_ID":"MA-BE-21","Station_Nam":"CHESHIRE 0.5 NNW, MA","Latitude":"42.56315","Longitude":"-73.15701","Snowdepth":"15.000","Units":"in","Rept_Date":"2019-12-04 12"},"coordinates":[6553,4298]},{"type":"Point","properties":{"Station_ID":"KMHT","Station_Nam":"MANCHESTER AIRPORT","Latitude":"42.93333","Longitude":"-71.43333","Snowdepth":"15.000","Units":"in","Rept_Date":"2019-12-05 06"},"coordinates":[7022,4528]},{"type":"Point","properties":{"Station_ID":"HERM4","Station_Nam":"HERMAN,MI","Latitude":"46.65000","Longitude":"-88.33330","Snowdepth":"15.000","Units":"in","Rept_Date":"2019-12-04 13"},"coordinates":[2423,6840]},{"type":"Point","properties":{"Station_ID":"EVRW3","Station_Nam":"EAGLE RIVER-4 E","Latitude":"45.91890","Longitude":"-89.15280","Snowdepth":"15.000","Units":"in","Rept_Date":"2019-12-04 12"},"coordinates":[2200,6386]},{"type":"Point","properties":{"Station_ID":"DFXM1","Station_Nam":"DOVER-FOXCROFT","Latitude":"45.18720","Longitude":"-69.18350","Snowdepth":"15.000","Units":"in","Rept_Date":"2019-12-04 12"},"coordinates":[7635,5930]},{"type":"Point","properties":{"Station_ID":"CAN-NB-105","Station_Nam":"SISSON BROOK 3.8 E, CAN","Latitude":"46.98305","Longitude":"-67.32532","Snowdepth":"15.000","Units":"in","Rept_Date":"2019-12-04 12"},"coordinates":[8140,7048]},{"type":"Point","properties":{"Station_ID":"QOU","Station_Nam":"QOU","Latitude":"50.79250","Longitude":"-69.67470","Snowdepth":"14.803","Units":"in","Rept_Date":"2019-12-04 12"},"coordinates":[7501,9418]},{"type":"Point","properties":{"Station_ID":"WI-BT-14","Station_Nam":"OAKLAND 9.0 ENE, WI","Latitude":"45.95184","Longitude":"-92.21653","Snowdepth":"14.500","Units":"in","Rept_Date":"2019-12-04 13"},"coordinates":[1367,6406]},{"type":"Point","properties":{"Station_ID":"NH-ST-40","Station_Nam":"BARRINGTON 3.2 E, NH","Latitude":"43.21353","Longitude":"-70.98472","Snowdepth":"14.500","Units":"in","Rept_Date":"2019-12-04 12"},"coordinates":[7144,4702]},{"type":"Point","properties":{"Station_ID":"ME-YK-66","Station_Nam":"WATERBORO 1.5 SW, ME","Latitude":"43.51761","Longitude":"-70.73197","Snowdepth":"14.500","Units":"in","Rept_Date":"2019-12-04 11"},"coordinates":[7213,4892]},{"type":"Point","properties":{"Station_ID":"MN-SL-139","Station_Nam":"DULUTH 1.2 SE, MN","Latitude":"46.77000","Longitude":"-92.08826","Snowdepth":"14.200","Units":"in","Rept_Date":"2019-12-04 12"},"coordinates":[1402,6915]},{"type":"Point","properties":{"Station_ID":"QCU","Station_Nam":"QCU","Latitude":"47.82750","Longitude":"-76.59830","Snowdepth":"14.094","Units":"in","Rept_Date":"2019-12-04 12"},"coordinates":[5617,7573]},{"type":"Point","properties":{"Station_ID":"WI-PR-8","Station_Nam":"PHILLIPS 0.4 SSW, WI","Latitude":"45.69086","Longitude":"-90.40200","Snowdepth":"14.000","Units":"in","Rept_Date":"2019-12-04 13"},"coordinates":[1860,6244]},{"type":"Point","properties":{"Station_ID":"RKWM1","Station_Nam":"MOOSEHEAD LAKE","Latitude":"45.58330","Longitude":"-69.71670","Snowdepth":"14.000","Units":"in","Rept_Date":"2019-12-04 12"},"coordinates":[7489,6177]},{"type":"Point","properties":{"Station_ID":"RGNM1","Station_Nam":"RANGELEY 2NW","Latitude":"44.98940","Longitude":"-70.67220","Snowdepth":"14.000","Units":"in","Rept_Date":"2019-12-04 11"},"coordinates":[7229,5807]},{"type":"Point","properties":{"Station_ID":"PSM","Station_Nam":"PEASE INTL TRADEPORT AP","Latitude":"43.07810","Longitude":"-70.82330","Snowdepth":"14.000","Units":"in","Rept_Date":"2019-12-04 12"},"coordinates":[7188,4618]},{"type":"Point","properties":{"Station_ID":"NY-DL-28","Station_Nam":"FLEISCHMANNS 5.7 N, NY","Latitude":"42.23779","Longitude":"-74.52335","Snowdepth":"14.000","Units":"in","Rept_Date":"2019-12-04 12"},"coordinates":[6181,4095]},{"type":"Point","properties":{"Station_ID":"NH-RC-18","Station_Nam":"DEERFIELD 3.2 WSW, NH","Latitude":"43.13350","Longitude":"-71.27940","Snowdepth":"14.000","Units":"in","Rept_Date":"2019-12-04 12"},"coordinates":[7064,4653]},{"type":"Point","properties":{"Station_ID":"MI-DL-1","Station_Nam":"GARDEN CORNERS 0.8 NW, MI","Latitude":"45.89815","Longitude":"-86.54850","Snowdepth":"14.000","Units":"in","Rept_Date":"2019-12-04 13"},"coordinates":[2909,6373]},{"type":"Point","properties":{"Station_ID":"MA-FR-17","Station_Nam":"BUCKLAND 1.8 ESE, MA","Latitude":"42.58900","Longitude":"-72.75110","Snowdepth":"14.000","Units":"in","Rept_Date":"2019-12-04 13"},"coordinates":[6664,4314]},{"type":"Point","properties":{"Station_ID":"MA-FR-13","Station_Nam":"CONWAY 2.9 NW, MA","Latitude":"42.54419","Longitude":"-72.72743","Snowdepth":"14.000","Units":"in","Rept_Date":"2019-12-04 12"},"coordinates":[6670,4286]},{"type":"Point","properties":{"Station_ID":"MA-ES-29","Station_Nam":"NORTH ANDOVER 1.9 SSE, MA","Latitude":"42.67305","Longitude":"-71.10916","Snowdepth":"14.000","Units":"in","Rept_Date":"2019-12-04 12"},"coordinates":[7111,4366]},{"type":"Point","properties":{"Station_ID":"LILM1","Station_Nam":"LILLE","Latitude":"47.27770","Longitude":"-68.10520","Snowdepth":"14.000","Units":"in","Rept_Date":"2019-12-04 12"},"coordinates":[7928,7231]},{"type":"Point","properties":{"Station_ID":"LBKV1","Station_Nam":"LYE BROOK","Latitude":"43.05000","Longitude":"-73.03330","Snowdepth":"14.000","Units":"in","Rept_Date":"2019-12-05 06"},"coordinates":[6587,4601]},{"type":"Point","properties":{"Station_ID":"KCEF","Station_Nam":"CHICOPEE FALLS / WESTOVER AIR FORCE BASE","Latitude":"42.20000","Longitude":"-72.53333","Snowdepth":"14.000","Units":"in","Rept_Date":"2019-12-05 00"},"coordinates":[6723,4072]},{"type":"Point","properties":{"Station_ID":"KALB","Station_Nam":"ALBANY INTERNATIONAL AIRPORT","Latitude":"42.75000","Longitude":"-73.80000","Snowdepth":"14.000","Units":"in","Rept_Date":"2019-12-05 06"},"coordinates":[6378,4414]},{"type":"Point","properties":{"Station_ID":"GDCM4","Station_Nam":"GARDEN CORNERS","Latitude":"45.89830","Longitude":"-86.54850","Snowdepth":"14.000","Units":"in","Rept_Date":"2019-12-04 13"},"coordinates":[2909,6373]},{"type":"Point","properties":{"Station_ID":"EPPN3","Station_Nam":"EPPING","Latitude":"43.03020","Longitude":"-71.08380","Snowdepth":"14.000","Units":"in","Rept_Date":"2019-12-04 12"},"coordinates":[7117,4588]},{"type":"Point","properties":{"Station_ID":"CT-HR-8","Station_Nam":"NORTH GRANBY 1.3 ENE, CT","Latitude":"42.02440","Longitude":"-72.82070","Snowdepth":"14.000","Units":"in","Rept_Date":"2019-12-04 12"},"coordinates":[6645,3963]},{"type":"Point","properties":{"Station_ID":"CRLM5","Station_Nam":"CROSS LAKE DAM","Latitude":"46.66930","Longitude":"-94.11060","Snowdepth":"14.000","Units":"in","Rept_Date":"2019-12-04 14"},"coordinates":[851,6852]},{"type":"Point","properties":{"Station_ID":"ALB","Station_Nam":"ALBANY INTL AP","Latitude":"42.74810","Longitude":"-73.80330","Snowdepth":"14.000","Units":"in","Rept_Date":"2019-12-05 00"},"coordinates":[6377,4413]},{"type":"Point","properties":{"Station_ID":"WI-VL-14","Station_Nam":"BOULDER JUNCTION 1.4 NE, WI","Latitude":"46.12840","Longitude":"-89.62470","Snowdepth":"13.500","Units":"in","Rept_Date":"2019-12-04 13"},"coordinates":[2072,6516]},{"type":"Point","properties":{"Station_ID":"MA-WR-76","Station_Nam":"WORCESTER 1.7 N, MA","Latitude":"42.29380","Longitude":"-71.80516","Snowdepth":"13.500","Units":"in","Rept_Date":"2019-12-04 11"},"coordinates":[6921,4130]},{"type":"Point","properties":{"Station_ID":"MA-ES-48","Station_Nam":"ANDOVER 0.6 E, MA","Latitude":"42.65659","Longitude":"-71.13048","Snowdepth":"13.500","Units":"in","Rept_Date":"2019-12-04 10"},"coordinates":[7105,4356]},{"type":"Point","properties":{"Station_ID":"MA-BE-11","Station_Nam":"GREAT BARRINGTON 3.0 N, MA","Latitude":"42.23790","Longitude":"-73.35030","Snowdepth":"13.500","Units":"in","Rept_Date":"2019-12-04 12"},"coordinates":[6501,4096]},{"type":"Point","properties":{"Station_ID":"CAN-NB-13","Station_Nam":"BATHURST 3.8 NW, CAN","Latitude":"47.64212","Longitude":"-65.68756","Snowdepth":"13.500","Units":"in","Rept_Date":"2019-12-04 11"},"coordinates":[8586,7458]},{"type":"Point","properties":{"Station_ID":"MA-HS-26","Station_Nam":"EASTHAMPTON 0.5 SW, MA","Latitude":"42.26110","Longitude":"-72.68920","Snowdepth":"13.300","Units":"in","Rept_Date":"2019-12-04 12"},"coordinates":[6681,4110]},{"type":"Point","properties":{"Station_ID":"MLZ","Station_Nam":"MLZ","Latitude":"50.66170","Longitude":"-68.82360","Snowdepth":"13.110","Units":"in","Rept_Date":"2019-12-04 12"},"coordinates":[7732,9336]},{"type":"Point","properties":{"Station_ID":"WI-TY-2","Station_Nam":"SHELDON 8.1 ENE, WI","Latitude":"45.35598","Longitude":"-90.80296","Snowdepth":"13.000","Units":"in","Rept_Date":"2019-12-04 13"},"coordinates":[1751,6035]},{"type":"Point","properties":{"Station_ID":"WI-SR-5","Station_Nam":"HAYWARD 9.7 NE, WI","Latitude":"46.12030","Longitude":"-91.35370","Snowdepth":"13.000","Units":"in","Rept_Date":"2019-12-04 14"},"coordinates":[1601,6511]},{"type":"Point","properties":{"Station_ID":"WI-SR-1","Station_Nam":"HAYWARD 9.2 NNE, WI","Latitude":"46.13255","Longitude":"-91.40500","Snowdepth":"13.000","Units":"in","Rept_Date":"2019-12-04 12"},"coordinates":[1587,6519]},{"type":"Point","properties":{"Station_ID":"WI-ON-6","Station_Nam":"RHINELANDER 5.2 N, WI","Latitude":"45.71388","Longitude":"-89.42150","Snowdepth":"13.000","Units":"in","Rept_Date":"2019-12-04 13"},"coordinates":[2127,6258]},{"type":"Point","properties":{"Station_ID":"WI-ON-4","Station_Nam":"RHINELANDER 0.6 SSW, WI","Latitude":"45.63141","Longitude":"-89.41470","Snowdepth":"13.000","Units":"in","Rept_Date":"2019-12-04 13"},"coordinates":[2129,6207]},{"type":"Point","properties":{"Station_ID":"WI-CH-3","Station_Nam":"CORNELL 4.1 W, WI","Latitude":"45.17024","Longitude":"-91.23610","Snowdepth":"13.000","Units":"in","Rept_Date":"2019-12-04 14"},"coordinates":[1633,5920]},{"type":"Point","properties":{"Station_ID":"NY-OD-43","Station_Nam":"HOLLAND PATENT 1.1 WNW, NY","Latitude":"43.24707","Longitude":"-75.27750","Snowdepth":"13.000","Units":"in","Rept_Date":"2019-12-04 12"},"coordinates":[5976,4723]},{"type":"Point","properties":{"Station_ID":"NH-RC-33","Station_Nam":"HAMPSTEAD 1.6 NNE, NH","Latitude":"42.89614","Longitude":"-71.16850","Snowdepth":"13.000","Units":"in","Rept_Date":"2019-12-04 12"},"coordinates":[7094,4505]},{"type":"Point","properties":{"Station_ID":"MWTM1","Station_Nam":"MILLINOCKET WWTP","Latitude":"45.64030","Longitude":"-68.67480","Snowdepth":"13.000","Units":"in","Rept_Date":"2019-12-04 11"},"coordinates":[7773,6212]},{"type":"Point","properties":{"Station_ID":"MRAM4","Station_Nam":"MORAN","Latitude":"45.99030","Longitude":"-84.83610","Snowdepth":"13.000","Units":"in","Rept_Date":"2019-12-04 13"},"coordinates":[3375,6430]},{"type":"Point","properties":{"Station_ID":"MMNV1","Station_Nam":"MT. MANSFIELD","Latitude":"44.52480","Longitude":"-72.81540","Snowdepth":"13.000","Units":"in","Rept_Date":"2019-12-04 21"},"coordinates":[6646,5518]},{"type":"Point","properties":{"Station_ID":"MLLW3","Station_Nam":"MERRILL 8W","Latitude":"45.17810","Longitude":"-89.84810","Snowdepth":"13.000","Units":"in","Rept_Date":"2019-12-04 12"},"coordinates":[2011,5925]},{"type":"Point","properties":{"Station_ID":"MILM3","Station_Nam":"MILFORD","Latitude":"42.16330","Longitude":"-71.51190","Snowdepth":"13.000","Units":"in","Rept_Date":"2019-12-04 12"},"coordinates":[7001,4049]},{"type":"Point","properties":{"Station_ID":"MI-GG-4","Station_Nam":"WATERSMEET 5.0 SE, MI","Latitude":"46.20333","Longitude":"-89.13170","Snowdepth":"13.000","Units":"in","Rept_Date":"2019-12-04 14"},"coordinates":[2206,6563]},{"type":"Point","properties":{"Station_ID":"ME-YK-2","Station_Nam":"KITTERY POINT 0.8 WSW, ME","Latitude":"43.08101","Longitude":"-70.71380","Snowdepth":"13.000","Units":"in","Rept_Date":"2019-12-04 12"},"coordinates":[7218,4620]},{"type":"Point","properties":{"Station_ID":"MA-MD-156","Station_Nam":"MARLBOROUGH 2.8 ENE, MA","Latitude":"42.37021","Longitude":"-71.50011","Snowdepth":"13.000","Units":"in","Rept_Date":"2019-12-04 10"},"coordinates":[7004,4178]},{"type":"Point","properties":{"Station_ID":"MA-MD-125","Station_Nam":"TEWKSBURY 3.6 SSE, MA","Latitude":"42.57083","Longitude":"-71.19813","Snowdepth":"13.000","Units":"in","Rept_Date":"2019-12-04 12"},"coordinates":[7086,4303]},{"type":"Point","properties":{"Station_ID":"MA-MD-12","Station_Nam":"ACTON 1.3 SW, MA","Latitude":"42.46746","Longitude":"-71.48200","Snowdepth":"13.000","Units":"in","Rept_Date":"2019-12-04 12"},"coordinates":[7009,4238]},{"type":"Point","properties":{"Station_ID":"LXDM3","Station_Nam":"LENOXDALE","Latitude":"42.33560","Longitude":"-73.25060","Snowdepth":"13.000","Units":"in","Rept_Date":"2019-12-04 12"},"coordinates":[6528,4156]},{"type":"Point","properties":{"Station_ID":"KPSM","Station_Nam":"PEASE AIR FORCE BASE / PORTSMOUTH","Latitude":"43.08333","Longitude":"-70.81666","Snowdepth":"13.000","Units":"in","Rept_Date":"2019-12-05 00"},"coordinates":[7190,4621]},{"type":"Point","properties":{"Station_ID":"KBDL","Station_Nam":"BRADLEY INTERNATIONAL AIRPORT","Latitude":"41.93333","Longitude":"-72.68333","Snowdepth":"13.000","Units":"in","Rept_Date":"2019-12-04 12"},"coordinates":[6682,3906]},{"type":"Point","properties":{"Station_ID":"JMPW3","Station_Nam":"JUMP RIVER 1 NW","Latitude":"45.35610","Longitude":"-90.80250","Snowdepth":"13.000","Units":"in","Rept_Date":"2019-12-04 13"},"coordinates":[1751,6035]},{"type":"Point","properties":{"Station_ID":"JCBM4","Station_Nam":"JACOBSVILLE","Latitude":"47.00830","Longitude":"-88.43180","Snowdepth":"13.000","Units":"in","Rept_Date":"2019-12-04 12"},"coordinates":[2397,7063]},{"type":"Point","properties":{"Station_ID":"GHMN3","Station_Nam":"PINKHAM NOTCH","Latitude":"44.25800","Longitude":"-71.25250","Snowdepth":"13.000","Units":"in","Rept_Date":"2019-12-04 11"},"coordinates":[7072,5352]},{"type":"Point","properties":{"Station_ID":"CAN-NB-11","Station_Nam":"MIRAMICHI 3.3 S, CAN","Latitude":"46.99343","Longitude":"-65.50690","Snowdepth":"13.000","Units":"in","Rept_Date":"2019-12-04 10"},"coordinates":[8635,7054]},{"type":"Point","properties":{"Station_ID":"WI-LN-2","Station_Nam":"MERRILL 7.0 W, WI","Latitude":"45.17746","Longitude":"-89.84820","Snowdepth":"12.500","Units":"in","Rept_Date":"2019-12-04 12"},"coordinates":[2011,5924]},{"type":"Point","properties":{"Station_ID":"MA-WR-18","Station_Nam":"NORTHBOROUGH 0.6 SSE, MA","Latitude":"42.30367","Longitude":"-71.64620","Snowdepth":"12.500","Units":"in","Rept_Date":"2019-12-04 13"},"coordinates":[6964,4136]},{"type":"Point","properties":{"Station_ID":"MA-MD-89","Station_Nam":"SUDBURY 3.6 W, MA","Latitude":"42.36394","Longitude":"-71.47012","Snowdepth":"12.500","Units":"in","Rept_Date":"2019-12-04 12"},"coordinates":[7012,4174]},{"type":"Point","properties":{"Station_ID":"MA-BE-3","Station_Nam":"STOCKBRIDGE .2 NNE, MA","Latitude":"42.28983","Longitude":"-73.31950","Snowdepth":"12.500","Units":"in","Rept_Date":"2019-12-04 11"},"coordinates":[6509,4128]},{"type":"Point","properties":{"Station_ID":"MFU","Station_Nam":"MFU","Latitude":"51.52170","Longitude":"-66.91110","Snowdepth":"12.126","Units":"in","Rept_Date":"2019-12-04 12"},"coordinates":[8253,9871]},{"type":"Point","properties":{"Station_ID":"QGO","Station_Nam":"QGO","Latitude":"48.85500","Longitude":"-74.20640","Snowdepth":"12.008","Units":"in","Rept_Date":"2019-12-04 12"},"coordinates":[6268,8212]},{"type":"Point","properties":{"Station_ID":"WLKW3","Station_Nam":"WHITE LAKE 1 SE","Latitude":"45.14520","Longitude":"-88.74160","Snowdepth":"12.000","Units":"in","Rept_Date":"2019-12-04 14"},"coordinates":[2312,5904]},{"type":"Point","properties":{"Station_ID":"STMM4","Station_Nam":"STAMBAUGH 2SSE","Latitude":"46.05550","Longitude":"-88.62780","Snowdepth":"12.000","Units":"in","Rept_Date":"2019-12-04 13"},"coordinates":[2343,6471]},{"type":"Point","properties":{"Station_ID":"SCRW3","Station_Nam":"ST CROIX FALLS","Latitude":"45.41170","Longitude":"-92.64660","Snowdepth":"12.000","Units":"in","Rept_Date":"2019-12-04 13"},"coordinates":[1250,6070]},{"type":"Point","properties":{"Station_ID":"SBRM3","Station_Nam":"SOUTHBRIDGE","Latitude":"42.05830","Longitude":"-72.07210","Snowdepth":"12.000","Units":"in","Rept_Date":"2019-12-04 12"},"coordinates":[6848,3984]},{"type":"Point","properties":{"Station_ID":"OXFM3","Station_Nam":"BUFFUMVILLE LAKE","Latitude":"42.11630","Longitude":"-71.90740","Snowdepth":"12.000","Units":"in","Rept_Date":"2019-12-04 12"},"coordinates":[6893,4020]},{"type":"Point","properties":{"Station_ID":"NY-RN-24","Station_Nam":"NASSAU 4.2 ESE, NY","Latitude":"42.49091","Longitude":"-73.53462","Snowdepth":"12.000","Units":"in","Rept_Date":"2019-12-04 13"},"coordinates":[6450,4253]},{"type":"Point","properties":{"Station_ID":"NH-RC-48","Station_Nam":"NORTHWOOD 2.9 WSW, NH","Latitude":"43.20114","Longitude":"-71.25750","Snowdepth":"12.000","Units":"in","Rept_Date":"2019-12-04 12"},"coordinates":[7070,4695]},{"type":"Point","properties":{"Station_ID":"NH-MR-47","Station_Nam":"DUNBARTON 3.8 SE, NH","Latitude":"43.08532","Longitude":"-71.54419","Snowdepth":"12.000","Units":"in","Rept_Date":"2019-12-04 11"},"coordinates":[6992,4623]},{"type":"Point","properties":{"Station_ID":"NBLN6","Station_Nam":"LANSING MANOR","Latitude":"42.44860","Longitude":"-74.46530","Snowdepth":"12.000","Units":"in","Rept_Date":"2019-12-04 13"},"coordinates":[6197,4227]},{"type":"Point","properties":{"Station_ID":"MN-SL-15","Station_Nam":"CHISHOLM 0.4 WSW, MN","Latitude":"47.48557","Longitude":"-92.88690","Snowdepth":"12.000","Units":"in","Rept_Date":"2019-12-04 13"},"coordinates":[1184,7360]},{"type":"Point","properties":{"Station_ID":"MN-SL-115","Station_Nam":"COTTON 5.7 ESE, MN","Latitude":"47.15142","Longitude":"-92.35772","Snowdepth":"12.000","Units":"in","Rept_Date":"2019-12-04 14"},"coordinates":[1328,7152]},{"type":"Point","properties":{"Station_ID":"MI-HG-6","Station_Nam":"CALUMET 5.8 ENE, MI","Latitude":"47.27200","Longitude":"-88.33400","Snowdepth":"12.000","Units":"in","Rept_Date":"2019-12-04 11"},"coordinates":[2423,7227]},{"type":"Point","properties":{"Station_ID":"MA-MD-80","Station_Nam":"LINCOLN 1.5 SW, MA","Latitude":"42.40398","Longitude":"-71.32421","Snowdepth":"12.000","Units":"in","Rept_Date":"2019-12-04 12"},"coordinates":[7052,4199]},{"type":"Point","properties":{"Station_ID":"MA-MD-51","Station_Nam":"MAYNARD 0.7 ESE, MA","Latitude":"42.42027","Longitude":"-71.44484","Snowdepth":"12.000","Units":"in","Rept_Date":"2019-12-04 12"},"coordinates":[7019,4209]},{"type":"Point","properties":{"Station_ID":"MA-MD-42","Station_Nam":"HOLLISTON 0.8 S, MA","Latitude":"42.18820","Longitude":"-71.43390","Snowdepth":"12.000","Units":"in","Rept_Date":"2019-12-04 12"},"coordinates":[7022,4065]},{"type":"Point","properties":{"Station_ID":"MA-FR-10","Station_Nam":"CONWAY 0.9 SW, MA","Latitude":"42.50879","Longitude":"-72.69730","Snowdepth":"12.000","Units":"in","Rept_Date":"2019-12-04 13"},"coordinates":[6678,4264]},{"type":"Point","properties":{"Station_ID":"LNKM1","Station_Nam":"LINCOLN SANITARY DISTRICT/WTP","Latitude":"45.37520","Longitude":"-68.50820","Snowdepth":"12.000","Units":"in","Rept_Date":"2019-12-04 12"},"coordinates":[7818,6047]},{"type":"Point","properties":{"Station_ID":"IMNM4","Station_Nam":"IRON MOUTAIN 5N","Latitude":"45.87580","Longitude":"-88.04030","Snowdepth":"12.000","Units":"in","Rept_Date":"2019-12-05 01"},"coordinates":[2503,6359]},{"type":"Point","properties":{"Station_ID":"HMYM1","Station_Nam":"HARMONY","Latitude":"44.94660","Longitude":"-69.54560","Snowdepth":"12.000","Units":"in","Rept_Date":"2019-12-04 12"},"coordinates":[7536,5781]},{"type":"Point","properties":{"Station_ID":"GRFM3","Station_Nam":"GREENFIELD NO. 3","Latitude":"42.57190","Longitude":"-72.59750","Snowdepth":"12.000","Units":"in","Rept_Date":"2019-12-04 13"},"coordinates":[6705,4303]},{"type":"Point","properties":{"Station_ID":"EGRW3","Station_Nam":"EAGLE RIVER-SOUTH","Latitude":"45.91360","Longitude":"-89.24360","Snowdepth":"12.000","Units":"in","Rept_Date":"2019-12-04 13"},"coordinates":[2176,6382]},{"type":"Point","properties":{"Station_ID":"CLGM5","Station_Nam":"COLLEGEVILLE ST JOHN","Latitude":"45.57940","Longitude":"-94.39200","Snowdepth":"12.000","Units":"in","Rept_Date":"2019-12-05 00"},"coordinates":[775,6174]},{"type":"Point","properties":{"Station_ID":"BRAM5","Station_Nam":"BRAINERD","Latitude":"46.34320","Longitude":"-94.20900","Snowdepth":"12.000","Units":"in","Rept_Date":"2019-12-04 13"},"coordinates":[824,6650]},{"type":"Point","properties":{"Station_ID":"BNDM5","Station_Nam":"ELY 25E","Latitude":"47.97190","Longitude":"-91.44860","Snowdepth":"12.000","Units":"in","Rept_Date":"2019-12-04 13"},"coordinates":[1576,7663]},{"type":"Point","properties":{"Station_ID":"BCNM3","Station_Nam":"BELCHERTOWN","Latitude":"42.27960","Longitude":"-72.34820","Snowdepth":"12.000","Units":"in","Rept_Date":"2019-12-04 12"},"coordinates":[6773,4121]},{"type":"Point","properties":{"Station_ID":"CAN-NB-97","Station_Nam":"NEW MARYLAND 0.6 NW, CAN","Latitude":"45.90112","Longitude":"-66.68739","Snowdepth":"11.600","Units":"in","Rept_Date":"2019-12-04 11"},"coordinates":[8314,6375]},{"type":"Point","properties":{"Station_ID":"NY-HR-12","Station_Nam":"DOLGEVILLE 1.9 NW, NY","Latitude":"43.12320","Longitude":"-74.79740","Snowdepth":"11.500","Units":"in","Rept_Date":"2019-12-04 12"},"coordinates":[6107,4646]},{"type":"Point","properties":{"Station_ID":"NY-DT-37","Station_Nam":"RHINEBECK 3.4 N, NY","Latitude":"41.97735","Longitude":"-73.90559","Snowdepth":"11.500","Units":"in","Rept_Date":"2019-12-04 14"},"coordinates":[6350,3933]},{"type":"Point","properties":{"Station_ID":"ME-YK-28","Station_Nam":"BIDDEFORD 1.5 NNE, ME","Latitude":"43.48679","Longitude":"-70.43470","Snowdepth":"11.500","Units":"in","Rept_Date":"2019-12-04 12"},"coordinates":[7294,4872]},{"type":"Point","properties":{"Station_ID":"MA-MD-45","Station_Nam":"WILMINGTON 1.5 NE, MA","Latitude":"42.57302","Longitude":"-71.14417","Snowdepth":"11.500","Units":"in","Rept_Date":"2019-12-04 12"},"coordinates":[7101,4304]},{"type":"Point","properties":{"Station_ID":"MA-MD-115","Station_Nam":"HUDSON 1.4 NW, MA","Latitude":"42.40372","Longitude":"-71.58680","Snowdepth":"11.500","Units":"in","Rept_Date":"2019-12-04 12"},"coordinates":[6981,4199]},{"type":"Point","properties":{"Station_ID":"QCX","Station_Nam":"QCX","Latitude":"51.32830","Longitude":"-70.08060","Snowdepth":"11.142","Units":"in","Rept_Date":"2019-12-04 12"},"coordinates":[7390,9751]},{"type":"Point","properties":{"Station_ID":"WTNM4","Station_Nam":"WATTON 2WSW","Latitude":"46.52660","Longitude":"-88.64240","Snowdepth":"11.000","Units":"in","Rept_Date":"2019-12-04 13"},"coordinates":[2339,6764]},{"type":"Point","properties":{"Station_ID":"WSKW3","Station_Nam":"WAUSAUKEE","Latitude":"45.38020","Longitude":"-87.95660","Snowdepth":"11.000","Units":"in","Rept_Date":"2019-12-04 14"},"coordinates":[2526,6050]},{"type":"Point","properties":{"Station_ID":"WI-RS-3","Station_Nam":"BRUCE 1.9 E, WI","Latitude":"45.45415","Longitude":"-91.23510","Snowdepth":"11.000","Units":"in","Rept_Date":"2019-12-04 13"},"coordinates":[1634,6096]},{"type":"Point","properties":{"Station_ID":"TOPM1","Station_Nam":"TOPSFIELD","Latitude":"45.43470","Longitude":"-67.72020","Snowdepth":"11.000","Units":"in","Rept_Date":"2019-12-04 12"},"coordinates":[8033,6084]},{"type":"Point","properties":{"Station_ID":"SURN3","Station_Nam":"SURRY MOUNTAIN LAKE","Latitude":"42.99630","Longitude":"-72.31310","Snowdepth":"11.000","Units":"in","Rept_Date":"2019-12-04 12"},"coordinates":[6783,4567]},{"type":"Point","properties":{"Station_ID":"PEKN6","Station_Nam":"PECK LAKE","Latitude":"43.11500","Longitude":"-74.42360","Snowdepth":"11.000","Units":"in","Rept_Date":"2019-12-04 13"},"coordinates":[6209,4641]},{"type":"Point","properties":{"Station_ID":"NY-SR-22","Station_Nam":"GREENFIELD CENTER 1.6 W, NY","Latitude":"43.12684","Longitude":"-73.87860","Snowdepth":"11.000","Units":"in","Rept_Date":"2019-12-04 12"},"coordinates":[6357,4649]},{"type":"Point","properties":{"Station_ID":"NY-HR-18","Station_Nam":"SALISBURY CENTER 1.8 NW, NY","Latitude":"43.16260","Longitude":"-74.80880","Snowdepth":"11.000","Units":"in","Rept_Date":"2019-12-04 11"},"coordinates":[6104,4671]},{"type":"Point","properties":{"Station_ID":"NTHM3","Station_Nam":"NORTHBRIDGE 2","Latitude":"42.11500","Longitude":"-71.67600","Snowdepth":"11.000","Units":"in","Rept_Date":"2019-12-04 12"},"coordinates":[6956,4019]},{"type":"Point","properties":{"Station_ID":"MQRW3","Station_Nam":"MINOCQUA","Latitude":"45.88630","Longitude":"-89.73220","Snowdepth":"11.000","Units":"in","Rept_Date":"2019-12-04 12"},"coordinates":[2043,6365]},{"type":"Point","properties":{"Station_ID":"MOOM5","Station_Nam":"MOOSE LAKE,MN","Latitude":"46.45000","Longitude":"-92.75780","Snowdepth":"11.000","Units":"in","Rept_Date":"2019-12-05 06"},"coordinates":[1219,6716]},{"type":"Point","properties":{"Station_ID":"MLDN6","Station_Nam":"EMMONS","Latitude":"42.46940","Longitude":"-75.01050","Snowdepth":"11.000","Units":"in","Rept_Date":"2019-12-04 12"},"coordinates":[6049,4240]},{"type":"Point","properties":{"Station_ID":"MIDM3","Station_Nam":"MIDDLETON","Latitude":"42.59340","Longitude":"-71.01870","Snowdepth":"11.000","Units":"in","Rept_Date":"2019-12-04 14"},"coordinates":[7135,4317]},{"type":"Point","properties":{"Station_ID":"MA-MD-158","Station_Nam":"SHERBORN 1.1 NW, MA","Latitude":"42.24460","Longitude":"-71.38130","Snowdepth":"11.000","Units":"in","Rept_Date":"2019-12-04 10"},"coordinates":[7036,4100]},{"type":"Point","properties":{"Station_ID":"LADW3","Station_Nam":"LADYSMITH WTP","Latitude":"45.44290","Longitude":"-91.08970","Snowdepth":"11.000","Units":"in","Rept_Date":"2019-12-04 13"},"coordinates":[1673,6089]},{"type":"Point","properties":{"Station_ID":"KEEN3","Station_Nam":"KEENE","Latitude":"42.93900","Longitude":"-72.32470","Snowdepth":"11.000","Units":"in","Rept_Date":"2019-12-04 11"},"coordinates":[6780,4532]},{"type":"Point","properties":{"Station_ID":"FISM1","Station_Nam":"FORT KENT COOP","Latitude":"47.23850","Longitude":"-68.61240","Snowdepth":"11.000","Units":"in","Rept_Date":"2019-12-04 12"},"coordinates":[7790,7207]},{"type":"Point","properties":{"Station_ID":"EMBM5","Station_Nam":"EMBARASS,MN","Latitude":"47.65810","Longitude":"-92.19580","Snowdepth":"11.000","Units":"in","Rept_Date":"2019-12-04 12"},"coordinates":[1372,7468]},{"type":"Point","properties":{"Station_ID":"ELYM5","Station_Nam":"ELY","Latitude":"47.90560","Longitude":"-91.82830","Snowdepth":"11.000","Units":"in","Rept_Date":"2019-12-04 14"},"coordinates":[1472,7622]},{"type":"Point","properties":{"Station_ID":"CT-WN-12","Station_Nam":"EASTFORD 2.0 W, CT","Latitude":"41.89906","Longitude":"-72.12071","Snowdepth":"11.000","Units":"in","Rept_Date":"2019-12-04 11"},"coordinates":[6835,3885]},{"type":"Point","properties":{"Station_ID":"CT-HR-57","Station_Nam":"SUFFIELD DEPOT 3.3 NNE, CT","Latitude":"42.02743","Longitude":"-72.63149","Snowdepth":"11.000","Units":"in","Rept_Date":"2019-12-04 11"},"coordinates":[6696,3965]},{"type":"Point","properties":{"Station_ID":"CLKM4","Station_Nam":"CLARKSBURG","Latitude":"46.49910","Longitude":"-87.84500","Snowdepth":"11.000","Units":"in","Rept_Date":"2019-12-04 12"},"coordinates":[2556,6747]},{"type":"Point","properties":{"Station_ID":"CGPM4","Station_Nam":"DOLLAR BAY","Latitude":"47.11670","Longitude":"-88.51370","Snowdepth":"11.000","Units":"in","Rept_Date":"2019-12-04 13"},"coordinates":[2374,7131]},{"type":"Point","properties":{"Station_ID":"AVTW3","Station_Nam":"ARBOR VITAE-JOHNSON LAKE","Latitude":"45.89940","Longitude":"-89.72670","Snowdepth":"11.000","Units":"in","Rept_Date":"2019-12-04 12"},"coordinates":[2044,6373]},{"type":"Point","properties":{"Station_ID":"AGNW3","Station_Nam":"ARGONNE-1.5 NW","Latitude":"45.67360","Longitude":"-88.90380","Snowdepth":"11.000","Units":"in","Rept_Date":"2019-12-04 13"},"coordinates":[2268,6233]},{"type":"Point","properties":{"Station_ID":"MA-ES-59","Station_Nam":"AMESBURY 1.2 N, MA","Latitude":"42.87322","Longitude":"-70.93020","Snowdepth":"10.800","Units":"in","Rept_Date":"2019-12-04 10"},"coordinates":[7159,4491]},{"type":"Point","properties":{"Station_ID":"PTLQ6","Station_Nam":"PORTAGE LAKE","Latitude":"49.06950","Longitude":"-86.65940","Snowdepth":"10.710","Units":"in","Rept_Date":"2019-12-05 06"},"coordinates":[2879,8346]},{"type":"Point","properties":{"Station_ID":"NY-MG-3","Station_Nam":"HESSVILLE 1.8 WSW, NY","Latitude":"42.86430","Longitude":"-74.72140","Snowdepth":"10.600","Units":"in","Rept_Date":"2019-12-04 13"},"coordinates":[6128,4485]},{"type":"Point","properties":{"Station_ID":"VT-BN-7","Station_Nam":"MANCHESTER 2.8 ENE, VT","Latitude":"43.17274","Longitude":"-73.01811","Snowdepth":"10.500","Units":"in","Rept_Date":"2019-12-04 12"},"coordinates":[6591,4677]},{"type":"Point","properties":{"Station_ID":"RI-PR-50","Station_Nam":"HARRISVILLE 1.2 SSE, RI","Latitude":"41.95128","Longitude":"-71.67171","Snowdepth":"10.500","Units":"in","Rept_Date":"2019-12-04 12"},"coordinates":[6957,3917]},{"type":"Point","properties":{"Station_ID":"NY-HR-16","Station_Nam":"ILION 0.7 WSW, NY","Latitude":"43.00880","Longitude":"-75.05390","Snowdepth":"10.500","Units":"in","Rept_Date":"2019-12-04 12"},"coordinates":[6037,4575]},{"type":"Point","properties":{"Station_ID":"NH-ST-31","Station_Nam":"STRAFFORD 2.9 N, NH","Latitude":"43.31175","Longitude":"-71.13510","Snowdepth":"10.500","Units":"in","Rept_Date":"2019-12-04 13"},"coordinates":[7103,4764]},{"type":"Point","properties":{"Station_ID":"MA-WR-42","Station_Nam":"NORTHBOROUGH 2.3 N, MA","Latitude":"42.34535","Longitude":"-71.64390","Snowdepth":"10.500","Units":"in","Rept_Date":"2019-12-04 12"},"coordinates":[6965,4162]},{"type":"Point","properties":{"Station_ID":"WI-BR-2","Station_Nam":"CHETEK 2.0 SE, WI","Latitude":"45.29427","Longitude":"-91.62470","Snowdepth":"10.000","Units":"in","Rept_Date":"2019-12-04 13"},"coordinates":[1528,5997]},{"type":"Point","properties":{"Station_ID":"SFVC3","Station_Nam":"STAFFORDVILLE","Latitude":"41.99840","Longitude":"-72.26060","Snowdepth":"10.000","Units":"in","Rept_Date":"2019-12-04 10"},"coordinates":[6797,3946]},{"type":"Point","properties":{"Station_ID":"NY-UL-23","Station_Nam":"WEST HURLEY 0.1 S, NY","Latitude":"42.00455","Longitude":"-74.11094","Snowdepth":"10.000","Units":"in","Rept_Date":"2019-12-04 12"},"coordinates":[6294,3950]},{"type":"Point","properties":{"Station_ID":"NY-TM-5","Station_Nam":"FREEVILLE 1.5 NE, NY","Latitude":"42.52530","Longitude":"-76.32180","Snowdepth":"10.000","Units":"in","Rept_Date":"2019-12-04 12"},"coordinates":[5692,4274]},{"type":"Point","properties":{"Station_ID":"NY-TM-4","Station_Nam":"GROTON 0.5 NW, NY","Latitude":"42.59127","Longitude":"-76.37200","Snowdepth":"10.000","Units":"in","Rept_Date":"2019-12-04 12"},"coordinates":[5678,4315]},{"type":"Point","properties":{"Station_ID":"NY-TM-38","Station_Nam":"TRUMANSBURG 0.4 WNW, NY","Latitude":"42.54205","Longitude":"-76.66870","Snowdepth":"10.000","Units":"in","Rept_Date":"2019-12-04 12"},"coordinates":[5598,4285]},{"type":"Point","properties":{"Station_ID":"NY-SY-1","Station_Nam":"SMITH VALLEY 1.9 SE, NY","Latitude":"42.39072","Longitude":"-76.71760","Snowdepth":"10.000","Units":"in","Rept_Date":"2019-12-04 12"},"coordinates":[5584,4191]},{"type":"Point","properties":{"Station_ID":"NY-CB-8","Station_Nam":"LIVINGSTON 0.7 SSW, NY","Latitude":"42.13308","Longitude":"-73.78540","Snowdepth":"10.000","Units":"in","Rept_Date":"2019-12-04 13"},"coordinates":[6382,4030]},{"type":"Point","properties":{"Station_ID":"NVLN6","Station_Nam":"NORTHVILLE","Latitude":"43.23330","Longitude":"-74.16670","Snowdepth":"10.000","Units":"in","Rept_Date":"2019-12-04 13"},"coordinates":[6278,4715]},{"type":"Point","properties":{"Station_ID":"NJ-SS-54","Station_Nam":"SPARTA TWP 3.6 SSW, NJ","Latitude":"41.00503","Longitude":"-74.66358","Snowdepth":"10.000","Units":"in","Rept_Date":"2019-12-04 11"},"coordinates":[6143,3328]},{"type":"Point","properties":{"Station_ID":"NHBN6","Station_Nam":"HEBRON","Latitude":"43.29540","Longitude":"-73.39830","Snowdepth":"10.000","Units":"in","Rept_Date":"2019-12-04 12"},"coordinates":[6488,4753]},{"type":"Point","properties":{"Station_ID":"NH-MR-41","Station_Nam":"NEWBURY 1.6 NW, NH","Latitude":"43.33667","Longitude":"-72.06060","Snowdepth":"10.000","Units":"in","Rept_Date":"2019-12-04 11"},"coordinates":[6852,4779]},{"type":"Point","properties":{"Station_ID":"NFKC3","Station_Nam":"NORFOLK","Latitude":"41.97250","Longitude":"-73.22080","Snowdepth":"10.000","Units":"in","Rept_Date":"2019-12-04 13"},"coordinates":[6536,3930]},{"type":"Point","properties":{"Station_ID":"MRAM5","Station_Nam":"MORA","Latitude":"45.87760","Longitude":"-93.31470","Snowdepth":"10.000","Units":"in","Rept_Date":"2019-12-04 13"},"coordinates":[1068,6360]},{"type":"Point","properties":{"Station_ID":"MN-CY-20","Station_Nam":"HAWLEY 5.2 WNW, MN","Latitude":"46.91652","Longitude":"-96.41147","Snowdepth":"10.000","Units":"in","Rept_Date":"2019-12-04 13"},"coordinates":[225,7006]},{"type":"Point","properties":{"Station_ID":"MN-CW-22","Station_Nam":"FORT RIPLEY 0.8 N, MN","Latitude":"46.18089","Longitude":"-94.36510","Snowdepth":"10.000","Units":"in","Rept_Date":"2019-12-04 13"},"coordinates":[782,6549]},{"type":"Point","properties":{"Station_ID":"MN-BK-6","Station_Nam":"LAKE PARK 6.0 S, MN","Latitude":"46.79850","Longitude":"-96.12180","Snowdepth":"10.000","Units":"in","Rept_Date":"2019-12-04 13"},"coordinates":[304,6933]},{"type":"Point","properties":{"Station_ID":"MI-DL-4","Station_Nam":"GLADSTONE 2.1 SW, MI","Latitude":"45.83218","Longitude":"-87.05727","Snowdepth":"10.000","Units":"in","Rept_Date":"2019-12-04 12"},"coordinates":[2771,6332]},{"type":"Point","properties":{"Station_ID":"MECN6","Station_Nam":"MECKLENBURG 4 SW","Latitude":"42.44220","Longitude":"-76.75740","Snowdepth":"10.000","Units":"in","Rept_Date":"2019-12-04 12"},"coordinates":[5573,4223]},{"type":"Point","properties":{"Station_ID":"ME-YK-65","Station_Nam":"NORTH BERWICK 5.3 W, ME","Latitude":"43.29801","Longitude":"-70.83956","Snowdepth":"10.000","Units":"in","Rept_Date":"2019-12-04 12"},"coordinates":[7184,4755]},{"type":"Point","properties":{"Station_ID":"ME-FR-22","Station_Nam":"FARMINGTON 4.8 NNW, ME","Latitude":"44.73396","Longitude":"-70.18007","Snowdepth":"10.000","Units":"in","Rept_Date":"2019-12-04 14"},"coordinates":[7363,5648]},{"type":"Point","properties":{"Station_ID":"MA-MD-7","Station_Nam":"WINCHESTER 0.7 SE, MA","Latitude":"42.44594","Longitude":"-71.13580","Snowdepth":"10.000","Units":"in","Rept_Date":"2019-12-04 12"},"coordinates":[7103,4225]},{"type":"Point","properties":{"Station_ID":"LWMM3","Station_Nam":"LAWRENCE","Latitude":"42.69930","Longitude":"-71.16590","Snowdepth":"10.000","Units":"in","Rept_Date":"2019-12-04 12"},"coordinates":[7095,4383]},{"type":"Point","properties":{"Station_ID":"HOLW3","Station_Nam":"HOLCOMBE","Latitude":"45.22370","Longitude":"-91.12700","Snowdepth":"10.000","Units":"in","Rept_Date":"2019-12-04 13"},"coordinates":[1663,5953]},{"type":"Point","properties":{"Station_ID":"HMTC3","Station_Nam":"HAMPTON","Latitude":"41.76760","Longitude":"-72.05310","Snowdepth":"10.000","Units":"in","Rept_Date":"2019-12-04 12"},"coordinates":[6854,3803]},{"type":"Point","properties":{"Station_ID":"EBRM3","Station_Nam":"EAST BRIMFIELD LAKE","Latitude":"42.11030","Longitude":"-72.12690","Snowdepth":"10.000","Units":"in","Rept_Date":"2019-12-04 12"},"coordinates":[6834,4016]},{"type":"Point","properties":{"Station_ID":"CT-TL-2","Station_Nam":"STAFFORDVILLE 0.4 NNW, CT","Latitude":"41.99874","Longitude":"-72.26100","Snowdepth":"10.000","Units":"in","Rept_Date":"2019-12-04 10"},"coordinates":[6797,3947]},{"type":"Point","properties":{"Station_ID":"CT-LT-9","Station_Nam":"NEW HARTFORD CENTER 3.2 SW, CT","Latitude":"41.84170","Longitude":"-73.00920","Snowdepth":"10.000","Units":"in","Rept_Date":"2019-12-04 12"},"coordinates":[6593,3849]},{"type":"Point","properties":{"Station_ID":"CT-HR-63","Station_Nam":"WEST HARTFORD 1.1 NNE, CT","Latitude":"41.78213","Longitude":"-72.74506","Snowdepth":"10.000","Units":"in","Rept_Date":"2019-12-04 12"},"coordinates":[6665,3812]},{"type":"Point","properties":{"Station_ID":"COTM5","Station_Nam":"COTTON","Latitude":"47.16870","Longitude":"-92.46290","Snowdepth":"10.000","Units":"in","Rept_Date":"2019-12-04 12"},"coordinates":[1300,7163]},{"type":"Point","properties":{"Station_ID":"CNKN6","Station_Nam":"CONKLINGVILLE DAM","Latitude":"43.32030","Longitude":"-73.92560","Snowdepth":"10.000","Units":"in","Rept_Date":"2019-12-04 13"},"coordinates":[6344,4769]},{"type":"Point","properties":{"Station_ID":"CBLW3","Station_Nam":"CUMBERLAND","Latitude":"45.53310","Longitude":"-92.02260","Snowdepth":"10.000","Units":"in","Rept_Date":"2019-12-04 13"},"coordinates":[1419,6146]},{"type":"Point","properties":{"Station_ID":"BALW3","Station_Nam":"BALDWIN","Latitude":"44.96330","Longitude":"-92.39050","Snowdepth":"10.000","Units":"in","Rept_Date":"2019-12-04 13"},"coordinates":[1319,5791]},{"type":"Point","properties":{"Station_ID":"BAKC3","Station_Nam":"BAKERSVILLE","Latitude":"41.84180","Longitude":"-73.00850","Snowdepth":"10.000","Units":"in","Rept_Date":"2019-12-04 12"},"coordinates":[6594,3849]},{"type":"Point","properties":{"Station_ID":"AUW","Station_Nam":"WAUSAU MUNICIPAL AIRPORT","Latitude":"44.92580","Longitude":"-89.62560","Snowdepth":"10.000","Units":"in","Rept_Date":"2019-12-04 12"},"coordinates":[2072,5768]},{"type":"Point","properties":{"Station_ID":"AHRM3","Station_Nam":"AMHERST","Latitude":"42.38610","Longitude":"-72.53750","Snowdepth":"10.000","Units":"in","Rept_Date":"2019-12-04 12"},"coordinates":[6722,4188]},{"type":"Point","properties":{"Station_ID":"QCO","Station_Nam":"QCO","Latitude":"51.45280","Longitude":"-72.20110","Snowdepth":"9.882","Units":"in","Rept_Date":"2019-12-04 12"},"coordinates":[6813,9828]},{"type":"Point","properties":{"Station_ID":"QFT","Station_Nam":"QFT","Latitude":"50.83280","Longitude":"-74.40390","Snowdepth":"9.685","Units":"in","Rept_Date":"2019-12-04 12"},"coordinates":[6214,9443]},{"type":"Point","properties":{"Station_ID":"NY-OT-4","Station_Nam":"BRIDGEWATER 4.3 SSE, NY","Latitude":"42.81667","Longitude":"-75.23330","Snowdepth":"9.500","Units":"in","Rept_Date":"2019-12-04 11"},"coordinates":[5988,4456]},{"type":"Point","properties":{"Station_ID":"NY-OD-2","Station_Nam":"POINT ROCK 0.6 SE, NY","Latitude":"43.37335","Longitude":"-75.53840","Snowdepth":"9.500","Units":"in","Rept_Date":"2019-12-04 13"},"coordinates":[5905,4802]},{"type":"Point","properties":{"Station_ID":"NY-DL-25","Station_Nam":"HOBART 4.8 ESE, NY","Latitude":"42.35230","Longitude":"-74.57830","Snowdepth":"9.500","Units":"in","Rept_Date":"2019-12-04 12"},"coordinates":[6166,4167]},{"type":"Point","properties":{"Station_ID":"NJ-SS-3","Station_Nam":"VERNON TWP 1.7 N, NJ","Latitude":"41.22151","Longitude":"-74.48800","Snowdepth":"9.500","Units":"in","Rept_Date":"2019-12-04 12"},"coordinates":[6191,3463]},{"type":"Point","properties":{"Station_ID":"MN-WK-5","Station_Nam":"WOLVERTON 1.1 ENE, MN","Latitude":"46.56920","Longitude":"-96.71540","Snowdepth":"9.500","Units":"in","Rept_Date":"2019-12-04 13"},"coordinates":[142,6790]},{"type":"Point","properties":{"Station_ID":"ME-YK-5","Station_Nam":"KENNEBUNK 1.8 WNW, ME","Latitude":"43.39320","Longitude":"-70.58060","Snowdepth":"9.500","Units":"in","Rept_Date":"2019-12-04 12"},"coordinates":[7254,4814]},{"type":"Point","properties":{"Station_ID":"ME-SM-10","Station_Nam":"NORTH NEW PORTLAND 0.3 WSW, ME","Latitude":"44.92353","Longitude":"-70.02788","Snowdepth":"9.500","Units":"in","Rept_Date":"2019-12-04 12"},"coordinates":[7405,5766]},{"type":"Point","properties":{"Station_ID":"MA-ES-41","Station_Nam":"DANVERS 0.8 ESE, MA","Latitude":"42.56849","Longitude":"-70.93526","Snowdepth":"9.500","Units":"in","Rept_Date":"2019-12-04 13"},"coordinates":[7158,4301]},{"type":"Point","properties":{"Station_ID":"QWE","Station_Nam":"QWE","Latitude":"47.84610","Longitude":"-73.80670","Snowdepth":"9.291","Units":"in","Rept_Date":"2019-12-04 12"},"coordinates":[6376,7585]},{"type":"Point","properties":{"Station_ID":"QLM","Station_Nam":"QLM","Latitude":"48.92030","Longitude":"-70.25280","Snowdepth":"9.291","Units":"in","Rept_Date":"2019-12-04 12"},"coordinates":[7344,8253]},{"type":"Point","properties":{"Station_ID":"QMD","Station_Nam":"QMD","Latitude":"49.29060","Longitude":"-75.84500","Snowdepth":"9.252","Units":"in","Rept_Date":"2019-12-04 12"},"coordinates":[5822,8483]},{"type":"Point","properties":{"Station_ID":"QTV","Station_Nam":"QTV","Latitude":"49.66000","Longitude":"-69.35690","Snowdepth":"9.094","Units":"in","Rept_Date":"2019-12-04 12"},"coordinates":[7587,8713]},{"type":"Point","properties":{"Station_ID":"TRIQ6","Station_Nam":"TRIO LAKE","Latitude":"49.22880","Longitude":"-87.22920","Snowdepth":"9.090","Units":"in","Rept_Date":"2019-12-05 06"},"coordinates":[2724,8445]},{"type":"Point","properties":{"Station_ID":"QLP","Station_Nam":"QLP","Latitude":"48.13920","Longitude":"-72.63830","Snowdepth":"9.016","Units":"in","Rept_Date":"2019-12-04 12"},"coordinates":[6694,7767]},{"type":"Point","properties":{"Station_ID":"ZNOM4","Station_Nam":"NORWAY","Latitude":"45.77810","Longitude":"-87.89560","Snowdepth":"9.000","Units":"in","Rept_Date":"2019-12-05 01"},"coordinates":[2542,6298]},{"type":"Point","properties":{"Station_ID":"WI-DR-5","Station_Nam":"ELLISON BAY 2.2 E, WI","Latitude":"45.25750","Longitude":"-87.02670","Snowdepth":"9.000","Units":"in","Rept_Date":"2019-12-04 13"},"coordinates":[2779,5974]},{"type":"Point","properties":{"Station_ID":"WHTN6","Station_Nam":"WHITESVILLE","Latitude":"42.05980","Longitude":"-77.75530","Snowdepth":"9.000","Units":"in","Rept_Date":"2019-12-04 12"},"coordinates":[5302,3985]},{"type":"Point","properties":{"Station_ID":"WASW3","Station_Nam":"WASHINGTON IS","Latitude":"45.35800","Longitude":"-86.89110","Snowdepth":"9.000","Units":"in","Rept_Date":"2019-12-04 13"},"coordinates":[2816,6037]},{"type":"Point","properties":{"Station_ID":"SUXN4","Station_Nam":"SUSSEX 3 WNW","Latitude":"41.20000","Longitude":"-74.60000","Snowdepth":"9.000","Units":"in","Rept_Date":"2019-12-04 12"},"coordinates":[6161,3450]},{"type":"Point","properties":{"Station_ID":"STIM4","Station_Nam":"ST IGNACE","Latitude":"45.86080","Longitude":"-84.71960","Snowdepth":"9.000","Units":"in","Rept_Date":"2019-12-04 12"},"coordinates":[3407,6349]},{"type":"Point","properties":{"Station_ID":"SBEW3","Station_Nam":"EXP. FARM","Latitude":"44.86670","Longitude":"-87.33330","Snowdepth":"9.000","Units":"in","Rept_Date":"2019-12-04 13"},"coordinates":[2695,5731]},{"type":"Point","properties":{"Station_ID":"RI-PR-51","Station_Nam":"NORTH SMITHFIELD 0.6 S, RI","Latitude":"41.95440","Longitude":"-71.54944","Snowdepth":"9.000","Units":"in","Rept_Date":"2019-12-04 11"},"coordinates":[6991,3919]},{"type":"Point","properties":{"Station_ID":"RI-PR-28","Station_Nam":"NORTH SMITHFIELD 0.7 SE, RI","Latitude":"41.95910","Longitude":"-71.54201","Snowdepth":"9.000","Units":"in","Rept_Date":"2019-12-04 12"},"coordinates":[6993,3922]},{"type":"Point","properties":{"Station_ID":"RHRW3","Station_Nam":"RHINELANDER WJFW TV-12","Latitude":"45.62220","Longitude":"-89.41000","Snowdepth":"9.000","Units":"in","Rept_Date":"2019-12-05 04"},"coordinates":[2130,6201]},{"type":"Point","properties":{"Station_ID":"RHI","Station_Nam":"RHINELANDER-ONEIDA COUNTY AIRPORT","Latitude":"45.63080","Longitude":"-89.46530","Snowdepth":"9.000","Units":"in","Rept_Date":"2019-12-05 00"},"coordinates":[2115,6206]},{"type":"Point","properties":{"Station_ID":"OTTN3","Station_Nam":"OTTER BROOK LAKE","Latitude":"42.95000","Longitude":"-72.23330","Snowdepth":"9.000","Units":"in","Rept_Date":"2019-12-04 12"},"coordinates":[6805,4539]},{"type":"Point","properties":{"Station_ID":"NY-ST-3","Station_Nam":"SOUTH CORNING 4.7 S, NY","Latitude":"42.05672","Longitude":"-77.04850","Snowdepth":"9.000","Units":"in","Rept_Date":"2019-12-04 14"},"coordinates":[5494,3983]},{"type":"Point","properties":{"Station_ID":"NY-OD-19","Station_Nam":"NEW HARTFORD 0.8 S, NY","Latitude":"43.06182","Longitude":"-75.28990","Snowdepth":"9.000","Units":"in","Rept_Date":"2019-12-04 12"},"coordinates":[5973,4608]},{"type":"Point","properties":{"Station_ID":"NY-CY-27","Station_Nam":"MORAVIA 5.9 ENE, NY","Latitude":"42.73491","Longitude":"-76.31137","Snowdepth":"9.000","Units":"in","Rept_Date":"2019-12-04 11"},"coordinates":[5695,4405]},{"type":"Point","properties":{"Station_ID":"NJ-SS-39","Station_Nam":"WANTAGE TWP 1.6 SE, NJ","Latitude":"41.22830","Longitude":"-74.60330","Snowdepth":"9.000","Units":"in","Rept_Date":"2019-12-04 11"},"coordinates":[6160,3467]},{"type":"Point","properties":{"Station_ID":"NH-MR-60","Station_Nam":"SOUTH SUTTON 1.3 SE, NH","Latitude":"43.29531","Longitude":"-71.90238","Snowdepth":"9.000","Units":"in","Rept_Date":"2019-12-04 13"},"coordinates":[6895,4753]},{"type":"Point","properties":{"Station_ID":"NH-MR-4","Station_Nam":"BOW 1.6 NW, NH","Latitude":"43.14994","Longitude":"-71.55650","Snowdepth":"9.000","Units":"in","Rept_Date":"2019-12-04 12"},"coordinates":[6989,4663]},{"type":"Point","properties":{"Station_ID":"MN-IT-23","Station_Nam":"BOVEY 13.4 N, MN","Latitude":"47.48855","Longitude":"-93.43497","Snowdepth":"9.000","Units":"in","Rept_Date":"2019-12-04 13"},"coordinates":[1035,7362]},{"type":"Point","properties":{"Station_ID":"MI-MC-4","Station_Nam":"ST. IGNACE 0.5SE, MI","Latitude":"45.86057","Longitude":"-84.71980","Snowdepth":"9.000","Units":"in","Rept_Date":"2019-12-04 12"},"coordinates":[3407,6349]},{"type":"Point","properties":{"Station_ID":"MA-MD-81","Station_Nam":"WAKEFIELD 0.5 NNW, MA","Latitude":"42.51171","Longitude":"-71.07007","Snowdepth":"9.000","Units":"in","Rept_Date":"2019-12-04 12"},"coordinates":[7121,4266]},{"type":"Point","properties":{"Station_ID":"KGFK","Station_Nam":"GRAND FORKS INTERNATIONAL","Latitude":"47.95000","Longitude":"-97.18333","Snowdepth":"9.000","Units":"in","Rept_Date":"2019-12-05 06"},"coordinates":[15,7649]},{"type":"Point","properties":{"Station_ID":"JKMM1","Station_Nam":"JACKMAN","Latitude":"45.62600","Longitude":"-70.24600","Snowdepth":"9.000","Units":"in","Rept_Date":"2019-12-04 12"},"coordinates":[7345,6203]},{"type":"Point","properties":{"Station_ID":"COPN6","Station_Nam":"COOPERSTOWN","Latitude":"42.71660","Longitude":"-74.92660","Snowdepth":"9.000","Units":"in","Rept_Date":"2019-12-05 05"},"coordinates":[6072,4393]},{"type":"Point","properties":{"Station_ID":"AVLV1","Station_Nam":"AVERILL","Latitude":"45.00570","Longitude":"-71.69030","Snowdepth":"9.000","Units":"in","Rept_Date":"2019-12-04 13"},"coordinates":[6952,5817]},{"type":"Point","properties":{"Station_ID":"APXM4","Station_Nam":"GAYLORD 9SSW","Latitude":"44.90720","Longitude":"-84.71880","Snowdepth":"9.000","Units":"in","Rept_Date":"2019-12-05 06"},"coordinates":[3407,5756]},{"type":"Point","properties":{"Station_ID":"ADDN6","Station_Nam":"ADDISON","Latitude":"42.10130","Longitude":"-77.23440","Snowdepth":"9.000","Units":"in","Rept_Date":"2019-12-04 12"},"coordinates":[5444,4011]},{"type":"Point","properties":{"Station_ID":"4924Y_MADIS","Station_Nam":"MECKLENBURG 1.2 SE, NY","Latitude":"42.44945","Longitude":"-76.69050","Snowdepth":"9.000","Units":"in","Rept_Date":"2019-12-04 14"},"coordinates":[5592,4227]},{"type":"Point","properties":{"Station_ID":"NY-ST-41","Station_Nam":"PAINTED POST 0.7 SSE, NY","Latitude":"42.15370","Longitude":"-77.08690","Snowdepth":"8.800","Units":"in","Rept_Date":"2019-12-04 13"},"coordinates":[5484,4043]},{"type":"Point","properties":{"Station_ID":"WI-CH-7","Station_Nam":"CHIPPEWA FALLS 1.2 E, WI","Latitude":"44.92920","Longitude":"-91.36730","Snowdepth":"8.500","Units":"in","Rept_Date":"2019-12-04 13"},"coordinates":[1598,5770]},{"type":"Point","properties":{"Station_ID":"VT-WH-17","Station_Nam":"ROCKINGHAM 1.1 NNE, VT","Latitude":"43.20388","Longitude":"-72.48222","Snowdepth":"8.500","Units":"in","Rept_Date":"2019-12-04 12"},"coordinates":[6737,4696]},{"type":"Point","properties":{"Station_ID":"RI-PR-33","Station_Nam":"GREENVILLE 0.7 NNW, RI","Latitude":"41.88890","Longitude":"-71.56030","Snowdepth":"8.500","Units":"in","Rept_Date":"2019-12-04 12"},"coordinates":[6988,3878]},{"type":"Point","properties":{"Station_ID":"PA-PK-22","Station_Nam":"MILFORD 8.7 NW, PA","Latitude":"41.42018","Longitude":"-74.90953","Snowdepth":"8.500","Units":"in","Rept_Date":"2019-12-04 12"},"coordinates":[6076,3587]},{"type":"Point","properties":{"Station_ID":"NY-TG-20","Station_Nam":"CANDOR 1.8 N, NY","Latitude":"42.25308","Longitude":"-76.33780","Snowdepth":"8.500","Units":"in","Rept_Date":"2019-12-04 12"},"coordinates":[5688,4105]},{"type":"Point","properties":{"Station_ID":"NY-SY-12","Station_Nam":"DUNDEE 5.7 ESE, NY","Latitude":"42.49807","Longitude":"-76.87150","Snowdepth":"8.500","Units":"in","Rept_Date":"2019-12-04 13"},"coordinates":[5542,4257]},{"type":"Point","properties":{"Station_ID":"NY-OS-16","Station_Nam":"PHOENIX 7.0 NNE, NY","Latitude":"43.33100","Longitude":"-76.27000","Snowdepth":"8.500","Units":"in","Rept_Date":"2019-12-04 11"},"coordinates":[5706,4776]},{"type":"Point","properties":{"Station_ID":"NY-OG-2","Station_Nam":"DE WITT 1.4 WSW, NY","Latitude":"43.03333","Longitude":"-76.10000","Snowdepth":"8.500","Units":"in","Rept_Date":"2019-12-04 12"},"coordinates":[5752,4590]},{"type":"Point","properties":{"Station_ID":"NY-OG-10","Station_Nam":"CAMILLUS 1.0 W, NY","Latitude":"43.03962","Longitude":"-76.32830","Snowdepth":"8.500","Units":"in","Rept_Date":"2019-12-04 12"},"coordinates":[5690,4594]},{"type":"Point","properties":{"Station_ID":"NY-BM-14","Station_Nam":"WHITNEY POINT 1.7 SSE, NY","Latitude":"42.30837","Longitude":"-75.95690","Snowdepth":"8.500","Units":"in","Rept_Date":"2019-12-04 11"},"coordinates":[5791,4139]},{"type":"Point","properties":{"Station_ID":"NH-MR-25","Station_Nam":"CHICHESTER 2.7 SSW, NH","Latitude":"43.21150","Longitude":"-71.41430","Snowdepth":"8.500","Units":"in","Rept_Date":"2019-12-04 07"},"coordinates":[7027,4701]},{"type":"Point","properties":{"Station_ID":"MN-SL-108","Station_Nam":"IRON JUNCTION 3.4 NNW, MN","Latitude":"47.46150","Longitude":"-92.63130","Snowdepth":"8.500","Units":"in","Rept_Date":"2019-12-04 13"},"coordinates":[1254,7345]},{"type":"Point","properties":{"Station_ID":"MN-MR-13","Station_Nam":"LITTLE FALLS 8.0 NE, MN","Latitude":"46.06785","Longitude":"-94.24789","Snowdepth":"8.500","Units":"in","Rept_Date":"2019-12-04 13"},"coordinates":[814,6478]},{"type":"Point","properties":{"Station_ID":"ME-CM-128","Station_Nam":"SOUTH PORTLAND 1.6 S, ME","Latitude":"43.60900","Longitude":"-70.28600","Snowdepth":"8.500","Units":"in","Rept_Date":"2019-12-04 11"},"coordinates":[7335,4949]},{"type":"Point","properties":{"Station_ID":"MA-MD-126","Station_Nam":"MELROSE 0.5 NE, MA","Latitude":"42.46055","Longitude":"-71.05396","Snowdepth":"8.500","Units":"in","Rept_Date":"2019-12-04 12"},"coordinates":[7126,4234]},{"type":"Point","properties":{"Station_ID":"CAN-NB-64","Station_Nam":"KESWICK RIDGE 4.0 SE, CAN","Latitude":"45.97014","Longitude":"-66.85538","Snowdepth":"8.300","Units":"in","Rept_Date":"2019-12-04 12"},"coordinates":[8268,6417]},{"type":"Point","properties":{"Station_ID":"SVBQ6","Station_Nam":"SAVANT BASE","Latitude":"50.28730","Longitude":"-90.65670","Snowdepth":"8.230","Units":"in","Rept_Date":"2019-12-05 06"},"coordinates":[1791,9103]},{"type":"Point","properties":{"Station_ID":"QLB","Station_Nam":"QLB","Latitude":"50.72360","Longitude":"-75.10000","Snowdepth":"8.228","Units":"in","Rept_Date":"2019-12-04 12"},"coordinates":[6024,9375]},{"type":"Point","properties":{"Station_ID":"WNDM1","Station_Nam":"WINDHAM 2NW","Latitude":"43.85670","Longitude":"-70.46630","Snowdepth":"8.000","Units":"in","Rept_Date":"2019-12-04 12"},"coordinates":[7285,5103]},{"type":"Point","properties":{"Station_ID":"WNBM5","Station_Nam":"DAM","Latitude":"47.43060","Longitude":"-94.05000","Snowdepth":"8.000","Units":"in","Rept_Date":"2019-12-04 14"},"coordinates":[868,7326]},{"type":"Point","properties":{"Station_ID":"WITN6","Station_Nam":"WHITNEY POINT DAM","Latitude":"42.34180","Longitude":"-75.96530","Snowdepth":"8.000","Units":"in","Rept_Date":"2019-12-04 12"},"coordinates":[5789,4160]},{"type":"Point","properties":{"Station_ID":"WI-MT-14","Station_Nam":"MOSINEE 2.7 WSW, WI","Latitude":"44.77240","Longitude":"-89.73441","Snowdepth":"8.000","Units":"in","Rept_Date":"2019-12-04 13"},"coordinates":[2042,5672]},{"type":"Point","properties":{"Station_ID":"WHPN3","Station_Nam":"WEST HOPKINTON,NH","Latitude":"43.18330","Longitude":"-71.75000","Snowdepth":"8.000","Units":"in","Rept_Date":"2019-12-04 12"},"coordinates":[6936,4684]},{"type":"Point","properties":{"Station_ID":"WALN6","Station_Nam":"WALTON 2","Latitude":"42.18470","Longitude":"-75.14550","Snowdepth":"8.000","Units":"in","Rept_Date":"2019-12-04 10"},"coordinates":[6012,4062]},{"type":"Point","properties":{"Station_ID":"WALM3","Station_Nam":"WALPOLE 2","Latitude":"42.16090","Longitude":"-71.24610","Snowdepth":"8.000","Units":"in","Rept_Date":"2019-12-04 12"},"coordinates":[7073,4048]},{"type":"Point","properties":{"Station_ID":"SIBI4","Station_Nam":"SIBLEY","Latitude":"43.40470","Longitude":"-95.74830","Snowdepth":"8.000","Units":"in","Rept_Date":"2019-12-04 13"},"coordinates":[406,4821]},{"type":"Point","properties":{"Station_ID":"SHIW3","Station_Nam":"SHIOCTON","Latitude":"44.43890","Longitude":"-88.58390","Snowdepth":"8.000","Units":"in","Rept_Date":"2019-12-04 13"},"coordinates":[2355,5465]},{"type":"Point","properties":{"Station_ID":"RRLW3","Station_Nam":"MERRILL,WI","Latitude":"45.17860","Longitude":"-89.66170","Snowdepth":"8.000","Units":"in","Rept_Date":"2019-12-04 14"},"coordinates":[2062,5925]},{"type":"Point","properties":{"Station_ID":"PLEP1","Station_Nam":"PLEASANT MOUNT 1 W","Latitude":"41.73940","Longitude":"-75.44650","Snowdepth":"8.000","Units":"in","Rept_Date":"2019-12-04 14"},"coordinates":[5930,3785]},{"type":"Point","properties":{"Station_ID":"PKGM5","Station_Nam":"POKEGANA LK DAM","Latitude":"47.25080","Longitude":"-93.58610","Snowdepth":"8.000","Units":"in","Rept_Date":"2019-12-04 14"},"coordinates":[994,7214]},{"type":"Point","properties":{"Station_ID":"PERV1","Station_Nam":"PERU","Latitude":"43.26670","Longitude":"-72.90000","Snowdepth":"8.000","Units":"in","Rept_Date":"2019-12-04 12"},"coordinates":[6623,4736]},{"type":"Point","properties":{"Station_ID":"OTTM5","Station_Nam":"OTTERTAIL,MN","Latitude":"46.41670","Longitude":"-95.56670","Snowdepth":"8.000","Units":"in","Rept_Date":"2019-12-04 13"},"coordinates":[455,6695]},{"type":"Point","properties":{"Station_ID":"NY-UL-31","Station_Nam":"HURLEY 2.2 S, NY","Latitude":"41.88149","Longitude":"-74.05626","Snowdepth":"8.000","Units":"in","Rept_Date":"2019-12-04 12"},"coordinates":[6309,3874]},{"type":"Point","properties":{"Station_ID":"NY-TM-42","Station_Nam":"ITHACA 6.4 E, NY","Latitude":"42.43350","Longitude":"-76.37860","Snowdepth":"8.000","Units":"in","Rept_Date":"2019-12-04 12"},"coordinates":[5677,4217]},{"type":"Point","properties":{"Station_ID":"NY-TM-18","Station_Nam":"EAST ITHACA 4.7 E, NY","Latitude":"42.41910","Longitude":"-76.37330","Snowdepth":"8.000","Units":"in","Rept_Date":"2019-12-04 12"},"coordinates":[5678,4208]},{"type":"Point","properties":{"Station_ID":"NY-TG-26","Station_Nam":"CANDOR 0.7 NW, NY","Latitude":"42.23428","Longitude":"-76.34758","Snowdepth":"8.000","Units":"in","Rept_Date":"2019-12-04 12"},"coordinates":[5685,4093]},{"type":"Point","properties":{"Station_ID":"NY-SY-11","Station_Nam":"DUNDEE 6.2 E, NY","Latitude":"42.52210","Longitude":"-76.85580","Snowdepth":"8.000","Units":"in","Rept_Date":"2019-12-04 12"},"coordinates":[5547,4272]},{"type":"Point","properties":{"Station_ID":"NY-ST-45","Station_Nam":"CORNING 2.9 N, NY","Latitude":"42.18841","Longitude":"-77.06478","Snowdepth":"8.000","Units":"in","Rept_Date":"2019-12-04 12"},"coordinates":[5490,4065]},{"type":"Point","properties":{"Station_ID":"NY-ST-33","Station_Nam":"BATH 4.2 E, NY","Latitude":"42.33968","Longitude":"-77.23666","Snowdepth":"8.000","Units":"in","Rept_Date":"2019-12-04 12"},"coordinates":[5443,4159]},{"type":"Point","properties":{"Station_ID":"NY-ON-15","Station_Nam":"GENEVA COOP, NY","Latitude":"42.87660","Longitude":"-77.03080","Snowdepth":"8.000","Units":"in","Rept_Date":"2019-12-04 12"},"coordinates":[5499,4493]},{"type":"Point","properties":{"Station_ID":"NY-OG-12","Station_Nam":"CLAY 4.6 NW, NY","Latitude":"43.20000","Longitude":"-76.26000","Snowdepth":"8.000","Units":"in","Rept_Date":"2019-12-04 12"},"coordinates":[5709,4694]},{"type":"Point","properties":{"Station_ID":"NY-OD-42","Station_Nam":"WHITESBORO 2.3 SW, NY","Latitude":"43.10017","Longitude":"-75.32940","Snowdepth":"8.000","Units":"in","Rept_Date":"2019-12-04 10"},"coordinates":[5962,4632]},{"type":"Point","properties":{"Station_ID":"NY-DL-32","Station_Nam":"DELHI 6.6 WNW, NY","Latitude":"42.32118","Longitude":"-75.02991","Snowdepth":"8.000","Units":"in","Rept_Date":"2019-12-04 12"},"coordinates":[6044,4147]},{"type":"Point","properties":{"Station_ID":"NY-DL-23","Station_Nam":"LONG EDDY 6.5 NNE, NY","Latitude":"41.93510","Longitude":"-75.07840","Snowdepth":"8.000","Units":"in","Rept_Date":"2019-12-04 12"},"coordinates":[6030,3907]},{"type":"Point","properties":{"Station_ID":"NY-BM-7","Station_Nam":"VESTAL 2.8 SSE, NY","Latitude":"42.04930","Longitude":"-76.02880","Snowdepth":"8.000","Units":"in","Rept_Date":"2019-12-04 13"},"coordinates":[5772,3978]},{"type":"Point","properties":{"Station_ID":"NY-BM-21","Station_Nam":"WINDSOR 8.0 SE, NY","Latitude":"42.00992","Longitude":"-75.51420","Snowdepth":"8.000","Units":"in","Rept_Date":"2019-12-04 12"},"coordinates":[5912,3954]},{"type":"Point","properties":{"Station_ID":"NOSV1","Station_Nam":"NORTH SPRINGFIELD LAKE","Latitude":"43.33920","Longitude":"-72.50560","Snowdepth":"8.000","Units":"in","Rept_Date":"2019-12-04 12"},"coordinates":[6730,4781]},{"type":"Point","properties":{"Station_ID":"NJ-SS-7","Station_Nam":"HARDYSTON TWP 3.2 SE, NJ","Latitude":"41.08903","Longitude":"-74.53990","Snowdepth":"8.000","Units":"in","Rept_Date":"2019-12-04 13"},"coordinates":[6177,3381]},{"type":"Point","properties":{"Station_ID":"MRRN6","Station_Nam":"MORRISVILLE 6 SW","Latitude":"42.84160","Longitude":"-75.72630","Snowdepth":"8.000","Units":"in","Rept_Date":"2019-12-04 12"},"coordinates":[5854,4471]},{"type":"Point","properties":{"Station_ID":"MN-DK-73","Station_Nam":"LAKEVILLE 2.6 NNE, MN","Latitude":"44.71250","Longitude":"-93.23043","Snowdepth":"8.000","Units":"in","Rept_Date":"2019-12-04 13"},"coordinates":[1091,5635]},{"type":"Point","properties":{"Station_ID":"MN-CY-1","Station_Nam":"MOORHEAD 2.0 N, MN","Latitude":"46.88766","Longitude":"-96.74800","Snowdepth":"8.000","Units":"in","Rept_Date":"2019-12-04 13"},"coordinates":[134,6988]},{"type":"Point","properties":{"Station_ID":"MN-CV-40","Station_Nam":"EXCELSIOR 0.8 S, MN","Latitude":"44.88996","Longitude":"-93.56646","Snowdepth":"8.000","Units":"in","Rept_Date":"2019-12-04 13"},"coordinates":[999,5745]},{"type":"Point","properties":{"Station_ID":"MLCM5","Station_Nam":"MILACA","Latitude":"45.75320","Longitude":"-93.66170","Snowdepth":"8.000","Units":"in","Rept_Date":"2019-12-04 13"},"coordinates":[973,6283]},{"type":"Point","properties":{"Station_ID":"MLAP1","Station_Nam":"MILANVILLE","Latitude":"41.67310","Longitude":"-75.06420","Snowdepth":"8.000","Units":"in","Rept_Date":"2019-12-04 13"},"coordinates":[6034,3744]},{"type":"Point","properties":{"Station_ID":"MEDW3","Station_Nam":"MEDFORD","Latitude":"45.13080","Longitude":"-90.34390","Snowdepth":"8.000","Units":"in","Rept_Date":"2019-12-04 14"},"coordinates":[1876,5895]},{"type":"Point","properties":{"Station_ID":"ME-YK-3","Station_Nam":"HOLLIS CENTER 5.4 NW, ME","Latitude":"43.64750","Longitude":"-70.67510","Snowdepth":"8.000","Units":"in","Rept_Date":"2019-12-04 11"},"coordinates":[7229,4972]},{"type":"Point","properties":{"Station_ID":"ME-KB-6","Station_Nam":"WINSLOW 1.2 SSE, ME","Latitude":"44.53579","Longitude":"-69.60290","Snowdepth":"8.000","Units":"in","Rept_Date":"2019-12-04 12"},"coordinates":[7520,5525]},{"type":"Point","properties":{"Station_ID":"ME-CM-54","Station_Nam":"WINDHAM 3.9 NW, ME","Latitude":"43.85787","Longitude":"-70.46200","Snowdepth":"8.000","Units":"in","Rept_Date":"2019-12-04 12"},"coordinates":[7287,5103]},{"type":"Point","properties":{"Station_ID":"LUCW3","Station_Nam":"LUCK","Latitude":"45.57330","Longitude":"-92.48520","Snowdepth":"8.000","Units":"in","Rept_Date":"2019-12-04 22"},"coordinates":[1294,6171]},{"type":"Point","properties":{"Station_ID":"LNGM5","Station_Nam":"LONG PRAIRIE","Latitude":"45.96460","Longitude":"-94.88920","Snowdepth":"8.000","Units":"in","Rept_Date":"2019-12-04 12"},"coordinates":[639,6414]},{"type":"Point","properties":{"Station_ID":"LEIM5","Station_Nam":"ORR 3E","Latitude":"48.05810","Longitude":"-92.75220","Snowdepth":"8.000","Units":"in","Rept_Date":"2019-12-04 12"},"coordinates":[1221,7716]},{"type":"Point","properties":{"Station_ID":"HOLM1","Station_Nam":"HOLLIS","Latitude":"43.64750","Longitude":"-70.67490","Snowdepth":"8.000","Units":"in","Rept_Date":"2019-12-04 11"},"coordinates":[7229,4972]},{"type":"Point","properties":{"Station_ID":"GRBM5","Station_Nam":"GRAND RAPIDS 12N","Latitude":"47.39800","Longitude":"-93.51330","Snowdepth":"8.000","Units":"in","Rept_Date":"2019-12-04 13"},"coordinates":[1014,7306]},{"type":"Point","properties":{"Station_ID":"GFK","Station_Nam":"GRAND FORKS INTERNATIONAL AIRPORT","Latitude":"47.94920","Longitude":"-97.17610","Snowdepth":"8.000","Units":"in","Rept_Date":"2019-12-05 00"},"coordinates":[17,7649]},{"type":"Point","properties":{"Station_ID":"GENN6","Station_Nam":"GENEVA RESEARCH FARM","Latitude":"42.87660","Longitude":"-77.03070","Snowdepth":"8.000","Units":"in","Rept_Date":"2019-12-04 12"},"coordinates":[5499,4493]},{"type":"Point","properties":{"Station_ID":"FISW3","Station_Nam":"FISH CREEK 1 E WWTP","Latitude":"45.12420","Longitude":"-87.22920","Snowdepth":"8.000","Units":"in","Rept_Date":"2019-12-04 10"},"coordinates":[2724,5891]},{"type":"Point","properties":{"Station_ID":"FAR","Station_Nam":"HECTOR INTERNATIONAL ARPT","Latitude":"46.91560","Longitude":"-96.81440","Snowdepth":"8.000","Units":"in","Rept_Date":"2019-12-05 00"},"coordinates":[115,7006]},{"type":"Point","properties":{"Station_ID":"ESDN6","Station_Nam":"EAST SIDNEY","Latitude":"42.33290","Longitude":"-75.22960","Snowdepth":"8.000","Units":"in","Rept_Date":"2019-12-04 11"},"coordinates":[5989,4155]},{"type":"Point","properties":{"Station_ID":"ELKM5","Station_Nam":"ELK RIVER","Latitude":"45.30470","Longitude":"-93.58420","Snowdepth":"8.000","Units":"in","Rept_Date":"2019-12-04 13"},"coordinates":[994,6003]},{"type":"Point","properties":{"Station_ID":"CT-LT-7","Station_Nam":"LITCHFIELD 2.3 NNE, CT","Latitude":"41.77445","Longitude":"-73.16900","Snowdepth":"8.000","Units":"in","Rept_Date":"2019-12-04 12"},"coordinates":[6550,3807]},{"type":"Point","properties":{"Station_ID":"COKM5","Station_Nam":"COOK","Latitude":"47.85060","Longitude":"-92.69250","Snowdepth":"8.000","Units":"in","Rept_Date":"2019-12-04 12"},"coordinates":[1237,7587]},{"type":"Point","properties":{"Station_ID":"BWTN6","Station_Nam":"BREWERTON LOCK 23","Latitude":"43.23860","Longitude":"-76.19640","Snowdepth":"8.000","Units":"in","Rept_Date":"2019-12-04 12"},"coordinates":[5726,4718]},{"type":"Point","properties":{"Station_ID":"BREW3","Station_Nam":"SURING","Latitude":"44.99580","Longitude":"-88.37860","Snowdepth":"8.000","Units":"in","Rept_Date":"2019-12-04 13"},"coordinates":[2411,5811]},{"type":"Point","properties":{"Station_ID":"BGMN6","Station_Nam":"BINGHAMTON WFO","Latitude":"42.21160","Longitude":"-75.98580","Snowdepth":"8.000","Units":"in","Rept_Date":"2019-12-05 05"},"coordinates":[5783,4079]},{"type":"Point","properties":{"Station_ID":"BDDN3","Station_Nam":"BRADFORD 2","Latitude":"43.25880","Longitude":"-72.00210","Snowdepth":"8.000","Units":"in","Rept_Date":"2019-12-04 13"},"coordinates":[6868,4731]},{"type":"Point","properties":{"Station_ID":"ANDM1","Station_Nam":"ANDOVER 2","Latitude":"44.65300","Longitude":"-70.79410","Snowdepth":"8.000","Units":"in","Rept_Date":"2019-12-04 11"},"coordinates":[7196,5598]},{"type":"Point","properties":{"Station_ID":"QTM","Station_Nam":"QTM","Latitude":"51.05780","Longitude":"-72.57190","Snowdepth":"7.795","Units":"in","Rept_Date":"2019-12-04 12"},"coordinates":[6712,9583]},{"type":"Point","properties":{"Station_ID":"FTHQ6","Station_Nam":"FORT HOPE","Latitude":"51.55820","Longitude":"-87.90510","Snowdepth":"7.640","Units":"in","Rept_Date":"2019-12-05 06"},"coordinates":[2540,9894]},{"type":"Point","properties":{"Station_ID":"QGA","Station_Nam":"QGA","Latitude":"47.25640","Longitude":"-73.73810","Snowdepth":"7.520","Units":"in","Rept_Date":"2019-12-04 12"},"coordinates":[6395,7218]},{"type":"Point","properties":{"Station_ID":"WI-EC-23","Station_Nam":"EAU CLAIRE 3.7 S, WI","Latitude":"44.76858","Longitude":"-91.49898","Snowdepth":"7.500","Units":"in","Rept_Date":"2019-12-04 14"},"coordinates":[1562,5670]},{"type":"Point","properties":{"Station_ID":"PA-WN-53","Station_Nam":"DAMASCUS 0.1 NE, PA","Latitude":"41.70384","Longitude":"-75.06842","Snowdepth":"7.500","Units":"in","Rept_Date":"2019-12-04 13"},"coordinates":[6033,3763]},{"type":"Point","properties":{"Station_ID":"NY-TM-3","Station_Nam":"ITHACA 1.1 SE, NY","Latitude":"42.43173","Longitude":"-76.48860","Snowdepth":"7.500","Units":"in","Rept_Date":"2019-12-04 12"},"coordinates":[5647,4216]},{"type":"Point","properties":{"Station_ID":"NY-TG-15","Station_Nam":"BERKSHIRE 1.9 ENE, NY","Latitude":"42.31910","Longitude":"-76.21940","Snowdepth":"7.500","Units":"in","Rept_Date":"2019-12-04 13"},"coordinates":[5720,4146]},{"type":"Point","properties":{"Station_ID":"NY-ST-4","Station_Nam":"BIG FLATS 2.0 W, NY","Latitude":"42.14035","Longitude":"-76.97030","Snowdepth":"7.500","Units":"in","Rept_Date":"2019-12-04 16"},"coordinates":[5516,4035]},{"type":"Point","properties":{"Station_ID":"NY-PT-2","Station_Nam":"BEACON 4.2 ESE, NY","Latitude":"41.48070","Longitude":"-73.89110","Snowdepth":"7.500","Units":"in","Rept_Date":"2019-12-04 12"},"coordinates":[6353,3624]},{"type":"Point","properties":{"Station_ID":"NY-OR-19","Station_Nam":"GREENWOOD LAKE 3.0 SW, NY","Latitude":"41.18900","Longitude":"-74.32650","Snowdepth":"7.500","Units":"in","Rept_Date":"2019-12-04 13"},"coordinates":[6235,3443]},{"type":"Point","properties":{"Station_ID":"NY-DT-5","Station_Nam":"WAPPINGERS FALLS 1.6 ESE, NY","Latitude":"41.58797","Longitude":"-73.89220","Snowdepth":"7.500","Units":"in","Rept_Date":"2019-12-04 12"},"coordinates":[6353,3691]},{"type":"Point","properties":{"Station_ID":"NY-CR-5","Station_Nam":"MARATHON 1.0 NW, NY","Latitude":"42.45161","Longitude":"-76.04370","Snowdepth":"7.500","Units":"in","Rept_Date":"2019-12-04 12"},"coordinates":[5768,4228]},{"type":"Point","properties":{"Station_ID":"MI-BZ-1","Station_Nam":"BENZONIA 5.3 S, MI","Latitude":"44.53976","Longitude":"-86.10650","Snowdepth":"7.500","Units":"in","Rept_Date":"2019-12-04 14"},"coordinates":[3029,5528]},{"type":"Point","properties":{"Station_ID":"ME-PN-30","Station_Nam":"OLD TOWN 4.1 ESE, ME","Latitude":"44.93543","Longitude":"-68.65840","Snowdepth":"7.500","Units":"in","Rept_Date":"2019-12-04 12"},"coordinates":[7777,5774]},{"type":"Point","properties":{"Station_ID":"ME-LN-21","Station_Nam":"WESTPORT ISLAND 2.2 SSW, ME","Latitude":"43.88806","Longitude":"-69.70890","Snowdepth":"7.500","Units":"in","Rept_Date":"2019-12-04 13"},"coordinates":[7492,5122]},