{"type":"Topology","objects":{"snowdepth_geo":{"type":"GeometryCollection","name":"snowdepth","crs":{"type":"name","properties":{"name":"urn:ogc:def:crs:OGC:1.3:CRS84"}},"geometries":[{"type":"Point","properties":{"Station_ID":"PRKM4","Station_Nam":"MUNISING EAST","Latitude":"46.42580","Longitude":"-86.62000","Snowdepth":"76.500","Units":"in","Rept_Date":"2020-03-27 06"},"coordinates":[2492,4565]},{"type":"Point","properties":{"Station_ID":"HTLN3","Station_Nam":"HERMIT LAKE SNOWPLOT","Latitude":"44.26130","Longitude":"-71.28330","Snowdepth":"65.000","Units":"in","Rept_Date":"2020-03-26 09"},"coordinates":[6092,2346]},{"type":"Point","properties":{"Station_ID":"OGIQ6","Station_Nam":"OGOKI CAMP","Latitude":"50.76680","Longitude":"-87.85820","Snowdepth":"61.100","Units":"in","Rept_Date":"2020-03-27 06"},"coordinates":[2202,9015]},{"type":"Point","properties":{"Station_ID":"MMNV1","Station_Nam":"MT. MANSFIELD","Latitude":"44.52480","Longitude":"-72.81540","Snowdepth":"60.000","Units":"in","Rept_Date":"2020-03-26 20"},"coordinates":[5732,2616]},{"type":"Point","properties":{"Station_ID":"HVCN3","Station_Nam":"HARVARD CABIN SNOWPLOT","Latitude":"44.26630","Longitude":"-71.27790","Snowdepth":"54.000","Units":"in","Rept_Date":"2020-03-26 09"},"coordinates":[6093,2351]},{"type":"Point","properties":{"Station_ID":"PDLM4","Station_Nam":"PAINESDALE","Latitude":"47.04160","Longitude":"-88.67170","Snowdepth":"45.000","Units":"in","Rept_Date":"2020-03-26 12"},"coordinates":[2011,5196]},{"type":"Point","properties":{"Station_ID":"DVLQ6","Station_Nam":"DEVIOUS LAKE","Latitude":"49.19890","Longitude":"-87.76440","Snowdepth":"43.460","Units":"in","Rept_Date":"2020-03-27 06"},"coordinates":[2224,7408]},{"type":"Point","properties":{"Station_ID":"CAN-NL-82","Station_Nam":"GANDER 2.7 NW, CAN","Latitude":"48.97737","Longitude":"-54.63396","Snowdepth":"38.200","Units":"in","Rept_Date":"2020-03-26 10"},"coordinates":[9999,7181]},{"type":"Point","properties":{"Station_ID":"CAN-NS-39","Station_Nam":"ST. ANNS 2.8 NW, CA","Latitude":"46.25082","Longitude":"-60.64340","Snowdepth":"38.000","Units":"in","Rept_Date":"2020-03-26 12"},"coordinates":[8589,4386]},{"type":"Point","properties":{"Station_ID":"MNSM4","Station_Nam":"MUNISING","Latitude":"46.41210","Longitude":"-86.66250","Snowdepth":"35.000","Units":"in","Rept_Date":"2020-03-26 10"},"coordinates":[2482,4551]},{"type":"Point","properties":{"Station_ID":"WLFM5","Station_Nam":"WOLF RIDGE ENVIRON LEARNING CENTER","Latitude":"47.38240","Longitude":"-91.19730","Snowdepth":"32.000","Units":"in","Rept_Date":"2020-03-26 12"},"coordinates":[1418,5546]},{"type":"Point","properties":{"Station_ID":"ME-AR-18","Station_Nam":"NEW SWEDEN 4.9 NNW, ME","Latitude":"47.01080","Longitude":"-68.14390","Snowdepth":"32.000","Units":"in","Rept_Date":"2020-03-26 12"},"coordinates":[6828,5165]},{"type":"Point","properties":{"Station_ID":"QNCM4","Station_Nam":"QUINCY HILL","Latitude":"47.13640","Longitude":"-88.57950","Snowdepth":"31.000","Units":"in","Rept_Date":"2020-03-26 11"},"coordinates":[2032,5293]},{"type":"Point","properties":{"Station_ID":"PTLQ6","Station_Nam":"PORTAGE LAKE","Latitude":"49.06950","Longitude":"-86.65940","Snowdepth":"30.940","Units":"in","Rept_Date":"2020-03-27 06"},"coordinates":[2483,7275]},{"type":"Point","properties":{"Station_ID":"MI-BG-3","Station_Nam":"L'ANSE 17.8 SE, MI","Latitude":"46.55730","Longitude":"-88.20770","Snowdepth":"29.500","Units":"in","Rept_Date":"2020-03-26 13"},"coordinates":[2119,4700]},{"type":"Point","properties":{"Station_ID":"MQT","Station_Nam":"MARQUETTE, MI","Latitude":"46.53140","Longitude":"-87.54920","Snowdepth":"29.000","Units":"in","Rept_Date":"2020-03-27 06"},"coordinates":[2274,4673]},{"type":"Point","properties":{"Station_ID":"CAN-QC-47","Station_Nam":"SAINTE-FOY 1.8 ENE, CAN","Latitude":"46.76934","Longitude":"-71.27124","Snowdepth":"28.700","Units":"in","Rept_Date":"2020-03-26 12"},"coordinates":[6094,4917]},{"type":"Point","properties":{"Station_ID":"TRIQ6","Station_Nam":"TRIO LAKE","Latitude":"49.22880","Longitude":"-87.22920","Snowdepth":"28.230","Units":"in","Rept_Date":"2020-03-27 06"},"coordinates":[2349,7438]},{"type":"Point","properties":{"Station_ID":"CAN-NB-13","Station_Nam":"BATHURST 3.8 NW, CAN","Latitude":"47.64212","Longitude":"-65.68756","Snowdepth":"28.000","Units":"in","Rept_Date":"2020-03-26 09"},"coordinates":[7405,5812]},{"type":"Point","properties":{"Station_ID":"AUDQ6","Station_Nam":"AUDEN","Latitude":"48.52600","Longitude":"-82.57570","Snowdepth":"27.320","Units":"in","Rept_Date":"2020-03-27 06"},"coordinates":[3441,6718]},{"type":"Point","properties":{"Station_ID":"STEM4","Station_Nam":"STEUBEN","Latitude":"46.18530","Longitude":"-86.46410","Snowdepth":"27.000","Units":"in","Rept_Date":"2020-03-26 13"},"coordinates":[2529,4318]},{"type":"Point","properties":{"Station_ID":"HERM4","Station_Nam":"HERMAN,MI","Latitude":"46.65000","Longitude":"-88.33330","Snowdepth":"27.000","Units":"in","Rept_Date":"2020-03-26 14"},"coordinates":[2090,4795]},{"type":"Point","properties":{"Station_ID":"CAN-NB-11","Station_Nam":"MIRAMICHI 3.3 S, CAN","Latitude":"46.99343","Longitude":"-65.50690","Snowdepth":"27.000","Units":"in","Rept_Date":"2020-03-26 09"},"coordinates":[7447,5147]},{"type":"Point","properties":{"Station_ID":"VANM1","Station_Nam":"VAN BUREN","Latitude":"47.16600","Longitude":"-67.93900","Snowdepth":"26.000","Units":"in","Rept_Date":"2020-03-26 12"},"coordinates":[6876,5324]},{"type":"Point","properties":{"Station_ID":"IBLM5","Station_Nam":"ISABELLA 14W","Latitude":"47.59360","Longitude":"-91.65140","Snowdepth":"26.000","Units":"in","Rept_Date":"2020-03-26 14"},"coordinates":[1311,5762]},{"type":"Point","properties":{"Station_ID":"CAR","Station_Nam":"CARIBOU, ME","Latitude":"46.86830","Longitude":"-68.01360","Snowdepth":"26.000","Units":"in","Rept_Date":"2020-03-26 12"},"coordinates":[6859,5019]},{"type":"Point","properties":{"Station_ID":"SVBQ6","Station_Nam":"SAVANT BASE","Latitude":"50.28730","Longitude":"-90.65670","Snowdepth":"25.000","Units":"in","Rept_Date":"2020-03-27 06"},"coordinates":[1545,8523]},{"type":"Point","properties":{"Station_ID":"FISM1","Station_Nam":"FORT KENT COOP","Latitude":"47.23850","Longitude":"-68.61240","Snowdepth":"25.000","Units":"in","Rept_Date":"2020-03-26 11"},"coordinates":[6718,5398]},{"type":"Point","properties":{"Station_ID":"CARM1","Station_Nam":"CARIBOU WFO","Latitude":"46.86810","Longitude":"-68.01250","Snowdepth":"24.000","Units":"in","Rept_Date":"2020-03-27 04"},"coordinates":[6859,5018]},{"type":"Point","properties":{"Station_ID":"MI-HG-6","Station_Nam":"CALUMET 5.8 ENE, MI","Latitude":"47.27200","Longitude":"-88.33400","Snowdepth":"23.000","Units":"in","Rept_Date":"2020-03-26 11"},"coordinates":[2090,5432]},{"type":"Point","properties":{"Station_ID":"MI-HG-1","Station_Nam":"HOUGHTON 1.6 ESE, MI","Latitude":"47.10774","Longitude":"-88.52940","Snowdepth":"21.500","Units":"in","Rept_Date":"2020-03-26 13"},"coordinates":[2044,5264]},{"type":"Point","properties":{"Station_ID":"WRPW3","Station_Nam":"WATER PURIFICATION PLANT","Latitude":"44.38800","Longitude":"-89.80550","Snowdepth":"21.000","Units":"in","Rept_Date":"2020-03-26 11"},"coordinates":[1744,2476]},{"type":"Point","properties":{"Station_ID":"CAN-NB-96","Station_Nam":"SAINT-IGNACE 2.6 NE, CAN","Latitude":"46.71424","Longitude":"-65.05609","Snowdepth":"20.900","Units":"in","Rept_Date":"2020-03-26 11"},"coordinates":[7553,4861]},{"type":"Point","properties":{"Station_ID":"SOCQ6","Station_Nam":"SOCKET LAKE","Latitude":"50.77870","Longitude":"-91.79300","Snowdepth":"20.160","Units":"in","Rept_Date":"2020-03-27 06"},"coordinates":[1278,9027]},{"type":"Point","properties":{"Station_ID":"KABQ6","Station_Nam":"CAB LAKE","Latitude":"49.59950","Longitude":"-89.17990","Snowdepth":"19.410","Units":"in","Rept_Date":"2020-03-27 06"},"coordinates":[1891,7818]},{"type":"Point","properties":{"Station_ID":"VT-CL-3","Station_Nam":"GROTON 4.4 WSW, VT","Latitude":"44.19440","Longitude":"-72.28240","Snowdepth":"19.300","Units":"in","Rept_Date":"2020-03-26 11"},"coordinates":[5857,2278]},{"type":"Point","properties":{"Station_ID":"WI-VL-9","Station_Nam":"LAND O' LAKES 11.7 W, WI","Latitude":"46.19023","Longitude":"-89.45790","Snowdepth":"19.000","Units":"in","Rept_Date":"2020-03-26 13"},"coordinates":[1826,4323]},{"type":"Point","properties":{"Station_ID":"WI-VL-10","Station_Nam":"LAND O LAKES 4.3 WNW, WI","Latitude":"46.17440","Longitude":"-89.30380","Snowdepth":"19.000","Units":"in","Rept_Date":"2020-03-26 13"},"coordinates":[1862,4307]},{"type":"Point","properties":{"Station_ID":"RGNM1","Station_Nam":"RANGELEY 2NW","Latitude":"44.98940","Longitude":"-70.67220","Snowdepth":"19.000","Units":"in","Rept_Date":"2020-03-26 10"},"coordinates":[6235,3093]},{"type":"Point","properties":{"Station_ID":"MN-IT-10","Station_Nam":"DEER RIVER 3.7 W, MN","Latitude":"47.33564","Longitude":"-93.87514","Snowdepth":"19.000","Units":"in","Rept_Date":"2020-03-26 14"},"coordinates":[789,5498]},{"type":"Point","properties":{"Station_ID":"LNOW3","Station_Nam":"LAND O LAKES","Latitude":"46.19000","Longitude":"-89.45700","Snowdepth":"19.000","Units":"in","Rept_Date":"2020-03-26 12"},"coordinates":[1826,4323]},{"type":"Point","properties":{"Station_ID":"CRVW3","Station_Nam":"CRIVITZ HIGH FALLS","Latitude":"45.35750","Longitude":"-88.19190","Snowdepth":"19.000","Units":"in","Rept_Date":"2020-03-26 12"},"coordinates":[2123,3470]},{"type":"Point","properties":{"Station_ID":"CATQ6","Station_Nam":"CAT LAKE","Latitude":"51.72690","Longitude":"-91.82210","Snowdepth":"18.620","Units":"in","Rept_Date":"2020-03-27 06"},"coordinates":[1271,9999]},{"type":"Point","properties":{"Station_ID":"NWCM4","Station_Nam":"NEWBERRY CITY","Latitude":"46.35720","Longitude":"-85.51780","Snowdepth":"18.000","Units":"in","Rept_Date":"2020-03-26 11"},"coordinates":[2751,4495]},{"type":"Point","properties":{"Station_ID":"NH-CS-10","Station_Nam":"RANDOLPH 1.4 NE, NH","Latitude":"44.38824","Longitude":"-71.26950","Snowdepth":"18.000","Units":"in","Rept_Date":"2020-03-26 12"},"coordinates":[6095,2476]},{"type":"Point","properties":{"Station_ID":"MN-IT-23","Station_Nam":"BOVEY 13.4 N, MN","Latitude":"47.48855","Longitude":"-93.43497","Snowdepth":"18.000","Units":"in","Rept_Date":"2020-03-26 13"},"coordinates":[893,5654]},{"type":"Point","properties":{"Station_ID":"MI-MQ-19","Station_Nam":"ISHPEMING 7.2 SW, MI","Latitude":"46.40550","Longitude":"-87.75670","Snowdepth":"18.000","Units":"in","Rept_Date":"2020-03-26 11"},"coordinates":[2225,4544]},{"type":"Point","properties":{"Station_ID":"ME-AR-15","Station_Nam":"PRESQUE ISLE 1.3 WSW, ME","Latitude":"46.67960","Longitude":"-68.01270","Snowdepth":"18.000","Units":"in","Rept_Date":"2020-03-26 12"},"coordinates":[6859,4825]},{"type":"Point","properties":{"Station_ID":"DFXM1","Station_Nam":"DOVER-FOXCROFT","Latitude":"45.18720","Longitude":"-69.18350","Snowdepth":"18.000","Units":"in","Rept_Date":"2020-03-26 11"},"coordinates":[6584,3295]},{"type":"Point","properties":{"Station_ID":"CSLM5","Station_Nam":"CASS LAKE,MN","Latitude":"47.38470","Longitude":"-94.61470","Snowdepth":"18.000","Units":"in","Rept_Date":"2020-03-26 13"},"coordinates":[616,5548]},{"type":"Point","properties":{"Station_ID":"BABM5","Station_Nam":"BABBITT","Latitude":"47.71210","Longitude":"-91.95330","Snowdepth":"18.000","Units":"in","Rept_Date":"2020-03-26 12"},"coordinates":[1240,5884]},{"type":"Point","properties":{"Station_ID":"CAN-NS-60","Station_Nam":"SYDNEY FORKS, CAN","Latitude":"46.05645","Longitude":"-60.31510","Snowdepth":"17.500","Units":"in","Rept_Date":"2020-03-26 12"},"coordinates":[8666,4186]},{"type":"Point","properties":{"Station_ID":"SUAW3","Station_Nam":"SUAMICO","Latitude":"44.60190","Longitude":"-88.09780","Snowdepth":"17.000","Units":"in","Rept_Date":"2020-03-26 11"},"coordinates":[2145,2695]},{"type":"Point","properties":{"Station_ID":"PDGM4","Station_Nam":"PAULDING","Latitude":"46.39760","Longitude":"-89.17940","Snowdepth":"17.000","Units":"in","Rept_Date":"2020-03-26 12"},"coordinates":[1891,4536]},{"type":"Point","properties":{"Station_ID":"NOHM5","Station_Nam":"NORTHOME","Latitude":"47.83590","Longitude":"-94.25550","Snowdepth":"17.000","Units":"in","Rept_Date":"2020-03-26 12"},"coordinates":[700,6010]},{"type":"Point","properties":{"Station_ID":"EVRW3","Station_Nam":"EAGLE RIVER-4 E","Latitude":"45.91890","Longitude":"-89.15280","Snowdepth":"17.000","Units":"in","Rept_Date":"2020-03-26 12"},"coordinates":[1898,4045]},{"type":"Point","properties":{"Station_ID":"MN-IT-17","Station_Nam":"GRAND RAPIDS 6.1 N, MN","Latitude":"47.31165","Longitude":"-93.55036","Snowdepth":"16.500","Units":"in","Rept_Date":"2020-03-26 13"},"coordinates":[866,5473]},{"type":"Point","properties":{"Station_ID":"STGW3","Station_Nam":"ST GERMAIN","Latitude":"45.91550","Longitude":"-89.48940","Snowdepth":"16.000","Units":"in","Rept_Date":"2020-03-26 11"},"coordinates":[1819,4042]},{"type":"Point","properties":{"Station_ID":"SSMM4","Station_Nam":"SAULT STE MARIE","Latitude":"46.48660","Longitude":"-84.40250","Snowdepth":"16.000","Units":"in","Rept_Date":"2020-03-26 12"},"coordinates":[3013,4627]},{"type":"Point","properties":{"Station_ID":"RLWM5","Station_Nam":"CAMP NORRIS DNR","Latitude":"48.61000","Longitude":"-95.18170","Snowdepth":"16.000","Units":"in","Rept_Date":"2020-03-26 13"},"coordinates":[483,6804]},{"type":"Point","properties":{"Station_ID":"MI-GG-4","Station_Nam":"WATERSMEET 5.0 SE, MI","Latitude":"46.20333","Longitude":"-89.13170","Snowdepth":"16.000","Units":"in","Rept_Date":"2020-03-26 14"},"coordinates":[1903,4337]},{"type":"Point","properties":{"Station_ID":"LVDW3","Station_Nam":"LAC VIEUX DESERT","Latitude":"46.12110","Longitude":"-89.07580","Snowdepth":"16.000","Units":"in","Rept_Date":"2020-03-26 14"},"coordinates":[1916,4253]},{"type":"Point","properties":{"Station_ID":"IWOM4","Station_Nam":"IRONWOOD#2","Latitude":"46.46520","Longitude":"-90.13820","Snowdepth":"16.000","Units":"in","Rept_Date":"2020-03-26 12"},"coordinates":[1666,4605]},{"type":"Point","properties":{"Station_ID":"GLDM4","Station_Nam":"GLADSTONE NO. 2","Latitude":"45.84330","Longitude":"-87.03910","Snowdepth":"16.000","Units":"in","Rept_Date":"2020-03-26 11"},"coordinates":[2394,3968]},{"type":"Point","properties":{"Station_ID":"GHMN3","Station_Nam":"PINKHAM NOTCH","Latitude":"44.25800","Longitude":"-71.25250","Snowdepth":"16.000","Units":"in","Rept_Date":"2020-03-26 10"},"coordinates":[6099,2343]},{"type":"Point","properties":{"Station_ID":"BRDM1","Station_Nam":"BRIDGEWATER","Latitude":"46.42870","Longitude":"-67.84370","Snowdepth":"16.000","Units":"in","Rept_Date":"2020-03-26 22"},"coordinates":[6899,4568]},{"type":"Point","properties":{"Station_ID":"BBEM4","Station_Nam":"BIG BAY 9SW","Latitude":"46.74620","Longitude":"-87.88160","Snowdepth":"16.000","Units":"in","Rept_Date":"2020-03-26 11"},"coordinates":[2196,4893]},{"type":"Point","properties":{"Station_ID":"ANJM4","Station_Nam":"SNOW PAID OBSERVER FOR KANJ","Latitude":"46.48670","Longitude":"-84.40260","Snowdepth":"16.000","Units":"in","Rept_Date":"2020-03-26 18"},"coordinates":[3013,4627]},{"type":"Point","properties":{"Station_ID":"ANJ","Station_Nam":"SAULT STE MARIE","Latitude":"46.46670","Longitude":"-84.36670","Snowdepth":"16.000","Units":"in","Rept_Date":"2020-03-27 00"},"coordinates":[3021,4607]},{"type":"Point","properties":{"Station_ID":"WI-VL-14","Station_Nam":"BOULDER JUNCTION 1.4 NE, WI","Latitude":"46.12840","Longitude":"-89.62470","Snowdepth":"15.500","Units":"in","Rept_Date":"2020-03-26 13"},"coordinates":[1787,4260]},{"type":"Point","properties":{"Station_ID":"MI-SH-1","Station_Nam":"MANISTIQUE 2.7 NW, MI","Latitude":"45.99042","Longitude":"-86.28266","Snowdepth":"15.300","Units":"in","Rept_Date":"2020-03-26 11"},"coordinates":[2571,4119]},{"type":"Point","properties":{"Station_ID":"MIEM4","Station_Nam":"MICHIGAMME 3WNW","Latitude":"46.54530","Longitude":"-88.18000","Snowdepth":"15.000","Units":"in","Rept_Date":"2020-03-26 12"},"coordinates":[2126,4687]},{"type":"Point","properties":{"Station_ID":"LILM1","Station_Nam":"LILLE","Latitude":"47.27770","Longitude":"-68.10520","Snowdepth":"15.000","Units":"in","Rept_Date":"2020-03-26 11"},"coordinates":[6837,5438]},{"type":"Point","properties":{"Station_ID":"KABM5","Station_Nam":"KABETOGAMA LAKE VISITOR CTR","Latitude":"48.40880","Longitude":"-93.04840","Snowdepth":"15.000","Units":"in","Rept_Date":"2020-03-26 12"},"coordinates":[983,6598]},{"type":"Point","properties":{"Station_ID":"INL","Station_Nam":"FALLS INTERNATIONAL ARPT","Latitude":"48.56640","Longitude":"-93.40310","Snowdepth":"15.000","Units":"in","Rept_Date":"2020-03-27 00"},"coordinates":[900,6759]},{"type":"Point","properties":{"Station_ID":"IFSM5","Station_Nam":"INTERNATIONAL FALLS SNOW","Latitude":"48.57780","Longitude":"-93.39640","Snowdepth":"15.000","Units":"in","Rept_Date":"2020-03-26 12"},"coordinates":[902,6771]},{"type":"Point","properties":{"Station_ID":"EMBM5","Station_Nam":"EMBARASS,MN","Latitude":"47.65810","Longitude":"-92.19580","Snowdepth":"15.000","Units":"in","Rept_Date":"2020-03-26 11"},"coordinates":[1184,5828]},{"type":"Point","properties":{"Station_ID":"ELYM5","Station_Nam":"ELY","Latitude":"47.90560","Longitude":"-91.82830","Snowdepth":"15.000","Units":"in","Rept_Date":"2020-03-26 13"},"coordinates":[1270,6082]},{"type":"Point","properties":{"Station_ID":"CRLM5","Station_Nam":"CROSS LAKE DAM","Latitude":"46.66930","Longitude":"-94.11060","Snowdepth":"15.000","Units":"in","Rept_Date":"2020-03-26 13"},"coordinates":[734,4815]},{"type":"Point","properties":{"Station_ID":"CAN-NS-103","Station_Nam":"TRAFALGAR 4.9 WSW, CAN","Latitude":"45.26217","Longitude":"-62.72285","Snowdepth":"15.000","Units":"in","Rept_Date":"2020-03-26 12"},"coordinates":[8101,3372]},{"type":"Point","properties":{"Station_ID":"WTNM4","Station_Nam":"WATTON 2WSW","Latitude":"46.52660","Longitude":"-88.64240","Snowdepth":"14.000","Units":"in","Rept_Date":"2020-03-26 12"},"coordinates":[2017,4668]},{"type":"Point","properties":{"Station_ID":"WNBM5","Station_Nam":"DAM","Latitude":"47.43060","Longitude":"-94.05000","Snowdepth":"14.000","Units":"in","Rept_Date":"2020-03-26 13"},"coordinates":[748,5595]},{"type":"Point","properties":{"Station_ID":"TOGM5","Station_Nam":"CELINA 2E","Latitude":"47.86630","Longitude":"-93.02660","Snowdepth":"14.000","Units":"in","Rept_Date":"2020-03-26 13"},"coordinates":[989,6042]},{"type":"Point","properties":{"Station_ID":"RANM1","Station_Nam":"RANGELEY","Latitude":"44.98910","Longitude":"-70.67190","Snowdepth":"14.000","Units":"in","Rept_Date":"2020-03-26 10"},"coordinates":[6235,3092]},{"type":"Point","properties":{"Station_ID":"MNV905PW","Station_Nam":"ROOSEVELT 5.3 N","Latitude":"48.87933","Longitude":"-95.08224","Snowdepth":"14.000","Units":"in","Rept_Date":"2020-03-26 12"},"coordinates":[506,7080]},{"type":"Point","properties":{"Station_ID":"MI-CP-14","Station_Nam":"SAULT STE. MARIE 2.2 E, MI","Latitude":"46.48933","Longitude":"-84.31971","Snowdepth":"14.000","Units":"in","Rept_Date":"2020-03-26 11"},"coordinates":[3032,4630]},{"type":"Point","properties":{"Station_ID":"LEIM5","Station_Nam":"ORR 3E","Latitude":"48.05810","Longitude":"-92.75220","Snowdepth":"14.000","Units":"in","Rept_Date":"2020-03-26 11"},"coordinates":[1053,6238]},{"type":"Point","properties":{"Station_ID":"GGRM4","Station_Nam":"GREEN GARDEN NO.2","Latitude":"46.45330","Longitude":"-87.30380","Snowdepth":"14.000","Units":"in","Rept_Date":"2020-03-26 09"},"coordinates":[2332,4593]},{"type":"Point","properties":{"Station_ID":"ELVM5","Station_Nam":"EVELETH,MN","Latitude":"47.46670","Longitude":"-92.56670","Snowdepth":"14.000","Units":"in","Rept_Date":"2020-03-26 12"},"coordinates":[1096,5632]},{"type":"Point","properties":{"Station_ID":"COKM5","Station_Nam":"COOK","Latitude":"47.85060","Longitude":"-92.69250","Snowdepth":"14.000","Units":"in","Rept_Date":"2020-03-26 11"},"coordinates":[1067,6026]},{"type":"Point","properties":{"Station_ID":"CAN-PE-19","Station_Nam":"CHARLOTTETOWN 6.5 NNW, CAN","Latitude":"46.29235","Longitude":"-63.17271","Snowdepth":"13.400","Units":"in","Rept_Date":"2020-03-26 12"},"coordinates":[7995,4428]},{"type":"Point","properties":{"Station_ID":"WI-IR-3","Station_Nam":"PENCE 0.1 E, WI","Latitude":"46.41555","Longitude":"-90.27013","Snowdepth":"13.000","Units":"in","Rept_Date":"2020-03-26 13"},"coordinates":[1635,4554]},{"type":"Point","properties":{"Station_ID":"VT-ES-1","Station_Nam":"GRANBY 1.4 NW, VT","Latitude":"44.58330","Longitude":"-71.77870","Snowdepth":"13.000","Units":"in","Rept_Date":"2020-03-26 14"},"coordinates":[5975,2676]},{"type":"Point","properties":{"Station_ID":"SUTV1","Station_Nam":"SUTTON","Latitude":"44.61220","Longitude":"-72.04810","Snowdepth":"13.000","Units":"in","Rept_Date":"2020-03-26 12"},"coordinates":[5912,2706]},{"type":"Point","properties":{"Station_ID":"PRDM4","Station_Nam":"PARADISE","Latitude":"46.60380","Longitude":"-85.03960","Snowdepth":"13.000","Units":"in","Rept_Date":"2020-03-26 10"},"coordinates":[2863,4747]},{"type":"Point","properties":{"Station_ID":"MN-CK-6","Station_Nam":"GRAND MARAIS 4.4 W, MN","Latitude":"47.74865","Longitude":"-90.43760","Snowdepth":"13.000","Units":"in","Rept_Date":"2020-03-26 13"},"coordinates":[1596,5921]},{"type":"Point","properties":{"Station_ID":"ME-FR-4","Station_Nam":"NEW SHARON 2.0 NW, ME","Latitude":"44.66582","Longitude":"-70.02720","Snowdepth":"13.000","Units":"in","Rept_Date":"2020-03-26 12"},"coordinates":[6386,2761]},{"type":"Point","properties":{"Station_ID":"JCBM4","Station_Nam":"JACOBSVILLE","Latitude":"47.00830","Longitude":"-88.43180","Snowdepth":"13.000","Units":"in","Rept_Date":"2020-03-26 11"},"coordinates":[2067,5162]},{"type":"Point","properties":{"Station_ID":"CLKM4","Station_Nam":"CLARKSBURG","Latitude":"46.49910","Longitude":"-87.84500","Snowdepth":"13.000","Units":"in","Rept_Date":"2020-03-26 11"},"coordinates":[2205,4640]},{"type":"Point","properties":{"Station_ID":"AVTW3","Station_Nam":"ARBOR VITAE-JOHNSON LAKE","Latitude":"45.89940","Longitude":"-89.72670","Snowdepth":"13.000","Units":"in","Rept_Date":"2020-03-26 11"},"coordinates":[1763,4025]},{"type":"Point","properties":{"Station_ID":"AMAM4","Station_Nam":"AMASA 1W","Latitude":"46.23470","Longitude":"-88.45440","Snowdepth":"13.000","Units":"in","Rept_Date":"2020-03-26 13"},"coordinates":[2062,4369]},{"type":"Point","properties":{"Station_ID":"FTHQ6","Station_Nam":"FORT HOPE","Latitude":"51.55820","Longitude":"-87.90510","Snowdepth":"12.910","Units":"in","Rept_Date":"2020-03-27 06"},"coordinates":[2191,9826]},{"type":"Point","properties":{"Station_ID":"WI-BY-14","Station_Nam":"ASHLAND 9.8 W, WI","Latitude":"46.59742","Longitude":"-91.07856","Snowdepth":"12.500","Units":"in","Rept_Date":"2020-03-26 12"},"coordinates":[1446,4741]},{"type":"Point","properties":{"Station_ID":"MN-IT-1","Station_Nam":"GRAND RAPIDS 2.0 E, MN","Latitude":"47.22266","Longitude":"-93.49600","Snowdepth":"12.500","Units":"in","Rept_Date":"2020-03-26 12"},"coordinates":[878,5382]},{"type":"Point","properties":{"Station_ID":"MN-IT-7","Station_Nam":"GRAND RAPIDS 6.2 SSW, MN","Latitude":"47.13687","Longitude":"-93.56660","Snowdepth":"12.300","Units":"in","Rept_Date":"2020-03-26 12"},"coordinates":[862,5294]},{"type":"Point","properties":{"Station_ID":"WI-ON-8","Station_Nam":"HAZELHURST 2.1 SSE, WI","Latitude":"45.78186","Longitude":"-89.70330","Snowdepth":"12.000","Units":"in","Rept_Date":"2020-03-26 13"},"coordinates":[1768,3905]},{"type":"Point","properties":{"Station_ID":"WI-OC-1","Station_Nam":"MOUNTAIN 1.1 SW, WI","Latitude":"45.17239","Longitude":"-88.48990","Snowdepth":"12.000","Units":"in","Rept_Date":"2020-03-26 13"},"coordinates":[2053,3280]},{"type":"Point","properties":{"Station_ID":"WI-BY-2","Station_Nam":"MELLEN 18.6 SW, WI","Latitude":"46.16937","Longitude":"-90.98090","Snowdepth":"12.000","Units":"in","Rept_Date":"2020-03-26 13"},"coordinates":[1469,4302]},{"type":"Point","properties":{"Station_ID":"VT-ES-3","Station_Nam":"LUNENBURG 2.3 NNW, VT","Latitude":"44.49324","Longitude":"-71.70446","Snowdepth":"12.000","Units":"in","Rept_Date":"2020-03-26 12"},"coordinates":[5993,2584]},{"type":"Point","properties":{"Station_ID":"VT-BN-12","Station_Nam":"STAMFORD 5.0 NNE, VT","Latitude":"42.82000","Longitude":"-73.02000","Snowdepth":"12.000","Units":"in","Rept_Date":"2020-03-26 21"},"coordinates":[5684,869]},{"type":"Point","properties":{"Station_ID":"PHEW3","Station_Nam":"PHELPS","Latitude":"46.06630","Longitude":"-89.07520","Snowdepth":"12.000","Units":"in","Rept_Date":"2020-03-26 12"},"coordinates":[1916,4196]},{"type":"Point","properties":{"Station_ID":"MWN","Station_Nam":"MOUNT WASHINGTON","Latitude":"44.26670","Longitude":"-71.30000","Snowdepth":"12.000","Units":"in","Rept_Date":"2020-03-26 12"},"coordinates":[6088,2352]},{"type":"Point","properties":{"Station_ID":"MOUW3","Station_Nam":"MOUNTAIN 1 SW","Latitude":"45.17220","Longitude":"-88.49390","Snowdepth":"12.000","Units":"in","Rept_Date":"2020-03-26 12"},"coordinates":[2052,3280]},{"type":"Point","properties":{"Station_ID":"MN-SL-15","Station_Nam":"CHISHOLM 0.4 WSW, MN","Latitude":"47.48557","Longitude":"-92.88690","Snowdepth":"12.000","Units":"in","Rept_Date":"2020-03-26 12"},"coordinates":[1021,5651]},{"type":"Point","properties":{"Station_ID":"KMWN","Station_Nam":"MOUNT WASHINGTON","Latitude":"44.26666","Longitude":"-71.30000","Snowdepth":"12.000","Units":"in","Rept_Date":"2020-03-27 06"},"coordinates":[6088,2352]},{"type":"Point","properties":{"Station_ID":"KINM1","Station_Nam":"KINGFIELD","Latitude":"44.95950","Longitude":"-70.17530","Snowdepth":"12.000","Units":"in","Rept_Date":"2020-03-26 11"},"coordinates":[6352,3062]},{"type":"Point","properties":{"Station_ID":"JKMM1","Station_Nam":"JACKMAN","Latitude":"45.62600","Longitude":"-70.24600","Snowdepth":"12.000","Units":"in","Rept_Date":"2020-03-26 11"},"coordinates":[6335,3745]},{"type":"Point","properties":{"Station_ID":"INDM5","Station_Nam":"INDUS,MN","Latitude":"48.61670","Longitude":"-93.90000","Snowdepth":"12.000","Units":"in","Rept_Date":"2020-03-26 13"},"coordinates":[784,6811]},{"type":"Point","properties":{"Station_ID":"HURW3","Station_Nam":"HURLEY","Latitude":"46.46250","Longitude":"-90.19550","Snowdepth":"12.000","Units":"in","Rept_Date":"2020-03-26 13"},"coordinates":[1653,4603]},{"type":"Point","properties":{"Station_ID":"FEDM5","Station_Nam":"LEECH LAKE DAM","Latitude":"47.24670","Longitude":"-94.22280","Snowdepth":"12.000","Units":"in","Rept_Date":"2020-03-26 13"},"coordinates":[708,5406]},{"type":"Point","properties":{"Station_ID":"CORV1","Station_Nam":"CORINTH","Latitude":"44.00690","Longitude":"-72.31940","Snowdepth":"12.000","Units":"in","Rept_Date":"2020-03-26 11"},"coordinates":[5848,2085]},{"type":"Point","properties":{"Station_ID":"CMKW3","Station_Nam":"CLAM LAKE 4W","Latitude":"46.16940","Longitude":"-90.98080","Snowdepth":"12.000","Units":"in","Rept_Date":"2020-03-26 12"},"coordinates":[1469,4302]},{"type":"Point","properties":{"Station_ID":"CAN-NB-2","Station_Nam":"GRAFTON 2.7 NNE, CA","Latitude":"46.17062","Longitude":"-67.55330","Snowdepth":"12.000","Units":"in","Rept_Date":"2020-03-26 11"},"coordinates":[6967,4303]},{"type":"Point","properties":{"Station_ID":"CAN-MB-32","Station_Nam":"PINAWA 1.0 SW, CA","Latitude":"50.14747","Longitude":"-95.89020","Snowdepth":"12.000","Units":"in","Rept_Date":"2020-03-26 13"},"coordinates":[316,8380]},{"type":"Point","properties":{"Station_ID":"BNDM5","Station_Nam":"ELY 25E","Latitude":"47.97190","Longitude":"-91.44860","Snowdepth":"12.000","Units":"in","Rept_Date":"2020-03-26 12"},"coordinates":[1359,6150]},{"type":"Point","properties":{"Station_ID":"CAN-MB-298","Station_Nam":"GARDENTON 4.2 W - SRRCD, CAN","Latitude":"49.09480","Longitude":"-96.75446","Snowdepth":"11.800","Units":"in","Rept_Date":"2020-03-26 14"},"coordinates":[114,7301]},{"type":"Point","properties":{"Station_ID":"PTBN3","Station_Nam":"PITTSBURG RESERVOIR","Latitude":"45.04690","Longitude":"-71.38300","Snowdepth":"11.000","Units":"in","Rept_Date":"2020-03-26 12"},"coordinates":[6068,3151]},{"type":"Point","properties":{"Station_ID":"IRMM4","Station_Nam":"WWTP","Latitude":"46.46670","Longitude":"-90.18330","Snowdepth":"11.000","Units":"in","Rept_Date":"2020-03-26 12"},"coordinates":[1656,4607]},{"type":"Point","properties":{"Station_ID":"MN-SL-108","Station_Nam":"IRON JUNCTION 3.4 NNW, MN","Latitude":"47.46150","Longitude":"-92.63130","Snowdepth":"10.500","Units":"in","Rept_Date":"2020-03-26 13"},"coordinates":[1081,5627]},{"type":"Point","properties":{"Station_ID":"CAN-NB-64","Station_Nam":"KESWICK RIDGE 4.0 SE, CAN","Latitude":"45.97014","Longitude":"-66.85538","Snowdepth":"10.500","Units":"in","Rept_Date":"2020-03-26 13"},"coordinates":[7131,4098]},{"type":"Point","properties":{"Station_ID":"CAN-ON-526","Station_Nam":"HILTON BEACH 0.7 SW - MNRF, CAN","Latitude":"46.25357","Longitude":"-83.90014","Snowdepth":"10.200","Units":"in","Rept_Date":"2020-03-26 12"},"coordinates":[3130,4388]},{"type":"Point","properties":{"Station_ID":"CAN-ON-757","Station_Nam":"SAULT STE. MARIE 2.8 ESE - GLFC, CAN","Latitude":"46.50300","Longitude":"-84.30300","Snowdepth":"10.100","Units":"in","Rept_Date":"2020-03-26 13"},"coordinates":[3036,4644]},{"type":"Point","properties":{"Station_ID":"WRUM5","Station_Nam":"WARROAD 4W","Latitude":"48.89600","Longitude":"-95.40700","Snowdepth":"10.000","Units":"in","Rept_Date":"2020-03-27 03"},"coordinates":[430,7097]},{"type":"Point","properties":{"Station_ID":"WRSM5","Station_Nam":"WRENSHALL","Latitude":"46.61550","Longitude":"-92.38380","Snowdepth":"10.000","Units":"in","Rept_Date":"2020-03-26 13"},"coordinates":[1139,4759]},{"type":"Point","properties":{"Station_ID":"WI-BY-1","Station_Nam":"BAYFIELD 8.8 N, WI","Latitude":"46.93855","Longitude":"-90.83490","Snowdepth":"10.000","Units":"in","Rept_Date":"2020-03-26 13"},"coordinates":[1503,5091]},{"type":"Point","properties":{"Station_ID":"PRNW3","Station_Nam":"PRENTICE,WI","Latitude":"45.54780","Longitude":"-90.30000","Snowdepth":"10.000","Units":"in","Rept_Date":"2020-03-26 13"},"coordinates":[1628,3665]},{"type":"Point","properties":{"Station_ID":"PKGM5","Station_Nam":"POKEGANA LK DAM","Latitude":"47.25080","Longitude":"-93.58610","Snowdepth":"10.000","Units":"in","Rept_Date":"2020-03-26 13"},"coordinates":[857,5411]},{"type":"Point","properties":{"Station_ID":"ME-OX-2","Station_Nam":"HARTFORD 1.4 N, ME","Latitude":"44.39318","Longitude":"-70.34760","Snowdepth":"10.000","Units":"in","Rept_Date":"2020-03-26 12"},"coordinates":[6311,2481]},{"type":"Point","properties":{"Station_ID":"LPLN6","Station_Nam":"LAKE PLACID 2 S","Latitude":"44.30420","Longitude":"-73.98390","Snowdepth":"10.000","Units":"in","Rept_Date":"2020-03-26 12"},"coordinates":[5458,2390]},{"type":"Point","properties":{"Station_ID":"INDN6","Station_Nam":"INDIAN LAKE","Latitude":"43.75500","Longitude":"-74.27560","Snowdepth":"10.000","Units":"in","Rept_Date":"2020-03-26 12"},"coordinates":[5389,1827]},{"type":"Point","properties":{"Station_ID":"IMNM4","Station_Nam":"IRON MOUTAIN 5N","Latitude":"45.87580","Longitude":"-88.04030","Snowdepth":"10.000","Units":"in","Rept_Date":"2020-03-27 00"},"coordinates":[2159,4001]},{"type":"Point","properties":{"Station_ID":"FLNW3","Station_Nam":"FLORENCE","Latitude":"45.93360","Longitude":"-88.25830","Snowdepth":"10.000","Units":"in","Rept_Date":"2020-03-26 12"},"coordinates":[2108,4060]},{"type":"Point","properties":{"Station_ID":"DLHM5","Station_Nam":"DULUTH NWS","Latitude":"46.83680","Longitude":"-92.21080","Snowdepth":"10.000","Units":"in","Rept_Date":"2020-03-27 06"},"coordinates":[1180,4986]},{"type":"Point","properties":{"Station_ID":"DLH","Station_Nam":"DULUTH, MN","Latitude":"46.83690","Longitude":"-92.21030","Snowdepth":"10.000","Units":"in","Rept_Date":"2020-03-27 00"},"coordinates":[1180,4986]},{"type":"Point","properties":{"Station_ID":"CAN-PE-3","Station_Nam":"WELLINGTON 1.6 NE, CA","Latitude":"46.46672","Longitude":"-63.98920","Snowdepth":"10.000","Units":"in","Rept_Date":"2020-03-26 11"},"coordinates":[7803,4607]},{"type":"Point","properties":{"Station_ID":"AVLV1","Station_Nam":"AVERILL","Latitude":"45.00570","Longitude":"-71.69030","Snowdepth":"10.000","Units":"in","Rept_Date":"2020-03-26 12"},"coordinates":[5996,3109]},{"type":"Point","properties":{"Station_ID":"WTRM4","Station_Nam":"WATERSMEET 12WSW","Latitude":"46.22310","Longitude":"-89.40850","Snowdepth":"9.000","Units":"in","Rept_Date":"2020-03-26 11"},"coordinates":[1838,4357]},{"type":"Point","properties":{"Station_ID":"WI-ON-6","Station_Nam":"RHINELANDER 5.2 N, WI","Latitude":"45.71388","Longitude":"-89.42150","Snowdepth":"9.000","Units":"in","Rept_Date":"2020-03-26 14"},"coordinates":[1835,3835]},{"type":"Point","properties":{"Station_ID":"MWTM1","Station_Nam":"MILLINOCKET WWTP","Latitude":"45.64030","Longitude":"-68.67480","Snowdepth":"9.000","Units":"in","Rept_Date":"2020-03-26 10"},"coordinates":[6704,3760]},{"type":"Point","properties":{"Station_ID":"MN7M8EBJ","Station_Nam":"LUTSEN 15.7 NNW","Latitude":"47.85324","Longitude":"-89.92908","Snowdepth":"9.000","Units":"in","Rept_Date":"2020-03-26 13"},"coordinates":[1715,6028]},{"type":"Point","properties":{"Station_ID":"MI-DL-1","Station_Nam":"GARDEN CORNERS 0.8 NW, MI","Latitude":"45.89815","Longitude":"-86.54850","Snowdepth":"9.000","Units":"in","Rept_Date":"2020-03-26 13"},"coordinates":[2509,4024]},{"type":"Point","properties":{"Station_ID":"LBKV1","Station_Nam":"LYE BROOK","Latitude":"43.05000","Longitude":"-73.03330","Snowdepth":"9.000","Units":"in","Rept_Date":"2020-03-27 06"},"coordinates":[5681,1105]},{"type":"Point","properties":{"Station_ID":"GLRM5","Station_Nam":"GLACIAL RIDGE","Latitude":"47.71670","Longitude":"-96.26670","Snowdepth":"9.000","Units":"in","Rept_Date":"2020-03-27 06"},"coordinates":[228,5888]},{"type":"Point","properties":{"Station_ID":"GDCM4","Station_Nam":"GARDEN CORNERS","Latitude":"45.89830","Longitude":"-86.54850","Snowdepth":"9.000","Units":"in","Rept_Date":"2020-03-26 12"},"coordinates":[2509,4024]},{"type":"Point","properties":{"Station_ID":"COTM5","Station_Nam":"COTTON","Latitude":"47.16870","Longitude":"-92.46290","Snowdepth":"9.000","Units":"in","Rept_Date":"2020-03-26 11"},"coordinates":[1121,5327]},{"type":"Point","properties":{"Station_ID":"BTLN3","Station_Nam":"BARTLETT","Latitude":"44.08380","Longitude":"-71.29340","Snowdepth":"9.000","Units":"in","Rept_Date":"2020-03-26 11"},"coordinates":[6089,2164]},{"type":"Point","properties":{"Station_ID":"AGNW3","Station_Nam":"ARGONNE-1.5 NW","Latitude":"45.67360","Longitude":"-88.90380","Snowdepth":"9.000","Units":"in","Rept_Date":"2020-03-26 12"},"coordinates":[1956,3794]},{"type":"Point","properties":{"Station_ID":"CAN-NB-97","Station_Nam":"NEW MARYLAND 0.6 NW, CAN","Latitude":"45.90112","Longitude":"-66.68739","Snowdepth":"8.700","Units":"in","Rept_Date":"2020-03-26 11"},"coordinates":[7170,4027]},{"type":"Point","properties":{"Station_ID":"MN-BK-6","Station_Nam":"LAKE PARK 6.0 S, MN","Latitude":"46.79850","Longitude":"-96.12180","Snowdepth":"8.500","Units":"in","Rept_Date":"2020-03-26 13"},"coordinates":[262,4947]},{"type":"Point","properties":{"Station_ID":"ME-FR-22","Station_Nam":"FARMINGTON 4.8 NNW, ME","Latitude":"44.73396","Longitude":"-70.18007","Snowdepth":"8.500","Units":"in","Rept_Date":"2020-03-26 14"},"coordinates":[6350,2831]},{"type":"Point","properties":{"Station_ID":"CAN-PE-7","Station_Nam":"MORELL 1.4 NNW, CA","Latitude":"46.42741","Longitude":"-62.70870","Snowdepth":"8.500","Units":"in","Rept_Date":"2020-03-26 12"},"coordinates":[8104,4567]},{"type":"Point","properties":{"Station_ID":"ZNOM4","Station_Nam":"NORWAY","Latitude":"45.77810","Longitude":"-87.89560","Snowdepth":"8.000","Units":"in","Rept_Date":"2020-03-27 00"},"coordinates":[2193,3901]},{"type":"Point","properties":{"Station_ID":"WI-BY-22","Station_Nam":"MASON 11.5 WNW, WI","Latitude":"46.50198","Longitude":"-91.28339","Snowdepth":"8.000","Units":"in","Rept_Date":"2020-03-26 14"},"coordinates":[1398,4643]},{"type":"Point","properties":{"Station_ID":"VT-OL-9","Station_Nam":"GREENSBORO 2.1 NNW, VT","Latitude":"44.60528","Longitude":"-72.30940","Snowdepth":"8.000","Units":"in","Rept_Date":"2020-03-26 12"},"coordinates":[5851,2699]},{"type":"Point","properties":{"Station_ID":"TOPM1","Station_Nam":"TOPSFIELD","Latitude":"45.43470","Longitude":"-67.72020","Snowdepth":"8.000","Units":"in","Rept_Date":"2020-03-26 11"},"coordinates":[6928,3549]},{"type":"Point","properties":{"Station_ID":"NUMN3","Station_Nam":"NORTHUMBERLAND","Latitude":"44.52830","Longitude":"-71.50440","Snowdepth":"8.000","Units":"in","Rept_Date":"2020-03-26 12"},"coordinates":[6040,2620]},{"type":"Point","properties":{"Station_ID":"NH-GR-49","Station_Nam":"PLYMOUTH 3.7 N, NH","Latitude":"43.79048","Longitude":"-71.68413","Snowdepth":"8.000","Units":"in","Rept_Date":"2020-03-26 12"},"coordinates":[5997,1864]},{"type":"Point","properties":{"Station_ID":"NH-CS-4","Station_Nam":"PITTSBURG 6.1 NE, NH","Latitude":"45.11060","Longitude":"-71.29760","Snowdepth":"8.000","Units":"in","Rept_Date":"2020-03-26 12"},"coordinates":[6088,3217]},{"type":"Point","properties":{"Station_ID":"NH-CR-26","Station_Nam":"CENTER SANDWICH 4.9 E, NH","Latitude":"43.80976","Longitude":"-71.34150","Snowdepth":"8.000","Units":"in","Rept_Date":"2020-03-26 11"},"coordinates":[6078,1883]},{"type":"Point","properties":{"Station_ID":"MRAM4","Station_Nam":"MORAN","Latitude":"45.99030","Longitude":"-84.83610","Snowdepth":"8.000","Units":"in","Rept_Date":"2020-03-26 12"},"coordinates":[2911,4119]},{"type":"Point","properties":{"Station_ID":"MI-DL-4","Station_Nam":"GLADSTONE 2.1 SW, MI","Latitude":"45.83218","Longitude":"-87.05727","Snowdepth":"8.000","Units":"in","Rept_Date":"2020-03-26 12"},"coordinates":[2389,3956]},{"type":"Point","properties":{"Station_ID":"LNKM1","Station_Nam":"LINCOLN SANITARY DISTRICT/WTP","Latitude":"45.37520","Longitude":"-68.50820","Snowdepth":"8.000","Units":"in","Rept_Date":"2020-03-26 11"},"coordinates":[6743,3488]},{"type":"Point","properties":{"Station_ID":"LBRM5","Station_Nam":"LAKE BRONSON DAM","Latitude":"48.72410","Longitude":"-96.62180","Snowdepth":"8.000","Units":"in","Rept_Date":"2020-03-26 13"},"coordinates":[145,6921]},{"type":"Point","properties":{"Station_ID":"GRFN8","Station_Nam":"UNIVERSITY","Latitude":"47.93330","Longitude":"-97.08330","Snowdepth":"8.000","Units":"in","Rept_Date":"2020-03-27 05"},"coordinates":[36,6110]},{"type":"Point","properties":{"Station_ID":"GMRM5","Station_Nam":"GRAND MARIAS WATER TREATMENT PLANT","Latitude":"47.75180","Longitude":"-90.32820","Snowdepth":"8.000","Units":"in","Rept_Date":"2020-03-26 13"},"coordinates":[1622,5924]},{"type":"Point","properties":{"Station_ID":"ESDN3","Station_Nam":"EAST SANDWICH","Latitude":"43.80990","Longitude":"-71.34250","Snowdepth":"8.000","Units":"in","Rept_Date":"2020-03-26 10"},"coordinates":[6078,1883]},{"type":"Point","properties":{"Station_ID":"AURW3","Station_Nam":"AURORA","Latitude":"45.77000","Longitude":"-88.11810","Snowdepth":"8.000","Units":"in","Rept_Date":"2020-03-26 12"},"coordinates":[2141,3893]},{"type":"Point","properties":{"Station_ID":"VT-WR-2","Station_Nam":"POMFRET 2.6 N, VT","Latitude":"43.74230","Longitude":"-72.52550","Snowdepth":"7.500","Units":"in","Rept_Date":"2020-03-26 12"},"coordinates":[5800,1814]},{"type":"Point","properties":{"Station_ID":"CAN-NB-1","Station_Nam":"FREDERICTON 4.0 SSE, CA","Latitude":"45.92897","Longitude":"-66.62830","Snowdepth":"7.100","Units":"in","Rept_Date":"2020-03-26 12"},"coordinates":[7184,4056]},{"type":"Point","properties":{"Station_ID":"WLKM5","Station_Nam":"AH-GWAH-CHING","Latitude":"47.15000","Longitude":"-94.65000","Snowdepth":"7.000","Units":"in","Rept_Date":"2020-03-26 13"},"coordinates":[608,5307]},{"type":"Point","properties":{"Station_ID":"WI-PR-2","Station_Nam":"BUTTERNUT 5.9 SW, WI","Latitude":"45.96501","Longitude":"-90.59750","Snowdepth":"7.000","Units":"in","Rept_Date":"2020-03-26 12"},"coordinates":[1559,4093]},{"type":"Point","properties":{"Station_ID":"VT-WR-17","Station_Nam":"ROCHESTER 2.3 NE, VT","Latitude":"43.89418","Longitude":"-72.76992","Snowdepth":"7.000","Units":"in","Rept_Date":"2020-03-26 12"},"coordinates":[5743,1970]},{"type":"Point","properties":{"Station_ID":"VT-AD-20","Station_Nam":"HANCOCK 0.3 S, VT","Latitude":"43.92166","Longitude":"-72.84042","Snowdepth":"7.000","Units":"in","Rept_Date":"2020-03-26 12"},"coordinates":[5726,1998]},{"type":"Point","properties":{"Station_ID":"STMM4","Station_Nam":"STAMBAUGH 2SSE","Latitude":"46.05550","Longitude":"-88.62780","Snowdepth":"7.000","Units":"in","Rept_Date":"2020-03-26 12"},"coordinates":[2021,4185]},{"type":"Point","properties":{"Station_ID":"PBAN8","Station_Nam":"SITE 1-3MI.N","Latitude":"48.97420","Longitude":"-97.23860","Snowdepth":"7.000","Units":"in","Rept_Date":"2020-03-26 12"},"coordinates":[0,7177]},{"type":"Point","properties":{"Station_ID":"MN-PK-15","Station_Nam":"MENTOR 2.5 SSW, MN","Latitude":"47.66625","Longitude":"-96.17328","Snowdepth":"7.000","Units":"in","Rept_Date":"2020-03-26 13"},"coordinates":[250,5837]},{"type":"Point","properties":{"Station_ID":"CAN-ON-245","Station_Nam":"PHELPSTON 3.1 ESE, CAN","Latitude":"44.50564","Longitude":"-79.81035","Snowdepth":"7.000","Units":"in","Rept_Date":"2020-03-26 14"},"coordinates":[4090,2597]},{"type":"Point","properties":{"Station_ID":"AROM4","Station_Nam":"ARNOLD,MI","Latitude":"46.06670","Longitude":"-87.48330","Snowdepth":"7.000","Units":"in","Rept_Date":"2020-03-26 12"},"coordinates":[2290,4197]},{"type":"Point","properties":{"Station_ID":"WI-SR-1","Station_Nam":"HAYWARD 9.2 NNE, WI","Latitude":"46.13255","Longitude":"-91.40500","Snowdepth":"6.800","Units":"in","Rept_Date":"2020-03-26 12"},"coordinates":[1369,4264]},{"type":"Point","properties":{"Station_ID":"VT-CL-18","Station_Nam":"WHEELOCK 1.6 S, VT","Latitude":"44.56491","Longitude":"-72.08830","Snowdepth":"6.500","Units":"in","Rept_Date":"2020-03-26 12"},"coordinates":[5903,2657]},{"type":"Point","properties":{"Station_ID":"MN-CW-22","Station_Nam":"FORT RIPLEY 0.8 N, MN","Latitude":"46.18089","Longitude":"-94.36510","Snowdepth":"6.500","Units":"in","Rept_Date":"2020-03-26 13"},"coordinates":[674,4314]},{"type":"Point","properties":{"Station_ID":"CAN-NS-163","Station_Nam":"SYDNEY MINES 2.2 WNW, CAN","Latitude":"46.24851","Longitude":"-60.25161","Snowdepth":"6.300","Units":"in","Rept_Date":"2020-03-26 12"},"coordinates":[8681,4383]},{"type":"Point","properties":{"Station_ID":"VT-BN-3","Station_Nam":"LANDGROVE 1.1 NNE, VT","Latitude":"43.29092","Longitude":"-72.83260","Snowdepth":"6.000","Units":"in","Rept_Date":"2020-03-26 10"},"coordinates":[5728,1351]},{"type":"Point","properties":{"Station_ID":"PERV1","Station_Nam":"PERU","Latitude":"43.26670","Longitude":"-72.90000","Snowdepth":"6.000","Units":"in","Rept_Date":"2020-03-26 11"},"coordinates":[5712,1327]},{"type":"Point","properties":{"Station_ID":"MN-BK-10","Station_Nam":"DETROIT LAKES 5.7 N, MN","Latitude":"46.88666","Longitude":"-95.84444","Snowdepth":"6.000","Units":"in","Rept_Date":"2020-03-26 10"},"coordinates":[327,5037]},{"type":"Point","properties":{"Station_ID":"MI-OT-17","Station_Nam":"GAYLORD 4.1 S, MI","Latitude":"44.96388","Longitude":"-84.68467","Snowdepth":"6.000","Units":"in","Rept_Date":"2020-03-26 12"},"coordinates":[2946,3066]},{"type":"Point","properties":{"Station_ID":"MI-AT-6","Station_Nam":"MANCELONA 0.5 ESE, MI","Latitude":"44.89981","Longitude":"-85.05100","Snowdepth":"6.000","Units":"in","Rept_Date":"2020-03-26 12"},"coordinates":[2860,3001]},{"type":"Point","properties":{"Station_ID":"MAIW3","Station_Nam":"MADELINE ISLAND","Latitude":"46.78330","Longitude":"-90.76670","Snowdepth":"6.000","Units":"in","Rept_Date":"2020-03-26 12"},"coordinates":[1519,4931]},{"type":"Point","properties":{"Station_ID":"JEFN3","Station_Nam":"JEFFERSON","Latitude":"44.41690","Longitude":"-71.50080","Snowdepth":"6.000","Units":"in","Rept_Date":"2020-03-26 11"},"coordinates":[6040,2506]},{"type":"Point","properties":{"Station_ID":"HUBN3","Station_Nam":"HUBBARD BROOK","Latitude":"43.93330","Longitude":"-71.71670","Snowdepth":"6.000","Units":"in","Rept_Date":"2020-03-27 05"},"coordinates":[5990,2010]},{"type":"Point","properties":{"Station_ID":"ESGM1","Station_Nam":"EAST SANGERVILLE","Latitude":"45.13690","Longitude":"-69.28060","Snowdepth":"6.000","Units":"in","Rept_Date":"2020-03-26 11"},"coordinates":[6562,3244]},{"type":"Point","properties":{"Station_ID":"CNNW3","Station_Nam":"CRANDON","Latitude":"45.55110","Longitude":"-88.89830","Snowdepth":"6.000","Units":"in","Rept_Date":"2020-03-26 11"},"coordinates":[1957,3668]},{"type":"Point","properties":{"Station_ID":"CAN-NB-16","Station_Nam":"DORCHESTER 1.0 SSE, CAN","Latitude":"45.89160","Longitude":"-64.51269","Snowdepth":"5.100","Units":"in","Rept_Date":"2020-03-26 12"},"coordinates":[7681,4017]},{"type":"Point","properties":{"Station_ID":"WILW3","Station_Nam":"RESERVOIR","Latitude":"45.70000","Longitude":"-89.83330","Snowdepth":"5.000","Units":"in","Rept_Date":"2020-03-26 11"},"coordinates":[1738,3821]},{"type":"Point","properties":{"Station_ID":"WAIV1","Station_Nam":"WAITSFIELD","Latitude":"44.17560","Longitude":"-72.79610","Snowdepth":"5.000","Units":"in","Rept_Date":"2020-03-26 11"},"coordinates":[5736,2258]},{"type":"Point","properties":{"Station_ID":"VT-WS-11","Station_Nam":"WAITSFIELD 1.8 SE, VT","Latitude":"44.17551","Longitude":"-72.79540","Snowdepth":"5.000","Units":"in","Rept_Date":"2020-03-26 12"},"coordinates":[5737,2258]},{"type":"Point","properties":{"Station_ID":"RHIW3","Station_Nam":"RHINELANDER","Latitude":"45.59860","Longitude":"-89.45080","Snowdepth":"5.000","Units":"in","Rept_Date":"2020-03-26 12"},"coordinates":[1828,3717]},{"type":"Point","properties":{"Station_ID":"RFDM1","Station_Nam":"RUMFORD 7SW","Latitude":"44.49470","Longitude":"-70.65640","Snowdepth":"5.000","Units":"in","Rept_Date":"2020-03-26 12"},"coordinates":[6239,2585]},{"type":"Point","properties":{"Station_ID":"MI-OT-16","Station_Nam":"GAYLORD 2.2 SSE, MI","Latitude":"44.99441","Longitude":"-84.65820","Snowdepth":"5.000","Units":"in","Rept_Date":"2020-03-26 11"},"coordinates":[2953,3098]},{"type":"Point","properties":{"Station_ID":"LNCM1","Station_Nam":"LINCOLN WATER DISTRICT","Latitude":"45.32410","Longitude":"-68.58300","Snowdepth":"5.000","Units":"in","Rept_Date":"2020-03-26 11"},"coordinates":[6725,3436]},{"type":"Point","properties":{"Station_ID":"KGFK","Station_Nam":"GRAND FORKS INTERNATIONAL","Latitude":"47.95000","Longitude":"-97.18333","Snowdepth":"5.000","Units":"in","Rept_Date":"2020-03-26 12"},"coordinates":[13,6127]},{"type":"Point","properties":{"Station_ID":"GFK","Station_Nam":"GRAND FORKS INTERNATIONAL AIRPORT","Latitude":"47.94920","Longitude":"-97.17610","Snowdepth":"5.000","Units":"in","Rept_Date":"2020-03-27 00"},"coordinates":[15,6127]},{"type":"Point","properties":{"Station_ID":"EHYM3","Station_Nam":"EAST HAWLEY","Latitude":"42.57410","Longitude":"-72.86790","Snowdepth":"5.000","Units":"in","Rept_Date":"2020-03-26 12"},"coordinates":[5720,617]},{"type":"Point","properties":{"Station_ID":"EGRW3","Station_Nam":"EAGLE RIVER-SOUTH","Latitude":"45.91360","Longitude":"-89.24360","Snowdepth":"5.000","Units":"in","Rept_Date":"2020-03-26 12"},"coordinates":[1876,4040]},{"type":"Point","properties":{"Station_ID":"CAN-ON-120","Station_Nam":"DUNROBIN 5.8 NE MIVCA, CA","Latitude":"45.46243","Longitude":"-75.97120","Snowdepth":"4.700","Units":"in","Rept_Date":"2020-03-26 12"},"coordinates":[4991,3577]},{"type":"Point","properties":{"Station_ID":"VT-WS-30","Station_Nam":"WOODBURY 3.4 NNW, VT","Latitude":"44.48825","Longitude":"-72.43258","Snowdepth":"4.500","Units":"in","Rept_Date":"2020-03-26 12"},"coordinates":[5822,2579]},{"type":"Point","properties":{"Station_ID":"NH-MR-60","Station_Nam":"SOUTH SUTTON 1.3 SE, NH","Latitude":"43.29531","Longitude":"-71.90238","Snowdepth":"4.500","Units":"in","Rept_Date":"2020-03-26 13"},"coordinates":[5946,1356]},{"type":"Point","properties":{"Station_ID":"NH-HL-48","Station_Nam":"GREENVILLE 1.1 ENE, NH","Latitude":"42.77674","Longitude":"-71.77990","Snowdepth":"4.500","Units":"in","Rept_Date":"2020-03-26 13"},"coordinates":[5975,824]},{"type":"Point","properties":{"Station_ID":"MI-CP-7","Station_Nam":"DRUMMOND 2.9 NE, MI","Latitude":"46.05329","Longitude":"-83.69060","Snowdepth":"4.500","Units":"in","Rept_Date":"2020-03-26 14"},"coordinates":[3180,4183]},{"type":"Point","properties":{"Station_ID":"CAN-NB-98","Station_Nam":"HOYT 4.2 S, CAN","Latitude":"45.54763","Longitude":"-66.55440","Snowdepth":"4.300","Units":"in","Rept_Date":"2020-03-26 11"},"coordinates":[7201,3665]},{"type":"Point","properties":{"Station_ID":"CAN-ON-92","Station_Nam":"DUNROBIN 1.9 W - MVCA, CAN","Latitude":"45.42318","Longitude":"-76.04525","Snowdepth":"4.100","Units":"in","Rept_Date":"2020-03-26 12"},"coordinates":[4974,3537]},{"type":"Point","properties":{"Station_ID":"WORV1","Station_Nam":"WORCESTER 2 W","Latitude":"44.37470","Longitude":"-72.58220","Snowdepth":"4.000","Units":"in","Rept_Date":"2020-03-26 11"},"coordinates":[5787,2462]},{"type":"Point","properties":{"Station_ID":"WI-BN-6","Station_Nam":"SUAMICO 4.4 WNW, WI","Latitude":"44.66111","Longitude":"-88.11780","Snowdepth":"4.000","Units":"in","Rept_Date":"2020-03-26 13"},"coordinates":[2141,2756]},{"type":"Point","properties":{"Station_ID":"VT-WS-33","Station_Nam":"WAITSFIELD 3.5 WNW, VT","Latitude":"44.20052","Longitude":"-72.89421","Snowdepth":"4.000","Units":"in","Rept_Date":"2020-03-26 13"},"coordinates":[5713,2284]},{"type":"Point","properties":{"Station_ID":"VT-OL-1","Station_Nam":"WESTFIELD 0.7 WNW, VT","Latitude":"44.89160","Longitude":"-72.44350","Snowdepth":"4.000","Units":"in","Rept_Date":"2020-03-26 12"},"coordinates":[5819,2992]},{"type":"Point","properties":{"Station_ID":"RLKW3","Station_Nam":"REST LAKE","Latitude":"46.12220","Longitude":"-89.87720","Snowdepth":"4.000","Units":"in","Rept_Date":"2020-03-26 13"},"coordinates":[1728,4254]},{"type":"Point","properties":{"Station_ID":"RHRW3","Station_Nam":"RHINELANDER WJFW TV-12","Latitude":"45.62220","Longitude":"-89.41000","Snowdepth":"4.000","Units":"in","Rept_Date":"2020-03-27 03"},"coordinates":[1837,3741]},{"type":"Point","properties":{"Station_ID":"RHLW3","Station_Nam":"RHINELANDER 4NE","Latitude":"45.65270","Longitude":"-89.30740","Snowdepth":"4.000","Units":"in","Rept_Date":"2020-03-26 11"},"coordinates":[1861,3772]},{"type":"Point","properties":{"Station_ID":"RHI","Station_Nam":"RHINELANDER-ONEIDA COUNTY AIRPORT","Latitude":"45.63080","Longitude":"-89.46530","Snowdepth":"4.000","Units":"in","Rept_Date":"2020-03-27 00"},"coordinates":[1824,3750]},{"type":"Point","properties":{"Station_ID":"PELW3","Station_Nam":"PELLA 3SE","Latitude":"44.73580","Longitude":"-88.73780","Snowdepth":"4.000","Units":"in","Rept_Date":"2020-03-26 10"},"coordinates":[1995,2833]},{"type":"Point","properties":{"Station_ID":"PEKN6","Station_Nam":"PECK LAKE","Latitude":"43.11500","Longitude":"-74.42360","Snowdepth":"4.000","Units":"in","Rept_Date":"2020-03-26 11"},"coordinates":[5355,1171]},{"type":"Point","properties":{"Station_ID":"OTTM5","Station_Nam":"OTTERTAIL,MN","Latitude":"46.41670","Longitude":"-95.56670","Snowdepth":"4.000","Units":"in","Rept_Date":"2020-03-26 12"},"coordinates":[392,4556]},{"type":"Point","properties":{"Station_ID":"NYMM5","Station_Nam":"NEW YORK MILLS","Latitude":"46.50920","Longitude":"-95.37990","Snowdepth":"4.000","Units":"in","Rept_Date":"2020-03-26 12"},"coordinates":[436,4650]},{"type":"Point","properties":{"Station_ID":"NY-WR-15","Station_Nam":"LAKE GEORGE 5.0 ESE, NY","Latitude":"43.40039","Longitude":"-73.62266","Snowdepth":"4.000","Units":"in","Rept_Date":"2020-03-26 13"},"coordinates":[5542,1464]},{"type":"Point","properties":{"Station_ID":"NH-CR-11","Station_Nam":"NORTH CONWAY 1.4 SSW, NH","Latitude":"44.03556","Longitude":"-71.14010","Snowdepth":"4.000","Units":"in","Rept_Date":"2020-03-26 12"},"coordinates":[6125,2115]},{"type":"Point","properties":{"Station_ID":"MN76ACVS","Station_Nam":"GRAND MARAIS 3.0 WNW","Latitude":"47.76602","Longitude":"-90.26427","Snowdepth":"4.000","Units":"in","Rept_Date":"2020-03-26 12"},"coordinates":[1637,5939]},{"type":"Point","properties":{"Station_ID":"MN-AT-5","Station_Nam":"TAMARACK 1.4 SW, MN","Latitude":"46.63760","Longitude":"-93.14554","Snowdepth":"4.000","Units":"in","Rept_Date":"2020-03-26 13"},"coordinates":[961,4782]},{"type":"Point","properties":{"Station_ID":"MI-OT-4","Station_Nam":"GAYLORD 1.7 WNW, MI","Latitude":"45.03280","Longitude":"-84.71090","Snowdepth":"4.000","Units":"in","Rept_Date":"2020-03-26 13"},"coordinates":[2940,3137]},{"type":"Point","properties":{"Station_ID":"MA-HS-7","Station_Nam":"PLAINFIELD 2.2 SW, MA","Latitude":"42.49272","Longitude":"-72.94540","Snowdepth":"4.000","Units":"in","Rept_Date":"2020-03-26 13"},"coordinates":[5701,533]},{"type":"Point","properties":{"Station_ID":"HMYM1","Station_Nam":"HARMONY","Latitude":"44.94660","Longitude":"-69.54560","Snowdepth":"4.000","Units":"in","Rept_Date":"2020-03-26 11"},"coordinates":[6499,3049]},{"type":"Point","properties":{"Station_ID":"GREN3","Station_Nam":"GREENVILLE 1 NNE","Latitude":"42.78270","Longitude":"-71.79850","Snowdepth":"4.000","Units":"in","Rept_Date":"2020-03-26 10"},"coordinates":[5971,831]},{"type":"Point","properties":{"Station_ID":"GAYM4","Station_Nam":"GAYLORD","Latitude":"45.03320","Longitude":"-84.71130","Snowdepth":"4.000","Units":"in","Rept_Date":"2020-03-26 12"},"coordinates":[2940,3137]},{"type":"Point","properties":{"Station_ID":"BREW3","Station_Nam":"SURING","Latitude":"44.99580","Longitude":"-88.37860","Snowdepth":"4.000","Units":"in","Rept_Date":"2020-03-26 11"},"coordinates":[2079,3099]},{"type":"Point","properties":{"Station_ID":"BRAM5","Station_Nam":"BRAINERD","Latitude":"46.34320","Longitude":"-94.20900","Snowdepth":"4.000","Units":"in","Rept_Date":"2020-03-26 12"},"coordinates":[711,4480]},{"type":"Point","properties":{"Station_ID":"ABNM3","Station_Nam":"ASHBURNHAM NORTH","Latitude":"42.66170","Longitude":"-71.93590","Snowdepth":"4.000","Units":"in","Rept_Date":"2020-03-26 11"},"coordinates":[5938,706]},{"type":"Point","properties":{"Station_ID":"VT-CL-23","Station_Nam":"RYEGATE 1.5 N, VT","Latitude":"44.23024","Longitude":"-72.10523","Snowdepth":"3.600","Units":"in","Rept_Date":"2020-03-26 12"},"coordinates":[5899,2314]},{"type":"Point","properties":{"Station_ID":"WORM3","Station_Nam":"WORTHINGTON","Latitude":"42.38690","Longitude":"-72.92100","Snowdepth":"3.000","Units":"in","Rept_Date":"2020-03-26 11"},"coordinates":[5707,425]},{"type":"Point","properties":{"Station_ID":"WLKW3","Station_Nam":"WHITE LAKE 1 SE","Latitude":"45.14520","Longitude":"-88.74160","Snowdepth":"3.000","Units":"in","Rept_Date":"2020-03-26 13"},"coordinates":[1994,3252]},{"type":"Point","properties":{"Station_ID":"WI-WB-2","Station_Nam":"STONE LAKE 2.0 NW, WI","Latitude":"45.85960","Longitude":"-91.57710","Snowdepth":"3.000","Units":"in","Rept_Date":"2020-03-26 13"},"coordinates":[1329,3985]},{"type":"Point","properties":{"Station_ID":"WI-PR-6","Station_Nam":"PHILLIPS 1.3 S, WI","Latitude":"45.67677","Longitude":"-90.39543","Snowdepth":"3.000","Units":"in","Rept_Date":"2020-03-26 12"},"coordinates":[1606,3797]},{"type":"Point","properties":{"Station_ID":"WDSV1","Station_Nam":"WOODSTOCK","Latitude":"43.63030","Longitude":"-72.50720","Snowdepth":"3.000","Units":"in","Rept_Date":"2020-03-26 12"},"coordinates":[5804,1699]},{"type":"Point","properties":{"Station_ID":"VT-WR-10","Station_Nam":"WEST WINDSOR 1.7 S, VT","Latitude":"43.46164","Longitude":"-72.49197","Snowdepth":"3.000","Units":"in","Rept_Date":"2020-03-26 12"},"coordinates":[5808,1526]},{"type":"Point","properties":{"Station_ID":"VT-OL-2","Station_Nam":"BARTON 3.0 ENE, VT","Latitude":"44.75863","Longitude":"-72.11680","Snowdepth":"3.000","Units":"in","Rept_Date":"2020-03-26 12"},"coordinates":[5896,2856]},{"type":"Point","properties":{"Station_ID":"VT-OG-11","Station_Nam":"VERSHIRE 1.5 ESE, VT","Latitude":"43.96138","Longitude":"-72.29777","Snowdepth":"3.000","Units":"in","Rept_Date":"2020-03-26 12"},"coordinates":[5853,2039]},{"type":"Point","properties":{"Station_ID":"VT-AD-24","Station_Nam":"MIDDLEBURY 0.3 N, VT","Latitude":"44.01808","Longitude":"-73.16844","Snowdepth":"3.000","Units":"in","Rept_Date":"2020-03-26 09"},"coordinates":[5649,2097]},{"type":"Point","properties":{"Station_ID":"TLLM3","Station_Nam":"TULLY LAKE","Latitude":"42.63940","Longitude":"-72.22440","Snowdepth":"3.000","Units":"in","Rept_Date":"2020-03-26 11"},"coordinates":[5871,684]},{"type":"Point","properties":{"Station_ID":"SULW3","Station_Nam":"SUMMIT LAKE","Latitude":"45.37880","Longitude":"-89.19410","Snowdepth":"3.000","Units":"in","Rept_Date":"2020-03-26 10"},"coordinates":[1888,3492]},{"type":"Point","properties":{"Station_ID":"ROWM3","Station_Nam":"ROWE 3NE","Latitude":"42.73500","Longitude":"-72.86920","Snowdepth":"3.000","Units":"in","Rept_Date":"2020-03-26 11"},"coordinates":[5719,782]},{"type":"Point","properties":{"Station_ID":"PLFV1","Station_Nam":"PLAINFIELD","Latitude":"44.27610","Longitude":"-72.41500","Snowdepth":"3.000","Units":"in","Rept_Date":"2020-03-26 11"},"coordinates":[5826,2361]},{"type":"Point","properties":{"Station_ID":"PHON6","Station_Nam":"PHOENICIA 2SW","Latitude":"42.06420","Longitude":"-74.34080","Snowdepth":"3.000","Units":"in","Rept_Date":"2020-03-26 10"},"coordinates":[5374,94]},{"type":"Point","properties":{"Station_ID":"ORAN3","Station_Nam":"ORANGE","Latitude":"43.66880","Longitude":"-71.94830","Snowdepth":"3.000","Units":"in","Rept_Date":"2020-03-26 11"},"coordinates":[5935,1739]},{"type":"Point","properties":{"Station_ID":"NY-SR-22","Station_Nam":"GREENFIELD CENTER 1.6 W, NY","Latitude":"43.12684","Longitude":"-73.87860","Snowdepth":"3.000","Units":"in","Rept_Date":"2020-03-26 12"},"coordinates":[5482,1183]},{"type":"Point","properties":{"Station_ID":"NY-ES-11","Station_Nam":"VERMONTVILLE 2.8 S, NY","Latitude":"44.41205","Longitude":"-74.06760","Snowdepth":"3.000","Units":"in","Rept_Date":"2020-03-26 12"},"coordinates":[5438,2501]},{"type":"Point","properties":{"Station_ID":"NOSV1","Station_Nam":"NORTH SPRINGFIELD LAKE","Latitude":"43.33920","Longitude":"-72.50560","Snowdepth":"3.000","Units":"in","Rept_Date":"2020-03-26 11"},"coordinates":[5805,1401]},{"type":"Point","properties":{"Station_ID":"NHBN6","Station_Nam":"HEBRON","Latitude":"43.29540","Longitude":"-73.39830","Snowdepth":"3.000","Units":"in","Rept_Date":"2020-03-26 11"},"coordinates":[5595,1356]},{"type":"Point","properties":{"Station_ID":"NH-MR-4","Station_Nam":"BOW 1.6 NW, NH","Latitude":"43.14994","Longitude":"-71.55650","Snowdepth":"3.000","Units":"in","Rept_Date":"2020-03-26 12"},"coordinates":[6027,1207]},{"type":"Point","properties":{"Station_ID":"NH-GR-47","Station_Nam":"LITTLETON 7.3 W, NH","Latitude":"44.31847","Longitude":"-71.91086","Snowdepth":"3.000","Units":"in","Rept_Date":"2020-03-26 13"},"coordinates":[5944,2405]},{"type":"Point","properties":{"Station_ID":"NH-CS-7","Station_Nam":"LANCASTER 0.5 N, NH","Latitude":"44.49611","Longitude":"-71.57640","Snowdepth":"3.000","Units":"in","Rept_Date":"2020-03-26 11"},"coordinates":[6023,2587]},{"type":"Point","properties":{"Station_ID":"NEWN3","Station_Nam":"NEWPORT","Latitude":"43.37720","Longitude":"-72.18120","Snowdepth":"3.000","Units":"in","Rept_Date":"2020-03-26 11"},"coordinates":[5881,1440]},{"type":"Point","properties":{"Station_ID":"NCKN6","Station_Nam":"NORTH CREEK 5 SE","Latitude":"43.66110","Longitude":"-73.89690","Snowdepth":"3.000","Units":"in","Rept_Date":"2020-03-26 11"},"coordinates":[5478,1731]},{"type":"Point","properties":{"Station_ID":"MRLV1","Station_Nam":"MARLBORO","Latitude":"42.86000","Longitude":"-72.72000","Snowdepth":"3.000","Units":"in","Rept_Date":"2020-03-26 11"},"coordinates":[5754,910]},{"type":"Point","properties":{"Station_ID":"MQRW3","Station_Nam":"MINOCQUA","Latitude":"45.88630","Longitude":"-89.73220","Snowdepth":"3.000","Units":"in","Rept_Date":"2020-03-26 11"},"coordinates":[1762,4012]},{"type":"Point","properties":{"Station_ID":"ME-YK-5","Station_Nam":"KENNEBUNK 1.8 WNW, ME","Latitude":"43.39320","Longitude":"-70.58060","Snowdepth":"3.000","Units":"in","Rept_Date":"2020-03-26 12"},"coordinates":[6256,1456]},{"type":"Point","properties":{"Station_ID":"ME-CM-125","Station_Nam":"CUMBERLAND CENTER 4.4 NW, ME","Latitude":"43.84640","Longitude":"-70.31340","Snowdepth":"3.000","Units":"in","Rept_Date":"2020-03-26 12"},"coordinates":[6319,1921]},{"type":"Point","properties":{"Station_ID":"MCLN8","Station_Nam":"MC LEOD,ND","Latitude":"46.40250","Longitude":"-97.23810","Snowdepth":"3.000","Units":"in","Rept_Date":"2020-03-26 14"},"coordinates":[0,4541]},{"type":"Point","properties":{"Station_ID":"MCDN3","Station_Nam":"EDWARD MACDOWELL LAKE","Latitude":"42.89410","Longitude":"-71.98420","Snowdepth":"3.000","Units":"in","Rept_Date":"2020-03-26 11"},"coordinates":[5927,945]},{"type":"Point","properties":{"Station_ID":"MA-MD-47","Station_Nam":"WEST TOWNSEND 0.5 W, MA","Latitude":"42.67623","Longitude":"-71.74983","Snowdepth":"3.000","Units":"in","Rept_Date":"2020-03-26 11"},"coordinates":[5982,721]},{"type":"Point","properties":{"Station_ID":"MA-FR-17","Station_Nam":"BUCKLAND 1.8 ESE, MA","Latitude":"42.58900","Longitude":"-72.75110","Snowdepth":"3.000","Units":"in","Rept_Date":"2020-03-26 13"},"coordinates":[5747,632]},{"type":"Point","properties":{"Station_ID":"MA-FR-13","Station_Nam":"CONWAY 2.9 NW, MA","Latitude":"42.54419","Longitude":"-72.72743","Snowdepth":"3.000","Units":"in","Rept_Date":"2020-03-26 12"},"coordinates":[5753,586]},{"type":"Point","properties":{"Station_ID":"MA-FR-10","Station_Nam":"CONWAY 0.9 SW, MA","Latitude":"42.50879","Longitude":"-72.69730","Snowdepth":"3.000","Units":"in","Rept_Date":"2020-03-26 13"},"coordinates":[5760,550]},{"type":"Point","properties":{"Station_ID":"JWTN6","Station_Nam":"EAST JEWETT","Latitude":"42.23430","Longitude":"-74.14430","Snowdepth":"3.000","Units":"in","Rept_Date":"2020-03-26 11"},"coordinates":[5420,268]},{"type":"Point","properties":{"Station_ID":"JEFV1","Station_Nam":"JEFFERSONVILLE","Latitude":"44.58430","Longitude":"-72.78700","Snowdepth":"3.000","Units":"in","Rept_Date":"2020-03-26 11"},"coordinates":[5739,2677]},{"type":"Point","properties":{"Station_ID":"JAPN3","Station_Nam":"JAFFREY SILVER RANCH AIRPARK","Latitude":"42.80880","Longitude":"-72.00530","Snowdepth":"3.000","Units":"in","Rept_Date":"2020-03-26 11"},"coordinates":[5922,857]},{"type":"Point","properties":{"Station_ID":"COUW3","Station_Nam":"COUDERAY,WI","Latitude":"45.86670","Longitude":"-91.45000","Snowdepth":"3.000","Units":"in","Rept_Date":"2020-03-26 21"},"coordinates":[1359,3992]},{"type":"Point","properties":{"Station_ID":"CNKN6","Station_Nam":"CONKLINGVILLE DAM","Latitude":"43.32030","Longitude":"-73.92560","Snowdepth":"3.000","Units":"in","Rept_Date":"2020-03-26 12"},"coordinates":[5471,1382]},{"type":"Point","properties":{"Station_ID":"CAN-NS-18","Station_Nam":"HAMMONDS PLAINS 2.1 NNW, CA","Latitude":"44.75181","Longitude":"-63.79100","Snowdepth":"3.000","Units":"in","Rept_Date":"2020-03-26 11"},"coordinates":[7850,2849]},{"type":"Point","properties":{"Station_ID":"BRLN3","Station_Nam":"BERLIN","Latitude":"44.45350","Longitude":"-71.18540","Snowdepth":"3.000","Units":"in","Rept_Date":"2020-03-26 11"},"coordinates":[6115,2543]},{"type":"Point","properties":{"Station_ID":"BOON6","Station_Nam":"BOONVILLE 4 SSW","Latitude":"43.43610","Longitude":"-75.36970","Snowdepth":"3.000","Units":"in","Rept_Date":"2020-03-26 11"},"coordinates":[5132,1500]},{"type":"Point","properties":{"Station_ID":"BDDN3","Station_Nam":"BRADFORD 2","Latitude":"43.25880","Longitude":"-72.00210","Snowdepth":"3.000","Units":"in","Rept_Date":"2020-03-26 13"},"coordinates":[5923,1319]},{"type":"Point","properties":{"Station_ID":"ASTW3","Station_Nam":"ATHELSTANE","Latitude":"45.42500","Longitude":"-88.05750","Snowdepth":"3.000","Units":"in","Rept_Date":"2020-03-26 11"},"coordinates":[2155,3539]},{"type":"Point","properties":{"Station_ID":"ASBM3","Station_Nam":"ASHBURNHAM","Latitude":"42.61780","Longitude":"-71.91590","Snowdepth":"3.000","Units":"in","Rept_Date":"2020-03-26 11"},"coordinates":[5943,661]},{"type":"Point","properties":{"Station_ID":"CAN-PE-10","Station_Nam":"NEW LONDON 1.6 ENE, CA","Latitude":"46.46985","Longitude":"-63.49200","Snowdepth":"2.600","Units":"in","Rept_Date":"2020-03-26 12"},"coordinates":[7920,4610]},{"type":"Point","properties":{"Station_ID":"NY-WS-8","Station_Nam":"GRANVILLE 9.5 SW, NY","Latitude":"43.31163","Longitude":"-73.39613","Snowdepth":"2.500","Units":"in","Rept_Date":"2020-03-26 13"},"coordinates":[5596,1373]},{"type":"Point","properties":{"Station_ID":"NY-SR-4","Station_Nam":"SARATOGA SPRINGS 0.5 S, NY","Latitude":"43.06032","Longitude":"-73.78010","Snowdepth":"2.500","Units":"in","Rept_Date":"2020-03-26 11"},"coordinates":[5506,1115]},{"type":"Point","properties":{"Station_ID":"ND-CS-25","Station_Nam":"FARGO 2.1 N, ND","Latitude":"46.90816","Longitude":"-96.77937","Snowdepth":"2.500","Units":"in","Rept_Date":"2020-03-26 14"},"coordinates":[108,5059]},{"type":"Point","properties":{"Station_ID":"MA-WR-44","Station_Nam":"WESTMINSTER 0.6 WSW, MA","Latitude":"42.54505","Longitude":"-71.91032","Snowdepth":"2.500","Units":"in","Rept_Date":"2020-03-26 12"},"coordinates":[5944,587]},{"type":"Point","properties":{"Station_ID":"CAN-NS-56","Station_Nam":"HAMMOND PLAINS 2.9 WSW, CA","Latitude":"44.72456","Longitude":"-63.81920","Snowdepth":"2.500","Units":"in","Rept_Date":"2020-03-26 12"},"coordinates":[7843,2821]},{"type":"Point","properties":{"Station_ID":"CAN-NS-13","Station_Nam":"TRURO 5.0 ENE, CA","Latitude":"45.38252","Longitude":"-63.22810","Snowdepth":"2.400","Units":"in","Rept_Date":"2020-03-26 11"},"coordinates":[7982,3496]},{"type":"Point","properties":{"Station_ID":"WI-SR-5","Station_Nam":"HAYWARD 9.7 NE, WI","Latitude":"46.12030","Longitude":"-91.35370","Snowdepth":"2.000","Units":"in","Rept_Date":"2020-03-26 14"},"coordinates":[1381,4252]},{"type":"Point","properties":{"Station_ID":"WI-RS-1","Station_Nam":"LADYSMITH 2.8 WNW, WI","Latitude":"45.48180","Longitude":"-91.14680","Snowdepth":"2.000","Units":"in","Rept_Date":"2020-03-26 13"},"coordinates":[1430,3597]},{"type":"Point","properties":{"Station_ID":"WI-PR-8","Station_Nam":"PHILLIPS 0.4 SSW, WI","Latitude":"45.69086","Longitude":"-90.40200","Snowdepth":"2.000","Units":"in","Rept_Date":"2020-03-26 13"},"coordinates":[1605,3812]},{"type":"Point","properties":{"Station_ID":"VT-WS-10","Station_Nam":"NORTHFIELD 1.5 N, VT","Latitude":"44.16986","Longitude":"-72.65200","Snowdepth":"2.000","Units":"in","Rept_Date":"2020-03-26 12"},"coordinates":[5770,2252]},{"type":"Point","properties":{"Station_ID":"VT-WH-17","Station_Nam":"ROCKINGHAM 1.1 NNE, VT","Latitude":"43.20388","Longitude":"-72.48222","Snowdepth":"2.000","Units":"in","Rept_Date":"2020-03-26 12"},"coordinates":[5810,1262]},{"type":"Point","properties":{"Station_ID":"VT-LM-7","Station_Nam":"HYDE PARK 2.9 NE, VT","Latitude":"44.62080","Longitude":"-72.57250","Snowdepth":"2.000","Units":"in","Rept_Date":"2020-03-26 12"},"coordinates":[5789,2715]},{"type":"Point","properties":{"Station_ID":"SLNV1","Station_Nam":"SOUTH LINCOLN","Latitude":"44.07460","Longitude":"-72.97180","Snowdepth":"2.000","Units":"in","Rept_Date":"2020-03-26 11"},"coordinates":[5695,2155]},{"type":"Point","properties":{"Station_ID":"SJBV1","Station_Nam":"SAINT JOHNSBURY","Latitude":"44.42000","Longitude":"-72.01940","Snowdepth":"2.000","Units":"in","Rept_Date":"2020-03-26 20"},"coordinates":[5919,2509]},{"type":"Point","properties":{"Station_ID":"SBNM5","Station_Nam":"SABIN","Latitude":"46.77690","Longitude":"-96.65610","Snowdepth":"2.000","Units":"in","Rept_Date":"2020-03-26 12"},"coordinates":[137,4925]},{"type":"Point","properties":{"Station_ID":"PARM4","Station_Nam":"PARENT BAY","Latitude":"45.79610","Longitude":"-86.40110","Snowdepth":"2.000","Units":"in","Rept_Date":"2020-03-26 16"},"coordinates":[2543,3919]},{"type":"Point","properties":{"Station_ID":"NY-OD-2","Station_Nam":"POINT ROCK 0.6 SE, NY","Latitude":"43.37335","Longitude":"-75.53840","Snowdepth":"2.000","Units":"in","Rept_Date":"2020-03-26 13"},"coordinates":[5093,1436]},{"type":"Point","properties":{"Station_ID":"NY-GR-7","Station_Nam":"GREENVILLE 0.7 E, NY","Latitude":"42.41400","Longitude":"-74.00900","Snowdepth":"2.000","Units":"in","Rept_Date":"2020-03-26 12"},"coordinates":[5452,453]},{"type":"Point","properties":{"Station_ID":"NWSM1","Station_Nam":"NEW SHARON","Latitude":"44.63520","Longitude":"-70.00020","Snowdepth":"2.000","Units":"in","Rept_Date":"2020-03-26 11"},"coordinates":[6393,2729]},{"type":"Point","properties":{"Station_ID":"NVLN6","Station_Nam":"NORTHVILLE","Latitude":"43.23330","Longitude":"-74.16670","Snowdepth":"2.000","Units":"in","Rept_Date":"2020-03-26 12"},"coordinates":[5415,1292]},{"type":"Point","properties":{"Station_ID":"NOHV1","Station_Nam":"NORTH HARTLAND LAKE","Latitude":"43.60270","Longitude":"-72.36210","Snowdepth":"2.000","Units":"in","Rept_Date":"2020-03-26 11"},"coordinates":[5838,1671]},{"type":"Point","properties":{"Station_ID":"NH-RC-48","Station_Nam":"NORTHWOOD 2.9 WSW, NH","Latitude":"43.20114","Longitude":"-71.25750","Snowdepth":"2.000","Units":"in","Rept_Date":"2020-03-26 12"},"coordinates":[6098,1259]},{"type":"Point","properties":{"Station_ID":"NH-MR-6","Station_Nam":"DANBURY 2.2 ESE, NH","Latitude":"43.52000","Longitude":"-71.81900","Snowdepth":"2.000","Units":"in","Rept_Date":"2020-03-26 13"},"coordinates":[5966,1586]},{"type":"Point","properties":{"Station_ID":"NH-MR-41","Station_Nam":"NEWBURY 1.6 NW, NH","Latitude":"43.33667","Longitude":"-72.06060","Snowdepth":"2.000","Units":"in","Rept_Date":"2020-03-26 12"},"coordinates":[5909,1398]},{"type":"Point","properties":{"Station_ID":"NH-HL-49","Station_Nam":"MONT VERNON 1.3 SSW, NH","Latitude":"42.87616","Longitude":"-71.68280","Snowdepth":"2.000","Units":"in","Rept_Date":"2020-03-26 11"},"coordinates":[5998,926]},{"type":"Point","properties":{"Station_ID":"NFKC3","Station_Nam":"NORFOLK","Latitude":"41.97250","Longitude":"-73.22080","Snowdepth":"2.000","Units":"in","Rept_Date":"2020-03-26 12"},"coordinates":[5637,0]},{"type":"Point","properties":{"Station_ID":"MTQM4","Station_Nam":"MANISTIQUE WWTP","Latitude":"45.95120","Longitude":"-86.25130","Snowdepth":"2.000","Units":"in","Rept_Date":"2020-03-26 11"},"coordinates":[2579,4078]},{"type":"Point","properties":{"Station_ID":"MRQM4","Station_Nam":"MARQUETTE WFP","Latitude":"46.54580","Longitude":"-87.37950","Snowdepth":"2.000","Units":"in","Rept_Date":"2020-03-26 12"},"coordinates":[2314,4688]},{"type":"Point","properties":{"Station_ID":"ME-YK-52","Station_Nam":"YORK 5.2 N, ME","Latitude":"43.23585","Longitude":"-70.63400","Snowdepth":"2.000","Units":"in","Rept_Date":"2020-03-26 12"},"coordinates":[6244,1295]},{"type":"Point","properties":{"Station_ID":"ME-YK-3","Station_Nam":"HOLLIS CENTER 5.4 NW, ME","Latitude":"43.64750","Longitude":"-70.67510","Snowdepth":"2.000","Units":"in","Rept_Date":"2020-03-26 12"},"coordinates":[6234,1717]},{"type":"Point","properties":{"Station_ID":"ME-YK-18","Station_Nam":"WELLS 3.5 SW, ME","Latitude":"43.30140","Longitude":"-70.64470","Snowdepth":"2.000","Units":"in","Rept_Date":"2020-03-26 12"},"coordinates":[6241,1362]},{"type":"Point","properties":{"Station_ID":"MA-WR-8","Station_Nam":"FITCHBURG 1.6 SSW, MA","Latitude":"42.56674","Longitude":"-71.82170","Snowdepth":"2.000","Units":"in","Rept_Date":"2020-03-26 11"},"coordinates":[5965,609]},{"type":"Point","properties":{"Station_ID":"KSEM4","Station_Nam":"KALKASKA 11SE","Latitude":"44.58970","Longitude":"-85.04860","Snowdepth":"2.000","Units":"in","Rept_Date":"2020-03-26 12"},"coordinates":[2861,2683]},{"type":"Point","properties":{"Station_ID":"ISLV1","Station_Nam":"ISLAND POND","Latitude":"44.81280","Longitude":"-71.89020","Snowdepth":"2.000","Units":"in","Rept_Date":"2020-03-26 13"},"coordinates":[5949,2912]},{"type":"Point","properties":{"Station_ID":"HOLW3","Station_Nam":"HOLCOMBE","Latitude":"45.22370","Longitude":"-91.12700","Snowdepth":"2.000","Units":"in","Rept_Date":"2020-03-26 12"},"coordinates":[1434,3333]},{"type":"Point","properties":{"Station_ID":"HOLM1","Station_Nam":"HOLLIS","Latitude":"43.64750","Longitude":"-70.67490","Snowdepth":"2.000","Units":"in","Rept_Date":"2020-03-26 11"},"coordinates":[6234,1717]},{"type":"Point","properties":{"Station_ID":"HMPN3","Station_Nam":"WEST HAMPSTEAD","Latitude":"42.91080","Longitude":"-71.20200","Snowdepth":"2.000","Units":"in","Rept_Date":"2020-03-26 12"},"coordinates":[6111,962]},{"type":"Point","properties":{"Station_ID":"HGHN6","Station_Nam":"HIGHMARKET","Latitude":"43.57520","Longitude":"-75.52070","Snowdepth":"2.000","Units":"in","Rept_Date":"2020-03-26 09"},"coordinates":[5097,1643]},{"type":"Point","properties":{"Station_ID":"FARM1","Station_Nam":"FARMINGTON","Latitude":"44.68930","Longitude":"-70.15640","Snowdepth":"2.000","Units":"in","Rept_Date":"2020-03-26 12"},"coordinates":[6356,2785]},{"type":"Point","properties":{"Station_ID":"ESAM4","Station_Nam":"ESCANABA","Latitude":"45.74380","Longitude":"-87.04060","Snowdepth":"2.000","Units":"in","Rept_Date":"2020-03-26 11"},"coordinates":[2393,3866]},{"type":"Point","properties":{"Station_ID":"EMLN3","Station_Nam":"EAST MILFORD","Latitude":"42.82660","Longitude":"-71.62600","Snowdepth":"2.000","Units":"in","Rept_Date":"2020-03-26 11"},"coordinates":[6011,876]},{"type":"Point","properties":{"Station_ID":"COLN3","Station_Nam":"COLEBROOK 3SW","Latitude":"44.86100","Longitude":"-71.53920","Snowdepth":"2.000","Units":"in","Rept_Date":"2020-03-26 11"},"coordinates":[6031,2961]},{"type":"Point","properties":{"Station_ID":"CAN-ON-42","Station_Nam":"VANKLEEK HILL 3.4 S, CA","Latitude":"45.48987","Longitude":"-74.64570","Snowdepth":"2.000","Units":"in","Rept_Date":"2020-03-26 12"},"coordinates":[5302,3606]},{"type":"Point","properties":{"Station_ID":"BOWW3","Station_Nam":"STOCKBRIDGE-MUNSEE RESERVATION","Latitude":"44.87000","Longitude":"-88.90440","Snowdepth":"2.000","Units":"in","Rept_Date":"2020-03-26 12"},"coordinates":[1956,2970]},{"type":"Point","properties":{"Station_ID":"BIRM3","Station_Nam":"BIRCH HILL DAM","Latitude":"42.63240","Longitude":"-72.12270","Snowdepth":"2.000","Units":"in","Rept_Date":"2020-03-26 11"},"coordinates":[5895,676]},{"type":"Point","properties":{"Station_ID":"VT-RT-24","Station_Nam":"MIDDLETOWN SPRINGS 0.9 WNW, VT","Latitude":"43.49194","Longitude":"-73.13350","Snowdepth":"1.500","Units":"in","Rept_Date":"2020-03-26 12"},"coordinates":[5657,1558]},{"type":"Point","properties":{"Station_ID":"VT-LM-1","Station_Nam":"STOWE 0.2 SW, VT","Latitude":"44.46399","Longitude":"-72.69070","Snowdepth":"1.500","Units":"in","Rept_Date":"2020-03-26 12"},"coordinates":[5761,2554]},{"type":"Point","properties":{"Station_ID":"NY-WR-13","Station_Nam":"QUEENSBURY 2.5 E, NY","Latitude":"43.35877","Longitude":"-73.62849","Snowdepth":"1.500","Units":"in","Rept_Date":"2020-03-26 12"},"coordinates":[5541,1421]},{"type":"Point","properties":{"Station_ID":"NY-WR-10","Station_Nam":"WARRENSBURG 2.1 WNW, NY","Latitude":"43.51784","Longitude":"-73.81069","Snowdepth":"1.500","Units":"in","Rept_Date":"2020-03-26 13"},"coordinates":[5498,1584]},{"type":"Point","properties":{"Station_ID":"MI-CX-7","Station_Nam":"EAST JORDAN 2.1 NNW, MI","Latitude":"45.18639","Longitude":"-85.14750","Snowdepth":"1.500","Units":"in","Rept_Date":"2020-03-26 13"},"coordinates":[2838,3294]},{"type":"Point","properties":{"Station_ID":"ME-CM-54","Station_Nam":"WINDHAM 3.9 NW, ME","Latitude":"43.85787","Longitude":"-70.46200","Snowdepth":"1.200","Units":"in","Rept_Date":"2020-03-26 12"},"coordinates":[6284,1933]},{"type":"Point","properties":{"Station_ID":"CAN-NB-5","Station_Nam":"OAK POINT 0.9 SSW, CA","Latitude":"45.50752","Longitude":"-66.09860","Snowdepth":"1.200","Units":"in","Rept_Date":"2020-03-26 12"},"coordinates":[7308,3624]},{"type":"Point","properties":{"Station_ID":"WSKW3","Station_Nam":"WAUSAUKEE","Latitude":"45.38020","Longitude":"-87.95660","Snowdepth":"1.000","Units":"in","Rept_Date":"2020-03-26 13"},"coordinates":[2178,3493]},{"type":"Point","properties":{"Station_ID":"WRTS2","Station_Nam":"WATERTOWN,SD","Latitude":"44.90280","Longitude":"-97.11360","Snowdepth":"1.000","Units":"in","Rept_Date":"2020-03-26 14"},"coordinates":[29,3004]},{"type":"Point","properties":{"Station_ID":"WNDM1","Station_Nam":"WINDHAM 2NW","Latitude":"43.85670","Longitude":"-70.46630","Snowdepth":"1.000","Units":"in","Rept_Date":"2020-03-26 11"},"coordinates":[6283,1931]},{"type":"Point","properties":{"Station_ID":"WI-BT-14","Station_Nam":"OAKLAND 9.0 ENE, WI","Latitude":"45.95184","Longitude":"-92.21653","Snowdepth":"1.000","Units":"in","Rept_Date":"2020-03-26 13"},"coordinates":[1179,4079]},{"type":"Point","properties":{"Station_ID":"VT-WS-19","Station_Nam":"WATERBURY 3.0 NW, VT","Latitude":"44.36060","Longitude":"-72.80770","Snowdepth":"1.000","Units":"in","Rept_Date":"2020-03-26 11"},"coordinates":[5734,2448]},{"type":"Point","properties":{"Station_ID":"VT-WH-29","Station_Nam":"BRATTLEBORO 0.7 S, VT","Latitude":"42.84030","Longitude":"-72.55580","Snowdepth":"1.000","Units":"in","Rept_Date":"2020-03-26 12"},"coordinates":[5793,890]},{"type":"Point","properties":{"Station_ID":"VT-CH-13","Station_Nam":"RICHMOND 3.4 SSE, VT","Latitude":"44.36084","Longitude":"-72.96400","Snowdepth":"1.000","Units":"in","Rept_Date":"2020-03-26 12"},"coordinates":[5697,2448]},{"type":"Point","properties":{"Station_ID":"UVDV1","Station_Nam":"NERON SITE AT UNION VILLAGE DAM","Latitude":"43.79140","Longitude":"-72.25720","Snowdepth":"1.000","Units":"in","Rept_Date":"2020-03-26 11"},"coordinates":[5863,1865]},{"type":"Point","properties":{"Station_ID":"TMWN3","Station_Nam":"TAMWORTH 4","Latitude":"43.86390","Longitude":"-71.26610","Snowdepth":"1.000","Units":"in","Rept_Date":"2020-03-26 11"},"coordinates":[6096,1939]},{"type":"Point","properties":{"Station_ID":"SURN3","Station_Nam":"SURRY MOUNTAIN LAKE","Latitude":"42.99630","Longitude":"-72.31310","Snowdepth":"1.000","Units":"in","Rept_Date":"2020-03-26 10"},"coordinates":[5850,1049]},{"type":"Point","properties":{"Station_ID":"PWM","Station_Nam":"RESIDUAL OFFICE TO PORTLAND WSFO (GYX)","Latitude":"43.64610","Longitude":"-70.30920","Snowdepth":"1.000","Units":"in","Rept_Date":"2020-03-26 12"},"coordinates":[6320,1716]},{"type":"Point","properties":{"Station_ID":"PQI","Station_Nam":"NORTHERN MAINE REGIONAL AIRPORT","Latitude":"46.68890","Longitude":"-68.04470","Snowdepth":"1.000","Units":"in","Rept_Date":"2020-03-26 12"},"coordinates":[6852,4835]},{"type":"Point","properties":{"Station_ID":"POLM1","Station_Nam":"POLAND","Latitude":"44.00700","Longitude":"-70.36140","Snowdepth":"1.000","Units":"in","Rept_Date":"2020-03-26 11"},"coordinates":[6308,2086]},{"type":"Point","properties":{"Station_ID":"PKFW3","Station_Nam":"PARK FALLS,WI","Latitude":"45.93360","Longitude":"-90.45060","Snowdepth":"1.000","Units":"in","Rept_Date":"2020-03-26 13"},"coordinates":[1593,4060]},{"type":"Point","properties":{"Station_ID":"NY-SR-35","Station_Nam":"ROUND LAKE 4.1 NE, NY","Latitude":"42.97760","Longitude":"-73.73750","Snowdepth":"1.000","Units":"in","Rept_Date":"2020-03-26 12"},"coordinates":[5516,1030]},{"type":"Point","properties":{"Station_ID":"NY-HR-18","Station_Nam":"SALISBURY CENTER 1.8 NW, NY","Latitude":"43.16260","Longitude":"-74.80880","Snowdepth":"1.000","Units":"in","Rept_Date":"2020-03-26 11"},"coordinates":[5264,1220]},{"type":"Point","properties":{"Station_ID":"NY-GR-6","Station_Nam":"FREEHOLD 3.4 E, NY","Latitude":"42.36045","Longitude":"-73.98350","Snowdepth":"1.000","Units":"in","Rept_Date":"2020-03-26 10"},"coordinates":[5458,398]},{"type":"Point","properties":{"Station_ID":"NY-GR-13","Station_Nam":"TANNERSVILLE 4.5 SSE, NY","Latitude":"42.13884","Longitude":"-74.08697","Snowdepth":"1.000","Units":"in","Rept_Date":"2020-03-26 13"},"coordinates":[5434,171]},{"type":"Point","properties":{"Station_ID":"NY-DL-28","Station_Nam":"FLEISCHMANNS 5.7 N, NY","Latitude":"42.23779","Longitude":"-74.52335","Snowdepth":"1.000","Units":"in","Rept_Date":"2020-03-26 12"},"coordinates":[5331,272]},{"type":"Point","properties":{"Station_ID":"NY-DL-25","Station_Nam":"HOBART 4.8 ESE, NY","Latitude":"42.35230","Longitude":"-74.57830","Snowdepth":"1.000","Units":"in","Rept_Date":"2020-03-26 12"},"coordinates":[5318,389]},{"type":"Point","properties":{"Station_ID":"NY-AB-54","Station_Nam":"ALTAMONT 2.9 SW, NY","Latitude":"42.68182","Longitude":"-74.08326","Snowdepth":"1.000","Units":"in","Rept_Date":"2020-03-26 12"},"coordinates":[5434,727]},{"type":"Point","properties":{"Station_ID":"NY-AB-1","Station_Nam":"ALTAMONT 2.7 SSW, NY","Latitude":"42.66696","Longitude":"-74.05090","Snowdepth":"1.000","Units":"in","Rept_Date":"2020-03-26 12"},"coordinates":[5442,712]},{"type":"Point","properties":{"Station_ID":"NVLV1","Station_Nam":"NASHVILLE","Latitude":"44.44970","Longitude":"-72.92640","Snowdepth":"1.000","Units":"in","Rept_Date":"2020-03-26 11"},"coordinates":[5706,2539]},{"type":"Point","properties":{"Station_ID":"NH-MR-63","Station_Nam":"SUTTON MILLS 0.1 ENE, NH","Latitude":"43.33522","Longitude":"-71.95126","Snowdepth":"1.000","Units":"in","Rept_Date":"2020-03-26 12"},"coordinates":[5935,1397]},{"type":"Point","properties":{"Station_ID":"NH-MR-25","Station_Nam":"CHICHESTER 2.7 SSW, NH","Latitude":"43.21150","Longitude":"-71.41430","Snowdepth":"1.000","Units":"in","Rept_Date":"2020-03-26 11"},"coordinates":[6061,1270]},{"type":"Point","properties":{"Station_ID":"NH-CR-27","Station_Nam":"TAMWORTH 0.4 NNW, NH","Latitude":"43.86449","Longitude":"-71.26610","Snowdepth":"1.000","Units":"in","Rept_Date":"2020-03-26 12"},"coordinates":[6096,1939]},{"type":"Point","properties":{"Station_ID":"MYOM4","Station_Nam":"MIO WWTP","Latitude":"44.64660","Longitude":"-84.11580","Snowdepth":"1.000","Units":"in","Rept_Date":"2020-03-26 12"},"coordinates":[3080,2741]},{"type":"Point","properties":{"Station_ID":"ME-LN-21","Station_Nam":"WESTPORT ISLAND 2.2 SSW, ME","Latitude":"43.88806","Longitude":"-69.70890","Snowdepth":"1.000","Units":"in","Rept_Date":"2020-03-26 13"},"coordinates":[6461,1964]},{"type":"Point","properties":{"Station_ID":"MADM5","Station_Nam":"MADISON WWTP","Latitude":"45.00230","Longitude":"-96.16610","Snowdepth":"1.000","Units":"in","Rept_Date":"2020-03-26 13"},"coordinates":[252,3106]},{"type":"Point","properties":{"Station_ID":"MA-BE-21","Station_Nam":"CHESHIRE 0.5 NNW, MA","Latitude":"42.56315","Longitude":"-73.15701","Snowdepth":"1.000","Units":"in","Rept_Date":"2020-03-26 12"},"coordinates":[5652,605]},{"type":"Point","properties":{"Station_ID":"LEVM3","Station_Nam":"LEVERETT NO.2","Latitude":"42.44680","Longitude":"-72.53000","Snowdepth":"1.000","Units":"in","Rept_Date":"2020-03-26 11"},"coordinates":[5799,486]},{"type":"Point","properties":{"Station_ID":"JOHV1","Station_Nam":"JOHNSON 2 N","Latitude":"44.65790","Longitude":"-72.67850","Snowdepth":"1.000","Units":"in","Rept_Date":"2020-03-26 11"},"coordinates":[5764,2753]},{"type":"Point","properties":{"Station_ID":"HRTM1","Station_Nam":"HARTFORD","Latitude":"44.37440","Longitude":"-70.31620","Snowdepth":"1.000","Units":"in","Rept_Date":"2020-03-26 11"},"coordinates":[6318,2462]},{"type":"Point","properties":{"Station_ID":"HANN3","Station_Nam":"HANOVER","Latitude":"43.70520","Longitude":"-72.28550","Snowdepth":"1.000","Units":"in","Rept_Date":"2020-03-26 18"},"coordinates":[5856,1776]},{"type":"Point","properties":{"Station_ID":"GYX","Station_Nam":"PORTLAND, ME","Latitude":"43.89250","Longitude":"-70.25500","Snowdepth":"1.000","Units":"in","Rept_Date":"2020-03-26 12"},"coordinates":[6333,1968]},{"type":"Point","properties":{"Station_ID":"FDRN8","Station_Nam":"FARGO 3S","Latitude":"46.82930","Longitude":"-96.79620","Snowdepth":"1.000","Units":"in","Rept_Date":"2020-03-27 00"},"coordinates":[104,4979]},{"type":"Point","properties":{"Station_ID":"FAR","Station_Nam":"HECTOR INTERNATIONAL ARPT","Latitude":"46.91560","Longitude":"-96.81440","Snowdepth":"1.000","Units":"in","Rept_Date":"2020-03-27 00"},"coordinates":[100,5067]},{"type":"Point","properties":{"Station_ID":"ENGM4","Station_Nam":"ENGADINE MDOT","Latitude":"46.12800","Longitude":"-85.56960","Snowdepth":"1.000","Units":"in","Rept_Date":"2020-03-26 11"},"coordinates":[2739,4260]},{"type":"Point","properties":{"Station_ID":"EJNM4","Station_Nam":"EAST JORDAN 2NW","Latitude":"45.18630","Longitude":"-85.14770","Snowdepth":"1.000","Units":"in","Rept_Date":"2020-03-26 12"},"coordinates":[2838,3294]},{"type":"Point","properties":{"Station_ID":"DTVM4","Station_Nam":"DETOUR VILLAGE","Latitude":"45.99830","Longitude":"-83.90130","Snowdepth":"1.000","Units":"in","Rept_Date":"2020-03-26 12"},"coordinates":[3130,4127]},{"type":"Point","properties":{"Station_ID":"DLSN6","Station_Nam":"DELANSON 2NE","Latitude":"42.76720","Longitude":"-74.17110","Snowdepth":"1.000","Units":"in","Rept_Date":"2020-03-26 11"},"coordinates":[5414,815]},{"type":"Point","properties":{"Station_ID":"CWLV1","Station_Nam":"CORNWALL","Latitude":"43.95730","Longitude":"-73.21060","Snowdepth":"1.000","Units":"in","Rept_Date":"2020-03-26 11"},"coordinates":[5639,2035]},{"type":"Point","properties":{"Station_ID":"CORM1","Station_Nam":"CORINNA","Latitude":"44.91980","Longitude":"-69.24180","Snowdepth":"1.000","Units":"in","Rept_Date":"2020-03-26 14"},"coordinates":[6571,3021]},{"type":"Point","properties":{"Station_ID":"CON","Station_Nam":"CONCORD MUNI ARPT","Latitude":"43.20280","Longitude":"-71.50220","Snowdepth":"1.000","Units":"in","Rept_Date":"2020-03-26 12"},"coordinates":[6040,1261]},{"type":"Point","properties":{"Station_ID":"BSKN6","Station_Nam":"BUSKIRK","Latitude":"42.93610","Longitude":"-73.43250","Snowdepth":"1.000","Units":"in","Rept_Date":"2020-03-26 12"},"coordinates":[5587,988]},{"type":"Point","properties":{"Station_ID":"BKEM5","Station_Nam":"BRECKENRIDGE 4NE","Latitude":"46.30470","Longitude":"-96.52170","Snowdepth":"1.000","Units":"in","Rept_Date":"2020-03-26 11"},"coordinates":[168,4441]}]}},"arcs":[],"transform":{"scale":[0.004260890089008902,0.000975537553755376],"translate":[-97.2386,41.9725]}}