{"type":"Topology","objects":{"snowdepth_geo":{"type":"GeometryCollection","name":"snowdepth","crs":{"type":"name","properties":{"name":"urn:ogc:def:crs:OGC:1.3:CRS84"}},"geometries":[{"type":"Point","properties":{"Station_ID":"NY-ER-158","Station_Nam":"EAST AURORA 2.7 SSE, NY","Latitude":"42.72936","Longitude":"-78.60561","Snowdepth":"85.000","Units":"in","Rept_Date":"2020-12-28 12"},"coordinates":[5469,4619]},{"type":"Point","properties":{"Station_ID":"PRKM4","Station_Nam":"MUNISING EAST","Latitude":"46.42580","Longitude":"-86.62000","Snowdepth":"76.500","Units":"in","Rept_Date":"2020-12-29 06"},"coordinates":[3117,6829]},{"type":"Point","properties":{"Station_ID":"TRIQ6","Station_Nam":"TRIO LAKE","Latitude":"49.22880","Longitude":"-87.22920","Snowdepth":"24.410","Units":"in","Rept_Date":"2020-12-29 06"},"coordinates":[2938,8505]},{"type":"Point","properties":{"Station_ID":"AUDQ6","Station_Nam":"AUDEN","Latitude":"48.52600","Longitude":"-82.57570","Snowdepth":"23.460","Units":"in","Rept_Date":"2020-12-29 06"},"coordinates":[4304,8085]},{"type":"Point","properties":{"Station_ID":"PTLQ6","Station_Nam":"PORTAGE LAKE","Latitude":"49.06950","Longitude":"-86.65940","Snowdepth":"22.760","Units":"in","Rept_Date":"2020-12-29 06"},"coordinates":[3105,8410]},{"type":"Point","properties":{"Station_ID":"CAN-ON-335","Station_Nam":"NAKINA 1.6 NW - MNRF, CAN","Latitude":"50.18910","Longitude":"-86.72684","Snowdepth":"22.700","Units":"in","Rept_Date":"2020-12-28 13"},"coordinates":[3085,9080]},{"type":"Point","properties":{"Station_ID":"DVLQ6","Station_Nam":"DEVIOUS LAKE","Latitude":"49.19890","Longitude":"-87.76440","Snowdepth":"20.550","Units":"in","Rept_Date":"2020-12-29 06"},"coordinates":[2781,8488]},{"type":"Point","properties":{"Station_ID":"QLB","Station_Nam":"QLB","Latitude":"50.72360","Longitude":"-75.10000","Snowdepth":"20.276","Units":"in","Rept_Date":"2020-12-28 12"},"coordinates":[6498,9399]},{"type":"Point","properties":{"Station_ID":"QCU","Station_Nam":"QCU","Latitude":"47.82750","Longitude":"-76.59830","Snowdepth":"17.992","Units":"in","Rept_Date":"2020-12-28 12"},"coordinates":[6058,7668]},{"type":"Point","properties":{"Station_ID":"SNOW2","Station_Nam":"SNOWSHOE","Latitude":"38.39900","Longitude":"-79.99490","Snowdepth":"17.000","Units":"in","Rept_Date":"2020-12-28 11"},"coordinates":[5061,2030]},{"type":"Point","properties":{"Station_ID":"CAN-ON-245","Station_Nam":"PHELPSTON 3.1 ESE, CAN","Latitude":"44.50564","Longitude":"-79.81035","Snowdepth":"17.000","Units":"in","Rept_Date":"2020-12-28 12"},"coordinates":[5116,5681]},{"type":"Point","properties":{"Station_ID":"QGO","Station_Nam":"QGO","Latitude":"48.85500","Longitude":"-74.20640","Snowdepth":"16.417","Units":"in","Rept_Date":"2020-12-28 12"},"coordinates":[6760,8282]},{"type":"Point","properties":{"Station_ID":"QCO","Station_Nam":"QCO","Latitude":"51.45280","Longitude":"-72.20110","Snowdepth":"16.063","Units":"in","Rept_Date":"2020-12-28 12"},"coordinates":[7349,9835]},{"type":"Point","properties":{"Station_ID":"HERM4","Station_Nam":"HERMAN,MI","Latitude":"46.65000","Longitude":"-88.33330","Snowdepth":"16.000","Units":"in","Rept_Date":"2020-12-28 13"},"coordinates":[2614,6964]},{"type":"Point","properties":{"Station_ID":"NC-ML-2","Station_Nam":"BAKERSVILLE 2.5 SE, NC","Latitude":"35.98900","Longitude":"-82.12800","Snowdepth":"15.000","Units":"in","Rept_Date":"2020-12-28 13"},"coordinates":[4435,589]},{"type":"Point","properties":{"Station_ID":"IWOM4","Station_Nam":"IRONWOOD#2","Latitude":"46.46520","Longitude":"-90.13820","Snowdepth":"15.000","Units":"in","Rept_Date":"2020-12-28 13"},"coordinates":[2084,6853]},{"type":"Point","properties":{"Station_ID":"HURW3","Station_Nam":"HURLEY","Latitude":"46.46250","Longitude":"-90.19550","Snowdepth":"15.000","Units":"in","Rept_Date":"2020-12-28 14"},"coordinates":[2067,6851]},{"type":"Point","properties":{"Station_ID":"OGIQ6","Station_Nam":"OGOKI CAMP","Latitude":"50.76680","Longitude":"-87.85820","Snowdepth":"14.690","Units":"in","Rept_Date":"2020-12-29 06"},"coordinates":[2753,9425]},{"type":"Point","properties":{"Station_ID":"QTM","Station_Nam":"QTM","Latitude":"51.05780","Longitude":"-72.57190","Snowdepth":"14.606","Units":"in","Rept_Date":"2020-12-28 12"},"coordinates":[7240,9599]},{"type":"Point","properties":{"Station_ID":"PDLM4","Station_Nam":"PAINESDALE","Latitude":"47.04160","Longitude":"-88.67170","Snowdepth":"14.000","Units":"in","Rept_Date":"2020-12-28 13"},"coordinates":[2515,7198]},{"type":"Point","properties":{"Station_ID":"NY-JF-30","Station_Nam":"WEST CARTHAGE 0.3 ENE, NY","Latitude":"43.97493","Longitude":"-75.61640","Snowdepth":"13.300","Units":"in","Rept_Date":"2020-12-28 12"},"coordinates":[6347,5364]},{"type":"Point","properties":{"Station_ID":"NY-ER-65","Station_Nam":"BOSTON 1.5 NE, NY","Latitude":"42.65470","Longitude":"-78.72010","Snowdepth":"13.000","Units":"in","Rept_Date":"2020-12-28 12"},"coordinates":[5436,4575]},{"type":"Point","properties":{"Station_ID":"KSGM4","Station_Nam":"KEARSARGE","Latitude":"47.27520","Longitude":"-88.41700","Snowdepth":"13.000","Units":"in","Rept_Date":"2020-12-28 13"},"coordinates":[2589,7337]},{"type":"Point","properties":{"Station_ID":"QMD","Station_Nam":"QMD","Latitude":"49.29060","Longitude":"-75.84500","Snowdepth":"12.362","Units":"in","Rept_Date":"2020-12-28 12"},"coordinates":[6279,8542]},{"type":"Point","properties":{"Station_ID":"QLI","Station_Nam":"QLI","Latitude":"50.27080","Longitude":"-73.92280","Snowdepth":"12.323","Units":"in","Rept_Date":"2020-12-28 12"},"coordinates":[6844,9128]},{"type":"Point","properties":{"Station_ID":"SOCQ6","Station_Nam":"SOCKET LAKE","Latitude":"50.77870","Longitude":"-91.79300","Snowdepth":"12.240","Units":"in","Rept_Date":"2020-12-29 06"},"coordinates":[1598,9432]},{"type":"Point","properties":{"Station_ID":"KABQ6","Station_Nam":"CAB LAKE","Latitude":"49.59950","Longitude":"-89.17990","Snowdepth":"12.010","Units":"in","Rept_Date":"2020-12-29 06"},"coordinates":[2365,8727]},{"type":"Point","properties":{"Station_ID":"WLFM5","Station_Nam":"WOLF RIDGE ENVIRON LEARNING CENTER","Latitude":"47.38240","Longitude":"-91.19730","Snowdepth":"12.000","Units":"in","Rept_Date":"2020-12-28 13"},"coordinates":[1773,7401]},{"type":"Point","properties":{"Station_ID":"PRDM4","Station_Nam":"PARADISE","Latitude":"46.60380","Longitude":"-85.03960","Snowdepth":"12.000","Units":"in","Rept_Date":"2020-12-28 20"},"coordinates":[3581,6936]},{"type":"Point","properties":{"Station_ID":"NY-ER-96","Station_Nam":"ELMA 2.7 WSW, NY","Latitude":"42.81004","Longitude":"-78.68130","Snowdepth":"12.000","Units":"in","Rept_Date":"2020-12-28 12"},"coordinates":[5447,4668]},{"type":"Point","properties":{"Station_ID":"MN-SL-15","Station_Nam":"CHISHOLM 0.4 WSW, MN","Latitude":"47.48557","Longitude":"-92.88690","Snowdepth":"11.500","Units":"in","Rept_Date":"2020-12-28 13"},"coordinates":[1277,7463]},{"type":"Point","properties":{"Station_ID":"SVBQ6","Station_Nam":"SAVANT BASE","Latitude":"50.28730","Longitude":"-90.65670","Snowdepth":"11.300","Units":"in","Rept_Date":"2020-12-29 06"},"coordinates":[1932,9138]},{"type":"Point","properties":{"Station_ID":"TWOM5","Station_Nam":"TWO HARBORS,MN","Latitude":"47.12580","Longitude":"-91.70750","Snowdepth":"11.000","Units":"in","Rept_Date":"2020-12-29 01"},"coordinates":[1623,7248]},{"type":"Point","properties":{"Station_ID":"SWTW3","Station_Nam":"SUPERIOR WWTP","Latitude":"46.72700","Longitude":"-92.07200","Snowdepth":"11.000","Units":"in","Rept_Date":"2020-12-29 06"},"coordinates":[1517,7010]},{"type":"Point","properties":{"Station_ID":"QNCM4","Station_Nam":"QUINCY HILL","Latitude":"47.13640","Longitude":"-88.57950","Snowdepth":"11.000","Units":"in","Rept_Date":"2020-12-28 15"},"coordinates":[2542,7254]},{"type":"Point","properties":{"Station_ID":"NY-ER-166","Station_Nam":"BOSTON 2.5 NE, NY","Latitude":"42.65480","Longitude":"-78.70300","Snowdepth":"11.000","Units":"in","Rept_Date":"2020-12-28 12"},"coordinates":[5441,4575]},{"type":"Point","properties":{"Station_ID":"MI-BG-3","Station_Nam":"THREE LAKES, MI","Latitude":"46.55730","Longitude":"-88.20770","Snowdepth":"11.000","Units":"in","Rept_Date":"2020-12-28 13"},"coordinates":[2651,6908]},{"type":"Point","properties":{"Station_ID":"KABM5","Station_Nam":"KABETOGAMA LAKE VISITOR CTR","Latitude":"48.40880","Longitude":"-93.04840","Snowdepth":"11.000","Units":"in","Rept_Date":"2020-12-28 13"},"coordinates":[1230,8015]},{"type":"Point","properties":{"Station_ID":"BBEM4","Station_Nam":"BIG BAY 9SW","Latitude":"46.74620","Longitude":"-87.88160","Snowdepth":"11.000","Units":"in","Rept_Date":"2020-12-28 13"},"coordinates":[2746,7021]},{"type":"Point","properties":{"Station_ID":"QOU","Station_Nam":"QOU","Latitude":"50.79250","Longitude":"-69.67470","Snowdepth":"10.827","Units":"in","Rept_Date":"2020-12-28 12"},"coordinates":[8091,9440]},{"type":"Point","properties":{"Station_ID":"NY-OS-21","Station_Nam":"PULASKI 0.5 NE, NY","Latitude":"43.56997","Longitude":"-76.11950","Snowdepth":"10.500","Units":"in","Rept_Date":"2020-12-28 11"},"coordinates":[6199,5122]},{"type":"Point","properties":{"Station_ID":"MN-CK-6","Station_Nam":"GRAND MARAIS 4.4 W, MN","Latitude":"47.74865","Longitude":"-90.43760","Snowdepth":"10.500","Units":"in","Rept_Date":"2020-12-28 12"},"coordinates":[1996,7620]},{"type":"Point","properties":{"Station_ID":"QFT","Station_Nam":"QFT","Latitude":"50.83280","Longitude":"-74.40390","Snowdepth":"10.472","Units":"in","Rept_Date":"2020-12-28 12"},"coordinates":[6702,9464]},{"type":"Point","properties":{"Station_ID":"WNDP1","Station_Nam":"WINDBER COUNTY CLUB","Latitude":"40.28780","Longitude":"-78.77530","Snowdepth":"10.000","Units":"in","Rept_Date":"2020-12-28 12"},"coordinates":[5419,3160]},{"type":"Point","properties":{"Station_ID":"WI-BT-21","Station_Nam":"GRANTSBURG 0.6 SW (KWIGRANT1), WI","Latitude":"45.77559","Longitude":"-92.69432","Snowdepth":"10.000","Units":"in","Rept_Date":"2020-12-28 14"},"coordinates":[1334,6441]},{"type":"Point","properties":{"Station_ID":"NY-ER-56","Station_Nam":"COLDEN 1.4 NNW, NY","Latitude":"42.64740","Longitude":"-78.71120","Snowdepth":"10.000","Units":"in","Rept_Date":"2020-12-28 12"},"coordinates":[5438,4570]},{"type":"Point","properties":{"Station_ID":"NY-ER-189","Station_Nam":"HAMBURG 2.0 N, NY","Latitude":"42.75337","Longitude":"-78.83452","Snowdepth":"10.000","Units":"in","Rept_Date":"2020-12-28 12"},"coordinates":[5402,4634]},{"type":"Point","properties":{"Station_ID":"NY-ER-178","Station_Nam":"WEST SENECA 2.5 SE, NY","Latitude":"42.81374","Longitude":"-78.71399","Snowdepth":"10.000","Units":"in","Rept_Date":"2020-12-28 12"},"coordinates":[5437,4670]},{"type":"Point","properties":{"Station_ID":"MN-CV-40","Station_Nam":"EXCELSIOR 0.8 S, MN","Latitude":"44.88996","Longitude":"-93.56646","Snowdepth":"10.000","Units":"in","Rept_Date":"2020-12-28 13"},"coordinates":[1078,5911]},{"type":"Point","properties":{"Station_ID":"MMNV1","Station_Nam":"MT. MANSFIELD","Latitude":"44.52480","Longitude":"-72.81540","Snowdepth":"10.000","Units":"in","Rept_Date":"2020-12-28 21"},"coordinates":[7169,5693]},{"type":"Point","properties":{"Station_ID":"COKM5","Station_Nam":"COOK","Latitude":"47.85060","Longitude":"-92.69250","Snowdepth":"10.000","Units":"in","Rept_Date":"2020-12-28 12"},"coordinates":[1334,7681]},{"type":"Point","properties":{"Station_ID":"CODN6","Station_Nam":"COLDEN","Latitude":"42.64720","Longitude":"-78.71110","Snowdepth":"10.000","Units":"in","Rept_Date":"2020-12-28 12"},"coordinates":[5438,4570]},{"type":"Point","properties":{"Station_ID":"CAN-ON-118","Station_Nam":"DURHAM 1.4 S, CAN","Latitude":"44.16525","Longitude":"-80.82064","Snowdepth":"10.000","Units":"in","Rept_Date":"2020-12-28 12"},"coordinates":[4819,5478]},{"type":"Point","properties":{"Station_ID":"CAN-MB-56","Station_Nam":"WINNIPEG 7.6 ENE, CAN","Latitude":"49.93264","Longitude":"-97.04752","Snowdepth":"10.000","Units":"in","Rept_Date":"2020-12-28 14"},"coordinates":[56,8926]},{"type":"Point","properties":{"Station_ID":"BRUM5","Station_Nam":"BRUNO,MN","Latitude":"46.28330","Longitude":"-92.50000","Snowdepth":"10.000","Units":"in","Rept_Date":"2020-12-28 14"},"coordinates":[1391,6744]},{"type":"Point","properties":{"Station_ID":"BNDM5","Station_Nam":"ELY 25E","Latitude":"47.97190","Longitude":"-91.44860","Snowdepth":"10.000","Units":"in","Rept_Date":"2020-12-28 13"},"coordinates":[1699,7754]},{"type":"Point","properties":{"Station_ID":"BABM5","Station_Nam":"BABBITT","Latitude":"47.71210","Longitude":"-91.95330","Snowdepth":"10.000","Units":"in","Rept_Date":"2020-12-28 13"},"coordinates":[1551,7599]},{"type":"Point","properties":{"Station_ID":"NY-ER-39","Station_Nam":"HAMBURG 0.4 WSW, NY","Latitude":"42.72253","Longitude":"-78.84330","Snowdepth":"9.500","Units":"in","Rept_Date":"2020-12-28 12"},"coordinates":[5399,4615]},{"type":"Point","properties":{"Station_ID":"MN-SL-143","Station_Nam":"CANYON 4.6 NNE, MN","Latitude":"47.09800","Longitude":"-92.42170","Snowdepth":"9.500","Units":"in","Rept_Date":"2020-12-28 13"},"coordinates":[1414,7231]},{"type":"Point","properties":{"Station_ID":"MN-LK-4","Station_Nam":"TWO HARBORS 3.6 WNW, MN","Latitude":"47.04118","Longitude":"-91.75280","Snowdepth":"9.200","Units":"in","Rept_Date":"2020-12-28 13"},"coordinates":[1610,7197]},{"type":"Point","properties":{"Station_ID":"CAN-ON-741","Station_Nam":"KIMBERLEY 2.7 WSW, CAN","Latitude":"44.37820","Longitude":"-80.56956","Snowdepth":"9.100","Units":"in","Rept_Date":"2020-12-28 13"},"coordinates":[4893,5605]},{"type":"Point","properties":{"Station_ID":"WRSM5","Station_Nam":"WRENSHALL","Latitude":"46.61550","Longitude":"-92.38380","Snowdepth":"9.000","Units":"in","Rept_Date":"2020-12-28 14"},"coordinates":[1425,6943]},{"type":"Point","properties":{"Station_ID":"WLDM5","Station_Nam":"WILD RIVER STATE PARK","Latitude":"45.52310","Longitude":"-92.74890","Snowdepth":"9.000","Units":"in","Rept_Date":"2020-12-28 14"},"coordinates":[1318,6290]},{"type":"Point","properties":{"Station_ID":"RDFN6","Station_Nam":"REDFIELD 8N","Latitude":"43.64130","Longitude":"-75.88400","Snowdepth":"9.000","Units":"in","Rept_Date":"2020-12-28 12"},"coordinates":[6268,5165]},{"type":"Point","properties":{"Station_ID":"NY-ER-177","Station_Nam":"CLARENCE 3.8 SSW, NY","Latitude":"42.96084","Longitude":"-78.66569","Snowdepth":"9.000","Units":"in","Rept_Date":"2020-12-28 12"},"coordinates":[5452,4758]},{"type":"Point","properties":{"Station_ID":"NY-ER-102","Station_Nam":"CHEEKTOWAGA 2.7 NE, NY","Latitude":"42.94119","Longitude":"-78.71933","Snowdepth":"9.000","Units":"in","Rept_Date":"2020-12-28 12"},"coordinates":[5436,4746]},{"type":"Point","properties":{"Station_ID":"MN-CG-16","Station_Nam":"NORTH BRANCH 1.3 NNW, MN","Latitude":"45.53121","Longitude":"-92.97110","Snowdepth":"9.000","Units":"in","Rept_Date":"2020-12-28 12"},"coordinates":[1253,6295]},{"type":"Point","properties":{"Station_ID":"MN-AA-56","Station_Nam":"BLAINE 2.2 NNW, MN","Latitude":"45.19838","Longitude":"-93.22812","Snowdepth":"9.000","Units":"in","Rept_Date":"2020-12-28 14"},"coordinates":[1177,6096]},{"type":"Point","properties":{"Station_ID":"MI-HG-20","Station_Nam":"CALUMET 1.1 SSW, MI","Latitude":"47.23165","Longitude":"-88.45823","Snowdepth":"9.000","Units":"in","Rept_Date":"2020-12-28 11"},"coordinates":[2577,7311]},{"type":"Point","properties":{"Station_ID":"LUCW3","Station_Nam":"LUCK","Latitude":"45.57330","Longitude":"-92.48520","Snowdepth":"9.000","Units":"in","Rept_Date":"2020-12-28 20"},"coordinates":[1395,6320]},{"type":"Point","properties":{"Station_ID":"IRMM4","Station_Nam":"WWTP","Latitude":"46.46670","Longitude":"-90.18330","Snowdepth":"9.000","Units":"in","Rept_Date":"2020-12-28 13"},"coordinates":[2071,6854]},{"type":"Point","properties":{"Station_ID":"FLDM5","Station_Nam":"FLOODWOOD,MN","Latitude":"47.00000","Longitude":"-92.91670","Snowdepth":"9.000","Units":"in","Rept_Date":"2020-12-28 14"},"coordinates":[1269,7173]},{"type":"Point","properties":{"Station_ID":"ELYM5","Station_Nam":"ELY","Latitude":"47.90560","Longitude":"-91.82830","Snowdepth":"9.000","Units":"in","Rept_Date":"2020-12-28 14"},"coordinates":[1588,7714]},{"type":"Point","properties":{"Station_ID":"ELKM5","Station_Nam":"ELK RIVER","Latitude":"45.30470","Longitude":"-93.58420","Snowdepth":"9.000","Units":"in","Rept_Date":"2020-12-28 13"},"coordinates":[1073,6159]},{"type":"Point","properties":{"Station_ID":"41.8966_080.1567","Station_Nam":"2 NW EDINBORO  SNOW SPOTTER (CLE0251)","Latitude":"41.89660","Longitude":"-80.15670","Snowdepth":"9.000","Units":"in","Rept_Date":"2020-12-29 02"},"coordinates":[5014,4121]},{"type":"Point","properties":{"Station_ID":"CATQ6","Station_Nam":"CAT LAKE","Latitude":"51.72690","Longitude":"-91.82210","Snowdepth":"8.820","Units":"in","Rept_Date":"2020-12-29 06"},"coordinates":[1590,9999]},{"type":"Point","properties":{"Station_ID":"NY-ER-75","Station_Nam":"ELMA CENTER 0.7 SE, NY","Latitude":"42.81936","Longitude":"-78.62140","Snowdepth":"8.500","Units":"in","Rept_Date":"2020-12-28 13"},"coordinates":[5465,4673]},{"type":"Point","properties":{"Station_ID":"MN-SL-108","Station_Nam":"IRON JUNCTION 3.4 NNW, MN","Latitude":"47.46150","Longitude":"-92.63130","Snowdepth":"8.500","Units":"in","Rept_Date":"2020-12-28 14"},"coordinates":[1352,7449]},{"type":"Point","properties":{"Station_ID":"MN-HN-134","Station_Nam":"BROOKLYN CENTER 1.1 E, MN","Latitude":"45.06744","Longitude":"-93.29334","Snowdepth":"8.500","Units":"in","Rept_Date":"2020-12-28 13"},"coordinates":[1158,6017]},{"type":"Point","properties":{"Station_ID":"MN-AA-85","Station_Nam":"LINO LAKES 1.8 W, MN","Latitude":"45.16640","Longitude":"-93.12063","Snowdepth":"8.500","Units":"in","Rept_Date":"2020-12-28 13"},"coordinates":[1209,6076]},{"type":"Point","properties":{"Station_ID":"CAN-MB-32","Station_Nam":"PINAWA 1.0 SW, CA","Latitude":"50.14747","Longitude":"-95.89020","Snowdepth":"8.500","Units":"in","Rept_Date":"2020-12-28 13"},"coordinates":[396,9055]},{"type":"Point","properties":{"Station_ID":"CAN-MB-368","Station_Nam":"WHITESHELL 1.3 NE, CAN","Latitude":"49.74405","Longitude":"-95.19123","Snowdepth":"8.300","Units":"in","Rept_Date":"2020-12-28 14"},"coordinates":[601,8813]},{"type":"Point","properties":{"Station_ID":"WI-DG-20","Station_Nam":"SOLON SPRINGS 1.2 W, WI","Latitude":"46.35217","Longitude":"-91.84405","Snowdepth":"8.000","Units":"in","Rept_Date":"2020-12-28 13"},"coordinates":[1583,6785]},{"type":"Point","properties":{"Station_ID":"TOHM5","Station_Nam":"TWO HARBORS WWTP","Latitude":"47.01760","Longitude":"-91.66480","Snowdepth":"8.000","Units":"in","Rept_Date":"2020-12-28 13"},"coordinates":[1636,7183]},{"type":"Point","properties":{"Station_ID":"TOGM5","Station_Nam":"CELINA 2E","Latitude":"47.86630","Longitude":"-93.02660","Snowdepth":"8.000","Units":"in","Rept_Date":"2020-12-28 15"},"coordinates":[1236,7691]},{"type":"Point","properties":{"Station_ID":"SILN6","Station_Nam":"SILVER CREEK","Latitude":"42.53800","Longitude":"-79.16990","Snowdepth":"8.000","Units":"in","Rept_Date":"2020-12-28 12"},"coordinates":[5304,4505]},{"type":"Point","properties":{"Station_ID":"SCRW3","Station_Nam":"ST CROIX FALLS","Latitude":"45.41170","Longitude":"-92.64660","Snowdepth":"8.000","Units":"in","Rept_Date":"2020-12-28 13"},"coordinates":[1348,6223]},{"type":"Point","properties":{"Station_ID":"NYMM5","Station_Nam":"NEW YORK MILLS","Latitude":"46.50920","Longitude":"-95.37990","Snowdepth":"8.000","Units":"in","Rept_Date":"2020-12-28 13"},"coordinates":[546,6879]},{"type":"Point","properties":{"Station_ID":"MSP","Station_Nam":"MINNEAPOLIS-ST PAUL INTL AP","Latitude":"44.88310","Longitude":"-93.22890","Snowdepth":"8.000","Units":"in","Rept_Date":"2020-12-29 00"},"coordinates":[1177,5907]},{"type":"Point","properties":{"Station_ID":"MNSM4","Station_Nam":"MUNISING","Latitude":"46.41210","Longitude":"-86.66250","Snowdepth":"8.000","Units":"in","Rept_Date":"2020-12-28 11"},"coordinates":[3104,6821]},{"type":"Point","properties":{"Station_ID":"MN-WR-25","Station_Nam":"SAINT MICHAEL 2.0 ENE, MN","Latitude":"45.20820","Longitude":"-93.65280","Snowdepth":"8.000","Units":"in","Rept_Date":"2020-12-28 12"},"coordinates":[1053,6101]},{"type":"Point","properties":{"Station_ID":"MN-IS-21","Station_Nam":"ISANTI 5.0 SW, MN","Latitude":"45.43360","Longitude":"-93.30200","Snowdepth":"8.000","Units":"in","Rept_Date":"2020-12-28 14"},"coordinates":[1155,6236]},{"type":"Point","properties":{"Station_ID":"MN-IS-18","Station_Nam":"BRAHAM 0.7 SW, MN","Latitude":"45.71379","Longitude":"-93.18095","Snowdepth":"8.000","Units":"in","Rept_Date":"2020-12-28 14"},"coordinates":[1191,6404]},{"type":"Point","properties":{"Station_ID":"MN-HN-30","Station_Nam":"PLYMOUTH 2.4 ENE, MN","Latitude":"45.04063","Longitude":"-93.41950","Snowdepth":"8.000","Units":"in","Rept_Date":"2020-12-28 13"},"coordinates":[1121,6001]},{"type":"Point","properties":{"Station_ID":"MN-AA-76","Station_Nam":"NOWTHEN 2.9 SSE, MN","Latitude":"45.30360","Longitude":"-93.42620","Snowdepth":"8.000","Units":"in","Rept_Date":"2020-12-28 13"},"coordinates":[1119,6158]},{"type":"Point","properties":{"Station_ID":"MI-OT-17","Station_Nam":"GAYLORD 4.1 S, MI","Latitude":"44.96388","Longitude":"-84.68467","Snowdepth":"8.000","Units":"in","Rept_Date":"2020-12-28 13"},"coordinates":[3685,5955]},{"type":"Point","properties":{"Station_ID":"MI-KW-2","Station_Nam":"DELAWARE 5.2 SW, MI","Latitude":"47.36928","Longitude":"-88.17919","Snowdepth":"8.000","Units":"in","Rept_Date":"2020-12-28 09"},"coordinates":[2659,7394]},{"type":"Point","properties":{"Station_ID":"LKVN6","Station_Nam":"LAKE VIEW","Latitude":"42.73180","Longitude":"-78.92400","Snowdepth":"8.000","Units":"in","Rept_Date":"2020-12-28 13"},"coordinates":[5376,4621]},{"type":"Point","properties":{"Station_ID":"LEIM5","Station_Nam":"ORR 3E","Latitude":"48.05810","Longitude":"-92.75220","Snowdepth":"8.000","Units":"in","Rept_Date":"2020-12-28 12"},"coordinates":[1317,7805]},{"type":"Point","properties":{"Station_ID":"KMSP","Station_Nam":"MINNEAPOLIS-ST PAUL INTERNATIONAL","Latitude":"44.86666","Longitude":"-93.21666","Snowdepth":"8.000","Units":"in","Rept_Date":"2020-12-29 00"},"coordinates":[1181,5897]},{"type":"Point","properties":{"Station_ID":"ISPM4","Station_Nam":"WWTP","Latitude":"46.50000","Longitude":"-87.68330","Snowdepth":"8.000","Units":"in","Rept_Date":"2020-12-28 13"},"coordinates":[2805,6874]},{"type":"Point","properties":{"Station_ID":"INL","Station_Nam":"FALLS INTERNATIONAL ARPT","Latitude":"48.56640","Longitude":"-93.40310","Snowdepth":"8.000","Units":"in","Rept_Date":"2020-12-29 00"},"coordinates":[1126,8109]},{"type":"Point","properties":{"Station_ID":"IFSM5","Station_Nam":"INTERNATIONAL FALLS SNOW","Latitude":"48.57780","Longitude":"-93.39640","Snowdepth":"8.000","Units":"in","Rept_Date":"2020-12-28 12"},"coordinates":[1128,8116]},{"type":"Point","properties":{"Station_ID":"HGHN6","Station_Nam":"HIGHMARKET","Latitude":"43.60510","Longitude":"-75.55430","Snowdepth":"8.000","Units":"in","Rept_Date":"2020-12-28 11"},"coordinates":[6365,5143]},{"type":"Point","properties":{"Station_ID":"FORM5","Station_Nam":"FOREST LAKE 5NE","Latitude":"45.33170","Longitude":"-92.89820","Snowdepth":"8.000","Units":"in","Rept_Date":"2020-12-28 13"},"coordinates":[1274,6175]},{"type":"Point","properties":{"Station_ID":"COTM5","Station_Nam":"COTTON","Latitude":"47.16870","Longitude":"-92.46290","Snowdepth":"8.000","Units":"in","Rept_Date":"2020-12-28 12"},"coordinates":[1402,7274]},{"type":"Point","properties":{"Station_ID":"CAN-ON-5","Station_Nam":"OWEN SOUND 1.5 NW - GSCA, CAN","Latitude":"44.57837","Longitude":"-80.95461","Snowdepth":"8.000","Units":"in","Rept_Date":"2020-12-28 13"},"coordinates":[4780,5725]},{"type":"Point","properties":{"Station_ID":"BFHW3","Station_Nam":"BAYFIELD FISH HATCHERY","Latitude":"46.78670","Longitude":"-90.86420","Snowdepth":"8.000","Units":"in","Rept_Date":"2020-12-28 14"},"coordinates":[1871,7045]},{"type":"Point","properties":{"Station_ID":"CAN-ON-452","Station_Nam":"CHATSWORTH 1.8 ENE - GSCA, CAN","Latitude":"44.46118","Longitude":"-80.87506","Snowdepth":"7.900","Units":"in","Rept_Date":"2020-12-28 13"},"coordinates":[4803,5655]},{"type":"Point","properties":{"Station_ID":"WI-SR-1","Station_Nam":"HAYWARD 9.2 NNE, WI","Latitude":"46.13255","Longitude":"-91.40500","Snowdepth":"7.800","Units":"in","Rept_Date":"2020-12-28 12"},"coordinates":[1712,6654]},{"type":"Point","properties":{"Station_ID":"FTHQ6","Station_Nam":"FORT HOPE","Latitude":"51.55820","Longitude":"-87.90510","Snowdepth":"7.760","Units":"in","Rept_Date":"2020-12-29 06"},"coordinates":[2740,9898]},{"type":"Point","properties":{"Station_ID":"WI-PK-4","Station_Nam":"DRESSER 6.1 ESE, WI","Latitude":"45.32436","Longitude":"-92.52080","Snowdepth":"7.500","Units":"in","Rept_Date":"2020-12-28 14"},"coordinates":[1385,6171]},{"type":"Point","properties":{"Station_ID":"WI-BY-22","Station_Nam":"MASON 11.5 WNW, WI","Latitude":"46.50198","Longitude":"-91.28339","Snowdepth":"7.500","Units":"in","Rept_Date":"2020-12-28 14"},"coordinates":[1748,6875]},{"type":"Point","properties":{"Station_ID":"NY-ER-194","Station_Nam":"GLENWOOD 1.0 SE, NY","Latitude":"42.60740","Longitude":"-78.64610","Snowdepth":"7.500","Units":"in","Rept_Date":"2020-12-28 12"},"coordinates":[5457,4546]},{"type":"Point","properties":{"Station_ID":"NY-ER-151","Station_Nam":"CLARENCE CENTER 0.2 ESE, NY","Latitude":"43.00742","Longitude":"-78.62917","Snowdepth":"7.500","Units":"in","Rept_Date":"2020-12-28 12"},"coordinates":[5462,4786]},{"type":"Point","properties":{"Station_ID":"NY-CR-5","Station_Nam":"MARATHON 1.0 NW, NY","Latitude":"42.45161","Longitude":"-76.04370","Snowdepth":"7.500","Units":"in","Rept_Date":"2020-12-28 12"},"coordinates":[6221,4453]},{"type":"Point","properties":{"Station_ID":"NY-CQ-41","Station_Nam":"MAYVILLE 0.2 ESE, NY","Latitude":"42.25194","Longitude":"-79.49809","Snowdepth":"7.500","Units":"in","Rept_Date":"2020-12-28 12"},"coordinates":[5207,4334]},{"type":"Point","properties":{"Station_ID":"NY-CQ-22","Station_Nam":"FREDONIA 0.8 WNW, NY","Latitude":"42.44414","Longitude":"-79.34610","Snowdepth":"7.500","Units":"in","Rept_Date":"2020-12-28 10"},"coordinates":[5252,4449]},{"type":"Point","properties":{"Station_ID":"MN-HN-31","Station_Nam":"MAPLE GROVE 1.0 NNE, MN","Latitude":"45.12261","Longitude":"-93.45790","Snowdepth":"7.500","Units":"in","Rept_Date":"2020-12-28 14"},"coordinates":[1110,6050]},{"type":"Point","properties":{"Station_ID":"MN-CN-36","Station_Nam":"CLOQUET 3.4 ENE, MN","Latitude":"46.74146","Longitude":"-92.42698","Snowdepth":"7.500","Units":"in","Rept_Date":"2020-12-28 13"},"coordinates":[1412,7018]},{"type":"Point","properties":{"Station_ID":"CAN-ON-220","Station_Nam":"DEEP RIVER 1.5 SE - MNRF, CAN","Latitude":"46.09592","Longitude":"-77.47853","Snowdepth":"7.500","Units":"in","Rept_Date":"2020-12-28 12"},"coordinates":[5800,6632]},{"type":"Point","properties":{"Station_ID":"NY-CQ-9","Station_Nam":"DUNKIRK 0.7 SW, NY","Latitude":"42.47167","Longitude":"-79.33360","Snowdepth":"7.400","Units":"in","Rept_Date":"2020-12-28 12"},"coordinates":[5255,4465]},{"type":"Point","properties":{"Station_ID":"CAN-ON-804","Station_Nam":"KEMBLE 1.6 S - GSCA, CAN","Latitude":"44.71013","Longitude":"-80.92735","Snowdepth":"7.100","Units":"in","Rept_Date":"2020-12-28 13"},"coordinates":[4788,5804]},{"type":"Point","properties":{"Station_ID":"WTNM4","Station_Nam":"WATTON 2WSW","Latitude":"46.52660","Longitude":"-88.64240","Snowdepth":"7.000","Units":"in","Rept_Date":"2020-12-28 13"},"coordinates":[2523,6890]},{"type":"Point","properties":{"Station_ID":"WRIM5","Station_Nam":"WRIGHT 3E","Latitude":"46.68040","Longitude":"-92.95420","Snowdepth":"7.000","Units":"in","Rept_Date":"2020-12-28 12"},"coordinates":[1258,6982]},{"type":"Point","properties":{"Station_ID":"WI-WB-2","Station_Nam":"STONE LAKE 2.0 NW, WI","Latitude":"45.85960","Longitude":"-91.57710","Snowdepth":"7.000","Units":"in","Rept_Date":"2020-12-28 13"},"coordinates":[1662,6491]},{"type":"Point","properties":{"Station_ID":"WI-PC-5","Station_Nam":"RIVER FALLS 1.2 SSW, WI","Latitude":"44.84032","Longitude":"-92.63500","Snowdepth":"7.000","Units":"in","Rept_Date":"2020-12-28 13"},"coordinates":[1351,5881]},{"type":"Point","properties":{"Station_ID":"WI-BY-29","Station_Nam":"BAYFIELD 5.1 NNW, WI","Latitude":"46.88063","Longitude":"-90.85854","Snowdepth":"7.000","Units":"in","Rept_Date":"2020-12-28 13"},"coordinates":[1873,7101]},{"type":"Point","properties":{"Station_ID":"WI-BY-2","Station_Nam":"MELLEN 18.6 SW, WI","Latitude":"46.16937","Longitude":"-90.98090","Snowdepth":"7.000","Units":"in","Rept_Date":"2020-12-28 13"},"coordinates":[1837,6676]},{"type":"Point","properties":{"Station_ID":"WI-BY-15","Station_Nam":"BAYFIELD 1.7 SW, WI","Latitude":"46.79294","Longitude":"-90.84343","Snowdepth":"7.000","Units":"in","Rept_Date":"2020-12-28 13"},"coordinates":[1877,7049]},{"type":"Point","properties":{"Station_ID":"WI-BY-14","Station_Nam":"ASHLAND 9.8 W, WI","Latitude":"46.59742","Longitude":"-91.07856","Snowdepth":"7.000","Units":"in","Rept_Date":"2020-12-28 12"},"coordinates":[1808,6932]},{"type":"Point","properties":{"Station_ID":"WELM5","Station_Nam":"WELLS","Latitude":"43.74680","Longitude":"-93.73680","Snowdepth":"7.000","Units":"in","Rept_Date":"2020-12-28 14"},"coordinates":[1028,5228]},{"type":"Point","properties":{"Station_ID":"SRAW3","Station_Nam":"SARONA","Latitude":"45.80250","Longitude":"-91.86700","Snowdepth":"7.000","Units":"in","Rept_Date":"2020-12-28 13"},"coordinates":[1577,6457]},{"type":"Point","properties":{"Station_ID":"SGVN6","Station_Nam":"SPRINGVILLE","Latitude":"42.54970","Longitude":"-78.57670","Snowdepth":"7.000","Units":"in","Rept_Date":"2020-12-29 00"},"coordinates":[5478,4512]},{"type":"Point","properties":{"Station_ID":"PELW3","Station_Nam":"PELLA 3SE","Latitude":"44.73580","Longitude":"-88.73780","Snowdepth":"7.000","Units":"in","Rept_Date":"2020-12-28 11"},"coordinates":[2495,5819]},{"type":"Point","properties":{"Station_ID":"NY-CT-33","Station_Nam":"GREAT VALLEY 2.2 WNW, NY","Latitude":"42.22790","Longitude":"-78.67580","Snowdepth":"7.000","Units":"in","Rept_Date":"2020-12-28 13"},"coordinates":[5449,4320]},{"type":"Point","properties":{"Station_ID":"NOHM5","Station_Nam":"NORTHOME","Latitude":"47.83590","Longitude":"-94.25550","Snowdepth":"7.000","Units":"in","Rept_Date":"2020-12-28 13"},"coordinates":[876,7673]},{"type":"Point","properties":{"Station_ID":"NH-MR-60","Station_Nam":"SOUTH SUTTON 1.3 SE, NH","Latitude":"43.29531","Longitude":"-71.90238","Snowdepth":"7.000","Units":"in","Rept_Date":"2020-12-28 13"},"coordinates":[7437,4958]},{"type":"Point","properties":{"Station_ID":"MQT","Station_Nam":"MARQUETTE, MI","Latitude":"46.53140","Longitude":"-87.54920","Snowdepth":"7.000","Units":"in","Rept_Date":"2020-12-29 06"},"coordinates":[2844,6893]},{"type":"Point","properties":{"Station_ID":"MPXM5","Station_Nam":"CHANHASSEN WSFO","Latitude":"44.84960","Longitude":"-93.56440","Snowdepth":"7.000","Units":"in","Rept_Date":"2020-12-29 06"},"coordinates":[1078,5887]},{"type":"Point","properties":{"Station_ID":"MN-SL-115","Station_Nam":"COTTON 5.7 ESE, MN","Latitude":"47.15142","Longitude":"-92.35772","Snowdepth":"7.000","Units":"in","Rept_Date":"2020-12-28 14"},"coordinates":[1433,7263]},{"type":"Point","properties":{"Station_ID":"MN-IT-21","Station_Nam":"BOVEY 15.9 N, MN","Latitude":"47.52679","Longitude":"-93.40270","Snowdepth":"7.000","Units":"in","Rept_Date":"2020-12-28 12"},"coordinates":[1126,7488]},{"type":"Point","properties":{"Station_ID":"MN-IT-1","Station_Nam":"GRAND RAPIDS 2.0 E, MN","Latitude":"47.22266","Longitude":"-93.49600","Snowdepth":"7.000","Units":"in","Rept_Date":"2020-12-28 13"},"coordinates":[1099,7306]},{"type":"Point","properties":{"Station_ID":"MN-HN-298","Station_Nam":"EXCELSIOR 1.8 W, MN","Latitude":"44.89722","Longitude":"-93.60286","Snowdepth":"7.000","Units":"in","Rept_Date":"2020-12-28 13"},"coordinates":[1067,5916]},{"type":"Point","properties":{"Station_ID":"MN-HN-241","Station_Nam":"MAPLE GROVE 1.4 WSW, MN","Latitude":"45.10451","Longitude":"-93.48950","Snowdepth":"7.000","Units":"in","Rept_Date":"2020-12-28 13"},"coordinates":[1100,6039]},{"type":"Point","properties":{"Station_ID":"MN-GH-28","Station_Nam":"CANNON FALLS 0.5 SE, MN","Latitude":"44.50866","Longitude":"-92.89526","Snowdepth":"7.000","Units":"in","Rept_Date":"2020-12-28 14"},"coordinates":[1275,5683]},{"type":"Point","properties":{"Station_ID":"MN-CV-1","Station_Nam":"CARVER 0.7 W, MN","Latitude":"44.75728","Longitude":"-93.64160","Snowdepth":"7.000","Units":"in","Rept_Date":"2020-12-28 13"},"coordinates":[1056,5832]},{"type":"Point","properties":{"Station_ID":"MI-HG-1","Station_Nam":"HOUGHTON 1.6 ESE, MI","Latitude":"47.10774","Longitude":"-88.52940","Snowdepth":"7.000","Units":"in","Rept_Date":"2020-12-28 16"},"coordinates":[2556,7237]},{"type":"Point","properties":{"Station_ID":"KGTB","Station_Nam":"FORT DRUM / WHEELER-SACK U. S. ARMY AIRFIELD","Latitude":"44.05000","Longitude":"-75.73333","Snowdepth":"7.000","Units":"in","Rept_Date":"2020-12-29 06"},"coordinates":[6312,5409]},{"type":"Point","properties":{"Station_ID":"KBUF","Station_Nam":"GREATER BUFFALO INTERNATIONAL  AIRPORT","Latitude":"42.93333","Longitude":"-78.73333","Snowdepth":"7.000","Units":"in","Rept_Date":"2020-12-28 18"},"coordinates":[5432,4741]},{"type":"Point","properties":{"Station_ID":"HWLM4","Station_Nam":"HALFWAY LAKE","Latitude":"46.47480","Longitude":"-85.59250","Snowdepth":"7.000","Units":"in","Rept_Date":"2020-12-28 14"},"coordinates":[3418,6859]},{"type":"Point","properties":{"Station_ID":"HTLM4","Station_Nam":"SNOW PAID OBSERVER FOR KHTL","Latitude":"44.34470","Longitude":"-84.67730","Snowdepth":"7.000","Units":"in","Rept_Date":"2020-12-29 06"},"coordinates":[3687,5585]},{"type":"Point","properties":{"Station_ID":"HPN04_MADIS","Station_Nam":"HANOVER","Latitude":"45.16770","Longitude":"-93.63430","Snowdepth":"7.000","Units":"in","Rept_Date":"2020-12-29 06"},"coordinates":[1058,6077]},{"type":"Point","properties":{"Station_ID":"DKKN6","Station_Nam":"DUNKIRK 1S","Latitude":"42.47180","Longitude":"-79.33370","Snowdepth":"7.000","Units":"in","Rept_Date":"2020-12-28 12"},"coordinates":[5255,4465]},{"type":"Point","properties":{"Station_ID":"CSBP1","Station_Nam":"COOKSBURG","Latitude":"41.35750","Longitude":"-79.21720","Snowdepth":"7.000","Units":"in","Rept_Date":"2020-12-28 14"},"coordinates":[5290,3799]},{"type":"Point","properties":{"Station_ID":"COUW3","Station_Nam":"COUDERAY,WI","Latitude":"45.86670","Longitude":"-91.45000","Snowdepth":"7.000","Units":"in","Rept_Date":"2020-12-28 22"},"coordinates":[1699,6495]},{"type":"Point","properties":{"Station_ID":"CMKW3","Station_Nam":"CLAM LAKE 4W","Latitude":"46.16940","Longitude":"-90.98080","Snowdepth":"7.000","Units":"in","Rept_Date":"2020-12-28 13"},"coordinates":[1837,6676]},{"type":"Point","properties":{"Station_ID":"CLKM4","Station_Nam":"CLARKSBURG","Latitude":"46.49910","Longitude":"-87.84500","Snowdepth":"7.000","Units":"in","Rept_Date":"2020-12-28 12"},"coordinates":[2757,6873]},{"type":"Point","properties":{"Station_ID":"CBLW3","Station_Nam":"CUMBERLAND","Latitude":"45.53310","Longitude":"-92.02260","Snowdepth":"7.000","Units":"in","Rept_Date":"2020-12-28 13"},"coordinates":[1531,6296]},{"type":"Point","properties":{"Station_ID":"CAN-ON-451","Station_Nam":"OWEN SOUND 1.2 N - GSCA, CAN","Latitude":"44.58092","Longitude":"-80.93025","Snowdepth":"7.000","Units":"in","Rept_Date":"2020-12-28 13"},"coordinates":[4787,5726]},{"type":"Point","properties":{"Station_ID":"ATAN6","Station_Nam":"ATTICA 7 SW","Latitude":"42.81070","Longitude":"-78.39790","Snowdepth":"7.000","Units":"in","Rept_Date":"2020-12-28 11"},"coordinates":[5530,4668]},{"type":"Point","properties":{"Station_ID":"ANJM4","Station_Nam":"SNOW PAID OBSERVER FOR KANJ","Latitude":"46.48670","Longitude":"-84.40260","Snowdepth":"7.000","Units":"in","Rept_Date":"2020-12-29 06"},"coordinates":[3768,6866]},{"type":"Point","properties":{"Station_ID":"HPN02_MADIS","Station_Nam":"MAPLE GROVE","Latitude":"45.11820","Longitude":"-93.42830","Snowdepth":"6.600","Units":"in","Rept_Date":"2020-12-29 06"},"coordinates":[1118,6048]},{"type":"Point","properties":{"Station_ID":"QWE","Station_Nam":"QWE","Latitude":"47.84610","Longitude":"-73.80670","Snowdepth":"6.575","Units":"in","Rept_Date":"2020-12-28 12"},"coordinates":[6878,7679]},{"type":"Point","properties":{"Station_ID":"WI-PR-2","Station_Nam":"BUTTERNUT 5.9 SW, WI","Latitude":"45.96501","Longitude":"-90.59750","Snowdepth":"6.500","Units":"in","Rept_Date":"2020-12-28 12"},"coordinates":[1949,6554]},{"type":"Point","properties":{"Station_ID":"WI-IR-2","Station_Nam":"MERCER 2.0 SE, WI","Latitude":"46.14749","Longitude":"-90.03097","Snowdepth":"6.500","Units":"in","Rept_Date":"2020-12-28 13"},"coordinates":[2116,6663]},{"type":"Point","properties":{"Station_ID":"WI-BY-6","Station_Nam":"BARNES 2.2 S, WI","Latitude":"46.30264","Longitude":"-91.50320","Snowdepth":"6.500","Units":"in","Rept_Date":"2020-12-28 13"},"coordinates":[1683,6756]},{"type":"Point","properties":{"Station_ID":"MN-CW-22","Station_Nam":"FORT RIPLEY 0.8 N, MN","Latitude":"46.18089","Longitude":"-94.36510","Snowdepth":"6.500","Units":"in","Rept_Date":"2020-12-28 13"},"coordinates":[843,6683]},{"type":"Point","properties":{"Station_ID":"MN-BK-6","Station_Nam":"LAKE PARK 6.0 S, MN","Latitude":"46.79850","Longitude":"-96.12180","Snowdepth":"6.500","Units":"in","Rept_Date":"2020-12-28 13"},"coordinates":[328,7052]},{"type":"Point","properties":{"Station_ID":"MN-IT-7","Station_Nam":"GRAND RAPIDS 6.2 SSW, MN","Latitude":"47.13687","Longitude":"-93.56660","Snowdepth":"6.300","Units":"in","Rept_Date":"2020-12-28 12"},"coordinates":[1078,7255]},{"type":"Point","properties":{"Station_ID":"CAN-ON-771","Station_Nam":"KENORA 8.7 NNE - CANWARN, CAN","Latitude":"49.84171","Longitude":"-94.44386","Snowdepth":"6.200","Units":"in","Rept_Date":"2020-12-28 13"},"coordinates":[820,8872]},{"type":"Point","properties":{"Station_ID":"WLXP1","Station_Nam":"GLEN HAZEL,PA","Latitude":"41.56670","Longitude":"-78.60000","Snowdepth":"6.000","Units":"in","Rept_Date":"2020-12-28 12"},"coordinates":[5471,3924]},{"type":"Point","properties":{"Station_ID":"WLSN6","Station_Nam":"WALES","Latitude":"42.73920","Longitude":"-78.58780","Snowdepth":"6.000","Units":"in","Rept_Date":"2020-12-28 12"},"coordinates":[5474,4625]},{"type":"Point","properties":{"Station_ID":"WI-WB-16","Station_Nam":"SARONA 4.5 NNE, WI","Latitude":"45.77030","Longitude":"-91.76890","Snowdepth":"6.000","Units":"in","Rept_Date":"2020-12-28 13"},"coordinates":[1605,6438]},{"type":"Point","properties":{"Station_ID":"WI-VL-9","Station_Nam":"LAND O' LAKES 11.7 W, WI","Latitude":"46.19023","Longitude":"-89.45790","Snowdepth":"6.000","Units":"in","Rept_Date":"2020-12-28 13"},"coordinates":[2284,6689]},{"type":"Point","properties":{"Station_ID":"WI-PR-6","Station_Nam":"PHILLIPS 1.3 S, WI","Latitude":"45.67677","Longitude":"-90.39543","Snowdepth":"6.000","Units":"in","Rept_Date":"2020-12-28 12"},"coordinates":[2009,6382]},{"type":"Point","properties":{"Station_ID":"WI-PC-10","Station_Nam":"RIVER FALLS 1.4 S, WI","Latitude":"44.83580","Longitude":"-92.62100","Snowdepth":"6.000","Units":"in","Rept_Date":"2020-12-28 13"},"coordinates":[1355,5879]},{"type":"Point","properties":{"Station_ID":"WI-DG-16","Station_Nam":"POPLAR 2.0 E, WI","Latitude":"46.58390","Longitude":"-91.74620","Snowdepth":"6.000","Units":"in","Rept_Date":"2020-12-28 13"},"coordinates":[1612,6924]},{"type":"Point","properties":{"Station_ID":"WI-BT-14","Station_Nam":"OAKLAND 9.0 ENE, WI","Latitude":"45.95184","Longitude":"-92.21653","Snowdepth":"6.000","Units":"in","Rept_Date":"2020-12-28 13"},"coordinates":[1474,6546]},{"type":"Point","properties":{"Station_ID":"WI-AS-4","Station_Nam":"ASHLAND 0.5 WNW, WI","Latitude":"46.58240","Longitude":"-90.88390","Snowdepth":"6.000","Units":"in","Rept_Date":"2020-12-28 13"},"coordinates":[1865,6923]},{"type":"Point","properties":{"Station_ID":"SUAW3","Station_Nam":"SUAMICO","Latitude":"44.60190","Longitude":"-88.09780","Snowdepth":"6.000","Units":"in","Rept_Date":"2020-12-28 12"},"coordinates":[2683,5739]},{"type":"Point","properties":{"Station_ID":"SSMM4","Station_Nam":"SAULT STE MARIE","Latitude":"46.48660","Longitude":"-84.40250","Snowdepth":"6.000","Units":"in","Rept_Date":"2020-12-28 13"},"coordinates":[3768,6866]},{"type":"Point","properties":{"Station_ID":"SDYM5","Station_Nam":"DAM","Latitude":"46.81670","Longitude":"-93.36670","Snowdepth":"6.000","Units":"in","Rept_Date":"2020-12-28 14"},"coordinates":[1136,7063]},{"type":"Point","properties":{"Station_ID":"SBOP1","Station_Nam":"SPRINGBORO","Latitude":"41.81660","Longitude":"-80.43330","Snowdepth":"6.000","Units":"in","Rept_Date":"2020-12-28 12"},"coordinates":[4933,4074]},{"type":"Point","properties":{"Station_ID":"ROBW3","Station_Nam":"ROBERTS WWTP","Latitude":"44.97070","Longitude":"-92.56200","Snowdepth":"6.000","Units":"in","Rept_Date":"2020-12-28 14"},"coordinates":[1373,5959]},{"type":"Point","properties":{"Station_ID":"RKWI4","Station_Nam":"ROCKWELL CITY,IA","Latitude":"42.40000","Longitude":"-94.61670","Snowdepth":"6.000","Units":"in","Rept_Date":"2020-12-28 17"},"coordinates":[770,4422]},{"type":"Point","properties":{"Station_ID":"PDGM4","Station_Nam":"PAULDING","Latitude":"46.39760","Longitude":"-89.17940","Snowdepth":"6.000","Units":"in","Rept_Date":"2020-12-28 14"},"coordinates":[2366,6813]},{"type":"Point","properties":{"Station_ID":"PA-CW-8","Station_Nam":"SPRINGBORO 3.0 WNW, PA","Latitude":"41.81654","Longitude":"-80.42540","Snowdepth":"6.000","Units":"in","Rept_Date":"2020-12-28 12"},"coordinates":[4935,4074]},{"type":"Point","properties":{"Station_ID":"OH-TR-4","Station_Nam":"NEWTON FALLS 0.6 N, OH","Latitude":"41.19773","Longitude":"-80.97210","Snowdepth":"6.000","Units":"in","Rept_Date":"2020-12-28 12"},"coordinates":[4775,3704]},{"type":"Point","properties":{"Station_ID":"OCON6","Station_Nam":"OSCEOLA","Latitude":"43.50370","Longitude":"-75.72170","Snowdepth":"6.000","Units":"in","Rept_Date":"2020-12-28 13"},"coordinates":[6316,5082]},{"type":"Point","properties":{"Station_ID":"NY-TG-26","Station_Nam":"CANDOR 0.7 NW, NY","Latitude":"42.23428","Longitude":"-76.34758","Snowdepth":"6.000","Units":"in","Rept_Date":"2020-12-28 12"},"coordinates":[6132,4323]},{"type":"Point","properties":{"Station_ID":"NY-JF-26","Station_Nam":"MANNSVILLE 0.3 SE, NY","Latitude":"43.71225","Longitude":"-76.06210","Snowdepth":"6.000","Units":"in","Rept_Date":"2020-12-28 12"},"coordinates":[6216,5207]},{"type":"Point","properties":{"Station_ID":"NY-ER-50","Station_Nam":"EAST AURORA 0.1 ENE, NY","Latitude":"42.76750","Longitude":"-78.61580","Snowdepth":"6.000","Units":"in","Rept_Date":"2020-12-28 13"},"coordinates":[5466,4642]},{"type":"Point","properties":{"Station_ID":"NY-ER-122","Station_Nam":"CHEEKTOWAGA 2.4 NW, NY","Latitude":"42.93457","Longitude":"-78.78295","Snowdepth":"6.000","Units":"in","Rept_Date":"2020-12-28 12"},"coordinates":[5417,4742]},{"type":"Point","properties":{"Station_ID":"MTLT1","Station_Nam":"GATLINBURG,TN","Latitude":"35.65500","Longitude":"-83.44110","Snowdepth":"6.000","Units":"in","Rept_Date":"2020-12-28 13"},"coordinates":[4050,390]},{"type":"Point","properties":{"Station_ID":"MN-RM-56","Station_Nam":"ROSEVILLE 1.6 NW, MN","Latitude":"45.03303","Longitude":"-93.17523","Snowdepth":"6.000","Units":"in","Rept_Date":"2020-12-28 13"},"coordinates":[1193,5997]},{"type":"Point","properties":{"Station_ID":"MN-RM-2","Station_Nam":"NORTH SAINT PAUL 1.0 NNW, MN","Latitude":"45.02629","Longitude":"-93.00790","Snowdepth":"6.000","Units":"in","Rept_Date":"2020-12-28 13"},"coordinates":[1242,5993]},{"type":"Point","properties":{"Station_ID":"MN-RM-120","Station_Nam":"MAPLEWOOD 5.6 SSE, MN","Latitude":"44.90588","Longitude":"-92.99712","Snowdepth":"6.000","Units":"in","Rept_Date":"2020-12-28 15"},"coordinates":[1245,5921]},{"type":"Point","properties":{"Station_ID":"MN-HN-6","Station_Nam":"LONG LAKE 0.2 WSW, MN","Latitude":"44.98290","Longitude":"-93.57360","Snowdepth":"6.000","Units":"in","Rept_Date":"2020-12-28 13"},"coordinates":[1076,5967]},{"type":"Point","properties":{"Station_ID":"MN-HN-267","Station_Nam":"MINNEAPOLIS 2.5 SE, MN","Latitude":"44.93331","Longitude":"-93.23680","Snowdepth":"6.000","Units":"in","Rept_Date":"2020-12-28 13"},"coordinates":[1175,5937]},{"type":"Point","properties":{"Station_ID":"MN-CG-1","Station_Nam":"RUSH CITY 2.8 NE, MN","Latitude":"45.71686","Longitude":"-92.92570","Snowdepth":"6.000","Units":"in","Rept_Date":"2020-12-28 13"},"coordinates":[1266,6406]},{"type":"Point","properties":{"Station_ID":"MN-BK-16","Station_Nam":"PARK RAPIDS 15.3 NW, MN","Latitude":"47.08653","Longitude":"-95.26951","Snowdepth":"6.000","Units":"in","Rept_Date":"2020-12-28 14"},"coordinates":[578,7225]},{"type":"Point","properties":{"Station_ID":"MIEM4","Station_Nam":"MICHIGAMME 3WNW","Latitude":"46.54530","Longitude":"-88.18000","Snowdepth":"6.000","Units":"in","Rept_Date":"2020-12-28 13"},"coordinates":[2659,6901]},{"type":"Point","properties":{"Station_ID":"MI-OT-4","Station_Nam":"GAYLORD 1.7 WNW, MI","Latitude":"45.03280","Longitude":"-84.71090","Snowdepth":"6.000","Units":"in","Rept_Date":"2020-12-28 13"},"coordinates":[3677,5997]},{"type":"Point","properties":{"Station_ID":"MI-OG-6","Station_Nam":"WEST BRANCH 2.1 SSW, MI","Latitude":"44.24814","Longitude":"-84.25089","Snowdepth":"6.000","Units":"in","Rept_Date":"2020-12-28 13"},"coordinates":[3812,5527]},{"type":"Point","properties":{"Station_ID":"MI-BN-5","Station_Nam":"BUCHANAN 1.3 WNW, MI","Latitude":"41.83634","Longitude":"-86.38900","Snowdepth":"6.000","Units":"in","Rept_Date":"2020-12-28 12"},"coordinates":[3185,4085]},{"type":"Point","properties":{"Station_ID":"LNOW3","Station_Nam":"LAND O LAKES","Latitude":"46.19000","Longitude":"-89.45700","Snowdepth":"6.000","Units":"in","Rept_Date":"2020-12-28 13"},"coordinates":[2284,6688]},{"type":"Point","properties":{"Station_ID":"LAUP1","Station_Nam":"1.5MI S OF RT 30 ON SMIT (LAUREL RIDGE)","Latitude":"40.05000","Longitude":"-79.22060","Snowdepth":"6.000","Units":"in","Rept_Date":"2020-12-28 12"},"coordinates":[5289,3017]},{"type":"Point","properties":{"Station_ID":"INDM5","Station_Nam":"INDUS,MN","Latitude":"48.61670","Longitude":"-93.90000","Snowdepth":"6.000","Units":"in","Rept_Date":"2020-12-28 14"},"coordinates":[980,8139]},{"type":"Point","properties":{"Station_ID":"HVJP1","Station_Nam":"HIDDEN VALLEY COOP","Latitude":"40.04200","Longitude":"-79.25660","Snowdepth":"6.000","Units":"in","Rept_Date":"2020-12-28 13"},"coordinates":[5278,3013]},{"type":"Point","properties":{"Station_ID":"HTLN3","Station_Nam":"HERMIT LAKE SNOWPLOT","Latitude":"44.26130","Longitude":"-71.28330","Snowdepth":"6.000","Units":"in","Rept_Date":"2020-12-28 10"},"coordinates":[7618,5535]},{"type":"Point","properties":{"Station_ID":"HTL","Station_Nam":"ROSCOMMON COUNTY AIRPORT","Latitude":"44.35000","Longitude":"-84.66670","Snowdepth":"6.000","Units":"in","Rept_Date":"2020-12-29 00"},"coordinates":[3690,5588]},{"type":"Point","properties":{"Station_ID":"HPN11_MADIS","Station_Nam":"SAINT BONIFACIUS","Latitude":"44.89792","Longitude":"-93.73460","Snowdepth":"6.000","Units":"in","Rept_Date":"2020-12-29 06"},"coordinates":[1028,5916]},{"type":"Point","properties":{"Station_ID":"HPN08_MADIS","Station_Nam":"ORONO","Latitude":"44.93630","Longitude":"-93.62000","Snowdepth":"6.000","Units":"in","Rept_Date":"2020-12-29 06"},"coordinates":[1062,5939]},{"type":"Point","properties":{"Station_ID":"GOVN6","Station_Nam":"GOUVERNEUR 3 NW","Latitude":"44.35400","Longitude":"-75.51230","Snowdepth":"6.000","Units":"in","Rept_Date":"2020-12-28 12"},"coordinates":[6377,5591]},{"type":"Point","properties":{"Station_ID":"GLTP1","Station_Nam":"GALETON,PA","Latitude":"41.73330","Longitude":"-77.63330","Snowdepth":"6.000","Units":"in","Rept_Date":"2020-12-28 13"},"coordinates":[5755,4024]},{"type":"Point","properties":{"Station_ID":"GAYM4","Station_Nam":"GAYLORD","Latitude":"45.03320","Longitude":"-84.71130","Snowdepth":"6.000","Units":"in","Rept_Date":"2020-12-28 13"},"coordinates":[3677,5997]},{"type":"Point","properties":{"Station_ID":"EMBM5","Station_Nam":"EMBARASS,MN","Latitude":"47.65810","Longitude":"-92.19580","Snowdepth":"6.000","Units":"in","Rept_Date":"2020-12-28 12"},"coordinates":[1480,7566]},{"type":"Point","properties":{"Station_ID":"CSLM5","Station_Nam":"CASS LAKE,MN","Latitude":"47.38470","Longitude":"-94.61470","Snowdepth":"6.000","Units":"in","Rept_Date":"2020-12-28 14"},"coordinates":[770,7403]},{"type":"Point","properties":{"Station_ID":"COVP1","Station_Nam":"COVINGTON 2WSW","Latitude":"41.73330","Longitude":"-77.11670","Snowdepth":"6.000","Units":"in","Rept_Date":"2020-12-28 12"},"coordinates":[5906,4024]},{"type":"Point","properties":{"Station_ID":"CORN6","Station_Nam":"CORNING","Latitude":"42.13410","Longitude":"-77.06910","Snowdepth":"6.000","Units":"in","Rept_Date":"2020-12-28 12"},"coordinates":[5920,4263]},{"type":"Point","properties":{"Station_ID":"CHRM4","Station_Nam":"CHARLEVOIX","Latitude":"45.31720","Longitude":"-85.26720","Snowdepth":"6.000","Units":"in","Rept_Date":"2020-12-28 13"},"coordinates":[3514,6167]},{"type":"Point","properties":{"Station_ID":"CAAW2","Station_Nam":"CANAAN VALLEY","Latitude":"39.05890","Longitude":"-79.44030","Snowdepth":"6.000","Units":"in","Rept_Date":"2020-12-28 14"},"coordinates":[5224,2425]},{"type":"Point","properties":{"Station_ID":"BRAM5","Station_Nam":"BRAINERD","Latitude":"46.34320","Longitude":"-94.20900","Snowdepth":"6.000","Units":"in","Rept_Date":"2020-12-28 13"},"coordinates":[889,6780]},{"type":"Point","properties":{"Station_ID":"BKBW2","Station_Nam":"DAVIS.","Latitude":"39.09830","Longitude":"-79.43190","Snowdepth":"6.000","Units":"in","Rept_Date":"2020-12-28 12"},"coordinates":[5227,2448]},{"type":"Point","properties":{"Station_ID":"BAGM4","Station_Nam":"BARAGA 7NW","Latitude":"46.82100","Longitude":"-88.60590","Snowdepth":"6.000","Units":"in","Rept_Date":"2020-12-28 13"},"coordinates":[2534,7066]},{"type":"Point","properties":{"Station_ID":"AWXW3","Station_Nam":"ASHLAND","Latitude":"46.58240","Longitude":"-90.88390","Snowdepth":"6.000","Units":"in","Rept_Date":"2020-12-28 13"},"coordinates":[1865,6923]},{"type":"Point","properties":{"Station_ID":"ASXW3","Station_Nam":"ASHLAND,WI","Latitude":"46.55220","Longitude":"-90.91610","Snowdepth":"6.000","Units":"in","Rept_Date":"2020-12-28 14"},"coordinates":[1856,6905]},{"type":"Point","properties":{"Station_ID":"APN","Station_Nam":"PHELPS COLLINS FIELD","Latitude":"45.07810","Longitude":"-83.56030","Snowdepth":"6.000","Units":"in","Rept_Date":"2020-12-29 00"},"coordinates":[4015,6024]},{"type":"Point","properties":{"Station_ID":"ANJ","Station_Nam":"SAULT STE MARIE","Latitude":"46.46670","Longitude":"-84.36670","Snowdepth":"6.000","Units":"in","Rept_Date":"2020-12-29 00"},"coordinates":[3778,6854]},{"type":"Point","properties":{"Station_ID":"ALPM4","Station_Nam":"SNOW PAID OBSERVER FOR KAPN","Latitude":"45.03110","Longitude":"-83.55970","Snowdepth":"6.000","Units":"in","Rept_Date":"2020-12-29 00"},"coordinates":[4015,5996]},{"type":"Point","properties":{"Station_ID":"ACEP1","Station_Nam":"DONEGAL 2 NW","Latitude":"40.13470","Longitude":"-79.40720","Snowdepth":"6.000","Units":"in","Rept_Date":"2020-12-28 12"},"coordinates":[5234,3068]},{"type":"Point","properties":{"Station_ID":"41.7260_080.9910","Station_Nam":"3 E South Madison  Trained Spotter (CLE1474)","Latitude":"41.72602","Longitude":"-80.99102","Snowdepth":"6.000","Units":"in","Rept_Date":"2020-12-29 02"},"coordinates":[4769,4019]},{"type":"Point","properties":{"Station_ID":"PA-PT-2","Station_Nam":"ROULETTE 1.8 NNE, PA","Latitude":"41.80759","Longitude":"-78.14140","Snowdepth":"5.800","Units":"in","Rept_Date":"2020-12-28 12"},"coordinates":[5605,4068]},{"type":"Point","properties":{"Station_ID":"MFU","Station_Nam":"MFU","Latitude":"51.52170","Longitude":"-66.91110","Snowdepth":"5.709","Units":"in","Rept_Date":"2020-12-28 12"},"coordinates":[8902,9876]},{"type":"Point","properties":{"Station_ID":"MI-AG-6","Station_Nam":"MUNISING 11.1 SSW, MI","Latitude":"46.27805","Longitude":"-86.75747","Snowdepth":"5.700","Units":"in","Rept_Date":"2020-12-28 12"},"coordinates":[3076,6741]},{"type":"Point","properties":{"Station_ID":"NY-JF-42","Station_Nam":"EVANS MILLS 0.5 W, NY","Latitude":"44.08778","Longitude":"-75.81738","Snowdepth":"5.500","Units":"in","Rept_Date":"2020-12-28 13"},"coordinates":[6288,5432]},{"type":"Point","properties":{"Station_ID":"NY-ER-138","Station_Nam":"EAST AURORA 3.4 NNE, NY","Latitude":"42.81400","Longitude":"-78.59670","Snowdepth":"5.500","Units":"in","Rept_Date":"2020-12-28 12"},"coordinates":[5472,4670]},{"type":"Point","properties":{"Station_ID":"NY-BM-14","Station_Nam":"WHITNEY POINT 1.7 SSE, NY","Latitude":"42.30837","Longitude":"-75.95690","Snowdepth":"5.500","Units":"in","Rept_Date":"2020-12-28 13"},"coordinates":[6247,4368]},{"type":"Point","properties":{"Station_ID":"MN-RM-54","Station_Nam":"SAINT PAUL 5.1 SW, MN","Latitude":"44.90390","Longitude":"-93.18820","Snowdepth":"5.500","Units":"in","Rept_Date":"2020-12-28 13"},"coordinates":[1189,5919]},{"type":"Point","properties":{"Station_ID":"MN-IT-23","Station_Nam":"BOVEY 13.4 N, MN","Latitude":"47.48855","Longitude":"-93.43497","Snowdepth":"5.500","Units":"in","Rept_Date":"2020-12-28 13"},"coordinates":[1116,7465]},{"type":"Point","properties":{"Station_ID":"MN-RM-121","Station_Nam":"ROSEVILLE 0.4 ENE, MN","Latitude":"45.01701","Longitude":"-93.14711","Snowdepth":"5.400","Units":"in","Rept_Date":"2020-12-28 15"},"coordinates":[1201,5987]},{"type":"Point","properties":{"Station_ID":"WI-PC-25","Station_Nam":"ELLSWORTH 2.6 SW, WI","Latitude":"44.71119","Longitude":"-92.51849","Snowdepth":"5.200","Units":"in","Rept_Date":"2020-12-28 13"},"coordinates":[1385,5804]},{"type":"Point","properties":{"Station_ID":"PA-CR-1","Station_Nam":"EMPORIUM 2.6 S, PA","Latitude":"41.47342","Longitude":"-78.24330","Snowdepth":"5.100","Units":"in","Rept_Date":"2020-12-28 13"},"coordinates":[5575,3868]},{"type":"Point","properties":{"Station_ID":"OH-CY-58","Station_Nam":"SOUTH EUCLID 0.2 ESE, OH","Latitude":"41.52358","Longitude":"-81.52191","Snowdepth":"5.100","Units":"in","Rept_Date":"2020-12-28 13"},"coordinates":[4613,3898]},{"type":"Point","properties":{"Station_ID":"CAN-MB-298","Station_Nam":"GARDENTON 4.2 W - SRRCD, CAN","Latitude":"49.09480","Longitude":"-96.75446","Snowdepth":"5.100","Units":"in","Rept_Date":"2020-12-28 14"},"coordinates":[142,8425]},{"type":"Point","properties":{"Station_ID":"WVYN6","Station_Nam":"WAVERLY","Latitude":"41.98470","Longitude":"-76.50140","Snowdepth":"5.000","Units":"in","Rept_Date":"2020-12-28 12"},"coordinates":[6087,4174]},{"type":"Point","properties":{"Station_ID":"WTRM4","Station_Nam":"WATERSMEET 12WSW","Latitude":"46.22310","Longitude":"-89.40850","Snowdepth":"5.000","Units":"in","Rept_Date":"2020-12-28 12"},"coordinates":[2298,6708]},{"type":"Point","properties":{"Station_ID":"WRSN6","Station_Nam":"WARSAW 6SW","Latitude":"42.68550","Longitude":"-78.22020","Snowdepth":"5.000","Units":"in","Rept_Date":"2020-12-28 12"},"coordinates":[5582,4593]},{"type":"Point","properties":{"Station_ID":"WI-WN-7","Station_Nam":"OMRO 2.3 WSW, WI","Latitude":"44.02074","Longitude":"-88.77970","Snowdepth":"5.000","Units":"in","Rept_Date":"2020-12-28 13"},"coordinates":[2483,5391]},{"type":"Point","properties":{"Station_ID":"WDOM5","Station_Nam":"WINDOM","Latitude":"43.87700","Longitude":"-95.11590","Snowdepth":"5.000","Units":"in","Rept_Date":"2020-12-28 14"},"coordinates":[623,5306]},{"type":"Point","properties":{"Station_ID":"TOPN6","Station_Nam":"TUPPER LAKE SUNMOUNT","Latitude":"44.23070","Longitude":"-74.43820","Snowdepth":"5.000","Units":"in","Rept_Date":"2020-12-28 12"},"coordinates":[6692,5517]},{"type":"Point","properties":{"Station_ID":"TETM5","Station_Nam":"TETTEGOUCHE STATE PARK","Latitude":"47.33900","Longitude":"-91.19590","Snowdepth":"5.000","Units":"in","Rept_Date":"2020-12-28 14"},"coordinates":[1774,7375]},{"type":"Point","properties":{"Station_ID":"SWEI4","Station_Nam":"SWEA CITY,IA","Latitude":"43.38530","Longitude":"-94.25000","Snowdepth":"5.000","Units":"in","Rept_Date":"2020-12-28 12"},"coordinates":[877,5012]},{"type":"Point","properties":{"Station_ID":"STVP1","Station_Nam":"GEO B STEVENSON LAKE","Latitude":"41.40000","Longitude":"-78.01670","Snowdepth":"5.000","Units":"in","Rept_Date":"2020-12-28 12"},"coordinates":[5642,3824]},{"type":"Point","properties":{"Station_ID":"SNBI4","Station_Nam":"SANBORN,IA","Latitude":"43.18170","Longitude":"-95.66030","Snowdepth":"5.000","Units":"in","Rept_Date":"2020-12-28 14"},"coordinates":[463,4890]},{"type":"Point","properties":{"Station_ID":"SHIW3","Station_Nam":"SHIOCTON","Latitude":"44.43890","Longitude":"-88.58390","Snowdepth":"5.000","Units":"in","Rept_Date":"2020-12-28 13"},"coordinates":[2540,5641]},{"type":"Point","properties":{"Station_ID":"RSMM5","Station_Nam":"ROSEMOUNT RESEARCH AND OUTREACH CENTER","Latitude":"44.71660","Longitude":"-93.09800","Snowdepth":"5.000","Units":"in","Rept_Date":"2020-12-28 14"},"coordinates":[1215,5808]},{"type":"Point","properties":{"Station_ID":"PTYM4","Station_Nam":"PETOSKEY NCMC","Latitude":"45.36120","Longitude":"-84.95110","Snowdepth":"5.000","Units":"in","Rept_Date":"2020-12-28 13"},"coordinates":[3607,6193]},{"type":"Point","properties":{"Station_ID":"PA-ER-5","Station_Nam":"NORTH EAST 1.2 WNW, PA","Latitude":"42.22058","Longitude":"-79.85510","Snowdepth":"5.000","Units":"in","Rept_Date":"2020-12-28 13"},"coordinates":[5102,4315]},{"type":"Point","properties":{"Station_ID":"PA-CW-18","Station_Nam":"CONNEAUT LAKE 1.3 WNW, PA","Latitude":"41.60816","Longitude":"-80.33371","Snowdepth":"5.000","Units":"in","Rept_Date":"2020-12-28 12"},"coordinates":[4962,3949]},{"type":"Point","properties":{"Station_ID":"PA-BF-20","Station_Nam":"SAYRE 0.7 S, PA","Latitude":"41.97510","Longitude":"-76.52100","Snowdepth":"5.000","Units":"in","Rept_Date":"2020-12-28 12"},"coordinates":[6081,4168]},{"type":"Point","properties":{"Station_ID":"PA-BF-14","Station_Nam":"SAYRE 2.8 WNW, PA","Latitude":"41.99750","Longitude":"-76.57260","Snowdepth":"5.000","Units":"in","Rept_Date":"2020-12-28 12"},"coordinates":[6066,4182]},{"type":"Point","properties":{"Station_ID":"OMWW3","Station_Nam":"OMRO - 2 SW","Latitude":"44.02080","Longitude":"-88.77970","Snowdepth":"5.000","Units":"in","Rept_Date":"2020-12-28 13"},"coordinates":[2483,5391]},{"type":"Point","properties":{"Station_ID":"NY-TG-5","Station_Nam":"BERKSHIRE 2.0 N, NY","Latitude":"42.33463","Longitude":"-76.18990","Snowdepth":"5.000","Units":"in","Rept_Date":"2020-12-28 13"},"coordinates":[6178,4383]},{"type":"Point","properties":{"Station_ID":"NY-HR-18","Station_Nam":"SALISBURY CENTER 1.8 NW, NY","Latitude":"43.16260","Longitude":"-74.80880","Snowdepth":"5.000","Units":"in","Rept_Date":"2020-12-28 12"},"coordinates":[6584,4878]},{"type":"Point","properties":{"Station_ID":"NY-FK-7","Station_Nam":"SARANAC LAKE 6.2 N, NY","Latitude":"44.41359","Longitude":"-74.15211","Snowdepth":"5.000","Units":"in","Rept_Date":"2020-12-28 13"},"coordinates":[6776,5626]},{"type":"Point","properties":{"Station_ID":"NY-ER-63","Station_Nam":"GLENWOOD 1.5 SE, NY","Latitude":"42.60195","Longitude":"-78.63910","Snowdepth":"5.000","Units":"in","Rept_Date":"2020-12-28 13"},"coordinates":[5459,4543]},{"type":"Point","properties":{"Station_ID":"NUMM5","Station_Nam":"NEW ULM 3SE","Latitude":"44.29450","Longitude":"-94.40840","Snowdepth":"5.000","Units":"in","Rept_Date":"2020-12-28 12"},"coordinates":[831,5555]},{"type":"Point","properties":{"Station_ID":"NPTM4","Station_Nam":"NORTHPORT 2W","Latitude":"45.13220","Longitude":"-85.64720","Snowdepth":"5.000","Units":"in","Rept_Date":"2020-12-28 13"},"coordinates":[3402,6056]},{"type":"Point","properties":{"Station_ID":"MN-WG-93","Station_Nam":"OAKDALE 2.4 SSE, MN","Latitude":"44.95426","Longitude":"-92.95237","Snowdepth":"5.000","Units":"in","Rept_Date":"2020-12-28 13"},"coordinates":[1258,5950]},{"type":"Point","properties":{"Station_ID":"MN-WC-5","Station_Nam":"WASECA 0.9 NNE, MN","Latitude":"44.09451","Longitude":"-93.49289","Snowdepth":"5.000","Units":"in","Rept_Date":"2020-12-28 13"},"coordinates":[1099,5436]},{"type":"Point","properties":{"Station_ID":"MN-SH-10","Station_Nam":"BIG LAKE 5.6 NNE, MN","Latitude":"45.41409","Longitude":"-93.69190","Snowdepth":"5.000","Units":"in","Rept_Date":"2020-12-28 13"},"coordinates":[1041,6225]},{"type":"Point","properties":{"Station_ID":"MN-SE-2","Station_Nam":"OWATONNA 0.8 E, MN","Latitude":"44.09170","Longitude":"-93.21380","Snowdepth":"5.000","Units":"in","Rept_Date":"2020-12-28 13"},"coordinates":[1181,5434]},{"type":"Point","properties":{"Station_ID":"MN-SC-42","Station_Nam":"NEW PRAGUE 2.2 W, MN","Latitude":"44.54575","Longitude":"-93.61876","Snowdepth":"5.000","Units":"in","Rept_Date":"2020-12-28 13"},"coordinates":[1062,5705]},{"type":"Point","properties":{"Station_ID":"MN-SC-2","Station_Nam":"PRIOR LAKE 2.0 W, MN","Latitude":"44.71250","Longitude":"-93.46360","Snowdepth":"5.000","Units":"in","Rept_Date":"2020-12-28 11"},"coordinates":[1108,5805]},{"type":"Point","properties":{"Station_ID":"MN-RM-63","Station_Nam":"NORTH SAINT PAUL 1.0 NW, MN","Latitude":"45.02410","Longitude":"-93.01400","Snowdepth":"5.000","Units":"in","Rept_Date":"2020-12-28 13"},"coordinates":[1240,5991]},{"type":"Point","properties":{"Station_ID":"MN-RM-15","Station_Nam":"ROSEVILLE 2.1 NW, MN","Latitude":"45.03502","Longitude":"-93.18620","Snowdepth":"5.000","Units":"in","Rept_Date":"2020-12-28 12"},"coordinates":[1189,5998]},{"type":"Point","properties":{"Station_ID":"MN-RM-101","Station_Nam":"FALCON HEIGHTS 0.4 NNW, MN","Latitude":"44.99563","Longitude":"-93.17928","Snowdepth":"5.000","Units":"in","Rept_Date":"2020-12-28 13"},"coordinates":[1191,5974]},{"type":"Point","properties":{"Station_ID":"MN-RC-38","Station_Nam":"FARIBAULT 1.6 S, MN","Latitude":"44.27639","Longitude":"-93.27306","Snowdepth":"5.000","Units":"in","Rept_Date":"2020-12-28 13"},"coordinates":[1164,5544]},{"type":"Point","properties":{"Station_ID":"MN-IT-17","Station_Nam":"GRAND RAPIDS 6.1 N, MN","Latitude":"47.31165","Longitude":"-93.55036","Snowdepth":"5.000","Units":"in","Rept_Date":"2020-12-28 13"},"coordinates":[1083,7359]},{"type":"Point","properties":{"Station_ID":"MN-HN-78","Station_Nam":"RICHFIELD 1.9 WNW, MN","Latitude":"44.89129","Longitude":"-93.31410","Snowdepth":"5.000","Units":"in","Rept_Date":"2020-12-28 11"},"coordinates":[1152,5912]},{"type":"Point","properties":{"Station_ID":"MN-HN-239","Station_Nam":"MINNEAPOLIS 4.7 SSW, MN","Latitude":"44.90319","Longitude":"-93.31282","Snowdepth":"5.000","Units":"in","Rept_Date":"2020-12-28 13"},"coordinates":[1152,5919]},{"type":"Point","properties":{"Station_ID":"MN-HN-19","Station_Nam":"EDINA 1.3 SW, MN","Latitude":"44.87830","Longitude":"-93.37890","Snowdepth":"5.000","Units":"in","Rept_Date":"2020-12-28 13"},"coordinates":[1133,5904]},{"type":"Point","properties":{"Station_ID":"MN-GH-4","Station_Nam":"NERSTRAND 4.2 E, MN","Latitude":"44.34247","Longitude":"-92.97920","Snowdepth":"5.000","Units":"in","Rept_Date":"2020-12-28 13"},"coordinates":[1250,5584]},{"type":"Point","properties":{"Station_ID":"MN-DK-73","Station_Nam":"LAKEVILLE 2.6 NNE, MN","Latitude":"44.71250","Longitude":"-93.23043","Snowdepth":"5.000","Units":"in","Rept_Date":"2020-12-28 13"},"coordinates":[1176,5805]},{"type":"Point","properties":{"Station_ID":"MN-DK-53","Station_Nam":"LAKEVILLE 3.8 ENE, MN","Latitude":"44.70423","Longitude":"-93.18460","Snowdepth":"5.000","Units":"in","Rept_Date":"2020-12-28 13"},"coordinates":[1190,5800]},{"type":"Point","properties":{"Station_ID":"MN-DK-134","Station_Nam":"INVER GROVE HEIGHTS 1.0 S, MN","Latitude":"44.81010","Longitude":"-93.06196","Snowdepth":"5.000","Units":"in","Rept_Date":"2020-12-28 13"},"coordinates":[1226,5863]},{"type":"Point","properties":{"Station_ID":"MN-DK-104","Station_Nam":"HASTINGS 1.6 NW, MN","Latitude":"44.74458","Longitude":"-92.88035","Snowdepth":"5.000","Units":"in","Rept_Date":"2020-12-28 13"},"coordinates":[1279,5824]},{"type":"Point","properties":{"Station_ID":"MN-CW-8","Station_Nam":"BRAINERD 11.5 E, MN","Latitude":"46.38556","Longitude":"-93.95720","Snowdepth":"5.000","Units":"in","Rept_Date":"2020-12-28 14"},"coordinates":[963,6805]},{"type":"Point","properties":{"Station_ID":"MI-OT-16","Station_Nam":"GAYLORD 2.2 SSE, MI","Latitude":"44.99441","Longitude":"-84.65820","Snowdepth":"5.000","Units":"in","Rept_Date":"2020-12-28 14"},"coordinates":[3693,5974]},{"type":"Point","properties":{"Station_ID":"MAPM4","Station_Nam":"MAPLE CITY 1E","Latitude":"44.85500","Longitude":"-85.83520","Snowdepth":"5.000","Units":"in","Rept_Date":"2020-12-28 23"},"coordinates":[3347,5890]},{"type":"Point","properties":{"Station_ID":"LPLN6","Station_Nam":"LAKE PLACID 2 S","Latitude":"44.30420","Longitude":"-73.98390","Snowdepth":"5.000","Units":"in","Rept_Date":"2020-12-28 12"},"coordinates":[6826,5561]},{"type":"Point","properties":{"Station_ID":"KSEM4","Station_Nam":"KALKASKA 11SE","Latitude":"44.58970","Longitude":"-85.04860","Snowdepth":"5.000","Units":"in","Rept_Date":"2020-12-28 13"},"coordinates":[3578,5732]},{"type":"Point","properties":{"Station_ID":"KANP1","Station_Nam":"KANE,PA","Latitude":"41.68330","Longitude":"-78.80000","Snowdepth":"5.000","Units":"in","Rept_Date":"2020-12-28 12"},"coordinates":[5412,3994]},{"type":"Point","properties":{"Station_ID":"ISEM5","Station_Nam":"ISLE 12N","Latitude":"46.31970","Longitude":"-93.50140","Snowdepth":"5.000","Units":"in","Rept_Date":"2020-12-28 14"},"coordinates":[1097,6766]},{"type":"Point","properties":{"Station_ID":"ILEW3","Station_Nam":"STILES 1S","Latitude":"44.84190","Longitude":"-88.05420","Snowdepth":"5.000","Units":"in","Rept_Date":"2020-12-28 13"},"coordinates":[2696,5882]},{"type":"Point","properties":{"Station_ID":"FISW3","Station_Nam":"FISH CREEK 1 E WWTP","Latitude":"45.12420","Longitude":"-87.22920","Snowdepth":"5.000","Units":"in","Rept_Date":"2020-12-28 14"},"coordinates":[2938,6051]},{"type":"Point","properties":{"Station_ID":"DLHM5","Station_Nam":"DULUTH NWS","Latitude":"46.83680","Longitude":"-92.21080","Snowdepth":"5.000","Units":"in","Rept_Date":"2020-12-29 06"},"coordinates":[1476,7075]},{"type":"Point","properties":{"Station_ID":"DLH","Station_Nam":"DULUTH, MN","Latitude":"46.83690","Longitude":"-92.21030","Snowdepth":"5.000","Units":"in","Rept_Date":"2020-12-29 00"},"coordinates":[1476,7075]},{"type":"Point","properties":{"Station_ID":"DGVW3","Station_Nam":"DODGEVILLE","Latitude":"42.96670","Longitude":"-90.11670","Snowdepth":"5.000","Units":"in","Rept_Date":"2020-12-28 13"},"coordinates":[2090,4761]},{"type":"Point","properties":{"Station_ID":"CVWP1","Station_Nam":"CHANDLER VALLEY 1SE","Latitude":"41.93010","Longitude":"-79.29700","Snowdepth":"5.000","Units":"in","Rept_Date":"2020-12-28 12"},"coordinates":[5266,4141]},{"type":"Point","properties":{"Station_ID":"CRLM5","Station_Nam":"CROSS LAKE DAM","Latitude":"46.66930","Longitude":"-94.11060","Snowdepth":"5.000","Units":"in","Rept_Date":"2020-12-28 14"},"coordinates":[918,6975]},{"type":"Point","properties":{"Station_ID":"CNTP1","Station_Nam":"CANTON","Latitude":"41.65160","Longitude":"-76.84630","Snowdepth":"5.000","Units":"in","Rept_Date":"2020-12-28 13"},"coordinates":[5986,3975]},{"type":"Point","properties":{"Station_ID":"CAN-ON-757","Station_Nam":"SAULT STE. MARIE 2.8 ESE - GLFC, CAN","Latitude":"46.50300","Longitude":"-84.30300","Snowdepth":"5.000","Units":"in","Rept_Date":"2020-12-28 13"},"coordinates":[3797,6876]},{"type":"Point","properties":{"Station_ID":"CAN-ON-178","Station_Nam":"GODERICH 10.2 S - MVCA, CAN","Latitude":"43.64655","Longitude":"-81.70734","Snowdepth":"5.000","Units":"in","Rept_Date":"2020-12-28 13"},"coordinates":[4559,5168]},{"type":"Point","properties":{"Station_ID":"BKEM5","Station_Nam":"BRECKENRIDGE 4NE","Latitude":"46.30470","Longitude":"-96.52170","Snowdepth":"5.000","Units":"in","Rept_Date":"2020-12-28 13"},"coordinates":[210,6757]},{"type":"Point","properties":{"Station_ID":"BDIM5","Station_Nam":"BIRD ISLAND 7SSE","Latitude":"44.66490","Longitude":"-94.85460","Snowdepth":"5.000","Units":"in","Rept_Date":"2020-12-28 13"},"coordinates":[700,5777]},{"type":"Point","properties":{"Station_ID":"BCHN7","Station_Nam":"BEECH MOUNTAIN","Latitude":"36.18780","Longitude":"-81.87360","Snowdepth":"5.000","Units":"in","Rept_Date":"2020-12-28 12"},"coordinates":[4510,708]},{"type":"Point","properties":{"Station_ID":"APXM4","Station_Nam":"GAYLORD 9SSW","Latitude":"44.90720","Longitude":"-84.71880","Snowdepth":"5.000","Units":"in","Rept_Date":"2020-12-29 06"},"coordinates":[3675,5921]},{"type":"Point","properties":{"Station_ID":"41.6333_080.1432","Station_Nam":"1 S Meadville  Trained Spotter (CLE0350)","Latitude":"41.63328","Longitude":"-80.14322","Snowdepth":"5.000","Units":"in","Rept_Date":"2020-12-29 02"},"coordinates":[5018,3964]},{"type":"Point","properties":{"Station_ID":"HPN20_MADIS","Station_Nam":"HOPKINS","Latitude":"44.95556","Longitude":"-93.41140","Snowdepth":"4.900","Units":"in","Rept_Date":"2020-12-29 06"},"coordinates":[1123,5950]},{"type":"Point","properties":{"Station_ID":"HPN09_MADIS","Station_Nam":"PLYMOUTH","Latitude":"44.98992","Longitude":"-93.47910","Snowdepth":"4.900","Units":"in","Rept_Date":"2020-12-29 06"},"coordinates":[1103,5971]},{"type":"Point","properties":{"Station_ID":"CAN-ON-491","Station_Nam":"MILVERTON 1.1 ESE- CANWARN, CAN","Latitude":"43.56074","Longitude":"-80.90887","Snowdepth":"4.800","Units":"in","Rept_Date":"2020-12-28 11"},"coordinates":[4793,5116]},{"type":"Point","properties":{"Station_ID":"CAN-ON-784","Station_Nam":"KOMOKA 3.1 W, CAN","Latitude":"42.96000","Longitude":"-81.43805","Snowdepth":"4.700","Units":"in","Rept_Date":"2020-12-28 13"},"coordinates":[4638,4757]},{"type":"Point","properties":{"Station_ID":"HLSN3","Station_Nam":"HERMIT LAKE SNOTEL","Latitude":"44.26130","Longitude":"-71.28320","Snowdepth":"4.530","Units":"in","Rept_Date":"2020-12-29 06"},"coordinates":[7618,5535]},{"type":"Point","properties":{"Station_ID":"WI-WH-7","Station_Nam":"WILD ROSE 0.5 E, WI","Latitude":"44.17764","Longitude":"-89.23812","Snowdepth":"4.500","Units":"in","Rept_Date":"2020-12-28 13"},"coordinates":[2348,5485]},{"type":"Point","properties":{"Station_ID":"WI-BR-17","Station_Nam":"CLAYTON 2.9 ENE, WI","Latitude":"45.34073","Longitude":"-92.11158","Snowdepth":"4.500","Units":"in","Rept_Date":"2020-12-28 13"},"coordinates":[1505,6181]},{"type":"Point","properties":{"Station_ID":"WI-BN-6","Station_Nam":"SUAMICO 4.4 WNW, WI","Latitude":"44.66111","Longitude":"-88.11780","Snowdepth":"4.500","Units":"in","Rept_Date":"2020-12-28 14"},"coordinates":[2677,5774]},{"type":"Point","properties":{"Station_ID":"WI-AD-10","Station_Nam":"OXFORD 4.0 W, WI","Latitude":"43.78638","Longitude":"-89.64166","Snowdepth":"4.500","Units":"in","Rept_Date":"2020-12-28 14"},"coordinates":[2230,5251]},{"type":"Point","properties":{"Station_ID":"NY-FK-9","Station_Nam":"GABRIELS 1.3 SE, NY","Latitude":"44.41934","Longitude":"-74.16194","Snowdepth":"4.500","Units":"in","Rept_Date":"2020-12-28 12"},"coordinates":[6773,5630]},{"type":"Point","properties":{"Station_ID":"NY-ES-11","Station_Nam":"VERMONTVILLE 2.8 S, NY","Latitude":"44.41205","Longitude":"-74.06760","Snowdepth":"4.500","Units":"in","Rept_Date":"2020-12-28 12"},"coordinates":[6801,5625]},{"type":"Point","properties":{"Station_ID":"NY-ER-196","Station_Nam":"BUFFALO 1.2 WNW, NY","Latitude":"42.89815","Longitude":"-78.88065","Snowdepth":"4.500","Units":"in","Rept_Date":"2020-12-28 12"},"coordinates":[5388,4720]},{"type":"Point","properties":{"Station_ID":"MN-WG-74","Station_Nam":"OAKDALE 0.4 S, MN","Latitude":"44.98208","Longitude":"-92.96510","Snowdepth":"4.500","Units":"in","Rept_Date":"2020-12-28 13"},"coordinates":[1254,5966]},{"type":"Point","properties":{"Station_ID":"MN-OT-3","Station_Nam":"BATTLE LAKE 2S, MN","Latitude":"46.25833","Longitude":"-95.71470","Snowdepth":"4.500","Units":"in","Rept_Date":"2020-12-28 13"},"coordinates":[447,6729]},{"type":"Point","properties":{"Station_ID":"MN-MR-20","Station_Nam":"HILLMAN 8.3 N, MN","Latitude":"46.12692","Longitude":"-93.88661","Snowdepth":"4.500","Units":"in","Rept_Date":"2020-12-28 14"},"coordinates":[984,6651]},{"type":"Point","properties":{"Station_ID":"MN-HN-272","Station_Nam":"RICHFIELD 1.1 WSW, MN","Latitude":"44.87052","Longitude":"-93.30394","Snowdepth":"4.500","Units":"in","Rept_Date":"2020-12-28 13"},"coordinates":[1155,5900]},{"type":"Point","properties":{"Station_ID":"MN-DK-63","Station_Nam":"NORTHFIELD 2.4 NE, MN","Latitude":"44.48347","Longitude":"-93.12837","Snowdepth":"4.500","Units":"in","Rept_Date":"2020-12-28 13"},"coordinates":[1206,5668]},{"type":"Point","properties":{"Station_ID":"MN-CW-54","Station_Nam":"AITKIN 9.6 W, MN","Latitude":"46.53711","Longitude":"-93.90688","Snowdepth":"4.500","Units":"in","Rept_Date":"2020-12-28 14"},"coordinates":[978,6896]},{"type":"Point","properties":{"Station_ID":"MN-CW-44","Station_Nam":"CROSBY 1.1 SW, MN","Latitude":"46.47772","Longitude":"-93.97293","Snowdepth":"4.500","Units":"in","Rept_Date":"2020-12-28 15"},"coordinates":[959,6860]},{"type":"Point","properties":{"Station_ID":"MN-BK-10","Station_Nam":"DETROIT LAKES 5.7 N, MN","Latitude":"46.88666","Longitude":"-95.84444","Snowdepth":"4.500","Units":"in","Rept_Date":"2020-12-28 10"},"coordinates":[409,7105]},{"type":"Point","properties":{"Station_ID":"MN-AT-5","Station_Nam":"TAMARACK 1.4 SW, MN","Latitude":"46.63760","Longitude":"-93.14554","Snowdepth":"4.500","Units":"in","Rept_Date":"2020-12-28 11"},"coordinates":[1201,6956]},{"type":"Point","properties":{"Station_ID":"MI-CP-14","Station_Nam":"SAULT STE. MARIE 2.2 E, MI","Latitude":"46.48933","Longitude":"-84.31971","Snowdepth":"4.500","Units":"in","Rept_Date":"2020-12-28 12"},"coordinates":[3792,6867]},{"type":"Point","properties":{"Station_ID":"MI-BZ-1","Station_Nam":"BENZONIA 5.3 S, MI","Latitude":"44.53976","Longitude":"-86.10650","Snowdepth":"4.500","Units":"in","Rept_Date":"2020-12-28 14"},"coordinates":[3267,5702]},{"type":"Point","properties":{"Station_ID":"MI-AT-6","Station_Nam":"MANCELONA 0.5 ESE, MI","Latitude":"44.89981","Longitude":"-85.05100","Snowdepth":"4.500","Units":"in","Rept_Date":"2020-12-28 13"},"coordinates":[3577,5917]},{"type":"Point","properties":{"Station_ID":"HPN19_MADIS","Station_Nam":"GREENFIELD","Latitude":"45.20343","Longitude":"-93.69130","Snowdepth":"4.500","Units":"in","Rept_Date":"2020-12-29 06"},"coordinates":[1041,6099]},{"type":"Point","properties":{"Station_ID":"CAN-ON-526","Station_Nam":"HILTON BEACH 0.7 SW - MNRF, CAN","Latitude":"46.25357","Longitude":"-83.90014","Snowdepth":"4.300","Units":"in","Rept_Date":"2020-12-28 12"},"coordinates":[3915,6726]},{"type":"Point","properties":{"Station_ID":"WWWW3","Station_Nam":"WAUPACA","Latitude":"44.35470","Longitude":"-89.05920","Snowdepth":"4.000","Units":"in","Rept_Date":"2020-12-28 12"},"coordinates":[2401,5591]},{"type":"Point","properties":{"Station_ID":"WV-PR-11","Station_Nam":"THOMAS 7.4 N, WV","Latitude":"39.25361","Longitude":"-79.51055","Snowdepth":"4.000","Units":"in","Rept_Date":"2020-12-28 12"},"coordinates":[5204,2541]},{"type":"Point","properties":{"Station_ID":"WSWN6","Station_Nam":"WARSAW","Latitude":"42.74220","Longitude":"-78.20850","Snowdepth":"4.000","Units":"in","Rept_Date":"2020-12-28 12"},"coordinates":[5586,4627]},{"type":"Point","properties":{"Station_ID":"WRUM5","Station_Nam":"WARROAD 4W","Latitude":"48.89600","Longitude":"-95.40700","Snowdepth":"4.000","Units":"in","Rept_Date":"2020-12-29 04"},"coordinates":[538,8306]},{"type":"Point","properties":{"Station_ID":"WRTS2","Station_Nam":"WATERTOWN,SD","Latitude":"44.90280","Longitude":"-97.11360","Snowdepth":"4.000","Units":"in","Rept_Date":"2020-12-28 15"},"coordinates":[37,5919]},{"type":"Point","properties":{"Station_ID":"WI-PK-33","Station_Nam":"FREDERIC 4.8 NE, WI","Latitude":"45.70970","Longitude":"-92.39950","Snowdepth":"4.000","Units":"in","Rept_Date":"2020-12-28 13"},"coordinates":[1420,6401]},{"type":"Point","properties":{"Station_ID":"WI-OG-18","Station_Nam":"NEW LONDON 4.1 N, WI","Latitude":"44.45298","Longitude":"-88.72876","Snowdepth":"4.000","Units":"in","Rept_Date":"2020-12-28 12"},"coordinates":[2498,5650]},{"type":"Point","properties":{"Station_ID":"WI-OG-12","Station_Nam":"KAUKAUNA 1.5 SW, WI","Latitude":"44.26062","Longitude":"-88.28590","Snowdepth":"4.000","Units":"in","Rept_Date":"2020-12-28 10"},"coordinates":[2628,5535]},{"type":"Point","properties":{"Station_ID":"WI-AD-5","Station_Nam":"NEKOOSA 8.0 SSE, WI","Latitude":"44.20533","Longitude":"-89.84798","Snowdepth":"4.000","Units":"in","Rept_Date":"2020-12-28 14"},"coordinates":[2169,5502]},{"type":"Point","properties":{"Station_ID":"WI-AD-17","Station_Nam":"FRIENDSHIP 6.4 N, WI","Latitude":"44.06283","Longitude":"-89.80014","Snowdepth":"4.000","Units":"in","Rept_Date":"2020-12-28 14"},"coordinates":[2183,5417]},{"type":"Point","properties":{"Station_ID":"WASW3","Station_Nam":"WASHINGTON IS","Latitude":"45.35800","Longitude":"-86.89110","Snowdepth":"4.000","Units":"in","Rept_Date":"2020-12-28 13"},"coordinates":[3037,6191]},{"type":"Point","properties":{"Station_ID":"VT-WS-30","Station_Nam":"WOODBURY 3.4 NNW, VT","Latitude":"44.48825","Longitude":"-72.43258","Snowdepth":"4.000","Units":"in","Rept_Date":"2020-12-28 12"},"coordinates":[7281,5671]},{"type":"Point","properties":{"Station_ID":"VQAW3","Station_Nam":"VIROQUA","Latitude":"43.55970","Longitude":"-90.87560","Snowdepth":"4.000","Units":"in","Rept_Date":"2020-12-28 13"},"coordinates":[1868,5116]},{"type":"Point","properties":{"Station_ID":"TWOP1","Station_Nam":"TOWANDA 1 S","Latitude":"41.75110","Longitude":"-76.44300","Snowdepth":"4.000","Units":"in","Rept_Date":"2020-12-28 12"},"coordinates":[6104,4034]},{"type":"Point","properties":{"Station_ID":"THRM5","Station_Nam":"THORHULT,MN","Latitude":"48.21670","Longitude":"-95.25000","Snowdepth":"4.000","Units":"in","Rept_Date":"2020-12-28 23"},"coordinates":[584,7900]},{"type":"Point","properties":{"Station_ID":"TCEM4","Station_Nam":"TRAVERSE CITY 5ESE","Latitude":"44.73370","Longitude":"-85.51180","Snowdepth":"4.000","Units":"in","Rept_Date":"2020-12-28 12"},"coordinates":[3442,5818]},{"type":"Point","properties":{"Station_ID":"STMM4","Station_Nam":"STAMBAUGH 2SSE","Latitude":"46.05550","Longitude":"-88.62780","Snowdepth":"4.000","Units":"in","Rept_Date":"2020-12-28 13"},"coordinates":[2527,6608]},{"type":"Point","properties":{"Station_ID":"STIM5","Station_Nam":"STILLWATER 2SW","Latitude":"45.04540","Longitude":"-92.85220","Snowdepth":"4.000","Units":"in","Rept_Date":"2020-12-28 14"},"coordinates":[1287,6004]},{"type":"Point","properties":{"Station_ID":"STIM4","Station_Nam":"ST IGNACE","Latitude":"45.86080","Longitude":"-84.71960","Snowdepth":"4.000","Units":"in","Rept_Date":"2020-12-28 12"},"coordinates":[3675,6492]},{"type":"Point","properties":{"Station_ID":"STGW3","Station_Nam":"ST GERMAIN","Latitude":"45.91550","Longitude":"-89.48940","Snowdepth":"4.000","Units":"in","Rept_Date":"2020-12-28 12"},"coordinates":[2275,6524]},{"type":"Point","properties":{"Station_ID":"SPRI4","Station_Nam":"SPIRIT LAKE","Latitude":"43.42310","Longitude":"-95.10000","Snowdepth":"4.000","Units":"in","Rept_Date":"2020-12-28 13"},"coordinates":[628,5034]},{"type":"Point","properties":{"Station_ID":"SPOW3","Station_Nam":"SPOONER,WI","Latitude":"45.82360","Longitude":"-91.70000","Snowdepth":"4.000","Units":"in","Rept_Date":"2020-12-28 14"},"coordinates":[1626,6469]},{"type":"Point","properties":{"Station_ID":"SHHW3","Station_Nam":"SHAWANO 2SSW","Latitude":"44.76310","Longitude":"-88.61830","Snowdepth":"4.000","Units":"in","Rept_Date":"2020-12-28 14"},"coordinates":[2530,5835]},{"type":"Point","properties":{"Station_ID":"SHDI4","Station_Nam":"SHELDON,IA","Latitude":"43.18080","Longitude":"-95.85280","Snowdepth":"4.000","Units":"in","Rept_Date":"2020-12-28 13"},"coordinates":[407,4889]},{"type":"Point","properties":{"Station_ID":"SEBM5","Station_Nam":"SEBEKA","Latitude":"46.62540","Longitude":"-95.09670","Snowdepth":"4.000","Units":"in","Rept_Date":"2020-12-28 13"},"coordinates":[629,6949]},{"type":"Point","properties":{"Station_ID":"SD-BK-3","Station_Nam":"BROOKINGS 1.4 SW, SD","Latitude":"44.28989","Longitude":"-96.80210","Snowdepth":"4.000","Units":"in","Rept_Date":"2020-12-28 14"},"coordinates":[128,5552]},{"type":"Point","properties":{"Station_ID":"RPDM4","Station_Nam":"RAPID RIVER 4SSE","Latitude":"45.87270","Longitude":"-86.94960","Snowdepth":"4.000","Units":"in","Rept_Date":"2020-12-28 14"},"coordinates":[3020,6499]},{"type":"Point","properties":{"Station_ID":"RNBW3","Station_Nam":"WFO GREEN BAY","Latitude":"44.49780","Longitude":"-88.11080","Snowdepth":"4.000","Units":"in","Rept_Date":"2020-12-29 06"},"coordinates":[2679,5677]},{"type":"Point","properties":{"Station_ID":"REWM5","Station_Nam":"REDWOOD FALLS","Latitude":"44.54850","Longitude":"-95.09980","Snowdepth":"4.000","Units":"in","Rept_Date":"2020-12-28 13"},"coordinates":[628,5707]},{"type":"Point","properties":{"Station_ID":"PULW3","Station_Nam":"PULASKI WWTP","Latitude":"44.67830","Longitude":"-88.22750","Snowdepth":"4.000","Units":"in","Rept_Date":"2020-12-28 12"},"coordinates":[2645,5785]},{"type":"Point","properties":{"Station_ID":"PSHW3","Station_Nam":"PESHTIGO","Latitude":"45.02810","Longitude":"-87.73560","Snowdepth":"4.000","Units":"in","Rept_Date":"2020-12-28 13"},"coordinates":[2789,5994]},{"type":"Point","properties":{"Station_ID":"PLOW3","Station_Nam":"PLOVER","Latitude":"44.44280","Longitude":"-89.54530","Snowdepth":"4.000","Units":"in","Rept_Date":"2020-12-28 13"},"coordinates":[2258,5644]},{"type":"Point","properties":{"Station_ID":"PERV1","Station_Nam":"PERU","Latitude":"43.26670","Longitude":"-72.90000","Snowdepth":"4.000","Units":"in","Rept_Date":"2020-12-28 12"},"coordinates":[7144,4941]},{"type":"Point","properties":{"Station_ID":"PBAN8","Station_Nam":"SITE 1-3MI.N","Latitude":"48.97420","Longitude":"-97.23860","Snowdepth":"4.000","Units":"in","Rept_Date":"2020-12-28 13"},"coordinates":[0,8353]},{"type":"Point","properties":{"Station_ID":"PA-EL-1","Station_Nam":"ST. MARYS 1.7 SE, PA","Latitude":"41.41069","Longitude":"-78.53480","Snowdepth":"4.000","Units":"in","Rept_Date":"2020-12-28 11"},"coordinates":[5490,3831]},{"type":"Point","properties":{"Station_ID":"OTTM5","Station_Nam":"OTTERTAIL,MN","Latitude":"46.41670","Longitude":"-95.56670","Snowdepth":"4.000","Units":"in","Rept_Date":"2020-12-28 11"},"coordinates":[491,6824]},{"type":"Point","properties":{"Station_ID":"ONAM4","Station_Nam":"ONAWAY 4N","Latitude":"45.41080","Longitude":"-84.22330","Snowdepth":"4.000","Units":"in","Rept_Date":"2020-12-28 23"},"coordinates":[3820,6223]},{"type":"Point","properties":{"Station_ID":"NY-TG-15","Station_Nam":"BERKSHIRE 1.9 ENE, NY","Latitude":"42.31910","Longitude":"-76.21940","Snowdepth":"4.000","Units":"in","Rept_Date":"2020-12-28 13"},"coordinates":[6170,4374]},{"type":"Point","properties":{"Station_ID":"NY-NG-12","Station_Nam":"LOCKPORT 0.8 NE, NY","Latitude":"43.17645","Longitude":"-78.68340","Snowdepth":"4.000","Units":"in","Rept_Date":"2020-12-28 12"},"coordinates":[5446,4887]},{"type":"Point","properties":{"Station_ID":"NY-CQ-39","Station_Nam":"GERRY 0.8 N, NY","Latitude":"42.20500","Longitude":"-79.24700","Snowdepth":"4.000","Units":"in","Rept_Date":"2020-12-28 13"},"coordinates":[5281,4306]},{"type":"Point","properties":{"Station_ID":"NWFM4","Station_Nam":"NW MICHIGAN RESEARCH FARM","Latitude":"44.88300","Longitude":"-85.67520","Snowdepth":"4.000","Units":"in","Rept_Date":"2020-12-28 13"},"coordinates":[3394,5907]},{"type":"Point","properties":{"Station_ID":"NONW3","Station_Nam":"NEW LONDON","Latitude":"44.35890","Longitude":"-88.71890","Snowdepth":"4.000","Units":"in","Rept_Date":"2020-12-28 12"},"coordinates":[2501,5594]},{"type":"Point","properties":{"Station_ID":"NH-MR-9","Station_Nam":"CONCORD 3.8 SSE, NH","Latitude":"43.18482","Longitude":"-71.51860","Snowdepth":"4.000","Units":"in","Rept_Date":"2020-12-28 12"},"coordinates":[7549,4892]},{"type":"Point","properties":{"Station_ID":"NH-MR-4","Station_Nam":"BOW 1.6 NW, NH","Latitude":"43.14994","Longitude":"-71.55650","Snowdepth":"4.000","Units":"in","Rept_Date":"2020-12-28 12"},"coordinates":[7538,4871]},{"type":"Point","properties":{"Station_ID":"NC-MS-7","Station_Nam":"HOT SPRINGS 8.4 SSW, NC","Latitude":"35.78343","Longitude":"-82.89470","Snowdepth":"4.000","Units":"in","Rept_Date":"2020-12-28 14"},"coordinates":[4210,466]},{"type":"Point","properties":{"Station_ID":"MRIW3","Station_Nam":"MARINETTE","Latitude":"45.09830","Longitude":"-87.62360","Snowdepth":"4.000","Units":"in","Rept_Date":"2020-12-28 13"},"coordinates":[2822,6036]},{"type":"Point","properties":{"Station_ID":"MONS2","Station_Nam":"MONTROSE","Latitude":"43.70500","Longitude":"-97.18780","Snowdepth":"4.000","Units":"in","Rept_Date":"2020-12-28 13"},"coordinates":[15,5203]},{"type":"Point","properties":{"Station_ID":"MN-WR-73","Station_Nam":"MAPLE LAKE 4.3 NNE, MN","Latitude":"45.28625","Longitude":"-93.95855","Snowdepth":"4.000","Units":"in","Rept_Date":"2020-12-28 12"},"coordinates":[963,6148]},{"type":"Point","properties":{"Station_ID":"MN-WG-16","Station_Nam":"WOODBURY 1.7 N, MN","Latitude":"44.93054","Longitude":"-92.92490","Snowdepth":"4.000","Units":"in","Rept_Date":"2020-12-28 13"},"coordinates":[1266,5935]},{"type":"Point","properties":{"Station_ID":"MN-WC-8","Station_Nam":"WASECA 2.0 N, MN","Latitude":"44.11194","Longitude":"-93.49972","Snowdepth":"4.000","Units":"in","Rept_Date":"2020-12-28 12"},"coordinates":[1097,5446]},{"type":"Point","properties":{"Station_ID":"MN-SH-985","Station_Nam":"PRINCETON 3.3 WSW, MN","Latitude":"45.55211","Longitude":"-93.64481","Snowdepth":"4.000","Units":"in","Rept_Date":"2020-12-28 11"},"coordinates":[1055,6307]},{"type":"Point","properties":{"Station_ID":"MN-RV-8","Station_Nam":"BIRD ISLAND 7.2 SSE, MN","Latitude":"44.66542","Longitude":"-94.85440","Snowdepth":"4.000","Units":"in","Rept_Date":"2020-12-28 13"},"coordinates":[700,5777]},{"type":"Point","properties":{"Station_ID":"MN-MR-13","Station_Nam":"LITTLE FALLS 8.0 NE, MN","Latitude":"46.06785","Longitude":"-94.24789","Snowdepth":"4.000","Units":"in","Rept_Date":"2020-12-28 13"},"coordinates":[878,6615]},{"type":"Point","properties":{"Station_ID":"MN-MK-11","Station_Nam":"DASSEL 0.4 S, MN","Latitude":"45.07765","Longitude":"-94.31567","Snowdepth":"4.000","Units":"in","Rept_Date":"2020-12-28 13"},"coordinates":[858,6023]},{"type":"Point","properties":{"Station_ID":"MN-MC-5","Station_Nam":"GLENCOE 0.3 WSW, MN","Latitude":"44.76834","Longitude":"-94.15580","Snowdepth":"4.000","Units":"in","Rept_Date":"2020-12-28 14"},"coordinates":[905,5838]},{"type":"Point","properties":{"Station_ID":"MN-HN-110","Station_Nam":"EDINA 1.9 SSE, MN","Latitude":"44.86875","Longitude":"-93.33940","Snowdepth":"4.000","Units":"in","Rept_Date":"2020-12-28 13"},"coordinates":[1144,5898]},{"type":"Point","properties":{"Station_ID":"MN-DK-70","Station_Nam":"EAGAN 2.0 NNW, MN","Latitude":"44.84322","Longitude":"-93.17899","Snowdepth":"4.000","Units":"in","Rept_Date":"2020-12-28 13"},"coordinates":[1192,5883]},{"type":"Point","properties":{"Station_ID":"MN-DK-112","Station_Nam":"HASTINGS 5.8 W, MN","Latitude":"44.72325","Longitude":"-92.97235","Snowdepth":"4.000","Units":"in","Rept_Date":"2020-12-28 14"},"coordinates":[1252,5811]},{"type":"Point","properties":{"Station_ID":"MN-CW-29","Station_Nam":"BRAINERD 7.7 SSE, MN","Latitude":"46.24996","Longitude":"-94.14576","Snowdepth":"4.000","Units":"in","Rept_Date":"2020-12-28 13"},"coordinates":[908,6724]},{"type":"Point","properties":{"Station_ID":"MN-BW-8","Station_Nam":"COMFREY 6.5 ENE, MN","Latitude":"44.15109","Longitude":"-94.78516","Snowdepth":"4.000","Units":"in","Rept_Date":"2020-12-28 14"},"coordinates":[720,5469]},{"type":"Point","properties":{"Station_ID":"MI-SH-1","Station_Nam":"MANISTIQUE 2.7 NW, MI","Latitude":"45.99042","Longitude":"-86.28266","Snowdepth":"4.000","Units":"in","Rept_Date":"2020-12-28 11"},"coordinates":[3216,6569]},{"type":"Point","properties":{"Station_ID":"MI-PI-1","Station_Nam":"ROGERS CITY 0.2 WSW, MI","Latitude":"45.41740","Longitude":"-83.81060","Snowdepth":"4.000","Units":"in","Rept_Date":"2020-12-28 13"},"coordinates":[3941,6227]},{"type":"Point","properties":{"Station_ID":"MI-MQ-28","Station_Nam":"CARLSHEND, MI","Latitude":"46.31638","Longitude":"-87.19944","Snowdepth":"4.000","Units":"in","Rept_Date":"2020-12-28 13"},"coordinates":[2947,6764]},{"type":"Point","properties":{"Station_ID":"MI-MQ-19","Station_Nam":"ISHPEMING 7.2 SW, MI","Latitude":"46.40550","Longitude":"-87.75670","Snowdepth":"4.000","Units":"in","Rept_Date":"2020-12-28 11"},"coordinates":[2783,6817]},{"type":"Point","properties":{"Station_ID":"MI-MC-4","Station_Nam":"ST. IGNACE 0.5SE, MI","Latitude":"45.86057","Longitude":"-84.71980","Snowdepth":"4.000","Units":"in","Rept_Date":"2020-12-28 12"},"coordinates":[3675,6491]},{"type":"Point","properties":{"Station_ID":"MI-GT-25","Station_Nam":"TRAVERSE CITY 4.7 ESE, MI","Latitude":"44.73370","Longitude":"-85.51189","Snowdepth":"4.000","Units":"in","Rept_Date":"2020-12-28 12"},"coordinates":[3442,5818]},{"type":"Point","properties":{"Station_ID":"MI-GT-21","Station_Nam":"KINGSLEY 2.7 ENE, MI","Latitude":"44.59871","Longitude":"-85.48426","Snowdepth":"4.000","Units":"in","Rept_Date":"2020-12-28 13"},"coordinates":[3450,5737]},{"type":"Point","properties":{"Station_ID":"MI-EM-5","Station_Nam":"HARBOR SPRINGS 0.7 ENE, MI","Latitude":"45.43450","Longitude":"-84.97540","Snowdepth":"4.000","Units":"in","Rept_Date":"2020-12-28 12"},"coordinates":[3599,6237]},{"type":"Point","properties":{"Station_ID":"MI-CX-7","Station_Nam":"EAST JORDAN 2.1 NNW, MI","Latitude":"45.18639","Longitude":"-85.14750","Snowdepth":"4.000","Units":"in","Rept_Date":"2020-12-28 13"},"coordinates":[3549,6088]},{"type":"Point","properties":{"Station_ID":"LVDW3","Station_Nam":"LAC VIEUX DESERT","Latitude":"46.12110","Longitude":"-89.07580","Snowdepth":"4.000","Units":"in","Rept_Date":"2020-12-28 15"},"coordinates":[2396,6647]},{"type":"Point","properties":{"Station_ID":"LOWN6","Station_Nam":"LOWVILLE","Latitude":"43.79280","Longitude":"-75.48290","Snowdepth":"4.000","Units":"in","Rept_Date":"2020-12-28 12"},"coordinates":[6386,5255]},{"type":"Point","properties":{"Station_ID":"LNVP1","Station_Nam":"PA FISH COMMISSION HATCHERY","Latitude":"41.65000","Longitude":"-80.43330","Snowdepth":"4.000","Units":"in","Rept_Date":"2020-12-28 12"},"coordinates":[4933,3974]},{"type":"Point","properties":{"Station_ID":"LMLI4","Station_Nam":"LAKE MILLS,IA","Latitude":"43.40000","Longitude":"-93.53330","Snowdepth":"4.000","Units":"in","Rept_Date":"2020-12-28 13"},"coordinates":[1088,5020]},{"type":"Point","properties":{"Station_ID":"LBRM5","Station_Nam":"LAKE BRONSON DAM","Latitude":"48.72410","Longitude":"-96.62180","Snowdepth":"4.000","Units":"in","Rept_Date":"2020-12-28 14"},"coordinates":[181,8204]},{"type":"Point","properties":{"Station_ID":"LAFW3","Station_Nam":"LA FARGE","Latitude":"43.57340","Longitude":"-90.63200","Snowdepth":"4.000","Units":"in","Rept_Date":"2020-12-28 13"},"coordinates":[1939,5124]},{"type":"Point","properties":{"Station_ID":"KLKM4","Station_Nam":"KALKASKA","Latitude":"44.72800","Longitude":"-85.17270","Snowdepth":"4.000","Units":"in","Rept_Date":"2020-12-28 13"},"coordinates":[3542,5814]},{"type":"Point","properties":{"Station_ID":"KISM4","Station_Nam":"K.I. SAWYER WWTP","Latitude":"46.33410","Longitude":"-87.37790","Snowdepth":"4.000","Units":"in","Rept_Date":"2020-12-28 13"},"coordinates":[2894,6775]},{"type":"Point","properties":{"Station_ID":"JCBM4","Station_Nam":"JACOBSVILLE","Latitude":"47.00830","Longitude":"-88.43180","Snowdepth":"4.000","Units":"in","Rept_Date":"2020-12-28 12"},"coordinates":[2585,7178]},{"type":"Point","properties":{"Station_ID":"GRMP1","Station_Nam":"GRAMPIAN, PA","Latitude":"40.96660","Longitude":"-78.58710","Snowdepth":"4.000","Units":"in","Rept_Date":"2020-12-28 11"},"coordinates":[5475,3565]},{"type":"Point","properties":{"Station_ID":"GRB","Station_Nam":"GREEN BAY, WI","Latitude":"44.49860","Longitude":"-88.11170","Snowdepth":"4.000","Units":"in","Rept_Date":"2020-12-29 00"},"coordinates":[2679,5677]},{"type":"Point","properties":{"Station_ID":"GNEN6","Station_Nam":"GREENE","Latitude":"42.32440","Longitude":"-75.77170","Snowdepth":"4.000","Units":"in","Rept_Date":"2020-12-28 15"},"coordinates":[6301,4377]},{"type":"Point","properties":{"Station_ID":"GMRM5","Station_Nam":"GRAND MARIAS WATER TREATMENT PLANT","Latitude":"47.75180","Longitude":"-90.32820","Snowdepth":"4.000","Units":"in","Rept_Date":"2020-12-28 14"},"coordinates":[2028,7622]},{"type":"Point","properties":{"Station_ID":"GLLM5","Station_Nam":"GULL LAKE DAM","Latitude":"46.41190","Longitude":"-94.35000","Snowdepth":"4.000","Units":"in","Rept_Date":"2020-12-28 14"},"coordinates":[848,6821]},{"type":"Point","properties":{"Station_ID":"GLDM4","Station_Nam":"GLADSTONE NO. 2","Latitude":"45.84330","Longitude":"-87.03910","Snowdepth":"4.000","Units":"in","Rept_Date":"2020-12-28 12"},"coordinates":[2994,6481]},{"type":"Point","properties":{"Station_ID":"FLNW3","Station_Nam":"FLORENCE","Latitude":"45.93360","Longitude":"-88.25830","Snowdepth":"4.000","Units":"in","Rept_Date":"2020-12-28 13"},"coordinates":[2636,6535]},{"type":"Point","properties":{"Station_ID":"FLAM4","Station_Nam":"FIFE LAKE 2WNW","Latitude":"44.58480","Longitude":"-85.36530","Snowdepth":"4.000","Units":"in","Rept_Date":"2020-12-28 12"},"coordinates":[3485,5729]},{"type":"Point","properties":{"Station_ID":"EVRW3","Station_Nam":"EAGLE RIVER-4 E","Latitude":"45.91890","Longitude":"-89.15280","Snowdepth":"4.000","Units":"in","Rept_Date":"2020-12-28 12"},"coordinates":[2373,6526]},{"type":"Point","properties":{"Station_ID":"ENGM4","Station_Nam":"ENGADINE MDOT","Latitude":"46.12800","Longitude":"-85.56960","Snowdepth":"4.000","Units":"in","Rept_Date":"2020-12-28 12"},"coordinates":[3425,6651]},{"type":"Point","properties":{"Station_ID":"EJNM4","Station_Nam":"EAST JORDAN 2NW","Latitude":"45.18630","Longitude":"-85.14770","Snowdepth":"4.000","Units":"in","Rept_Date":"2020-12-28 13"},"coordinates":[3549,6088]},{"type":"Point","properties":{"Station_ID":"EGRW3","Station_Nam":"EAGLE RIVER-SOUTH","Latitude":"45.91360","Longitude":"-89.24360","Snowdepth":"4.000","Units":"in","Rept_Date":"2020-12-28 13"},"coordinates":[2347,6523]},{"type":"Point","properties":{"Station_ID":"CSPP1","Station_Nam":"COUDERSPORT 1 SW","Latitude":"41.77500","Longitude":"-78.04170","Snowdepth":"4.000","Units":"in","Rept_Date":"2020-12-28 12"},"coordinates":[5635,4049]},{"type":"Point","properties":{"Station_ID":"CNNS2","Station_Nam":"CANTON","Latitude":"43.31120","Longitude":"-96.58770","Snowdepth":"4.000","Units":"in","Rept_Date":"2020-12-28 14"},"coordinates":[191,4967]},{"type":"Point","properties":{"Station_ID":"CKPI4","Station_Nam":"CHEROKEE,IA","Latitude":"42.75720","Longitude":"-95.53780","Snowdepth":"4.000","Units":"in","Rept_Date":"2020-12-28 14"},"coordinates":[499,4636]},{"type":"Point","properties":{"Station_ID":"CJRP1","Station_Nam":"COUDERSPORT 7SE","Latitude":"41.73920","Longitude":"-77.97110","Snowdepth":"4.000","Units":"in","Rept_Date":"2020-12-28 12"},"coordinates":[5655,4027]},{"type":"Point","properties":{"Station_ID":"CHRO1","Station_Nam":"CHARDON,OH","Latitude":"41.58330","Longitude":"-81.18330","Snowdepth":"4.000","Units":"in","Rept_Date":"2020-12-28 13"},"coordinates":[4713,3934]},{"type":"Point","properties":{"Station_ID":"CEFM4","Station_Nam":"EXPERIMENT FARM #2","Latitude":"46.33330","Longitude":"-86.91670","Snowdepth":"4.000","Units":"in","Rept_Date":"2020-12-28 13"},"coordinates":[3030,6774]},{"type":"Point","properties":{"Station_ID":"CAN-ON-203","Station_Nam":"LUCKNOW 1.5 NNE - MVCA, CAN","Latitude":"43.97350","Longitude":"-81.50764","Snowdepth":"4.000","Units":"in","Rept_Date":"2020-12-28 13"},"coordinates":[4617,5363]},{"type":"Point","properties":{"Station_ID":"BVUW3","Station_Nam":"GREEN BAY-EAST","Latitude":"44.49290","Longitude":"-87.92560","Snowdepth":"4.000","Units":"in","Rept_Date":"2020-12-29 00"},"coordinates":[2734,5674]},{"type":"Point","properties":{"Station_ID":"BUF","Station_Nam":"BUFFALO, NY","Latitude":"42.94140","Longitude":"-78.71920","Snowdepth":"4.000","Units":"in","Rept_Date":"2020-12-29 06"},"coordinates":[5436,4746]},{"type":"Point","properties":{"Station_ID":"BREW3","Station_Nam":"SURING","Latitude":"44.99580","Longitude":"-88.37860","Snowdepth":"4.000","Units":"in","Rept_Date":"2020-12-28 14"},"coordinates":[2601,5974]},{"type":"Point","properties":{"Station_ID":"BLNW3","Station_Nam":"BERLIN WWTP","Latitude":"43.99000","Longitude":"-88.94170","Snowdepth":"4.000","Units":"in","Rept_Date":"2020-12-28 13"},"coordinates":[2435,5373]},{"type":"Point","properties":{"Station_ID":"BGGW3","Station_Nam":"GREEN BAY,WI","Latitude":"44.53170","Longitude":"-88.09720","Snowdepth":"4.000","Units":"in","Rept_Date":"2020-12-28 14"},"coordinates":[2683,5697]},{"type":"Point","properties":{"Station_ID":"BFSW3","Station_Nam":"BIG FALLS-5 NW","Latitude":"44.63980","Longitude":"-89.11330","Snowdepth":"4.000","Units":"in","Rept_Date":"2020-12-28 13"},"coordinates":[2385,5762]},{"type":"Point","properties":{"Station_ID":"BDFP1","Station_Nam":"BRADFORD,PA","Latitude":"41.95000","Longitude":"-78.73330","Snowdepth":"4.000","Units":"in","Rept_Date":"2020-12-28 13"},"coordinates":[5432,4153]},{"type":"Point","properties":{"Station_ID":"AVTW3","Station_Nam":"ARBOR VITAE-JOHNSON LAKE","Latitude":"45.89940","Longitude":"-89.72670","Snowdepth":"4.000","Units":"in","Rept_Date":"2020-12-28 12"},"coordinates":[2205,6515]},{"type":"Point","properties":{"Station_ID":"ATY","Station_Nam":"WATERTOWN MUNICIPAL AIRPORT","Latitude":"44.91420","Longitude":"-97.15440","Snowdepth":"4.000","Units":"in","Rept_Date":"2020-12-29 00"},"coordinates":[25,5926]},{"type":"Point","properties":{"Station_ID":"ATW","Station_Nam":"OUTAGAMIE COUNTY AIRPORT","Latitude":"44.25750","Longitude":"-88.51940","Snowdepth":"4.000","Units":"in","Rept_Date":"2020-12-28 12"},"coordinates":[2559,5533]},{"type":"Point","properties":{"Station_ID":"APPW3","Station_Nam":"APPLETON","Latitude":"44.27690","Longitude":"-88.43770","Snowdepth":"4.000","Units":"in","Rept_Date":"2020-12-28 11"},"coordinates":[2583,5545]},{"type":"Point","properties":{"Station_ID":"41.6781_081.2971","Station_Nam":"2 ESE Mentor  Trained Spotter (CLE1260)","Latitude":"41.67808","Longitude":"-81.29714","Snowdepth":"4.000","Units":"in","Rept_Date":"2020-12-29 02"},"coordinates":[4679,3991]},{"type":"Point","properties":{"Station_ID":"MN-MC-7","Station_Nam":"SILVER LAKE 1.7 N, MN","Latitude":"44.92788","Longitude":"-94.20408","Snowdepth":"3.900","Units":"in","Rept_Date":"2020-12-28 13"},"coordinates":[891,5934]},{"type":"Point","properties":{"Station_ID":"CAN-ON-130","Station_Nam":"BARRIE 3.6 N - CANWARN, CAN","Latitude":"44.41135","Longitude":"-79.69817","Snowdepth":"3.900","Units":"in","Rept_Date":"2020-12-28 13"},"coordinates":[5148,5625]},{"type":"Point","properties":{"Station_ID":"SD-MH-8","Station_Nam":"HARTFORD 6.4 S, SD","Latitude":"43.53128","Longitude":"-96.95020","Snowdepth":"3.700","Units":"in","Rept_Date":"2020-12-28 14"},"coordinates":[85,5099]},{"type":"Point","properties":{"Station_ID":"QWG","Station_Nam":"QWG","Latitude":"48.48890","Longitude":"-73.45940","Snowdepth":"3.622","Units":"in","Rept_Date":"2020-12-28 12"},"coordinates":[6980,8063]},{"type":"Point","properties":{"Station_ID":"QCX","Station_Nam":"QCX","Latitude":"51.32830","Longitude":"-70.08060","Snowdepth":"3.543","Units":"in","Rept_Date":"2020-12-28 12"},"coordinates":[7971,9761]},{"type":"Point","properties":{"Station_ID":"WI-WP-8","Station_Nam":"WAUPACA 5.7 WSW, WI","Latitude":"44.33239","Longitude":"-89.18714","Snowdepth":"3.500","Units":"in","Rept_Date":"2020-12-28 13"},