{"type":"Topology","objects":{"snowdepth_geo":{"type":"GeometryCollection","name":"snowdepth","crs":{"type":"name","properties":{"name":"urn:ogc:def:crs:OGC:1.3:CRS84"}},"geometries":[{"type":"Point","properties":{"Station_ID":"PRKM4","Station_Nam":"MUNISING EAST","Latitude":"46.42580","Longitude":"-86.62000","Snowdepth":"76.500","Units":"in","Rept_Date":"2021-02-21 06"},"coordinates":[2492,7505]},{"type":"Point","properties":{"Station_ID":"MMNV1","Station_Nam":"MT. MANSFIELD","Latitude":"44.52480","Longitude":"-72.81540","Snowdepth":"47.000","Units":"in","Rept_Date":"2021-02-20 21"},"coordinates":[5732,6611]},{"type":"Point","properties":{"Station_ID":"PDLM4","Station_Nam":"PAINESDALE","Latitude":"47.04160","Longitude":"-88.67170","Snowdepth":"45.000","Units":"in","Rept_Date":"2021-02-20 13"},"coordinates":[2011,7795]},{"type":"Point","properties":{"Station_ID":"HTLN3","Station_Nam":"HERMIT LAKE SNOWPLOT","Latitude":"44.26130","Longitude":"-71.28330","Snowdepth":"44.000","Units":"in","Rept_Date":"2021-02-20 10"},"coordinates":[6092,6487]},{"type":"Point","properties":{"Station_ID":"IL-CK-193","Station_Nam":"WINNETKA 0.8 ESE, IL","Latitude":"42.10164","Longitude":"-87.72900","Snowdepth":"43.800","Units":"in","Rept_Date":"2021-02-20 14"},"coordinates":[2232,5471]},{"type":"Point","properties":{"Station_ID":"HLSN3","Station_Nam":"HERMIT LAKE SNOTEL","Latitude":"44.26130","Longitude":"-71.28320","Snowdepth":"40.200","Units":"in","Rept_Date":"2021-02-21 06"},"coordinates":[6092,6487]},{"type":"Point","properties":{"Station_ID":"NY-ER-65","Station_Nam":"BOSTON 1.5 NE, NY","Latitude":"42.65470","Longitude":"-78.72010","Snowdepth":"40.000","Units":"in","Rept_Date":"2021-02-20 12"},"coordinates":[4346,5731]},{"type":"Point","properties":{"Station_ID":"NY-ER-56","Station_Nam":"COLDEN 1.4 NNW, NY","Latitude":"42.64740","Longitude":"-78.71120","Snowdepth":"38.000","Units":"in","Rept_Date":"2021-02-20 12"},"coordinates":[4348,5728]},{"type":"Point","properties":{"Station_ID":"KSGM4","Station_Nam":"KEARSARGE","Latitude":"47.27520","Longitude":"-88.41700","Snowdepth":"38.000","Units":"in","Rept_Date":"2021-02-20 13"},"coordinates":[2070,7905]},{"type":"Point","properties":{"Station_ID":"CODN6","Station_Nam":"COLDEN","Latitude":"42.64720","Longitude":"-78.71110","Snowdepth":"36.000","Units":"in","Rept_Date":"2021-02-20 12"},"coordinates":[4348,5728]},{"type":"Point","properties":{"Station_ID":"HGHN6","Station_Nam":"HIGHMARKET","Latitude":"43.60510","Longitude":"-75.55430","Snowdepth":"35.000","Units":"in","Rept_Date":"2021-02-20 11"},"coordinates":[5089,6178]},{"type":"Point","properties":{"Station_ID":"QNCM4","Station_Nam":"QUINCY HILL","Latitude":"47.13640","Longitude":"-88.57950","Snowdepth":"34.000","Units":"in","Rept_Date":"2021-02-20 12"},"coordinates":[2032,7840]},{"type":"Point","properties":{"Station_ID":"PARM4","Station_Nam":"PARENT BAY","Latitude":"45.79610","Longitude":"-86.40110","Snowdepth":"33.000","Units":"in","Rept_Date":"2021-02-20 14"},"coordinates":[2543,7209]},{"type":"Point","properties":{"Station_ID":"IL-LK-69","Station_Nam":"HIGHWOOD 0.9 S, IL","Latitude":"42.19841","Longitude":"-87.81400","Snowdepth":"33.000","Units":"in","Rept_Date":"2021-02-20 13"},"coordinates":[2212,5517]},{"type":"Point","properties":{"Station_ID":"PTLQ6","Station_Nam":"PORTAGE LAKE","Latitude":"49.06950","Longitude":"-86.65940","Snowdepth":"32.240","Units":"in","Rept_Date":"2021-02-21 06"},"coordinates":[2483,8749]},{"type":"Point","properties":{"Station_ID":"VT-BN-12","Station_Nam":"STAMFORD 5.0 NNE, VT","Latitude":"42.82000","Longitude":"-73.02000","Snowdepth":"30.500","Units":"in","Rept_Date":"2021-02-20 21"},"coordinates":[5684,5809]},{"type":"Point","properties":{"Station_ID":"WNDP1","Station_Nam":"WINDBER COUNTY CLUB","Latitude":"40.28780","Longitude":"-78.77530","Snowdepth":"30.000","Units":"in","Rept_Date":"2021-02-20 12"},"coordinates":[4333,4618]},{"type":"Point","properties":{"Station_ID":"VT-WH-9","Station_Nam":"WEST HALIFAX 0.2 SE, VT","Latitude":"42.78561","Longitude":"-72.76950","Snowdepth":"30.000","Units":"in","Rept_Date":"2021-02-20 15"},"coordinates":[5743,5793]},{"type":"Point","properties":{"Station_ID":"VT-BN-3","Station_Nam":"LANDGROVE 1.1 NNE, VT","Latitude":"43.29092","Longitude":"-72.83260","Snowdepth":"30.000","Units":"in","Rept_Date":"2021-02-20 11"},"coordinates":[5728,6031]},{"type":"Point","properties":{"Station_ID":"NY-ER-195","Station_Nam":"SPRINGVILLE 0.4 NE, NY","Latitude":"42.51351","Longitude":"-78.66492","Snowdepth":"30.000","Units":"in","Rept_Date":"2021-02-21 05"},"coordinates":[4359,5665]},{"type":"Point","properties":{"Station_ID":"NY-ER-194","Station_Nam":"GLENWOOD 1.0 SE, NY","Latitude":"42.60740","Longitude":"-78.64610","Snowdepth":"30.000","Units":"in","Rept_Date":"2021-02-20 12"},"coordinates":[4364,5709]},{"type":"Point","properties":{"Station_ID":"IL-CK-211","Station_Nam":"OAK LAWN 1.6 WNW, IL","Latitude":"41.72686","Longitude":"-87.77770","Snowdepth":"30.000","Units":"in","Rept_Date":"2021-02-20 14"},"coordinates":[2220,5295]},{"type":"Point","properties":{"Station_ID":"NY-ER-166","Station_Nam":"BOSTON 2.5 NE, NY","Latitude":"42.65480","Longitude":"-78.70300","Snowdepth":"29.000","Units":"in","Rept_Date":"2021-02-20 12"},"coordinates":[4350,5731]},{"type":"Point","properties":{"Station_ID":"NH-CS-10","Station_Nam":"RANDOLPH 1.4 NE, NH","Latitude":"44.38824","Longitude":"-71.26950","Snowdepth":"29.000","Units":"in","Rept_Date":"2021-02-20 12"},"coordinates":[6095,6547]},{"type":"Point","properties":{"Station_ID":"MNSM4","Station_Nam":"MUNISING","Latitude":"46.41210","Longitude":"-86.66250","Snowdepth":"29.000","Units":"in","Rept_Date":"2021-02-20 11"},"coordinates":[2482,7499]},{"type":"Point","properties":{"Station_ID":"GMSM4","Station_Nam":"GRAND MARAIS 10S","Latitude":"46.50940","Longitude":"-85.96310","Snowdepth":"29.000","Units":"in","Rept_Date":"2021-02-20 12"},"coordinates":[2646,7545]},{"type":"Point","properties":{"Station_ID":"NY-HR-18","Station_Nam":"SALISBURY CENTER 1.8 NW, NY","Latitude":"43.16260","Longitude":"-74.80880","Snowdepth":"28.800","Units":"in","Rept_Date":"2021-02-20 10"},"coordinates":[5264,5970]},{"type":"Point","properties":{"Station_ID":"TRIQ6","Station_Nam":"TRIO LAKE","Latitude":"49.22880","Longitude":"-87.22920","Snowdepth":"28.540","Units":"in","Rept_Date":"2021-02-21 06"},"coordinates":[2349,8824]},{"type":"Point","properties":{"Station_ID":"WI-MW-14","Station_Nam":"MILWAUKEE 3.6 NNW, WI","Latitude":"43.11300","Longitude":"-87.98730","Snowdepth":"28.000","Units":"in","Rept_Date":"2021-02-20 11"},"coordinates":[2171,5947]},{"type":"Point","properties":{"Station_ID":"NY-TM-45","Station_Nam":"NEWFIELD HAMLET 4.3 S, NY","Latitude":"42.29650","Longitude":"-76.60676","Snowdepth":"28.000","Units":"in","Rept_Date":"2021-02-20 14"},"coordinates":[4842,5563]},{"type":"Point","properties":{"Station_ID":"NY-ER-63","Station_Nam":"GLENWOOD 1.5 SE, NY","Latitude":"42.60195","Longitude":"-78.63910","Snowdepth":"28.000","Units":"in","Rept_Date":"2021-02-20 13"},"coordinates":[4365,5706]},{"type":"Point","properties":{"Station_ID":"MTQM4","Station_Nam":"MANISTIQUE WWTP","Latitude":"45.95120","Longitude":"-86.25130","Snowdepth":"28.000","Units":"in","Rept_Date":"2021-02-20 12"},"coordinates":[2579,7282]},{"type":"Point","properties":{"Station_ID":"LBKV1","Station_Nam":"LYE BROOK","Latitude":"43.05000","Longitude":"-73.03330","Snowdepth":"28.000","Units":"in","Rept_Date":"2021-02-21 06"},"coordinates":[5681,5917]},{"type":"Point","properties":{"Station_ID":"IL-CK-12","Station_Nam":"BRIDGEVIEW 1.3 NNW, IL","Latitude":"41.75502","Longitude":"-87.81730","Snowdepth":"28.000","Units":"in","Rept_Date":"2021-02-20 13"},"coordinates":[2211,5308]},{"type":"Point","properties":{"Station_ID":"CAN-ON-342","Station_Nam":"LURGAN BEACH 1.4 NNE - LHCC, CAN","Latitude":"44.09777","Longitude":"-81.72765","Snowdepth":"28.000","Units":"in","Rept_Date":"2021-02-20 12"},"coordinates":[3640,6410]},{"type":"Point","properties":{"Station_ID":"DVLQ6","Station_Nam":"DEVIOUS LAKE","Latitude":"49.19890","Longitude":"-87.76440","Snowdepth":"27.240","Units":"in","Rept_Date":"2021-02-21 06"},"coordinates":[2224,8810]},{"type":"Point","properties":{"Station_ID":"SGVN6","Station_Nam":"SPRINGVILLE","Latitude":"42.54970","Longitude":"-78.57670","Snowdepth":"27.000","Units":"in","Rept_Date":"2021-02-21 00"},"coordinates":[4380,5682]},{"type":"Point","properties":{"Station_ID":"MI-SH-1","Station_Nam":"MANISTIQUE 2.7 NW, MI","Latitude":"45.99042","Longitude":"-86.28266","Snowdepth":"27.000","Units":"in","Rept_Date":"2021-02-20 12"},"coordinates":[2571,7300]},{"type":"Point","properties":{"Station_ID":"MI-EM-8","Station_Nam":"PETOSKEY 1.7 SSW, MI","Latitude":"45.34209","Longitude":"-84.96530","Snowdepth":"27.000","Units":"in","Rept_Date":"2021-02-20 11"},"coordinates":[2880,6995]},{"type":"Point","properties":{"Station_ID":"JEFV1","Station_Nam":"JEFFERSONVILLE","Latitude":"44.58430","Longitude":"-72.78700","Snowdepth":"27.000","Units":"in","Rept_Date":"2021-02-20 12"},"coordinates":[5739,6639]},{"type":"Point","properties":{"Station_ID":"EHYM3","Station_Nam":"EAST HAWLEY","Latitude":"42.57410","Longitude":"-72.86790","Snowdepth":"27.000","Units":"in","Rept_Date":"2021-02-20 13"},"coordinates":[5720,5693]},{"type":"Point","properties":{"Station_ID":"QGO","Station_Nam":"QGO","Latitude":"48.85500","Longitude":"-74.20640","Snowdepth":"26.968","Units":"in","Rept_Date":"2021-02-20 12"},"coordinates":[5405,8648]},{"type":"Point","properties":{"Station_ID":"WELM4","Station_Nam":"WELLSTON TIPPY DAM","Latitude":"44.25860","Longitude":"-85.93940","Snowdepth":"26.000","Units":"in","Rept_Date":"2021-02-20 13"},"coordinates":[2652,6486]},{"type":"Point","properties":{"Station_ID":"VT-OL-12","Station_Nam":"GREENSBORO 3.9 NNE, VT","Latitude":"44.63100","Longitude":"-72.28000","Snowdepth":"26.000","Units":"in","Rept_Date":"2021-02-20 13"},"coordinates":[5858,6661]},{"type":"Point","properties":{"Station_ID":"NY-LW-12","Station_Nam":"CHASES LAKE COOP, NY","Latitude":"43.75924","Longitude":"-75.29982","Snowdepth":"26.000","Units":"in","Rept_Date":"2021-02-20 12"},"coordinates":[5149,6251]},{"type":"Point","properties":{"Station_ID":"GHMN3","Station_Nam":"PINKHAM NOTCH","Latitude":"44.25800","Longitude":"-71.25250","Snowdepth":"26.000","Units":"in","Rept_Date":"2021-02-20 11"},"coordinates":[6099,6486]},{"type":"Point","properties":{"Station_ID":"GFDN6","Station_Nam":"CHASES LAKE","Latitude":"43.75920","Longitude":"-75.29980","Snowdepth":"26.000","Units":"in","Rept_Date":"2021-02-20 11"},"coordinates":[5149,6251]},{"type":"Point","properties":{"Station_ID":"FISM1","Station_Nam":"FORT KENT COOP","Latitude":"47.23850","Longitude":"-68.61240","Snowdepth":"26.000","Units":"in","Rept_Date":"2021-02-20 12"},"coordinates":[6718,7888]},{"type":"Point","properties":{"Station_ID":"NY-FK-9","Station_Nam":"GABRIELS 1.3 SE, NY","Latitude":"44.41934","Longitude":"-74.16194","Snowdepth":"25.500","Units":"in","Rept_Date":"2021-02-20 12"},"coordinates":[5416,6561]},{"type":"Point","properties":{"Station_ID":"CAN-ON-245","Station_Nam":"PHELPSTON 3.1 ESE, CAN","Latitude":"44.50564","Longitude":"-79.81035","Snowdepth":"25.500","Units":"in","Rept_Date":"2021-02-20 13"},"coordinates":[4090,6602]},{"type":"Point","properties":{"Station_ID":"AUDQ6","Station_Nam":"AUDEN","Latitude":"48.52600","Longitude":"-82.57570","Snowdepth":"25.120","Units":"in","Rept_Date":"2021-02-21 06"},"coordinates":[3441,8493]},{"type":"Point","properties":{"Station_ID":"QLB","Station_Nam":"QLB","Latitude":"50.72360","Longitude":"-75.10000","Snowdepth":"25.039","Units":"in","Rept_Date":"2021-02-20 12"},"coordinates":[5196,9527]},{"type":"Point","properties":{"Station_ID":"VT-WH-30","Station_Nam":"MARLBORO 2.0 NNE, VT","Latitude":"42.88484","Longitude":"-72.70935","Snowdepth":"25.000","Units":"in","Rept_Date":"2021-02-20 13"},"coordinates":[5757,5840]},{"type":"Point","properties":{"Station_ID":"ROWM3","Station_Nam":"ROWE 3NE","Latitude":"42.73500","Longitude":"-72.86920","Snowdepth":"25.000","Units":"in","Rept_Date":"2021-02-20 12"},"coordinates":[5719,5769]},{"type":"Point","properties":{"Station_ID":"NY-ES-11","Station_Nam":"VERMONTVILLE 2.8 S, NY","Latitude":"44.41205","Longitude":"-74.06760","Snowdepth":"25.000","Units":"in","Rept_Date":"2021-02-20 12"},"coordinates":[5438,6558]},{"type":"Point","properties":{"Station_ID":"MRLV1","Station_Nam":"MARLBORO","Latitude":"42.86000","Longitude":"-72.72000","Snowdepth":"25.000","Units":"in","Rept_Date":"2021-02-20 13"},"coordinates":[5754,5828]},{"type":"Point","properties":{"Station_ID":"MI-HG-1","Station_Nam":"HOUGHTON 1.6 ESE, MI","Latitude":"47.10774","Longitude":"-88.52940","Snowdepth":"25.000","Units":"in","Rept_Date":"2021-02-20 13"},"coordinates":[2044,7826]},{"type":"Point","properties":{"Station_ID":"MALN6","Station_Nam":"MALONE","Latitude":"44.84180","Longitude":"-74.30600","Snowdepth":"25.000","Units":"in","Rept_Date":"2021-02-20 12"},"coordinates":[5382,6760]},{"type":"Point","properties":{"Station_ID":"LVDW3","Station_Nam":"LAC VIEUX DESERT","Latitude":"46.12110","Longitude":"-89.07580","Snowdepth":"25.000","Units":"in","Rept_Date":"2021-02-20 15"},"coordinates":[1916,7362]},{"type":"Point","properties":{"Station_ID":"LPLN6","Station_Nam":"LAKE PLACID 2 S","Latitude":"44.30420","Longitude":"-73.98390","Snowdepth":"25.000","Units":"in","Rept_Date":"2021-02-20 13"},"coordinates":[5458,6507]},{"type":"Point","properties":{"Station_ID":"LAUP1","Station_Nam":"1.5MI S OF RT 30 ON SMIT (LAUREL RIDGE)","Latitude":"40.05000","Longitude":"-79.22060","Snowdepth":"25.000","Units":"in","Rept_Date":"2021-02-20 12"},"coordinates":[4229,4506]},{"type":"Point","properties":{"Station_ID":"IL-CK-149","Station_Nam":"OAK LAWN 0.5 SSW, IL","Latitude":"41.70845","Longitude":"-87.75390","Snowdepth":"25.000","Units":"in","Rept_Date":"2021-02-20 15"},"coordinates":[2226,5286]},{"type":"Point","properties":{"Station_ID":"CHRM4","Station_Nam":"CHARLEVOIX","Latitude":"45.31720","Longitude":"-85.26720","Snowdepth":"25.000","Units":"in","Rept_Date":"2021-02-20 13"},"coordinates":[2810,6984]},{"type":"Point","properties":{"Station_ID":"CT-FR-67","Station_Nam":"TRUMBULL 1.2 S, CT","Latitude":"41.24103","Longitude":"-73.20499","Snowdepth":"24.600","Units":"in","Rept_Date":"2021-02-20 11"},"coordinates":[5641,5066]},{"type":"Point","properties":{"Station_ID":"WV-PR-10","Station_Nam":"TERRA ALTA 4.9 NNE, WV","Latitude":"39.51024","Longitude":"-79.51024","Snowdepth":"24.500","Units":"in","Rept_Date":"2021-02-20 13"},"coordinates":[4161,4252]},{"type":"Point","properties":{"Station_ID":"VT-WS-33","Station_Nam":"WAITSFIELD 3.5 WNW, VT","Latitude":"44.20052","Longitude":"-72.89421","Snowdepth":"24.500","Units":"in","Rept_Date":"2021-02-20 13"},"coordinates":[5713,6458]},{"type":"Point","properties":{"Station_ID":"VT-WR-2","Station_Nam":"POMFRET 2.6 N, VT","Latitude":"43.74230","Longitude":"-72.52550","Snowdepth":"24.500","Units":"in","Rept_Date":"2021-02-20 12"},"coordinates":[5800,6243]},{"type":"Point","properties":{"Station_ID":"ME-FR-2","Station_Nam":"TEMPLE 1.8 W, ME","Latitude":"44.68329","Longitude":"-70.26420","Snowdepth":"24.500","Units":"in","Rept_Date":"2021-02-20 12"},"coordinates":[6331,6686]},{"type":"Point","properties":{"Station_ID":"CAN-NB-11","Station_Nam":"MIRAMICHI 3.3 S, CAN","Latitude":"46.99343","Longitude":"-65.50690","Snowdepth":"24.500","Units":"in","Rept_Date":"2021-02-20 12"},"coordinates":[7447,7772]},{"type":"Point","properties":{"Station_ID":"WI-RC-3","Station_Nam":"RACINE 2.3 WSW, WI","Latitude":"42.71124","Longitude":"-87.84570","Snowdepth":"24.000","Units":"in","Rept_Date":"2021-02-20 13"},"coordinates":[2204,5758]},{"type":"Point","properties":{"Station_ID":"VT-WR-17","Station_Nam":"ROCHESTER 2.3 NE, VT","Latitude":"43.89418","Longitude":"-72.76992","Snowdepth":"24.000","Units":"in","Rept_Date":"2021-02-20 12"},"coordinates":[5743,6314]},{"type":"Point","properties":{"Station_ID":"VT-OL-1","Station_Nam":"WESTFIELD 0.7 WNW, VT","Latitude":"44.89160","Longitude":"-72.44350","Snowdepth":"24.000","Units":"in","Rept_Date":"2021-02-20 12"},"coordinates":[5819,6784]},{"type":"Point","properties":{"Station_ID":"TOPN6","Station_Nam":"TUPPER LAKE SUNMOUNT","Latitude":"44.23070","Longitude":"-74.43820","Snowdepth":"24.000","Units":"in","Rept_Date":"2021-02-20 12"},"coordinates":[5351,6473]},{"type":"Point","properties":{"Station_ID":"SEEW3","Station_Nam":"SOUTH MILWAUKEE WWTP","Latitude":"42.90110","Longitude":"-87.84940","Snowdepth":"24.000","Units":"in","Rept_Date":"2021-02-20 13"},"coordinates":[2204,5847]},{"type":"Point","properties":{"Station_ID":"NY-HM-10","Station_Nam":"LAKE PLEASANT 2.3 WSW, NY","Latitude":"43.45490","Longitude":"-74.45287","Snowdepth":"24.000","Units":"in","Rept_Date":"2021-02-20 12"},"coordinates":[5348,6108]},{"type":"Point","properties":{"Station_ID":"NH-MR-41","Station_Nam":"NEWBURY 1.6 NW, NH","Latitude":"43.33667","Longitude":"-72.06060","Snowdepth":"24.000","Units":"in","Rept_Date":"2021-02-20 12"},"coordinates":[5909,6052]},{"type":"Point","properties":{"Station_ID":"IL-DP-155","Station_Nam":"MEDINAH 1.0 SSW, IL","Latitude":"41.96360","Longitude":"-88.06590","Snowdepth":"24.000","Units":"in","Rept_Date":"2021-02-20 14"},"coordinates":[2153,5406]},{"type":"Point","properties":{"Station_ID":"IL-CK-288","Station_Nam":"ROSELLE 0.8 N, IL","Latitude":"41.99255","Longitude":"-88.08422","Snowdepth":"24.000","Units":"in","Rept_Date":"2021-02-20 13"},"coordinates":[2148,5420]},{"type":"Point","properties":{"Station_ID":"HERM4","Station_Nam":"HERMAN,MI","Latitude":"46.65000","Longitude":"-88.33330","Snowdepth":"24.000","Units":"in","Rept_Date":"2021-02-20 14"},"coordinates":[2090,7611]},{"type":"Point","properties":{"Station_ID":"CAN-QC-56","Station_Nam":"SUTTON 2.6 N, CAN","Latitude":"45.13119","Longitude":"-72.61218","Snowdepth":"24.000","Units":"in","Rept_Date":"2021-02-20 12"},"coordinates":[5780,6896]},{"type":"Point","properties":{"Station_ID":"CAN-ON-208","Station_Nam":"PAKENHAM 7.8 NNW, CAN","Latitude":"45.39166","Longitude":"-76.34111","Snowdepth":"24.000","Units":"in","Rept_Date":"2021-02-20 12"},"coordinates":[4904,7019]},{"type":"Point","properties":{"Station_ID":"MI-AN-20","Station_Nam":"HOLLAND 5.3 WSW, MI","Latitude":"42.74900","Longitude":"-86.20200","Snowdepth":"23.900","Units":"in","Rept_Date":"2021-02-20 13"},"coordinates":[2590,5776]},{"type":"Point","properties":{"Station_ID":"IL-WL-63","Station_Nam":"NEW LENOX 1.8 SE, IL","Latitude":"41.49964","Longitude":"-87.96030","Snowdepth":"23.800","Units":"in","Rept_Date":"2021-02-20 13"},"coordinates":[2178,5188]},{"type":"Point","properties":{"Station_ID":"IL-CK-50","Station_Nam":"PALOS PARK 1.3 SW, IL","Latitude":"41.65281","Longitude":"-87.86310","Snowdepth":"23.300","Units":"in","Rept_Date":"2021-02-20 13"},"coordinates":[2200,5260]},{"type":"Point","properties":{"Station_ID":"WRSN6","Station_Nam":"WARSAW 6SW","Latitude":"42.68550","Longitude":"-78.22020","Snowdepth":"23.000","Units":"in","Rept_Date":"2021-02-20 12"},"coordinates":[4463,5746]},{"type":"Point","properties":{"Station_ID":"WLFM5","Station_Nam":"WOLF RIDGE ENVIRON LEARNING CENTER","Latitude":"47.38240","Longitude":"-91.19730","Snowdepth":"23.000","Units":"in","Rept_Date":"2021-02-20 13"},"coordinates":[1418,7955]},{"type":"Point","properties":{"Station_ID":"VT-BN-7","Station_Nam":"MANCHESTER 2.8 ENE, VT","Latitude":"43.17274","Longitude":"-73.01811","Snowdepth":"23.000","Units":"in","Rept_Date":"2021-02-20 12"},"coordinates":[5684,5975]},{"type":"Point","properties":{"Station_ID":"OCON6","Station_Nam":"OSCEOLA","Latitude":"43.50370","Longitude":"-75.72170","Snowdepth":"23.000","Units":"in","Rept_Date":"2021-02-20 13"},"coordinates":[5050,6131]},{"type":"Point","properties":{"Station_ID":"NY-FK-7","Station_Nam":"SARANAC LAKE 6.2 N, NY","Latitude":"44.41359","Longitude":"-74.15211","Snowdepth":"23.000","Units":"in","Rept_Date":"2021-02-20 12"},"coordinates":[5418,6559]},{"type":"Point","properties":{"Station_ID":"NCBN6","Station_Nam":"NEWCOMB","Latitude":"43.97070","Longitude":"-74.22200","Snowdepth":"23.000","Units":"in","Rept_Date":"2021-02-20 12"},"coordinates":[5402,6350]},{"type":"Point","properties":{"Station_ID":"MONW3","Station_Nam":"MONROE,WI","Latitude":"42.60000","Longitude":"-89.66670","Snowdepth":"23.000","Units":"in","Rept_Date":"2021-02-20 13"},"coordinates":[1777,5706]},{"type":"Point","properties":{"Station_ID":"MI-OG-6","Station_Nam":"WEST BRANCH 2.1 SSW, MI","Latitude":"44.24814","Longitude":"-84.25089","Snowdepth":"23.000","Units":"in","Rept_Date":"2021-02-20 12"},"coordinates":[3048,6481]},{"type":"Point","properties":{"Station_ID":"CAN-QC-51","Station_Nam":"BELOEIL 0.7 NW, CAN","Latitude":"45.58049","Longitude":"-73.21218","Snowdepth":"22.900","Units":"in","Rept_Date":"2021-02-20 12"},"coordinates":[5639,7108]},{"type":"Point","properties":{"Station_ID":"CAN-ON-791","Station_Nam":"METCALFE 4.4 NNW, CAN","Latitude":"45.27286","Longitude":"-75.48952","Snowdepth":"22.800","Units":"in","Rept_Date":"2021-02-20 11"},"coordinates":[5104,6963]},{"type":"Point","properties":{"Station_ID":"QFT","Station_Nam":"QFT","Latitude":"50.83280","Longitude":"-74.40390","Snowdepth":"22.087","Units":"in","Rept_Date":"2021-02-20 12"},"coordinates":[5359,9578]},{"type":"Point","properties":{"Station_ID":"WAIV1","Station_Nam":"WAITSFIELD","Latitude":"44.17560","Longitude":"-72.79610","Snowdepth":"22.000","Units":"in","Rept_Date":"2021-02-20 12"},"coordinates":[5736,6447]},{"type":"Point","properties":{"Station_ID":"VT-WS-11","Station_Nam":"WAITSFIELD 1.8 SE, VT","Latitude":"44.17551","Longitude":"-72.79540","Snowdepth":"22.000","Units":"in","Rept_Date":"2021-02-20 12"},"coordinates":[5737,6447]},{"type":"Point","properties":{"Station_ID":"VT-CH-4","Station_Nam":"UNDERHILL 4.4 NNE, VT","Latitude":"44.58774","Longitude":"-72.92250","Snowdepth":"22.000","Units":"in","Rept_Date":"2021-02-20 12"},"coordinates":[5707,6641]},{"type":"Point","properties":{"Station_ID":"TCEM4","Station_Nam":"TRAVERSE CITY 5ESE","Latitude":"44.73370","Longitude":"-85.51180","Snowdepth":"22.000","Units":"in","Rept_Date":"2021-02-20 12"},"coordinates":[2752,6709]},{"type":"Point","properties":{"Station_ID":"PTBN3","Station_Nam":"PITTSBURG RESERVOIR","Latitude":"45.04690","Longitude":"-71.38300","Snowdepth":"22.000","Units":"in","Rept_Date":"2021-02-20 12"},"coordinates":[6068,6857]},{"type":"Point","properties":{"Station_ID":"PRQM1","Station_Nam":"PRESQUE ISLE HILLTOP","Latitude":"46.68630","Longitude":"-67.99470","Snowdepth":"22.000","Units":"in","Rept_Date":"2021-02-20 12"},"coordinates":[6863,7628]},{"type":"Point","properties":{"Station_ID":"PLEP1","Station_Nam":"PLEASANT MOUNT 1 W","Latitude":"41.73940","Longitude":"-75.44650","Snowdepth":"22.000","Units":"in","Rept_Date":"2021-02-20 12"},"coordinates":[5114,5301]},{"type":"Point","properties":{"Station_ID":"PEKN6","Station_Nam":"PECK LAKE","Latitude":"43.11500","Longitude":"-74.42360","Snowdepth":"22.000","Units":"in","Rept_Date":"2021-02-20 12"},"coordinates":[5355,5948]},{"type":"Point","properties":{"Station_ID":"NY-ER-158","Station_Nam":"EAST AURORA 2.7 SSE, NY","Latitude":"42.72936","Longitude":"-78.60561","Snowdepth":"22.000","Units":"in","Rept_Date":"2021-02-20 13"},"coordinates":[4373,5766]},{"type":"Point","properties":{"Station_ID":"NUNV1","Station_Nam":"NORTH UNDERHILL","Latitude":"44.58760","Longitude":"-72.92150","Snowdepth":"22.000","Units":"in","Rept_Date":"2021-02-20 12"},"coordinates":[5707,6641]},{"type":"Point","properties":{"Station_ID":"NH-CR-26","Station_Nam":"CENTER SANDWICH 4.9 E, NH","Latitude":"43.80976","Longitude":"-71.34150","Snowdepth":"22.000","Units":"in","Rept_Date":"2021-02-20 12"},"coordinates":[6078,6275]},{"type":"Point","properties":{"Station_ID":"MI-GT-25","Station_Nam":"TRAVERSE CITY 4.7 ESE, MI","Latitude":"44.73370","Longitude":"-85.51189","Snowdepth":"22.000","Units":"in","Rept_Date":"2021-02-20 12"},"coordinates":[2752,6709]},{"type":"Point","properties":{"Station_ID":"MI-BN-5","Station_Nam":"BUCHANAN 1.3 WNW, MI","Latitude":"41.83634","Longitude":"-86.38900","Snowdepth":"22.000","Units":"in","Rept_Date":"2021-02-20 12"},"coordinates":[2546,5346]},{"type":"Point","properties":{"Station_ID":"ME-AR-18","Station_Nam":"NEW SWEDEN 4.9 NNW, ME","Latitude":"47.01080","Longitude":"-68.14390","Snowdepth":"22.000","Units":"in","Rept_Date":"2021-02-20 12"},"coordinates":[6828,7780]},{"type":"Point","properties":{"Station_ID":"HVJP1","Station_Nam":"HIDDEN VALLEY COOP","Latitude":"40.04200","Longitude":"-79.25660","Snowdepth":"22.000","Units":"in","Rept_Date":"2021-02-20 13"},"coordinates":[4220,4502]},{"type":"Point","properties":{"Station_ID":"HURW3","Station_Nam":"HURLEY","Latitude":"46.46250","Longitude":"-90.19550","Snowdepth":"22.000","Units":"in","Rept_Date":"2021-02-20 14"},"coordinates":[1653,7523]},{"type":"Point","properties":{"Station_ID":"ESDN3","Station_Nam":"EAST SANDWICH","Latitude":"43.80990","Longitude":"-71.34250","Snowdepth":"22.000","Units":"in","Rept_Date":"2021-02-20 11"},"coordinates":[6078,6275]},{"type":"Point","properties":{"Station_ID":"QWE","Station_Nam":"QWE","Latitude":"47.84610","Longitude":"-73.80670","Snowdepth":"21.732","Units":"in","Rept_Date":"2021-02-20 12"},"coordinates":[5499,8173]},{"type":"Point","properties":{"Station_ID":"VT-WS-30","Station_Nam":"WOODBURY 3.4 NNW, VT","Latitude":"44.48825","Longitude":"-72.43258","Snowdepth":"21.500","Units":"in","Rept_Date":"2021-02-20 12"},"coordinates":[5822,6594]},{"type":"Point","properties":{"Station_ID":"VT-WS-19","Station_Nam":"WATERBURY 3.0 NW, VT","Latitude":"44.36060","Longitude":"-72.80770","Snowdepth":"21.500","Units":"in","Rept_Date":"2021-02-20 11"},"coordinates":[5734,6534]},{"type":"Point","properties":{"Station_ID":"VT-WR-10","Station_Nam":"WEST WINDSOR 1.7 S, VT","Latitude":"43.46164","Longitude":"-72.49197","Snowdepth":"21.500","Units":"in","Rept_Date":"2021-02-20 12"},"coordinates":[5808,6111]},{"type":"Point","properties":{"Station_ID":"NY-OD-2","Station_Nam":"POINT ROCK 0.6 SE, NY","Latitude":"43.37335","Longitude":"-75.53840","Snowdepth":"21.500","Units":"in","Rept_Date":"2021-02-20 13"},"coordinates":[5093,6069]},{"type":"Point","properties":{"Station_ID":"NY-ES-6","Station_Nam":"OLMSTEDVILLE 4.6 NNE, NY","Latitude":"43.83350","Longitude":"-73.89780","Snowdepth":"21.500","Units":"in","Rept_Date":"2021-02-20 13"},"coordinates":[5478,6286]},{"type":"Point","properties":{"Station_ID":"MI-BG-3","Station_Nam":"THREE LAKES, MI","Latitude":"46.55730","Longitude":"-88.20770","Snowdepth":"21.500","Units":"in","Rept_Date":"2021-02-20 13"},"coordinates":[2119,7567]},{"type":"Point","properties":{"Station_ID":"MA-HS-7","Station_Nam":"PLAINFIELD 2.2 SW, MA","Latitude":"42.49272","Longitude":"-72.94540","Snowdepth":"21.500","Units":"in","Rept_Date":"2021-02-20 13"},"coordinates":[5701,5655]},{"type":"Point","properties":{"Station_ID":"CAN-QC-47","Station_Nam":"SAINTE-FOY 1.8 ENE, CAN","Latitude":"46.76934","Longitude":"-71.27124","Snowdepth":"21.300","Units":"in","Rept_Date":"2021-02-20 12"},"coordinates":[6094,7667]},{"type":"Point","properties":{"Station_ID":"VT-WH-19","Station_Nam":"EAST DOVER 1.8 N, VT","Latitude":"42.97658","Longitude":"-72.77637","Snowdepth":"21.000","Units":"in","Rept_Date":"2021-02-20 12"},"coordinates":[5741,5883]},{"type":"Point","properties":{"Station_ID":"RKHN6","Station_Nam":"ROCK HILL 3 SW","Latitude":"41.59170","Longitude":"-74.61410","Snowdepth":"21.000","Units":"in","Rept_Date":"2021-02-20 12"},"coordinates":[5310,5231]},{"type":"Point","properties":{"Station_ID":"PRDM4","Station_Nam":"PARADISE","Latitude":"46.60380","Longitude":"-85.03960","Snowdepth":"21.000","Units":"in","Rept_Date":"2021-02-20 11"},"coordinates":[2863,7589]},{"type":"Point","properties":{"Station_ID":"OH-HC-12","Station_Nam":"FINDLAY 0.4 WSW, OH","Latitude":"41.04010","Longitude":"-83.64919","Snowdepth":"21.000","Units":"in","Rept_Date":"2021-02-20 12"},"coordinates":[3189,4972]},{"type":"Point","properties":{"Station_ID":"NY-MD-10","Station_Nam":"CAZENOVIA 2.9 SE, NY","Latitude":"42.90003","Longitude":"-75.81140","Snowdepth":"21.000","Units":"in","Rept_Date":"2021-02-20 12"},"coordinates":[5029,5847]},{"type":"Point","properties":{"Station_ID":"NY-ER-50","Station_Nam":"EAST AURORA 0.1 ENE, NY","Latitude":"42.76750","Longitude":"-78.61580","Snowdepth":"21.000","Units":"in","Rept_Date":"2021-02-20 13"},"coordinates":[4371,5784]},{"type":"Point","properties":{"Station_ID":"NY-ER-138","Station_Nam":"EAST AURORA 3.4 NNE, NY","Latitude":"42.81400","Longitude":"-78.59670","Snowdepth":"21.000","Units":"in","Rept_Date":"2021-02-20 14"},"coordinates":[4375,5806]},{"type":"Point","properties":{"Station_ID":"NH-CS-4","Station_Nam":"PITTSBURG 6.1 NE, NH","Latitude":"45.11060","Longitude":"-71.29760","Snowdepth":"21.000","Units":"in","Rept_Date":"2021-02-20 12"},"coordinates":[6088,6887]},{"type":"Point","properties":{"Station_ID":"MI-BZ-1","Station_Nam":"BENZONIA 5.3 S, MI","Latitude":"44.53976","Longitude":"-86.10650","Snowdepth":"21.000","Units":"in","Rept_Date":"2021-02-20 14"},"coordinates":[2613,6618]},{"type":"Point","properties":{"Station_ID":"IL-DP-118","Station_Nam":"DARIEN 0.4 SSE, IL","Latitude":"41.74312","Longitude":"-87.97462","Snowdepth":"21.000","Units":"in","Rept_Date":"2021-02-20 14"},"coordinates":[2174,5302]},{"type":"Point","properties":{"Station_ID":"IL-CK-180","Station_Nam":"PARK RIDGE 0.5 SSW, IL","Latitude":"42.00443","Longitude":"-87.84600","Snowdepth":"21.000","Units":"in","Rept_Date":"2021-02-20 13"},"coordinates":[2204,5425]},{"type":"Point","properties":{"Station_ID":"ENFV1","Station_Nam":"ENOSBURG FALLS 2","Latitude":"44.90960","Longitude":"-72.81370","Snowdepth":"21.000","Units":"in","Rept_Date":"2021-02-20 14"},"coordinates":[5732,6792]},{"type":"Point","properties":{"Station_ID":"BLTW3","Station_Nam":"BELOIT,WI","Latitude":"42.50000","Longitude":"-89.03330","Snowdepth":"21.000","Units":"in","Rept_Date":"2021-02-20 12"},"coordinates":[1926,5659]},{"type":"Point","properties":{"Station_ID":"BKBW2","Station_Nam":"DAVIS.","Latitude":"39.09830","Longitude":"-79.43190","Snowdepth":"21.000","Units":"in","Rept_Date":"2021-02-20 12"},"coordinates":[4179,4058]},{"type":"Point","properties":{"Station_ID":"AVLV1","Station_Nam":"AVERILL","Latitude":"45.00570","Longitude":"-71.69030","Snowdepth":"21.000","Units":"in","Rept_Date":"2021-02-20 13"},"coordinates":[5996,6837]},{"type":"Point","properties":{"Station_ID":"ABNN6","Station_Nam":"ALBION","Latitude":"43.26330","Longitude":"-78.21520","Snowdepth":"21.000","Units":"in","Rept_Date":"2021-02-20 23"},"coordinates":[4465,6018]},{"type":"Point","properties":{"Station_ID":"QTM","Station_Nam":"QTM","Latitude":"51.05780","Longitude":"-72.57190","Snowdepth":"20.512","Units":"in","Rept_Date":"2021-02-20 12"},"coordinates":[5789,9684]},{"type":"Point","properties":{"Station_ID":"NY-OT-29","Station_Nam":"NEW BERLIN 1.5 NE, NY","Latitude":"42.63689","Longitude":"-75.31090","Snowdepth":"20.500","Units":"in","Rept_Date":"2021-02-20 13"},"coordinates":[5146,5723]},{"type":"Point","properties":{"Station_ID":"MA-HS-14","Station_Nam":"PLAINFIELD 2.4 ESE, MA","Latitude":"42.49792","Longitude":"-72.87769","Snowdepth":"20.500","Units":"in","Rept_Date":"2021-02-20 12"},"coordinates":[5717,5658]},{"type":"Point","properties":{"Station_ID":"IL-CK-285","Station_Nam":"HARWOOD HEIGHTS 0.4 NNE, IL","Latitude":"41.97154","Longitude":"-87.80325","Snowdepth":"20.500","Units":"in","Rept_Date":"2021-02-20 13"},"coordinates":[2214,5410]},{"type":"Point","properties":{"Station_ID":"CAN-NB-105","Station_Nam":"SISSON BROOK 3.8 E, CAN","Latitude":"46.98305","Longitude":"-67.32532","Snowdepth":"20.500","Units":"in","Rept_Date":"2021-02-20 12"},"coordinates":[7020,7767]},{"type":"Point","properties":{"Station_ID":"WSWN6","Station_Nam":"WARSAW","Latitude":"42.74220","Longitude":"-78.20850","Snowdepth":"20.000","Units":"in","Rept_Date":"2021-02-20 12"},"coordinates":[4466,5772]},{"type":"Point","properties":{"Station_ID":"WORV1","Station_Nam":"WORCESTER 2 W","Latitude":"44.37470","Longitude":"-72.58220","Snowdepth":"20.000","Units":"in","Rept_Date":"2021-02-20 12"},"coordinates":[5787,6540]},{"type":"Point","properties":{"Station_ID":"VT-WS-10","Station_Nam":"NORTHFIELD 1.5 N, VT","Latitude":"44.16986","Longitude":"-72.65200","Snowdepth":"20.000","Units":"in","Rept_Date":"2021-02-20 12"},"coordinates":[5770,6444]},{"type":"Point","properties":{"Station_ID":"SPRP1","Station_Nam":"SPRINGTOWN 1 NNE","Latitude":"40.57110","Longitude":"-75.27810","Snowdepth":"20.000","Units":"in","Rept_Date":"2021-02-20 12"},"coordinates":[5154,4751]},{"type":"Point","properties":{"Station_ID":"PA-MN-16","Station_Nam":"MOUNT POCONO 0.7 N, PA","Latitude":"41.13190","Longitude":"-75.35804","Snowdepth":"20.000","Units":"in","Rept_Date":"2021-02-20 12"},"coordinates":[5135,5015]},{"type":"Point","properties":{"Station_ID":"NY-OS-15","Station_Nam":"MINETTO 0.1 SE, NY","Latitude":"43.39771","Longitude":"-76.47960","Snowdepth":"20.000","Units":"in","Rept_Date":"2021-02-20 13"},"coordinates":[4872,6081]},{"type":"Point","properties":{"Station_ID":"NY-ER-66","Station_Nam":"EAST AURORA 1.0 ESE, NY","Latitude":"42.76450","Longitude":"-78.59800","Snowdepth":"20.000","Units":"in","Rept_Date":"2021-02-20 14"},"coordinates":[4375,5783]},{"type":"Point","properties":{"Station_ID":"NH-CS-19","Station_Nam":"CARROLL 4.6 NE, NH","Latitude":"44.33765","Longitude":"-71.46461","Snowdepth":"20.000","Units":"in","Rept_Date":"2021-02-20 12"},"coordinates":[6049,6523]},{"type":"Point","properties":{"Station_ID":"MQT","Station_Nam":"MARQUETTE, MI","Latitude":"46.53140","Longitude":"-87.54920","Snowdepth":"20.000","Units":"in","Rept_Date":"2021-02-21 06"},"coordinates":[2274,7555]},{"type":"Point","properties":{"Station_ID":"MKE","Station_Nam":"GEN MITCHELL INTL AIRPORT","Latitude":"42.94720","Longitude":"-87.89670","Snowdepth":"20.000","Units":"in","Rept_Date":"2021-02-21 00"},"coordinates":[2192,5869]},{"type":"Point","properties":{"Station_ID":"MI-MQ-28","Station_Nam":"CARLSHEND, MI","Latitude":"46.31638","Longitude":"-87.19944","Snowdepth":"20.000","Units":"in","Rept_Date":"2021-02-20 13"},"coordinates":[2356,7454]},{"type":"Point","properties":{"Station_ID":"MI-GT-21","Station_Nam":"KINGSLEY 2.7 ENE, MI","Latitude":"44.59871","Longitude":"-85.48426","Snowdepth":"20.000","Units":"in","Rept_Date":"2021-02-20 13"},"coordinates":[2759,6646]},{"type":"Point","properties":{"Station_ID":"ME-FR-22","Station_Nam":"FARMINGTON 4.8 NNW, ME","Latitude":"44.73396","Longitude":"-70.18007","Snowdepth":"20.000","Units":"in","Rept_Date":"2021-02-20 14"},"coordinates":[6350,6709]},{"type":"Point","properties":{"Station_ID":"MD-GR-9","Station_Nam":"MOUNTAIN LAKE PARK 0.4 E, MD","Latitude":"39.40407","Longitude":"-79.37220","Snowdepth":"20.000","Units":"in","Rept_Date":"2021-02-20 12"},"coordinates":[4193,4202]},{"type":"Point","properties":{"Station_ID":"MD-GR-4","Station_Nam":"MC HENRY 4.8 SSE, MD","Latitude":"39.48539","Longitude":"-79.31830","Snowdepth":"20.000","Units":"in","Rept_Date":"2021-02-20 13"},"coordinates":[4206,4240]},{"type":"Point","properties":{"Station_ID":"LVRM1","Station_Nam":"LIVERMORE FALLS 1 E","Latitude":"44.47160","Longitude":"-70.15940","Snowdepth":"20.000","Units":"in","Rept_Date":"2021-02-20 12"},"coordinates":[6355,6586]},{"type":"Point","properties":{"Station_ID":"LOWN6","Station_Nam":"LOWVILLE","Latitude":"43.79280","Longitude":"-75.48290","Snowdepth":"20.000","Units":"in","Rept_Date":"2021-02-20 12"},"coordinates":[5106,6267]},{"type":"Point","properties":{"Station_ID":"LNSI2","Station_Nam":"LANSING","Latitude":"41.54220","Longitude":"-87.54170","Snowdepth":"20.000","Units":"in","Rept_Date":"2021-02-20 13"},"coordinates":[2276,5208]},{"type":"Point","properties":{"Station_ID":"IL-JD-8","Station_Nam":"STOCKTON 3.4 NNE, IL","Latitude":"42.39960","Longitude":"-89.99020","Snowdepth":"20.000","Units":"in","Rept_Date":"2021-02-20 13"},"coordinates":[1701,5611]},{"type":"Point","properties":{"Station_ID":"HRTM1","Station_Nam":"HARTFORD","Latitude":"44.37440","Longitude":"-70.31620","Snowdepth":"20.000","Units":"in","Rept_Date":"2021-02-20 12"},"coordinates":[6318,6540]},{"type":"Point","properties":{"Station_ID":"CLKM4","Station_Nam":"CLARKSBURG","Latitude":"46.49910","Longitude":"-87.84500","Snowdepth":"20.000","Units":"in","Rept_Date":"2021-02-20 12"},"coordinates":[2205,7540]},{"type":"Point","properties":{"Station_ID":"CAN-ON-451","Station_Nam":"OWEN SOUND 1.2 N - GSCA, CAN","Latitude":"44.58092","Longitude":"-80.93025","Snowdepth":"20.000","Units":"in","Rept_Date":"2021-02-20 13"},"coordinates":[3827,6637]},{"type":"Point","properties":{"Station_ID":"BAYW2","Station_Nam":"BAYARD COOP","Latitude":"39.27280","Longitude":"-79.36830","Snowdepth":"20.000","Units":"in","Rept_Date":"2021-02-20 12"},"coordinates":[4194,4140]},{"type":"Point","properties":{"Station_ID":"QOU","Station_Nam":"QOU","Latitude":"50.79250","Longitude":"-69.67470","Snowdepth":"19.724","Units":"in","Rept_Date":"2021-02-20 12"},"coordinates":[6469,9559]},{"type":"Point","properties":{"Station_ID":"VT-CH-7","Station_Nam":"HUNTINGTON 1.1 E, VT","Latitude":"44.32488","Longitude":"-72.96570","Snowdepth":"19.500","Units":"in","Rept_Date":"2021-02-20 12"},"coordinates":[5697,6517]},{"type":"Point","properties":{"Station_ID":"NY-OG-10","Station_Nam":"CAMILLUS 1.0 W, NY","Latitude":"43.03962","Longitude":"-76.32830","Snowdepth":"19.500","Units":"in","Rept_Date":"2021-02-20 13"},"coordinates":[4908,5912]},{"type":"Point","properties":{"Station_ID":"NY-ES-7","Station_Nam":"KEESEVILLE 0.8 SE, NY","Latitude":"44.49504","Longitude":"-73.47109","Snowdepth":"19.500","Units":"in","Rept_Date":"2021-02-20 12"},"coordinates":[5578,6597]},{"type":"Point","properties":{"Station_ID":"NY-ER-39","Station_Nam":"HAMBURG 0.4 WSW, NY","Latitude":"42.72253","Longitude":"-78.84330","Snowdepth":"19.500","Units":"in","Rept_Date":"2021-02-20 12"},"coordinates":[4317,5763]},{"type":"Point","properties":{"Station_ID":"NH-MR-60","Station_Nam":"SOUTH SUTTON 1.3 SE, NH","Latitude":"43.29531","Longitude":"-71.90238","Snowdepth":"19.500","Units":"in","Rept_Date":"2021-02-20 13"},"coordinates":[5946,6033]},{"type":"Point","properties":{"Station_ID":"IL-CK-145","Station_Nam":"OAK PARK 1.5 S, IL","Latitude":"41.86592","Longitude":"-87.79280","Snowdepth":"19.500","Units":"in","Rept_Date":"2021-02-20 12"},"coordinates":[2217,5360]},{"type":"Point","properties":{"Station_ID":"CAN-ON-5","Station_Nam":"OWEN SOUND 1.5 NW - GSCA, CAN","Latitude":"44.57837","Longitude":"-80.95461","Snowdepth":"19.500","Units":"in","Rept_Date":"2021-02-20 13"},"coordinates":[3822,6636]},{"type":"Point","properties":{"Station_ID":"MLZ","Station_Nam":"MLZ","Latitude":"50.66170","Longitude":"-68.82360","Snowdepth":"19.331","Units":"in","Rept_Date":"2021-02-20 12"},"coordinates":[6669,9498]},{"type":"Point","properties":{"Station_ID":"CAN-NL-82","Station_Nam":"GANDER 2.7 NW, CAN","Latitude":"48.97737","Longitude":"-54.63396","Snowdepth":"19.300","Units":"in","Rept_Date":"2021-02-20 10"},"coordinates":[9999,8706]},{"type":"Point","properties":{"Station_ID":"WI-BY-29","Station_Nam":"BAYFIELD 5.1 NNW, WI","Latitude":"46.88063","Longitude":"-90.85854","Snowdepth":"19.200","Units":"in","Rept_Date":"2021-02-20 13"},"coordinates":[1497,7719]},{"type":"Point","properties":{"Station_ID":"QCO","Station_Nam":"QCO","Latitude":"51.45280","Longitude":"-72.20110","Snowdepth":"19.094","Units":"in","Rept_Date":"2021-02-20 12"},"coordinates":[5876,9870]},{"type":"Point","properties":{"Station_ID":"WTNM4","Station_Nam":"WATTON 2WSW","Latitude":"46.52660","Longitude":"-88.64240","Snowdepth":"19.000","Units":"in","Rept_Date":"2021-02-20 13"},"coordinates":[2017,7553]},{"type":"Point","properties":{"Station_ID":"WLNM4","Station_Nam":"WELLSTON 1N","Latitude":"44.22940","Longitude":"-85.95690","Snowdepth":"19.000","Units":"in","Rept_Date":"2021-02-20 12"},"coordinates":[2648,6472]},{"type":"Point","properties":{"Station_ID":"WI-VL-9","Station_Nam":"LAND O' LAKES 11.7 W, WI","Latitude":"46.19023","Longitude":"-89.45790","Snowdepth":"19.000","Units":"in","Rept_Date":"2021-02-20 13"},"coordinates":[1826,7394]},{"type":"Point","properties":{"Station_ID":"WI-RK-12","Station_Nam":"JANESVILLE 3.1 W, WI","Latitude":"42.67576","Longitude":"-89.07614","Snowdepth":"19.000","Units":"in","Rept_Date":"2021-02-20 13"},"coordinates":[1916,5741]},{"type":"Point","properties":{"Station_ID":"VT-ES-3","Station_Nam":"LUNENBURG 2.3 NNW, VT","Latitude":"44.49324","Longitude":"-71.70446","Snowdepth":"19.000","Units":"in","Rept_Date":"2021-02-20 13"},"coordinates":[5993,6596]},{"type":"Point","properties":{"Station_ID":"SUTV1","Station_Nam":"SUTTON","Latitude":"44.61220","Longitude":"-72.04810","Snowdepth":"19.000","Units":"in","Rept_Date":"2021-02-20 13"},"coordinates":[5912,6652]},{"type":"Point","properties":{"Station_ID":"SSMM4","Station_Nam":"SAULT STE MARIE","Latitude":"46.48660","Longitude":"-84.40250","Snowdepth":"19.000","Units":"in","Rept_Date":"2021-02-20 13"},"coordinates":[3013,7534]},{"type":"Point","properties":{"Station_ID":"RANM1","Station_Nam":"RANGELEY","Latitude":"44.98910","Longitude":"-70.67190","Snowdepth":"19.000","Units":"in","Rept_Date":"2021-02-20 14"},"coordinates":[6235,6829]},{"type":"Point","properties":{"Station_ID":"PKFI2","Station_Nam":"PARK FOREST,IL","Latitude":"41.50000","Longitude":"-87.68330","Snowdepth":"19.000","Units":"in","Rept_Date":"2021-02-20 11"},"coordinates":[2243,5188]},{"type":"Point","properties":{"Station_ID":"NY-SR-22","Station_Nam":"GREENFIELD CENTER 1.6 W, NY","Latitude":"43.12684","Longitude":"-73.87860","Snowdepth":"19.000","Units":"in","Rept_Date":"2021-02-20 12"},"coordinates":[5482,5953]},{"type":"Point","properties":{"Station_ID":"NY-OR-21","Station_Nam":"PORT JERVIS 2.9 ESE, NY","Latitude":"41.35990","Longitude":"-74.64090","Snowdepth":"19.000","Units":"in","Rept_Date":"2021-02-20 11"},"coordinates":[5304,5122]},{"type":"Point","properties":{"Station_ID":"NY-DL-23","Station_Nam":"LONG EDDY 6.5 NNE, NY","Latitude":"41.93510","Longitude":"-75.07840","Snowdepth":"19.000","Units":"in","Rept_Date":"2021-02-20 13"},"coordinates":[5201,5393]},{"type":"Point","properties":{"Station_ID":"NFKC3","Station_Nam":"NORFOLK","Latitude":"41.97250","Longitude":"-73.22080","Snowdepth":"19.000","Units":"in","Rept_Date":"2021-02-20 13"},"coordinates":[5637,5410]},{"type":"Point","properties":{"Station_ID":"MI-OW-2","Station_Nam":"HOLLAND 3.9 NNE, MI","Latitude":"42.82296","Longitude":"-86.06780","Snowdepth":"19.000","Units":"in","Rept_Date":"2021-02-20 11"},"coordinates":[2622,5810]},{"type":"Point","properties":{"Station_ID":"MFWI2","Station_Nam":"MIDWAY COOP","Latitude":"41.73730","Longitude":"-87.77760","Snowdepth":"19.000","Units":"in","Rept_Date":"2021-02-20 12"},"coordinates":[2220,5300]},{"type":"Point","properties":{"Station_ID":"LNOW3","Station_Nam":"LAND O LAKES","Latitude":"46.19000","Longitude":"-89.45700","Snowdepth":"19.000","Units":"in","Rept_Date":"2021-02-20 13"},"coordinates":[1826,7394]},{"type":"Point","properties":{"Station_ID":"KMKE","Station_Nam":"GEN MITCHELL INTERNATIONAL  AIRPORT","Latitude":"42.95000","Longitude":"-87.90000","Snowdepth":"19.000","Units":"in","Rept_Date":"2021-02-21 06"},"coordinates":[2192,5870]},{"type":"Point","properties":{"Station_ID":"JOHV1","Station_Nam":"JOHNSON 2 N","Latitude":"44.65790","Longitude":"-72.67850","Snowdepth":"19.000","Units":"in","Rept_Date":"2021-02-20 12"},"coordinates":[5764,6674]},{"type":"Point","properties":{"Station_ID":"JCBM4","Station_Nam":"JACOBSVILLE","Latitude":"47.00830","Longitude":"-88.43180","Snowdepth":"19.000","Units":"in","Rept_Date":"2021-02-20 12"},"coordinates":[2067,7779]},{"type":"Point","properties":{"Station_ID":"ISLV1","Station_Nam":"ISLAND POND","Latitude":"44.81280","Longitude":"-71.89020","Snowdepth":"19.000","Units":"in","Rept_Date":"2021-02-20 15"},"coordinates":[5949,6746]},{"type":"Point","properties":{"Station_ID":"INDN6","Station_Nam":"INDIAN LAKE","Latitude":"43.75500","Longitude":"-74.27560","Snowdepth":"19.000","Units":"in","Rept_Date":"2021-02-20 13"},"coordinates":[5389,6249]},{"type":"Point","properties":{"Station_ID":"IN-LP-7","Station_Nam":"LA PORTE 1.6 SW, IN","Latitude":"41.59040","Longitude":"-86.73430","Snowdepth":"19.000","Units":"in","Rept_Date":"2021-02-20 13"},"coordinates":[2465,5231]},{"type":"Point","properties":{"Station_ID":"IL-DP-127","Station_Nam":"DOWNERS GROVE 0.4 NNE, IL","Latitude":"41.80331","Longitude":"-88.01542","Snowdepth":"19.000","Units":"in","Rept_Date":"2021-02-20 13"},"coordinates":[2165,5331]},{"type":"Point","properties":{"Station_ID":"IL-DK-24","Station_Nam":"SOMONAUK 1.9 NE, IL","Latitude":"41.65063","Longitude":"-88.65663","Snowdepth":"19.000","Units":"in","Rept_Date":"2021-02-20 11"},"coordinates":[2014,5259]},{"type":"Point","properties":{"Station_ID":"GTTI4","Station_Nam":"LOCK & DAM 10","Latitude":"42.78580","Longitude":"-91.09970","Snowdepth":"19.000","Units":"in","Rept_Date":"2021-02-20 14"},"coordinates":[1441,5793]},{"type":"Point","properties":{"Station_ID":"FARM1","Station_Nam":"FARMINGTON","Latitude":"44.68930","Longitude":"-70.15640","Snowdepth":"19.000","Units":"in","Rept_Date":"2021-02-20 12"},"coordinates":[6356,6688]},{"type":"Point","properties":{"Station_ID":"CT-NH-72","Station_Nam":"NORTHFORD 0.8 SW, CT","Latitude":"41.38554","Longitude":"-72.80240","Snowdepth":"19.000","Units":"in","Rept_Date":"2021-02-20 12"},"coordinates":[5735,5134]},{"type":"Point","properties":{"Station_ID":"COVP1","Station_Nam":"COVINGTON 2WSW","Latitude":"41.73330","Longitude":"-77.11670","Snowdepth":"19.000","Units":"in","Rept_Date":"2021-02-20 12"},"coordinates":[4722,5298]},{"type":"Point","properties":{"Station_ID":"CAN-ON-42","Station_Nam":"VANKLEEK HILL 3.4 S, CA","Latitude":"45.48987","Longitude":"-74.64570","Snowdepth":"19.000","Units":"in","Rept_Date":"2021-02-20 12"},"coordinates":[5302,7065]},{"type":"Point","properties":{"Station_ID":"CAN-ON-118","Station_Nam":"DURHAM 1.4 S, CAN","Latitude":"44.16525","Longitude":"-80.82064","Snowdepth":"19.000","Units":"in","Rept_Date":"2021-02-20 12"},"coordinates":[3853,6442]},{"type":"Point","properties":{"Station_ID":"ANJM4","Station_Nam":"SNOW PAID OBSERVER FOR KANJ","Latitude":"46.48670","Longitude":"-84.40260","Snowdepth":"19.000","Units":"in","Rept_Date":"2021-02-20 18"},"coordinates":[3013,7534]},{"type":"Point","properties":{"Station_ID":"OGIQ6","Station_Nam":"OGOKI CAMP","Latitude":"50.76680","Longitude":"-87.85820","Snowdepth":"18.900","Units":"in","Rept_Date":"2021-02-21 06"},"coordinates":[2202,9547]},{"type":"Point","properties":{"Station_ID":"NY-ER-96","Station_Nam":"ELMA 2.7 WSW, NY","Latitude":"42.81004","Longitude":"-78.68130","Snowdepth":"18.600","Units":"in","Rept_Date":"2021-02-20 12"},"coordinates":[4355,5804]},{"type":"Point","properties":{"Station_ID":"VT-OL-9","Station_Nam":"GREENSBORO 2.1 NNW, VT","Latitude":"44.60528","Longitude":"-72.30940","Snowdepth":"18.500","Units":"in","Rept_Date":"2021-02-20 12"},"coordinates":[5851,6649]},{"type":"Point","properties":{"Station_ID":"VT-FR-21","Station_Nam":"FAIRFAX 4.9 WNW, VT","Latitude":"44.68880","Longitude":"-73.10340","Snowdepth":"18.500","Units":"in","Rept_Date":"2021-02-20 14"},"coordinates":[5664,6688]},{"type":"Point","properties":{"Station_ID":"NJ-MS-4","Station_Nam":"ROCKAWAY TWP 0.7 NE, NJ","Latitude":"40.96583","Longitude":"-74.48780","Snowdepth":"18.500","Units":"in","Rept_Date":"2021-02-20 13"},"coordinates":[5339,4937]},{"type":"Point","properties":{"Station_ID":"IL-WL-80","Station_Nam":"LOCKPORT 1.3 SE, IL","Latitude":"41.57454","Longitude":"-88.03300","Snowdepth":"18.500","Units":"in","Rept_Date":"2021-02-20 13"},"coordinates":[2160,5223]},{"type":"Point","properties":{"Station_ID":"IL-CK-94","Station_Nam":"LINCOLNWOOD 1.8 E, IL","Latitude":"42.00187","Longitude":"-87.69850","Snowdepth":"18.500","Units":"in","Rept_Date":"2021-02-20 13"},"coordinates":[2239,5424]},{"type":"Point","properties":{"Station_ID":"KABQ6","Station_Nam":"CAB LAKE","Latitude":"49.59950","Longitude":"-89.17990","Snowdepth":"18.190","Units":"in","Rept_Date":"2021-02-21 06"},"coordinates":[1891,8998]},{"type":"Point","properties":{"Station_ID":"QMD","Station_Nam":"QMD","Latitude":"49.29060","Longitude":"-75.84500","Snowdepth":"18.110","Units":"in","Rept_Date":"2021-02-20 12"},"coordinates":[5021,8853]},{"type":"Point","properties":{"Station_ID":"SOCQ6","Station_Nam":"SOCKET LAKE","Latitude":"50.77870","Longitude":"-91.79300","Snowdepth":"18.030","Units":"in","Rept_Date":"2021-02-21 06"},"coordinates":[1278,9553]},{"type":"Point","properties":{"Station_ID":"WTRM4","Station_Nam":"WATERSMEET 12WSW","Latitude":"46.22310","Longitude":"-89.40850","Snowdepth":"18.000","Units":"in","Rept_Date":"2021-02-20 13"},"coordinates":[1838,7410]},{"type":"Point","properties":{"Station_ID":"WLSN6","Station_Nam":"WALES","Latitude":"42.73920","Longitude":"-78.58780","Snowdepth":"18.000","Units":"in","Rept_Date":"2021-02-20 12"},"coordinates":[4377,5771]},{"type":"Point","properties":{"Station_ID":"UGRW3","Station_Nam":"UNION GROVE,WI","Latitude":"42.70000","Longitude":"-88.03220","Snowdepth":"18.000","Units":"in","Rept_Date":"2021-02-20 13"},"coordinates":[2161,5753]},{"type":"Point","properties":{"Station_ID":"SUAW3","Station_Nam":"SUAMICO","Latitude":"44.60190","Longitude":"-88.09780","Snowdepth":"18.000","Units":"in","Rept_Date":"2021-02-20 12"},"coordinates":[2145,6647]},{"type":"Point","properties":{"Station_ID":"SLNV1","Station_Nam":"SOUTH LINCOLN","Latitude":"44.07460","Longitude":"-72.97180","Snowdepth":"18.000","Units":"in","Rept_Date":"2021-02-20 12"},"coordinates":[5695,6399]},{"type":"Point","properties":{"Station_ID":"PDGM4","Station_Nam":"PAULDING","Latitude":"46.39760","Longitude":"-89.17940","Snowdepth":"18.000","Units":"in","Rept_Date":"2021-02-20 14"},"coordinates":[1891,7492]},{"type":"Point","properties":{"Station_ID":"PA-PK-22","Station_Nam":"MILFORD 8.7 NW, PA","Latitude":"41.42018","Longitude":"-74.90953","Snowdepth":"18.000","Units":"in","Rept_Date":"2021-02-20 12"},"coordinates":[5240,5151]},{"type":"Point","properties":{"Station_ID":"PA-CL-15","Station_Nam":"STRATTANVILLE 6.6 NE, PA","Latitude":"41.25777","Longitude":"-79.22476","Snowdepth":"18.000","Units":"in","Rept_Date":"2021-02-20 12"},"coordinates":[4228,5074]},{"type":"Point","properties":{"Station_ID":"NY-CR-1","Station_Nam":"FREETOWN 1.0 NE, NY","Latitude":"42.53299","Longitude":"-76.02111","Snowdepth":"18.000","Units":"in","Rept_Date":"2021-02-20 12"},"coordinates":[4980,5674]},{"type":"Point","properties":{"Station_ID":"NVLV1","Station_Nam":"NASHVILLE","Latitude":"44.44970","Longitude":"-72.92640","Snowdepth":"18.000","Units":"in","Rept_Date":"2021-02-20 12"},"coordinates":[5706,6576]},{"type":"Point","properties":{"Station_ID":"NJ-MS-94","Station_Nam":"JEFFERSON TWP 4.4 SW, NJ","Latitude":"40.96404","Longitude":"-74.62162","Snowdepth":"18.000","Units":"in","Rept_Date":"2021-02-20 13"},"coordinates":[5308,4936]},{"type":"Point","properties":{"Station_ID":"MTCI2","Station_Nam":"MOUNT CARROLL","Latitude":"42.09800","Longitude":"-89.98410","Snowdepth":"18.000","Units":"in","Rept_Date":"2021-02-20 14"},"coordinates":[1703,5469]},{"type":"Point","properties":{"Station_ID":"MN-IS-18","Station_Nam":"BRAHAM 0.7 SW, MN","Latitude":"45.71379","Longitude":"-93.18095","Snowdepth":"18.000","Units":"in","Rept_Date":"2021-02-20 14"},"coordinates":[952,7170]},{"type":"Point","properties":{"Station_ID":"MIEM4","Station_Nam":"MICHIGAMME 3WNW","Latitude":"46.54530","Longitude":"-88.18000","Snowdepth":"18.000","Units":"in","Rept_Date":"2021-02-20 13"},"coordinates":[2126,7561]},{"type":"Point","properties":{"Station_ID":"MECN6","Station_Nam":"MECKLENBURG 4 SW","Latitude":"42.44220","Longitude":"-76.75740","Snowdepth":"18.000","Units":"in","Rept_Date":"2021-02-20 12"},"coordinates":[4807,5631]},{"type":"Point","properties":{"Station_ID":"MDWI2","Station_Nam":"BURBANK,IL","Latitude":"41.73330","Longitude":"-87.76670","Snowdepth":"18.000","Units":"in","Rept_Date":"2021-02-21 06"},"coordinates":[2223,5298]},{"type":"Point","properties":{"Station_ID":"MA-ES-48","Station_Nam":"ANDOVER 0.6 E, MA","Latitude":"42.65659","Longitude":"-71.13048","Snowdepth":"18.000","Units":"in","Rept_Date":"2021-02-20 10"},"coordinates":[6127,5732]},{"type":"Point","properties":{"Station_ID":"LODW3","Station_Nam":"LODI","Latitude":"43.32170","Longitude":"-89.53110","Snowdepth":"18.000","Units":"in","Rept_Date":"2021-02-20 13"},"coordinates":[1809,6045]},{"type":"Point","properties":{"Station_ID":"LNCM1","Station_Nam":"LINCOLN WATER DISTRICT","Latitude":"45.32410","Longitude":"-68.58300","Snowdepth":"18.000","Units":"in","Rept_Date":"2021-02-20 12"},"coordinates":[6725,6987]},{"type":"Point","properties":{"Station_ID":"KMDW","Station_Nam":"CHICAGO MIDWAY AIRPORT","Latitude":"41.78333","Longitude":"-87.75000","Snowdepth":"18.000","Units":"in","Rept_Date":"2021-02-21 06"},"coordinates":[2227,5321]},{"type":"Point","properties":{"Station_ID":"JKMM1","Station_Nam":"JACKMAN","Latitude":"45.62600","Longitude":"-70.24600","Snowdepth":"18.000","Units":"in","Rept_Date":"2021-02-20 12"},"coordinates":[6335,7129]},{"type":"Point","properties":{"Station_ID":"IN-PT-98","Station_Nam":"VALPARAISO 0.9 NNW, IN","Latitude":"41.48956","Longitude":"-87.05800","Snowdepth":"18.000","Units":"in","Rept_Date":"2021-02-20 13"},"coordinates":[2389,5183]},{"type":"Point","properties":{"Station_ID":"IL-WL-25","Station_Nam":"CRETE 2.6 E, IL","Latitude":"41.44681","Longitude":"-87.56570","Snowdepth":"18.000","Units":"in","Rept_Date":"2021-02-20 13"},"coordinates":[2270,5163]},{"type":"Point","properties":{"Station_ID":"IL-WL-131","Station_Nam":"HOMER GLEN 0.7 NNE, IL","Latitude":"41.60842","Longitude":"-87.93270","Snowdepth":"18.000","Units":"in","Rept_Date":"2021-02-20 13"},"coordinates":[2184,5239]},{"type":"Point","properties":{"Station_ID":"IL-KD-102","Station_Nam":"OSWEGO 2.4 SSW, IL","Latitude":"41.66450","Longitude":"-88.34430","Snowdepth":"18.000","Units":"in","Rept_Date":"2021-02-20 13"},"coordinates":[2087,5265]},{"type":"Point","properties":{"Station_ID":"IL-DP-157","Station_Nam":"WEST CHICAGO 3.5 NNE, IL","Latitude":"41.93718","Longitude":"-88.19884","Snowdepth":"18.000","Units":"in","Rept_Date":"2021-02-20 13"},"coordinates":[2122,5394]},{"type":"Point","properties":{"Station_ID":"IL-CR-12","Station_Nam":"MOUNT CARROLL 6.8 NNW, IL","Latitude":"42.18735","Longitude":"-90.02185","Snowdepth":"18.000","Units":"in","Rept_Date":"2021-02-20 13"},"coordinates":[1694,5511]},{"type":"Point","properties":{"Station_ID":"IA-ST-1","Station_Nam":"LE CLAIRE 1.8 NNE, IA","Latitude":"41.62355","Longitude":"-90.35140","Snowdepth":"18.000","Units":"in","Rept_Date":"2021-02-20 13"},"coordinates":[1616,5246]},{"type":"Point","properties":{"Station_ID":"HUBN3","Station_Nam":"HUBBARD BROOK","Latitude":"43.93330","Longitude":"-71.71670","Snowdepth":"18.000","Units":"in","Rept_Date":"2021-02-21 06"},"coordinates":[5990,6333]},{"type":"Point","properties":{"Station_ID":"HOLM4","Station_Nam":"HOLLAND,MI","Latitude":"42.80000","Longitude":"-86.11670","Snowdepth":"18.000","Units":"in","Rept_Date":"2021-02-20 12"},"coordinates":[2610,5800]},{"type":"Point","properties":{"Station_ID":"GLEI2","Station_Nam":"GLEN ELLYN 4S","Latitude":"41.82670","Longitude":"-88.05810","Snowdepth":"18.000","Units":"in","Rept_Date":"2021-02-20 17"},"coordinates":[2155,5342]},{"type":"Point","properties":{"Station_ID":"CARM1","Station_Nam":"CARIBOU WFO","Latitude":"46.86810","Longitude":"-68.01250","Snowdepth":"18.000","Units":"in","Rept_Date":"2021-02-21 05"},"coordinates":[6859,7713]},{"type":"Point","properties":{"Station_ID":"CAR","Station_Nam":"CARIBOU, ME","Latitude":"46.86830","Longitude":"-68.01360","Snowdepth":"18.000","Units":"in","Rept_Date":"2021-02-20 12"},"coordinates":[6859,7713]},{"type":"Point","properties":{"Station_ID":"CAN-NB-18","Station_Nam":"MCLEOD HILL 1.1 ENE, CA","Latitude":"46.02725","Longitude":"-66.67460","Snowdepth":"18.000","Units":"in","Rept_Date":"2021-02-20 12"},"coordinates":[7173,7318]},{"type":"Point","properties":{"Station_ID":"BLHM3","Station_Nam":"BLUE HILL COOP","Latitude":"42.21230","Longitude":"-71.11370","Snowdepth":"18.000","Units":"in","Rept_Date":"2021-02-20 12"},"coordinates":[6131,5523]},{"type":"Point","properties":{"Station_ID":"BAGM4","Station_Nam":"BARAGA 7NW","Latitude":"46.82100","Longitude":"-88.60590","Snowdepth":"18.000","Units":"in","Rept_Date":"2021-02-20 13"},"coordinates":[2026,7691]},{"type":"Point","properties":{"Station_ID":"ANJ","Station_Nam":"SAULT STE MARIE","Latitude":"46.46670","Longitude":"-84.36670","Snowdepth":"18.000","Units":"in","Rept_Date":"2021-02-21 00"},"coordinates":[3021,7525]},{"type":"Point","properties":{"Station_ID":"QTV","Station_Nam":"QTV","Latitude":"49.66000","Longitude":"-69.35690","Snowdepth":"17.756","Units":"in","Rept_Date":"2021-02-20 12"},"coordinates":[6544,9027]},{"type":"Point","properties":{"Station_ID":"VT-OL-24","Station_Nam":"DERBY LINE 1.9 W, VT","Latitude":"45.00454","Longitude":"-72.14170","Snowdepth":"17.500","Units":"in","Rept_Date":"2021-02-20 12"},"coordinates":[5890,6837]},{"type":"Point","properties":{"Station_ID":"VT-CH-13","Station_Nam":"RICHMOND 3.4 SSE, VT","Latitude":"44.36084","Longitude":"-72.96400","Snowdepth":"17.500","Units":"in","Rept_Date":"2021-02-20 12"},"coordinates":[5697,6534]},{"type":"Point","properties":{"Station_ID":"VT-CH-11","Station_Nam":"UNDERHILL 5.1 NNE, VT","Latitude":"44.59811","Longitude":"-72.91880","Snowdepth":"17.500","Units":"in","Rept_Date":"2021-02-20 14"},"coordinates":[5708,6645]},{"type":"Point","properties":{"Station_ID":"NY-TM-42","Station_Nam":"ITHACA 6.4 E, NY","Latitude":"42.43350","Longitude":"-76.37860","Snowdepth":"17.500","Units":"in","Rept_Date":"2021-02-20 12"},"coordinates":[4896,5627]},{"type":"Point","properties":{"Station_ID":"NY-OT-31","Station_Nam":"MARYLAND 1.8 W, NY","Latitude":"42.53310","Longitude":"-74.92090","Snowdepth":"17.500","Units":"in","Rept_Date":"2021-02-20 13"},"coordinates":[5238,5674]},{"type":"Point","properties":{"Station_ID":"NJ-SS-7","Station_Nam":"HARDYSTON TWP 3.2 SE, NJ","Latitude":"41.08903","Longitude":"-74.53990","Snowdepth":"17.500","Units":"in","Rept_Date":"2021-02-20 13"},"coordinates":[5327,4995]},{"type":"Point","properties":{"Station_ID":"NJ-SS-1","Station_Nam":"ANDOVER TWP 1.7 W, NJ","Latitude":"41.01974","Longitude":"-74.76110","Snowdepth":"17.500","Units":"in","Rept_Date":"2021-02-20 12"},"coordinates":[5275,4962]},{"type":"Point","properties":{"Station_ID":"MI-AN-25","Station_Nam":"PLAINWELL 0.5 WSW, MI","Latitude":"42.44318","Longitude":"-85.65374","Snowdepth":"17.500","Units":"in","Rept_Date":"2021-02-20 12"},"coordinates":[2719,5632]},{"type":"Point","properties":{"Station_ID":"IN-PT-3","Station_Nam":"VALPARAISO 2.0 WSW, IN","Latitude":"41.46741","Longitude":"-87.08750","Snowdepth":"17.500","Units":"in","Rept_Date":"2021-02-20 21"},"coordinates":[2382,5173]},{"type":"Point","properties":{"Station_ID":"IL-CK-214","Station_Nam":"ROGERS PARK 1.5 SW, IL","Latitude":"41.99567","Longitude":"-87.69180","Snowdepth":"17.500","Units":"in","Rept_Date":"2021-02-20 13"},"coordinates":[2241,5421]},{"type":"Point","properties":{"Station_ID":"CAN-NL-65","Station_Nam":"KIPPENS 0.7 NE, CA","Latitude":"48.55436","Longitude":"-58.61850","Snowdepth":"17.500","Units":"in","Rept_Date":"2021-02-20 12"},"coordinates":[9064,8507]},{"type":"Point","properties":{"Station_ID":"CAN-NB-98","Station_Nam":"HOYT 4.2 S, CAN","Latitude":"45.54763","Longitude":"-66.55440","Snowdepth":"17.300","Units":"in","Rept_Date":"2021-02-20 11"},"coordinates":[7201,7092]},{"type":"Point","properties":{"Station_ID":"WI-WK-74","Station_Nam":"BROOKFIELD 2.8 SSW, WI","Latitude":"43.02390","Longitude":"-88.13760","Snowdepth":"17.200","Units":"in","Rept_Date":"2021-02-20 13"},"coordinates":[2136,5905]},{"type":"Point","properties":{"Station_ID":"WYON6","Station_Nam":"WYOMING 3W","Latitude":"42.82020","Longitude":"-78.14780","Snowdepth":"17.000","Units":"in","Rept_Date":"2021-02-20 12"},"coordinates":[4480,5809]},{"type":"Point","properties":{"Station_ID":"WSFW3","Station_Nam":"TOWN OF WESTFORD","Latitude":"43.47190","Longitude":"-88.88250","Snowdepth":"17.000","Units":"in","Rept_Date":"2021-02-20 13"},"coordinates":[1961,6116]},{"type":"Point","properties":{"Station_ID":"WLLI2","Station_Nam":"WILLOW SPRINGS","Latitude":"41.70910","Longitude":"-87.95940","Snowdepth":"17.000","Units":"in","Rept_Date":"2021-02-20 14"},"coordinates":[2178,5286]},{"type":"Point","properties":{"Station_ID":"WI-MW-43","Station_Nam":"BROWN DEER 0.8 NW, WI","Latitude":"43.18438","Longitude":"-87.98401","Snowdepth":"17.000","Units":"in","Rept_Date":"2021-02-20 13"},"coordinates":[2172,5980]},{"type":"Point","properties":{"Station_ID":"WI-IR-2","Station_Nam":"MERCER 2.0 SE, WI","Latitude":"46.14749","Longitude":"-90.03097","Snowdepth":"17.000","Units":"in","Rept_Date":"2021-02-20 13"},"coordinates":[1692,7374]},{"type":"Point","properties":{"Station_ID":"WI-DD-16","Station_Nam":"BEAVER DAM 2.4 WNW, WI","Latitude":"43.47210","Longitude":"-88.88280","Snowdepth":"17.000","Units":"in","Rept_Date":"2021-02-20 13"},"coordinates":[1961,6116]},{"type":"Point","properties":{"Station_ID":"WI-DA-87","Station_Nam":"DUNKIRK 0.1 NW, WI","Latitude":"42.88356","Longitude":"-89.21056","Snowdepth":"17.000","Units":"in","Rept_Date":"2021-02-20 12"},"coordinates":[1884,5839]},{"type":"Point","properties":{"Station_ID":"WDSV1","Station_Nam":"WOODSTOCK","Latitude":"43.63030","Longitude":"-72.50720","Snowdepth":"17.000","Units":"in","Rept_Date":"2021-02-20 13"},"coordinates":[5804,6190]},{"type":"Point","properties":{"Station_ID":"VT-WS-15","Station_Nam":"EAST CALAIS 1.5 SW, VT","Latitude":"44.35523","Longitude":"-72.45540","Snowdepth":"17.000","Units":"in","Rept_Date":"2021-02-20 12"},"coordinates":[5816,6531]},{"type":"Point","properties":{"Station_ID":"TPTI3","Station_Nam":"TIPTON 5 SW","Latitude":"40.22330","Longitude":"-86.10860","Snowdepth":"17.000","Units":"in","Rept_Date":"2021-02-20 11"},"coordinates":[2612,4588]},{"type":"Point","properties":{"Station_ID":"TOPM1","Station_Nam":"TOPSFIELD","Latitude":"45.43470","Longitude":"-67.72020","Snowdepth":"17.000","Units":"in","Rept_Date":"2021-02-20 12"},"coordinates":[6928,7039]},{"type":"Point","properties":{"Station_ID":"TMWN3","Station_Nam":"TAMWORTH 4","Latitude":"43.86390","Longitude":"-71.26610","Snowdepth":"17.000","Units":"in","Rept_Date":"2021-02-20 12"},"coordinates":[6096,6300]},{"type":"Point","properties":{"Station_ID":"STEM4","Station_Nam":"STEUBEN","Latitude":"46.18530","Longitude":"-86.46410","Snowdepth":"17.000","Units":"in","Rept_Date":"2021-02-20 14"},"coordinates":[2529,7392]},{"type":"Point","properties":{"Station_ID":"SNYI4","Station_Nam":"STANLEY","Latitude":"42.63330","Longitude":"-91.86320","Snowdepth":"17.000","Units":"in","Rept_Date":"2021-02-20 13"},"coordinates":[1262,5721]},{"type":"Point","properties":{"Station_ID":"PHON6","Station_Nam":"PHOENICIA 2SW","Latitude":"42.06420","Longitude":"-74.34080","Snowdepth":"17.000","Units":"in","Rept_Date":"2021-02-20 12"},"coordinates":[5374,5454]},{"type":"Point","properties":{"Station_ID":"PA-CB-33","Station_Nam":"LAKE HARMONY 2.4 WNW, PA","Latitude":"41.07333","Longitude":"-75.63317","Snowdepth":"17.000","Units":"in","Rept_Date":"2021-02-20 12"},"coordinates":[5071,4987]},{"type":"Point","properties":{"Station_ID":"NY-WY-10","Station_Nam":"WYOMING COOP, NY","Latitude":"42.82060","Longitude":"-78.14810","Snowdepth":"17.000","Units":"in","Rept_Date":"2021-02-20 12"},"coordinates":[4480,5809]},{"type":"Point","properties":{"Station_ID":"NY-WC-37","Station_Nam":"YORKTOWN HEIGHTS 1.6 E, NY","Latitude":"41.26961","Longitude":"-73.75164","Snowdepth":"17.000","Units":"in","Rept_Date":"2021-02-20 13"},"coordinates":[5512,5080]},{"type":"Point","properties":{"Station_ID":"NY-OS-38","Station_Nam":"MEXICO COOP, NY","Latitude":"43.43830","Longitude":"-76.26570","Snowdepth":"17.000","Units":"in","Rept_Date":"2021-02-20 12"},"coordinates":[4922,6100]},{"type":"Point","properties":{"Station_ID":"NY-CT-33","Station_Nam":"GREAT VALLEY 2.2 WNW, NY","Latitude":"42.22790","Longitude":"-78.67580","Snowdepth":"17.000","Units":"in","Rept_Date":"2021-02-20 12"},"coordinates":[4357,5531]},{"type":"Point","properties":{"Station_ID":"NY-CQ-27","Station_Nam":"SILVER CREEK 1.0 SSE, NY","Latitude":"42.53088","Longitude":"-79.15986","Snowdepth":"17.000","Units":"in","Rept_Date":"2021-02-20 11"},"coordinates":[4243,5673]},{"type":"Point","properties":{"Station_ID":"NPTV1","Station_Nam":"NEWPORT","Latitude":"44.94900","Longitude":"-72.19120","Snowdepth":"17.000","Units":"in","Rept_Date":"2021-02-20 12"},"coordinates":[5878,6811]},{"type":"Point","properties":{"Station_ID":"NJ-SS-60","Station_Nam":"VERNON TWP 2.7 SSE, NJ","Latitude":"41.16332","Longitude":"-74.45938","Snowdepth":"17.000","Units":"in","Rept_Date":"2021-02-20 11"},"coordinates":[5346,5030]},{"type":"Point","properties":{"Station_ID":"NJ-MS-106","Station_Nam":"PEQUANNOCK TWP 1.7 NW, NJ","Latitude":"40.98333","Longitude":"-74.32305","Snowdepth":"17.000","Units":"in","Rept_Date":"2021-02-20 13"},"coordinates":[5378,4945]},{"type":"Point","properties":{"Station_ID":"NH-SL-3","Station_Nam":"WEST UNITY 0.7 WSW, NH","Latitude":"43.28652","Longitude":"-72.32970","Snowdepth":"17.000","Units":"in","Rept_Date":"2021-02-20 12"},"coordinates":[5846,6029]},{"type":"Point","properties":{"Station_ID":"NH-CR-27","Station_Nam":"TAMWORTH 0.4 NNW, NH","Latitude":"43.86449","Longitude":"-71.26610","Snowdepth":"17.000","Units":"in","Rept_Date":"2021-02-20 12"},"coordinates":[6096,6300]},{"type":"Point","properties":{"Station_ID":"NH-CR-11","Station_Nam":"NORTH CONWAY 1.4 SSW, NH","Latitude":"44.03556","Longitude":"-71.14010","Snowdepth":"17.000","Units":"in","Rept_Date":"2021-02-20 12"},"coordinates":[6125,6381]},{"type":"Point","properties":{"Station_ID":"NCON3","Station_Nam":"NORTH CONWAY","Latitude":"44.05620","Longitude":"-71.12970","Snowdepth":"17.000","Units":"in","Rept_Date":"2021-02-20 13"},"coordinates":[6128,6391]},{"type":"Point","properties":{"Station_ID":"NCKN6","Station_Nam":"NORTH CREEK 5 SE","Latitude":"43.66110","Longitude":"-73.89690","Snowdepth":"17.000","Units":"in","Rept_Date":"2021-02-20 12"},"coordinates":[5478,6205]},{"type":"Point","properties":{"Station_ID":"MXON6","Station_Nam":"MEXICO","Latitude":"43.43830","Longitude":"-76.26560","Snowdepth":"17.000","Units":"in","Rept_Date":"2021-02-20 12"},"coordinates":[4922,6100]},{"type":"Point","properties":{"Station_ID":"MI-OC-3","Station_Nam":"HART 3 WSW, MI","Latitude":"43.67470","Longitude":"-86.42250","Snowdepth":"17.000","Units":"in","Rept_Date":"2021-02-20 12"},"coordinates":[2538,6211]},{"type":"Point","properties":{"Station_ID":"MI-MQ-19","Station_Nam":"ISHPEMING 7.2 SW, MI","Latitude":"46.40550","Longitude":"-87.75670","Snowdepth":"17.000","Units":"in","Rept_Date":"2021-02-20 11"},"coordinates":[2225,7496]},{"type":"Point","properties":{"Station_ID":"ME-FR-4","Station_Nam":"NEW SHARON 2.0 NW, ME","Latitude":"44.66582","Longitude":"-70.02720","Snowdepth":"17.000","Units":"in","Rept_Date":"2021-02-20 12"},"coordinates":[6386,6677]},{"type":"Point","properties":{"Station_ID":"MAYP1","Station_Nam":"MAHANOY CITY,PA","Latitude":"40.83330","Longitude":"-76.13330","Snowdepth":"17.000","Units":"in","Rept_Date":"2021-02-20 12"},"coordinates":[4953,4874]},{"type":"Point","properties":{"Station_ID":"MAPM4","Station_Nam":"MAPLE CITY 1E","Latitude":"44.85500","Longitude":"-85.83520","Snowdepth":"17.000","Units":"in","Rept_Date":"2021-02-21 02"},"coordinates":[2676,6766]},{"type":"Point","properties":{"Station_ID":"KROC","Station_Nam":"GREATER ROCHESTER INTERNATIONAL","Latitude":"43.11666","Longitude":"-77.68333","Snowdepth":"17.000","Units":"in","Rept_Date":"2021-02-21 06"},"coordinates":[4589,5949]},{"type":"Point","properties":{"Station_ID":"KENW3","Station_Nam":"WATER POLLUTION CONTROL PLANT","Latitude":"42.55000","Longitude":"-87.81420","Snowdepth":"17.000","Units":"in","Rept_Date":"2021-02-21 06"},"coordinates":[2212,5682]},{"type":"Point","properties":{"Station_ID":"IN-WL-14","Station_Nam":"OSSIAN 2.4 W, IN","Latitude":"40.87371","Longitude":"-85.21480","Snowdepth":"17.000","Units":"in","Rept_Date":"2021-02-20 13"},"coordinates":[2822,4893]},{"type":"Point","properties":{"Station_ID":"IL-WN-32","Station_Nam":"ROCKFORD 5.5 S, IL","Latitude":"42.19058","Longitude":"-89.06040","Snowdepth":"17.000","Units":"in","Rept_Date":"2021-02-20 14"},"coordinates":[1919,5513]},{"type":"Point","properties":{"Station_ID":"IL-WL-26","Station_Nam":"MANHATTAN 0.8 ESE, IL","Latitude":"41.42127","Longitude":"-87.97490","Snowdepth":"17.000","Units":"in","Rept_Date":"2021-02-20 14"},"coordinates":[2174,5151]},{"type":"Point","properties":{"Station_ID":"IL-WL-149","Station_Nam":"BULT FIELD-MONEE 4.9 SE, IL","Latitude":"41.37740","Longitude":"-87.67975","Snowdepth":"17.000","Units":"in","Rept_Date":"2021-02-20 14"},"coordinates":[2243,5130]},{"type":"Point","properties":{"Station_ID":"IL-MCH-95","Station_Nam":"CARY 0.5 SSW, IL","Latitude":"42.20235","Longitude":"-88.25224","Snowdepth":"17.000","Units":"in","Rept_Date":"2021-02-20 13"},"coordinates":[2109,5518]},{"type":"Point","properties":{"Station_ID":"IL-MCH-13","Station_Nam":"BULL VALLEY 2.5 WNW, IL","Latitude":"42.32455","Longitude":"-88.39460","Snowdepth":"17.000","Units":"in","Rept_Date":"2021-02-20 14"},"coordinates":[2076,5576]},{"type":"Point","properties":{"Station_ID":"IL-LK-81","Station_Nam":"LAKE VILLA 2.3 WSW, IL","Latitude":"42.40532","Longitude":"-88.12380","Snowdepth":"17.000","Units":"in","Rept_Date":"2021-02-20 13"},"coordinates":[2139,5614]},{"type":"Point","properties":{"Station_ID":"IL-DP-79","Station_Nam":"BURR RIDGE 1.9 SW, IL","Latitude":"41.73194","Longitude":"-87.94860","Snowdepth":"17.000","Units":"in","Rept_Date":"2021-02-20 14"},"coordinates":[2180,5297]},{"type":"Point","properties":{"Station_ID":"IL-DP-78","Station_Nam":"NAPERVILLE 2.4 SE, IL","Latitude":"41.74184","Longitude":"-88.11620","Snowdepth":"17.000","Units":"in","Rept_Date":"2021-02-20 13"},"coordinates":[2141,5302]},{"type":"Point","properties":{"Station_ID":"IL-CK-75","Station_Nam":"ELK GROVE VILLAGE 2.2 WSW, IL","Latitude":"41.99526","Longitude":"-88.05270","Snowdepth":"17.000","Units":"in","Rept_Date":"2021-02-20 13"},"coordinates":[2156,5421]},{"type":"Point","properties":{"Station_ID":"IL-CK-316","Station_Nam":"OAK LAWN 0.8 WSW, IL","Latitude":"41.71069","Longitude":"-87.76631","Snowdepth":"17.000","Units":"in","Rept_Date":"2021-02-20 13"},"coordinates":[2223,5287]},{"type":"Point","properties":{"Station_ID":"IL-BN-19","Station_Nam":"BELVIDERE 5.0 NNW, IL","Latitude":"42.32071","Longitude":"-88.88282","Snowdepth":"17.000","Units":"in","Rept_Date":"2021-02-20 13"},"coordinates":[1961,5574]},{"type":"Point","properties":{"Station_ID":"HRTM4","Station_Nam":"HART,MI","Latitude":"43.70000","Longitude":"-86.36670","Snowdepth":"17.000","Units":"in","Rept_Date":"2021-02-20 12"},"coordinates":[2552,6223]},{"type":"Point","properties":{"Station_ID":"HGHN4","Station_Nam":"HIGHLAND LAKES 1SW","Latitude":"41.16330","Longitude":"-74.45930","Snowdepth":"17.000","Units":"in","Rept_Date":"2021-02-20 11"},"coordinates":[5346,5030]},{"type":"Point","properties":{"Station_ID":"FLAM4","Station_Nam":"FIFE LAKE 2WNW","Latitude":"44.58480","Longitude":"-85.36530","Snowdepth":"17.000","Units":"in","Rept_Date":"2021-02-20 12"},"coordinates":[2787,6639]},{"type":"Point","properties":{"Station_ID":"EJNM4","Station_Nam":"EAST JORDAN 2NW","Latitude":"45.18630","Longitude":"-85.14770","Snowdepth":"17.000","Units":"in","Rept_Date":"2021-02-20 13"},"coordinates":[2838,6922]},{"type":"Point","properties":{"Station_ID":"DUBI4","Station_Nam":"DUBUQUE #3","Latitude":"42.40870","Longitude":"-90.73250","Snowdepth":"17.000","Units":"in","Rept_Date":"2021-02-20 18"},"coordinates":[1527,5616]},{"type":"Point","properties":{"Station_ID":"DBQ","Station_Nam":"DUBUQUE REGIONAL AIRPORT","Latitude":"42.40310","Longitude":"-90.70920","Snowdepth":"17.000","Units":"in","Rept_Date":"2021-02-21 00"},"coordinates":[1532,5613]},{"type":"Point","properties":{"Station_ID":"CSSM4","Station_Nam":"CASS CITY,MI","Latitude":"43.58330","Longitude":"-83.18330","Snowdepth":"17.000","Units":"in","Rept_Date":"2021-02-20 11"},"coordinates":[3299,6168]},{"type":"Point","properties":{"Station_ID":"CNDP1","Station_Nam":"CANADENSIS","Latitude":"41.18980","Longitude":"-75.23830","Snowdepth":"17.000","Units":"in","Rept_Date":"2021-02-20 12"},"coordinates":[5163,5042]},{"type":"Point","properties":{"Station_ID":"CLUI4","Station_Nam":"CLUTIER,IA","Latitude":"42.08330","Longitude":"-92.40000","Snowdepth":"17.000","Units":"in","Rept_Date":"2021-02-20 13"},"coordinates":[1136,5462]},{"type":"Point","properties":{"Station_ID":"CAN-ON-92","Station_Nam":"DUNROBIN 1.9 W - MVCA, CAN","Latitude":"45.42318","Longitude":"-76.04525","Snowdepth":"17.000","Units":"in","Rept_Date":"2021-02-20 12"},"coordinates":[4974,7034]},{"type":"Point","properties":{"Station_ID":"CAAW2","Station_Nam":"CANAAN VALLEY","Latitude":"39.05890","Longitude":"-79.44030","Snowdepth":"17.000","Units":"in","Rept_Date":"2021-02-20 14"},"coordinates":[4177,4040]},{"type":"Point","properties":{"Station_ID":"BWTN6","Station_Nam":"BREWERTON LOCK 23","Latitude":"43.23860","Longitude":"-76.19640","Snowdepth":"17.000","Units":"in","Rept_Date":"2021-02-20 12"},"coordinates":[4938,6006]},{"type":"Point","properties":{"Station_ID":"BROW3","Station_Nam":"BRODHEAD,WI","Latitude":"42.61720","Longitude":"-89.38970","Snowdepth":"17.000","Units":"in","Rept_Date":"2021-02-20 13"},"coordinates":[1842,5714]},{"type":"Point","properties":{"Station_ID":"BEUM4","Station_Nam":"BEULAH 7SSW","Latitude":"44.53160","Longitude":"-86.13110","Snowdepth":"17.000","Units":"in","Rept_Date":"2021-02-20 13"},"coordinates":[2607,6614]},{"type":"Point","properties":{"Station_ID":"BEAW3","Station_Nam":"BEAVER DAM,WI","Latitude":"43.45000","Longitude":"-88.85000","Snowdepth":"17.000","Units":"in","Rept_Date":"2021-02-20 13"},"coordinates":[1969,6105]},{"type":"Point","properties":{"Station_ID":"BBEM4","Station_Nam":"BIG BAY 9SW","Latitude":"46.74620","Longitude":"-87.88160","Snowdepth":"17.000","Units":"in","Rept_Date":"2021-02-20 13"},"coordinates":[2196,7656]},{"type":"Point","properties":{"Station_ID":"AMAM4","Station_Nam":"AMASA 1W","Latitude":"46.23470","Longitude":"-88.45440","Snowdepth":"17.000","Units":"in","Rept_Date":"2021-02-20 14"},"coordinates":[2062,7415]},{"type":"Point","properties":{"Station_ID":"42.1284_079.8945","Station_Nam":"NORTHEAST 6SW (CLE0249)","Latitude":"42.12840","Longitude":"-79.89450","Snowdepth":"17.000","Units":"in","Rept_Date":"2021-02-20 11"},"coordinates":[4071,5484]},{"type":"Point","properties":{"Station_ID":"QLP","Station_Nam":"QLP","Latitude":"48.13920","Longitude":"-72.63830","Snowdepth":"16.929","Units":"in","Rept_Date":"2021-02-20 12"},"coordinates":[5774,8311]},{"type":"Point","properties":{"Station_ID":"CAN-ON-757","Station_Nam":"SAULT STE. MARIE 2.8 ESE - GLFC, CAN","Latitude":"46.50300","Longitude":"-84.30300","Snowdepth":"16.900","Units":"in","Rept_Date":"2021-02-20 13"},"coordinates":[3036,7542]},{"type":"Point","properties":{"Station_ID":"SVBQ6","Station_Nam":"SAVANT BASE","Latitude":"50.28730","Longitude":"-90.65670","Snowdepth":"16.770","Units":"in","Rept_Date":"2021-02-21 06"},"coordinates":[1545,9322]},{"type":"Point","properties":{"Station_ID":"CAN-NB-64","Station_Nam":"KESWICK RIDGE 4.0 SE, CAN","Latitude":"45.97014","Longitude":"-66.85538","Snowdepth":"16.700","Units":"in","Rept_Date":"2021-02-20 13"},"coordinates":[7131,7291]},{"type":"Point","properties":{"Station_ID":"MI-GT-27","Station_Nam":"TRAVERSE CITY 4.7 W, MI","Latitude":"44.75372","Longitude":"-85.69934","Snowdepth":"16.600","Units":"in","Rept_Date":"2021-02-20 13"},"coordinates":[2708,6719]},{"type":"Point","properties":{"Station_ID":"WI-WW-2","Station_Nam":"LAKE GENEVA 0.6 ENE, WI","Latitude":"42.59169","Longitude":"-88.41770","Snowdepth":"16.500","Units":"in","Rept_Date":"2021-02-20 13"},"coordinates":[2070,5702]},{"type":"Point","properties":{"Station_ID":"WI-OZ-12","Station_Nam":"PORT WASHINGTON 0.5 S, WI","Latitude":"43.38610","Longitude":"-87.87900","Snowdepth":"16.500","Units":"in","Rept_Date":"2021-02-20 13"},"coordinates":[2197,6075]},{"type":"Point","properties":{"Station_ID":"WI-DA-99","Station_Nam":"FITCHBURG 1.1 NW, WI","Latitude":"42.99740","Longitude":"-89.44046","Snowdepth":"16.500","Units":"in","Rept_Date":"2021-02-20 13"},"coordinates":[1830,5892]},{"type":"Point","properties":{"Station_ID":"WI-DA-35","Station_Nam":"MADISON 5.5 N, WI","Latitude":"43.15858","Longitude":"-89.37280","Snowdepth":"16.500","Units":"in","Rept_Date":"2021-02-20 14"},"coordinates":[1846,5968]},{"type":"Point","properties":{"Station_ID":"VT-LM-1","Station_Nam":"STOWE 0.2 SW, VT","Latitude":"44.46399","Longitude":"-72.69070","Snowdepth":"16.500","Units":"in","Rept_Date":"2021-02-20 12"},"coordinates":[5761,6582]},{"type":"Point","properties":{"Station_ID":"PA-BR-7","Station_Nam":"FLEETWOOD 2.0 ESE, PA","Latitude":"40.44292","Longitude":"-75.78720","Snowdepth":"16.500","Units":"in","Rept_Date":"2021-02-20 12"},"coordinates":[5034,4691]},{"type":"Point","properties":{"Station_ID":"NY-TM-18","Station_Nam":"EAST ITHACA 4.7 E, NY","Latitude":"42.41910","Longitude":"-76.37330","Snowdepth":"16.500","Units":"in","Rept_Date":"2021-02-20 12"},"coordinates":[4897,5620]},{"type":"Point","properties":{"Station_ID":"NY-OG-12","Station_Nam":"CLAY 4.6 NW, NY","Latitude":"43.20000","Longitude":"-76.26000","Snowdepth":"16.500","Units":"in","Rept_Date":"2021-02-20 13"},"coordinates":[4924,5988]},{"type":"Point","properties":{"Station_ID":"NY-CL-7","Station_Nam":"PERU 4.1 ESE, NY","Latitude":"44.56461","Longitude":"-73.45390","Snowdepth":"16.500","Units":"in","Rept_Date":"2021-02-20 11"},"coordinates":[5582,6630]},{"type":"Point","properties":{"Station_ID":"MI-LV-26","Station_Nam":"FENTON 6.2 WSW, MI","Latitude":"42.76832","Longitude":"-83.82928","Snowdepth":"16.500","Units":"in","Rept_Date":"2021-02-20 13"},"coordinates":[3147,5785]},{"type":"Point","properties":{"Station_ID":"MI-KZ-1","Station_Nam":"KALAMAZOO 6.0 SW, MI","Latitude":"42.20613","Longitude":"-85.65900","Snowdepth":"16.500","Units":"in","Rept_Date":"2021-02-20 13"},"coordinates":[2718,5520]},{"type":"Point","properties":{"Station_ID":"MI-GN-34","Station_Nam":"DAVISON 3.4 NNW, MI","Latitude":"43.07662","Longitude":"-83.54797","Snowdepth":"16.500","Units":"in","Rept_Date":"2021-02-20 13"},"coordinates":[3213,5930]},{"type":"Point","properties":{"Station_ID":"MI-CX-7","Station_Nam":"EAST JORDAN 2.1 NNW, MI","Latitude":"45.18639","Longitude":"-85.14750","Snowdepth":"16.500","Units":"in","Rept_Date":"2021-02-20 13"},"coordinates":[2838,6922]},{"type":"Point","properties":{"Station_ID":"IN-PT-63","Station_Nam":"VALPARAISO 1.8 NW, IN","Latitude":"41.49775","Longitude":"-87.07300","Snowdepth":"16.500","Units":"in","Rept_Date":"2021-02-20 15"},"coordinates":[2386,5187]},{"type":"Point","properties":{"Station_ID":"IL-WL-166","Station_Nam":"NAPERVILLE 3.6 SE, IL","Latitude":"41.72312","Longitude":"-88.10876","Snowdepth":"16.500","Units":"in","Rept_Date":"2021-02-20 15"},"coordinates":[2143,5293]},{"type":"Point","properties":{"Station_ID":"IL-SP-6","Station_Nam":"FREEPORT 2.0 NW, IL","Latitude":"42.30955","Longitude":"-89.66370","Snowdepth":"16.500","Units":"in","Rept_Date":"2021-02-20 14"},"coordinates":[1778,5569]},{"type":"Point","properties":{"Station_ID":"IL-LK-98","Station_Nam":"LINDENHURST 0.7 NNW, IL","Latitude":"42.42730","Longitude":"-88.03289","Snowdepth":"16.500","Units":"in","Rept_Date":"2021-02-20 13"},"coordinates":[2161,5624]},{"type":"Point","properties":{"Station_ID":"IL-CK-345","Station_Nam":"FRANKLIN PARK 0.5 SSE, IL","Latitude":"41.92947","Longitude":"-87.87399","Snowdepth":"16.500","Units":"in","Rept_Date":"2021-02-20 14"},"coordinates":[2198,5390]},{"type":"Point","properties":{"Station_ID":"IL-CK-131","Station_Nam":"SCHAUMBURG 2.0 E, IL","Latitude":"42.03028","Longitude":"-88.04400","Snowdepth":"16.500","Units":"in","Rept_Date":"2021-02-20 13"},"coordinates":[2158,5438]},{"type":"Point","properties":{"Station_ID":"MA-WR-56","Station_Nam":"STERLING 4.3 NW, MA","Latitude":"42.47540","Longitude":"-71.81140","Snowdepth":"16.400","Units":"in","Rept_Date":"2021-02-20 12"},"coordinates":[5968,5647]},{"type":"Point","properties":{"Station_ID":"QGA","Station_Nam":"QGA","Latitude":"47.25640","Longitude":"-73.73810","Snowdepth":"16.181","Units":"in","Rept_Date":"2021-02-20 12"},"coordinates":[5515,7896]},{"type":"Point","properties":{"Station_ID":"WI-WK-34","Station_Nam":"MUKWONAGO 5.3 W, WI","Latitude":"42.85380","Longitude":"-88.43550","Snowdepth":"16.000","Units":"in","Rept_Date":"2021-02-20 13"},"coordinates":[2066,5825]},{"type":"Point","properties":{"Station_ID":"WI-CB-4","Station_Nam":"PORTAGE 5.7 WSW, WI","Latitude":"43.51411","Longitude":"-89.56910","Snowdepth":"16.000","Units":"in","Rept_Date":"2021-02-20 12"},"coordinates":[1800,6136]},{"type":"Point","properties":{"Station_ID":"VNWO1","Station_Nam":"UNKNOWN","Latitude":"40.87000","Longitude":"-84.58000","Snowdepth":"16.000","Units":"in","Rept_Date":"2021-02-20 15"},"coordinates":[2971,4892]},{"type":"Point","properties":{"Station_ID":"SPTI4","Station_Nam":"STRAWBERRY POINT","Latitude":"42.68530","Longitude":"-91.53300","Snowdepth":"16.000","Units":"in","Rept_Date":"2021-02-20 13"},"coordinates":[1339,5746]},{"type":"Point","properties":{"Station_ID":"SNOW2","Station_Nam":"SNOWSHOE","Latitude":"38.39900","Longitude":"-79.99490","Snowdepth":"16.000","Units":"in","Rept_Date":"2021-02-20 11"},"coordinates":[4047,3729]},{"type":"Point","properties":{"Station_ID":"SILN6","Station_Nam":"SILVER CREEK","Latitude":"42.53800","Longitude":"-79.16990","Snowdepth":"16.000","Units":"in","Rept_Date":"2021-02-20 12"},"coordinates":[4241,5676]},{"type":"Point","properties":{"Station_ID":"RGNM1","Station_Nam":"RANGELEY 2NW","Latitude":"44.98940","Longitude":"-70.67220","Snowdepth":"16.000","Units":"in","Rept_Date":"2021-02-20 15"},"coordinates":[6235,6830]},{"type":"Point","properties":{"Station_ID":"RCHW3","Station_Nam":"RICHRIELD,WI","Latitude":"43.21080","Longitude":"-88.20940","Snowdepth":"16.000","Units":"in","Rept_Date":"2021-02-20 12"},"coordinates":[2119,5993]},{"type":"Point","properties":{"Station_ID":"PYMI3","Station_Nam":"PLYMOUTH","Latitude":"41.33920","Longitude":"-86.33580","Snowdepth":"16.000","Units":"in","Rept_Date":"2021-02-20 12"},"coordinates":[2559,5112]},{"type":"Point","properties":{"Station_ID":"PLFV1","Station_Nam":"PLAINFIELD","Latitude":"44.27610","Longitude":"-72.41500","Snowdepth":"16.000","Units":"in","Rept_Date":"2021-02-20 12"},"coordinates":[5826,6494]},{"type":"Point","properties":{"Station_ID":"PLBN6","Station_Nam":"PLATTSBURGH COOP","Latitude":"44.69180","Longitude":"-73.45560","Snowdepth":"16.000","Units":"in","Rept_Date":"2021-02-20 12"},"coordinates":[5582,6690]},{"type":"Point","properties":{"Station_ID":"PAUO1","Station_Nam":"UNKNOWN","Latitude":"41.11667","Longitude":"-84.60000","Snowdepth":"16.000","Units":"in","Rept_Date":"2021-02-20 12"},"coordinates":[2966,5008]},{"type":"Point","properties":{"Station_ID":"OH-LS-23","Station_Nam":"SWANTON 6.7 NNE, OH","Latitude":"41.67098","Longitude":"-83.83534","Snowdepth":"16.000","Units":"in","Rept_Date":"2021-02-20 12"},"coordinates":[3146,5269]},{"type":"Point","properties":{"Station_ID":"OH-AL-8","Station_Nam":"DELPHOS 2.3 ESE, OH","Latitude":"40.83350","Longitude":"-84.29820","Snowdepth":"16.000","Units":"in","Rept_Date":"2021-02-20 12"},"coordinates":[3037,4875]},{"type":"Point","properties":{"Station_ID":"NY-TM-5","Station_Nam":"FREEVILLE 1.5 NE, NY","Latitude":"42.52530","Longitude":"-76.32180","Snowdepth":"16.000","Units":"in","Rept_Date":"2021-02-20 12"},"coordinates":[4909,5670]},{"type":"Point","properties":{"Station_ID":"NY-TM-4","Station_Nam":"GROTON 0.5 NW, NY","Latitude":"42.59127","Longitude":"-76.37200","Snowdepth":"16.000","Units":"in","Rept_Date":"2021-02-20 14"},"coordinates":[4897,5701]},{"type":"Point","properties":{"Station_ID":"NY-TG-15","Station_Nam":"BERKSHIRE 1.9 ENE, NY","Latitude":"42.31910","Longitude":"-76.21940","Snowdepth":"16.000","Units":"in","Rept_Date":"2021-02-20 13"},"coordinates":[4933,5573]},{"type":"Point","properties":{"Station_ID":"NY-CR-5","Station_Nam":"MARATHON 1.0 NW, NY","Latitude":"42.45161","Longitude":"-76.04370","Snowdepth":"16.000","Units":"in","Rept_Date":"2021-02-20 12"},"coordinates":[4974,5636]},{"type":"Point","properties":{"Station_ID":"NWSM1","Station_Nam":"NEW SHARON","Latitude":"44.63520","Longitude":"-70.00020","Snowdepth":"16.000","Units":"in","Rept_Date":"2021-02-20 12"},"coordinates":[6393,6663]},{"type":"Point","properties":{"Station_ID":"NUMN3","Station_Nam":"NORTHUMBERLAND","Latitude":"44.52830","Longitude":"-71.50440","Snowdepth":"16.000","Units":"in","Rept_Date":"2021-02-20 13"},"coordinates":[6040,6613]},{"type":"Point","properties":{"Station_ID":"NJ-SS-54","Station_Nam":"SPARTA TWP 3.6 SSW, NJ","Latitude":"41.00503","Longitude":"-74.66358","Snowdepth":"16.000","Units":"in","Rept_Date":"2021-02-20 12"},"coordinates":[5298,4955]},{"type":"Point","properties":{"Station_ID":"NJ-BG-23","Station_Nam":"OAKLAND 0.9 SSE, NJ","Latitude":"41.01905","Longitude":"-74.23340","Snowdepth":"16.000","Units":"in","Rept_Date":"2021-02-20 13"},"coordinates":[5399,4962]},{"type":"Point","properties":{"Station_ID":"NH-MR-63","Station_Nam":"SUTTON MILLS 0.1 ENE, NH","Latitude":"43.33522","Longitude":"-71.95126","Snowdepth":"16.000","Units":"in","Rept_Date":"2021-02-20 13"},"coordinates":[5935,6051]},{"type":"Point","properties":{"Station_ID":"NH-MR-4","Station_Nam":"BOW 1.6 NW, NH","Latitude":"43.14994","Longitude":"-71.55650","Snowdepth":"16.000","Units":"in","Rept_Date":"2021-02-20 12"},"coordinates":[6027,5964]},{"type":"Point","properties":{"Station_ID":"NH-CR-46","Station_Nam":"NORTH CONWAY 1.8 SSE, NH","Latitude":"44.02955","Longitude":"-71.11664","Snowdepth":"16.000","Units":"in","Rept_Date":"2021-02-20 14"},"coordinates":[6131,6378]},{"type":"Point","properties":{"Station_ID":"MWOW3","Station_Nam":"MUKWONAGO","Latitude":"42.85380","Longitude":"-88.43550","Snowdepth":"16.000","Units":"in","Rept_Date":"2021-02-20 13"},"coordinates":[2066,5825]},{"type":"Point","properties":{"Station_ID":"MSRN3","Station_Nam":"MASCOMA RIVER","Latitude":"43.78330","Longitude":"-72.03330","Snowdepth":"16.000","Units":"in","Rept_Date":"2021-02-21 06"},"coordinates":[5916,6262]},{"type":"Point","properties":{"Station_ID":"MKG","Station_Nam":"MUSKEGON COUNTY AIRPORT","Latitude":"43.16940","Longitude":"-86.23810","Snowdepth":"16.000","Units":"in","Rept_Date":"2021-02-21 00"},"coordinates":[2582,5973]},{"type":"Point","properties":{"Station_ID":"MI-MG-13","Station_Nam":"MUSKEGON 3.5 SSE, MI","Latitude":"43.17913","Longitude":"-86.23640","Snowdepth":"16.000","Units":"in","Rept_Date":"2021-02-20 16"},"coordinates":[2582,5978]},{"type":"Point","properties":{"Station_ID":"MI-ET-1","Station_Nam":"LANSING 3.8 WNW, MI","Latitude":"42.72243","Longitude":"-84.62690","Snowdepth":"16.000","Units":"in","Rept_Date":"2021-02-20 12"},"coordinates":[2960,5763]},{"type":"Point","properties":{"Station_ID":"MI-CT-1","Station_Nam":"LAINGSBURG 5.0 SW, MI","Latitude":"42.84028","Longitude":"-84.41970","Snowdepth":"16.000","Units":"in","Rept_Date":"2021-02-20 13"},"coordinates":[3009,5819]},{"type":"Point","properties":{"Station_ID":"MI-CP-14","Station_Nam":"SAULT STE. MARIE 2.2 E, MI","Latitude":"46.48933","Longitude":"-84.31971","Snowdepth":"16.000","Units":"in","Rept_Date":"2021-02-20 13"},"coordinates":[3032,7535]},{"type":"Point","properties":{"Station_ID":"ME-OX-26","Station_Nam":"OXFORD 5.3 SW, ME","Latitude":"44.09787","Longitude":"-70.59612","Snowdepth":"16.000","Units":"in","Rept_Date":"2021-02-20 12"},"coordinates":[6253,6410]},{"type":"Point","properties":{"Station_ID":"MATI2","Station_Nam":"MANHATTAN","Latitude":"41.45840","Longitude":"-87.90980","Snowdepth":"16.000","Units":"in","Rept_Date":"2021-02-20 14"},"coordinates":[2189,5169]},{"type":"Point","properties":{"Station_ID":"MA-WR-89","Station_Nam":"HOLDEN 0.9 SSE, MA","Latitude":"42.33809","Longitude":"-71.85686","Snowdepth":"16.000","Units":"in","Rept_Date":"2021-02-20 12"},"coordinates":[5957,5582]},{"type":"Point","properties":{"Station_ID":"LSXI4","Station_Nam":"LITTLE SIOUX,IA","Latitude":"41.81670","Longitude":"-96.01670","Snowdepth":"16.000","Units":"in","Rept_Date":"2021-02-20 13"},"coordinates":[287,5337]},{"type":"Point","properties":{"Station_ID":"LGEW3","Station_Nam":"LAKE GENEVA, WI","Latitude":"42.60000","Longitude":"-88.43440","Snowdepth":"16.000","Units":"in","Rept_Date":"2021-02-20 13"},"coordinates":[2066,5706]},{"type":"Point","properties":{"Station_ID":"KORD","Station_Nam":"CHICAGO OHARE INTERNATIONAL","Latitude":"41.98333","Longitude":"-87.91666","Snowdepth":"16.000","Units":"in","Rept_Date":"2021-02-21 06"},"coordinates":[2188,5415]},{"type":"Point","properties":{"Station_ID":"KMKG","Station_Nam":"MUSKEGON COUNTY AIRPORT","Latitude":"43.16666","Longitude":"-86.23333","Snowdepth":"16.000","Units":"in","Rept_Date":"2021-02-21 00"},"coordinates":[2583,5972]},{"type":"Point","properties":{"Station_ID":"KISM4","Station_Nam":"K.I. SAWYER WWTP","Latitude":"46.33410","Longitude":"-87.37790","Snowdepth":"16.000","Units":"in","Rept_Date":"2021-02-20 13"},"coordinates":[2314,7462]},{"type":"Point","properties":{"Station_ID":"KINM1","Station_Nam":"KINGFIELD","Latitude":"44.95950","Longitude":"-70.17530","Snowdepth":"16.000","Units":"in","Rept_Date":"2021-02-20 14"},"coordinates":[6352,6816]},{"type":"Point","properties":{"Station_ID":"IRMM4","Station_Nam":"WWTP","Latitude":"46.46670","Longitude":"-90.18330","Snowdepth":"16.000","Units":"in","Rept_Date":"2021-02-20 13"},"coordinates":[1656,7525]},{"type":"Point","properties":{"Station_ID":"IL-WL-20","Station_Nam":"MANHATTAN 4.7 ENE, IL","Latitude":"41.45845","Longitude":"-87.90980","Snowdepth":"16.000","Units":"in","Rept_Date":"2021-02-20 14"},"coordinates":[2189,5169]},{"type":"Point","properties":{"Station_ID":"IL-SP-25","Station_Nam":"FREEPORT 1.7 NW, IL","Latitude":"42.30427","Longitude":"-89.66285","Snowdepth":"16.000","Units":"in","Rept_Date":"2021-02-20 13"},"coordinates":[1778,5566]},{"type":"Point","properties":{"Station_ID":"IL-MCH-43","Station_Nam":"ALGONQUIN 0.7 N, IL","Latitude":"42.17392","Longitude":"-88.29930","Snowdepth":"16.000","Units":"in","Rept_Date":"2021-02-20 10"},"coordinates":[2098,5505]},{"type":"Point","properties":{"Station_ID":"IL-LK-42","Station_Nam":"GURNEE 1.6 W, IL","Latitude":"42.37776","Longitude":"-87.96740","Snowdepth":"16.000","Units":"in","Rept_Date":"2021-02-20 13"},"coordinates":[2176,5601]},{"type":"Point","properties":{"Station_ID":"IL-KN-67","Station_Nam":"ST. CHARLES 6.0 NW, IL","Latitude":"41.98401","Longitude":"-88.38030","Snowdepth":"16.000","Units":"in","Rept_Date":"2021-02-20 13"},"coordinates":[2079,5416]},{"type":"Point","properties":{"Station_ID":"IL-KN-33","Station_Nam":"NORTH AURORA 1.5 NE, IL","Latitude":"41.81629","Longitude":"-88.30680","Snowdepth":"16.000","Units":"in","Rept_Date":"2021-02-20 13"},"coordinates":[2096,5337]},{"type":"Point","properties":{"Station_ID":"IL-KN-22","Station_Nam":"GENEVA 1.0 SSW, IL","Latitude":"41.86823","Longitude":"-88.32032","Snowdepth":"16.000","Units":"in","Rept_Date":"2021-02-20 13"},"coordinates":[2093,5361]},{"type":"Point","properties":{"Station_ID":"IL-KD-24","Station_Nam":"OSWEGO 5.0 SSE, IL","Latitude":"41.62933","Longitude":"-88.29910","Snowdepth":"16.000","Units":"in","Rept_Date":"2021-02-20 13"},"coordinates":[2098,5249]},{"type":"Point","properties":{"Station_ID":"IL-DP-132","Station_Nam":"WHEATON 2.0 NNE, IL","Latitude":"41.87980","Longitude":"-88.08630","Snowdepth":"16.000","Units":"in","Rept_Date":"2021-02-20 13"},"coordinates":[2148,5367]},{"type":"Point","properties":{"Station_ID":"HTLM4","Station_Nam":"SNOW PAID OBSERVER FOR KHTL","Latitude":"44.34470","Longitude":"-84.67730","Snowdepth":"16.000","Units":"in","Rept_Date":"2021-02-20 18"},"coordinates":[2948,6526]},{"type":"Point","properties":{"Station_ID":"HTL","Station_Nam":"ROSCOMMON COUNTY AIRPORT","Latitude":"44.35000","Longitude":"-84.66670","Snowdepth":"16.000","Units":"in","Rept_Date":"2021-02-21 00"},"coordinates":[2951,6529]},{"type":"Point","properties":{"Station_ID":"FREM4","Station_Nam":"FREMONT,MI","Latitude":"43.45000","Longitude":"-86.03330","Snowdepth":"16.000","Units":"in","Rept_Date":"2021-02-20 12"},"coordinates":[2630,6105]},{"type":"Point","properties":{"Station_ID":"EVRW3","Station_Nam":"EAGLE RIVER-4 E","Latitude":"45.91890","Longitude":"-89.15280","Snowdepth":"16.000","Units":"in","Rept_Date":"2021-02-20 13"},"coordinates":[1898,7267]},{"type":"Point","properties":{"Station_ID":"EGRW3","Station_Nam":"EAGLE RIVER-SOUTH","Latitude":"45.91360","Longitude":"-89.24360","Snowdepth":"16.000","Units":"in","Rept_Date":"2021-02-20 13"},"coordinates":[1876,7264]},{"type":"Point","properties":{"Station_ID":"DLNW3","Station_Nam":"WALWORTH COUNTYMETROPOLITAN SEWERAGE DISTRICT (DELEVAN)","Latitude":"42.63440","Longitude":"-88.66280","Snowdepth":"16.000","Units":"in","Rept_Date":"2021-02-20 14"},"coordinates":[2013,5722]},{"type":"Point","properties":{"Station_ID":"CORV1","Station_Nam":"CORINTH","Latitude":"44.00690","Longitude":"-72.31940","Snowdepth":"16.000","Units":"in","Rept_Date":"2021-02-20 12"},"coordinates":[5848,6367]},{"type":"Point","properties":{"Station_ID":"COBN6","Station_Nam":"COBLESKILL 2ESE","Latitude":"42.66710","Longitude":"-74.44230","Snowdepth":"16.000","Units":"in","Rept_Date":"2021-02-20 13"},"coordinates":[5350,5737]},{"type":"Point","properties":{"Station_ID":"CMKW3","Station_Nam":"CLAM LAKE 4W","Latitude":"46.16940","Longitude":"-90.98080","Snowdepth":"16.000","Units":"in","Rept_Date":"2021-02-20 13"},"coordinates":[1469,7385]},{"type":"Point","properties":{"Station_ID":"CAN-NS-39","Station_Nam":"ST. ANNS 2.8 NW, CA","Latitude":"46.25082","Longitude":"-60.64340","Snowdepth":"16.000","Units":"in","Rept_Date":"2021-02-20 12"},"coordinates":[8589,7423]},{"type":"Point","properties":{"Station_ID":"BRLN3","Station_Nam":"BERLIN","Latitude":"44.45350","Longitude":"-71.18540","Snowdepth":"16.000","Units":"in","Rept_Date":"2021-02-20 12"},"coordinates":[6115,6577]},{"type":"Point","properties":{"Station_ID":"BLGW3","Station_Nam":"BELGIUM WWTP","Latitude":"43.51310","Longitude":"-87.85440","Snowdepth":"16.000","Units":"in","Rept_Date":"2021-02-20 14"},"coordinates":[2202,6135]},{"type":"Point","properties":{"Station_ID":"BETM1","Station_Nam":"BETHEL 6 SSE","Latitude":"44.32000","Longitude":"-70.75680","Snowdepth":"16.000","Units":"in","Rept_Date":"2021-02-20 12"},"coordinates":[6215,6515]},{"type":"Point","properties":{"Station_ID":"BDMW3","Station_Nam":"BEAVER DAM 1 N","Latitude":"43.46860","Longitude":"-88.83970","Snowdepth":"16.000","Units":"in","Rept_Date":"2021-02-20 13"},"coordinates":[1971,6114]},{"type":"Point","properties":{"Station_ID":"42.2002_079.8021","Station_Nam":"2 ESE North East  Trained Spotter (CLE0183)","Latitude":"42.20018","Longitude":"-79.80210","Snowdepth":"16.000","Units":"in","Rept_Date":"2021-02-20 12"},"coordinates":[4092,5517]},{"type":"Point","properties":{"Station_ID":"42.0800_080.0143","Station_Nam":"ERIE 5SE  SNOW SPOTTER (X4210800)","Latitude":"42.08000","Longitude":"-80.01430","Snowdepth":"16.000","Units":"in","Rept_Date":"2021-02-20 13"},"coordinates":[4042,5461]},{"type":"Point","properties":{"Station_ID":"41.6710_083.8354","Station_Nam":"7 NNE Swanton  CoCoRaHS (OH-LS-23)","Latitude":"41.67100","Longitude":"-83.83540","Snowdepth":"16.000","Units":"in","Rept_Date":"2021-02-20 12"},"coordinates":[3146,5269]},{"type":"Point","properties":{"Station_ID":"41.5183_081.4792","Station_Nam":"1 ENE Lyndhurst  Trained Spotter (CLE1177)","Latitude":"41.51834","Longitude":"-81.47919","Snowdepth":"16.000","Units":"in","Rept_Date":"2021-02-20 15"},"coordinates":[3699,5197]},{"type":"Point","properties":{"Station_ID":"NJ-WR-42","Station_Nam":"KNOWLTON TWP 1.7 S, NJ","Latitude":"40.90560","Longitude":"-75.05880","Snowdepth":"15.900","Units":"in","Rept_Date":"2021-02-20 13"},"coordinates":[5205,4908]},{"type":"Point","properties":{"Station_ID":"CAN-NB-97","Station_Nam":"NEW MARYLAND 0.6 NW, CAN","Latitude":"45.90112","Longitude":"-66.68739","Snowdepth":"15.700","Units":"in","Rept_Date":"2021-02-20 12"},"coordinates":[7170,7258]},{"type":"Point","properties":{"Station_ID":"CAN-NB-96","Station_Nam":"SAINT-IGNACE 2.6 NE, CAN","Latitude":"46.71424","Longitude":"-65.05609","Snowdepth":"15.700","Units":"in","Rept_Date":"2021-02-20 11"},"coordinates":[7553,7641]},{"type":"Point","properties":{"Station_ID":"QLI","Station_Nam":"QLI","Latitude":"50.27080","Longitude":"-73.92280","Snowdepth":"15.669","Units":"in","Rept_Date":"2021-02-20 12"},"coordinates":[5472,9314]},{"type":"Point","properties":{"Station_ID":"WI-WB-2","Station_Nam":"STONE LAKE 2.0 NW, WI","Latitude":"45.85960","Longitude":"-91.57710","Snowdepth":"15.500","Units":"in","Rept_Date":"2021-02-20 13"},"coordinates":[1329,7239]},{"type":"Point","properties":{"Station_ID":"WI-SR-1","Station_Nam":"HAYWARD 9.2 NNE, WI","Latitude":"46.13255","Longitude":"-91.40500","Snowdepth":"15.500","Units":"in","Rept_Date":"2021-02-20 12"},"coordinates":[1369,7367]},{"type":"Point","properties":{"Station_ID":"WI-BY-2","Station_Nam":"MELLEN 18.6 SW, WI","Latitude":"46.16937","Longitude":"-90.98090","Snowdepth":"15.500","Units":"in","Rept_Date":"2021-02-20 13"},"coordinates":[1469,7385]},{"type":"Point","properties":{"Station_ID":"VT-CL-14","Station_Nam":"LYNDONVILLE 1.1 W, VT","Latitude":"44.53582","Longitude":"-72.02867","Snowdepth":"15.500","Units":"in","Rept_Date":"2021-02-20 12"},"coordinates":[5917,6616]},{"type":"Point","properties":{"Station_ID":"VT-AD-28","Station_Nam":"MONKTON 1.5 NE, VT","Latitude":"44.26760","Longitude":"-73.09940","Snowdepth":"15.500","Units":"in","Rept_Date":"2021-02-20 12"},"coordinates":[5665,6490]},{"type":"Point","properties":{"Station_ID":"NY-PT-2","Station_Nam":"BEACON 4.2 ESE, NY","Latitude":"41.48070","Longitude":"-73.89110","Snowdepth":"15.500","Units":"in","Rept_Date":"2021-02-20 12"},"coordinates":[5479,5179]},{"type":"Point","properties":{"Station_ID":"NY-MR-26","Station_Nam":"WEBSTER 3.2 W, NY","Latitude":"43.20992","Longitude":"-77.48510","Snowdepth":"15.500","Units":"in","Rept_Date":"2021-02-21 05"},"coordinates":[4636,5992]},{"type":"Point","properties":{"Station_ID":"NY-DT-34","Station_Nam":"HOPEWELL JUNCTION 2.8 NE, NY","Latitude":"41.61016","Longitude":"-73.75855","Snowdepth":"15.500","Units":"in","Rept_Date":"2021-02-20 11"},"coordinates":[5511,5240]},{"type":"Point","properties":{"Station_ID":"NY-DL-28","Station_Nam":"FLEISCHMANNS 5.7 N, NY","Latitude":"42.23779","Longitude":"-74.52335","Snowdepth":"15.500","Units":"in","Rept_Date":"2021-02-20 12"},"coordinates":[5331,5535]},{"type":"Point","properties":{"Station_ID":"NY-CT-22","Station_Nam":"FRANKLINVILLE 0.5 NNE, NY","Latitude":"42.34166","Longitude":"-78.45280","Snowdepth":"15.500","Units":"in","Rept_Date":"2021-02-20 12"},"coordinates":[4409,5584]},{"type":"Point","properties":{"Station_ID":"NJ-MS-71","Station_Nam":"DENVILLE TWP 1.5 ESE, NJ","Latitude":"40.88053","Longitude":"-74.46310","Snowdepth":"15.500","Units":"in","Rept_Date":"2021-02-20 12"},"coordinates":[5345,4897]},{"type":"Point","properties":{"Station_ID":"NH-MR-45","Station_Nam":"NORTHFIELD 2.8 E, NH","Latitude":"43.43945","Longitude":"-71.53730","Snowdepth":"15.500","Units":"in","Rept_Date":"2021-02-20 12"},"coordinates":[6032,6100]},