{"type":"Topology","objects":{"snowdepth_geo":{"type":"GeometryCollection","name":"snowdepth","crs":{"type":"name","properties":{"name":"urn:ogc:def:crs:OGC:1.3:CRS84"}},"geometries":[{"type":"Point","properties":{"Station_ID":"PRKM4","Station_Nam":"MUNISING EAST","Latitude":"46.42580","Longitude":"-86.62000","Snowdepth":"76.500","Units":"in","Rept_Date":"2021-02-09 06"},"coordinates":[2427,6855]},{"type":"Point","properties":{"Station_ID":"RI-PR-77","Station_Nam":"RIVERSIDE 0.8 SE, RI","Latitude":"41.76202","Longitude":"-71.35096","Snowdepth":"58.000","Units":"in","Rept_Date":"2021-02-08 12"},"coordinates":[5915,4089]},{"type":"Point","properties":{"Station_ID":"PDLM4","Station_Nam":"PAINESDALE","Latitude":"47.04160","Longitude":"-88.67170","Snowdepth":"50.000","Units":"in","Rept_Date":"2021-02-08 13"},"coordinates":[1958,7220]},{"type":"Point","properties":{"Station_ID":"MMNV1","Station_Nam":"MT. MANSFIELD","Latitude":"44.52480","Longitude":"-72.81540","Snowdepth":"47.000","Units":"in","Rept_Date":"2021-02-08 21"},"coordinates":[5580,5728]},{"type":"Point","properties":{"Station_ID":"HTLN3","Station_Nam":"HERMIT LAKE SNOWPLOT","Latitude":"44.26130","Longitude":"-71.28330","Snowdepth":"46.000","Units":"in","Rept_Date":"2021-02-08 10"},"coordinates":[5930,5572]},{"type":"Point","properties":{"Station_ID":"HLSN3","Station_Nam":"HERMIT LAKE SNOTEL","Latitude":"44.26130","Longitude":"-71.28320","Snowdepth":"41.220","Units":"in","Rept_Date":"2021-02-09 06"},"coordinates":[5930,5572]},{"type":"Point","properties":{"Station_ID":"RDFN6","Station_Nam":"REDFIELD 8N","Latitude":"43.64130","Longitude":"-75.88400","Snowdepth":"41.000","Units":"in","Rept_Date":"2021-02-08 12"},"coordinates":[4880,5204]},{"type":"Point","properties":{"Station_ID":"HGHN6","Station_Nam":"HIGHMARKET","Latitude":"43.60510","Longitude":"-75.55430","Snowdepth":"40.000","Units":"in","Rept_Date":"2021-02-08 11"},"coordinates":[4955,5182]},{"type":"Point","properties":{"Station_ID":"BENN6","Station_Nam":"BENNETTS BRIDGE","Latitude":"43.53180","Longitude":"-75.95260","Snowdepth":"40.000","Units":"in","Rept_Date":"2021-02-08 12"},"coordinates":[4864,5139]},{"type":"Point","properties":{"Station_ID":"QNCM4","Station_Nam":"QUINCY HILL","Latitude":"47.13640","Longitude":"-88.57950","Snowdepth":"35.000","Units":"in","Rept_Date":"2021-02-08 12"},"coordinates":[1979,7277]},{"type":"Point","properties":{"Station_ID":"PTLQ6","Station_Nam":"PORTAGE LAKE","Latitude":"49.06950","Longitude":"-86.65940","Snowdepth":"32.440","Units":"in","Rept_Date":"2021-02-09 06"},"coordinates":[2418,8423]},{"type":"Point","properties":{"Station_ID":"NH-CS-10","Station_Nam":"RANDOLPH 1.4 NE, NH","Latitude":"44.38824","Longitude":"-71.26950","Snowdepth":"32.000","Units":"in","Rept_Date":"2021-02-08 12"},"coordinates":[5934,5647]},{"type":"Point","properties":{"Station_ID":"MI-HG-20","Station_Nam":"CALUMET 1.1 SSW, MI","Latitude":"47.23165","Longitude":"-88.45823","Snowdepth":"29.000","Units":"in","Rept_Date":"2021-02-08 11"},"coordinates":[2007,7333]},{"type":"Point","properties":{"Station_ID":"DVLQ6","Station_Nam":"DEVIOUS LAKE","Latitude":"49.19890","Longitude":"-87.76440","Snowdepth":"28.070","Units":"in","Rept_Date":"2021-02-09 06"},"coordinates":[2166,8500]},{"type":"Point","properties":{"Station_ID":"KSGM4","Station_Nam":"KEARSARGE","Latitude":"47.27520","Longitude":"-88.41700","Snowdepth":"28.000","Units":"in","Rept_Date":"2021-02-08 13"},"coordinates":[2017,7359]},{"type":"Point","properties":{"Station_ID":"BOON6","Station_Nam":"BOONVILLE 4 SSW","Latitude":"43.43610","Longitude":"-75.36970","Snowdepth":"28.000","Units":"in","Rept_Date":"2021-02-08 12"},"coordinates":[4997,5082]},{"type":"Point","properties":{"Station_ID":"VT-BN-12","Station_Nam":"STAMFORD 5.0 NNE, VT","Latitude":"42.82000","Longitude":"-73.02000","Snowdepth":"27.500","Units":"in","Rept_Date":"2021-02-08 21"},"coordinates":[5534,4717]},{"type":"Point","properties":{"Station_ID":"TRIQ6","Station_Nam":"TRIO LAKE","Latitude":"49.22880","Longitude":"-87.22920","Snowdepth":"27.090","Units":"in","Rept_Date":"2021-02-09 06"},"coordinates":[2288,8518]},{"type":"Point","properties":{"Station_ID":"PERV1","Station_Nam":"PERU","Latitude":"43.26670","Longitude":"-72.90000","Snowdepth":"27.000","Units":"in","Rept_Date":"2021-02-08 12"},"coordinates":[5561,4982]},{"type":"Point","properties":{"Station_ID":"NY-GR-14","Station_Nam":"LEXINGTON 1.5 N, NY","Latitude":"42.26024","Longitude":"-74.35875","Snowdepth":"27.000","Units":"in","Rept_Date":"2021-02-08 12"},"coordinates":[5228,4385]},{"type":"Point","properties":{"Station_ID":"JEFV1","Station_Nam":"JEFFERSONVILLE","Latitude":"44.58430","Longitude":"-72.78700","Snowdepth":"27.000","Units":"in","Rept_Date":"2021-02-08 12"},"coordinates":[5587,5763]},{"type":"Point","properties":{"Station_ID":"OCON6","Station_Nam":"OSCEOLA","Latitude":"43.50370","Longitude":"-75.72170","Snowdepth":"26.000","Units":"in","Rept_Date":"2021-02-08 13"},"coordinates":[4917,5122]},{"type":"Point","properties":{"Station_ID":"MI-HG-1","Station_Nam":"HOUGHTON 1.6 ESE, MI","Latitude":"47.10774","Longitude":"-88.52940","Snowdepth":"26.000","Units":"in","Rept_Date":"2021-02-08 13"},"coordinates":[1991,7260]},{"type":"Point","properties":{"Station_ID":"VT-WR-17","Station_Nam":"ROCHESTER 2.3 NE, VT","Latitude":"43.89418","Longitude":"-72.76992","Snowdepth":"25.500","Units":"in","Rept_Date":"2021-02-08 12"},"coordinates":[5591,5354]},{"type":"Point","properties":{"Station_ID":"NY-HR-18","Station_Nam":"SALISBURY CENTER 1.8 NW, NY","Latitude":"43.16260","Longitude":"-74.80880","Snowdepth":"25.500","Units":"in","Rept_Date":"2021-02-08 10"},"coordinates":[5125,4920]},{"type":"Point","properties":{"Station_ID":"ME-FR-2","Station_Nam":"TEMPLE 1.8 W, ME","Latitude":"44.68329","Longitude":"-70.26420","Snowdepth":"25.500","Units":"in","Rept_Date":"2021-02-08 12"},"coordinates":[6163,5822]},{"type":"Point","properties":{"Station_ID":"CAN-NB-112","Station_Nam":"LAC BAKER 3.1 NW - SAJESS, CAN","Latitude":"47.35162","Longitude":"-68.67100","Snowdepth":"25.500","Units":"in","Rept_Date":"2021-02-08 11"},"coordinates":[6527,7404]},{"type":"Point","properties":{"Station_ID":"AUDQ6","Station_Nam":"AUDEN","Latitude":"48.52600","Longitude":"-82.57570","Snowdepth":"25.120","Units":"in","Rept_Date":"2021-02-09 06"},"coordinates":[3351,8101]},{"type":"Point","properties":{"Station_ID":"WHFN6","Station_Nam":"WILMINGTON 2W","Latitude":"44.39310","Longitude":"-73.85890","Snowdepth":"25.000","Units":"in","Rept_Date":"2021-02-08 13"},"coordinates":[5342,5650]},{"type":"Point","properties":{"Station_ID":"VT-BN-3","Station_Nam":"LANDGROVE 1.1 NNE, VT","Latitude":"43.29092","Longitude":"-72.83260","Snowdepth":"25.000","Units":"in","Rept_Date":"2021-02-08 12"},"coordinates":[5577,4996]},{"type":"Point","properties":{"Station_ID":"ROWM3","Station_Nam":"ROWE 3NE","Latitude":"42.73500","Longitude":"-72.86920","Snowdepth":"25.000","Units":"in","Rept_Date":"2021-02-08 12"},"coordinates":[5568,4666]},{"type":"Point","properties":{"Station_ID":"NY-CL-12","Station_Nam":"SARANAC 0.8 SSE, NY","Latitude":"44.63980","Longitude":"-73.73848","Snowdepth":"25.000","Units":"in","Rept_Date":"2021-02-08 12"},"coordinates":[5370,5796]},{"type":"Point","properties":{"Station_ID":"MI-KW-2","Station_Nam":"DELAWARE 5.2 SW, MI","Latitude":"47.36928","Longitude":"-88.17919","Snowdepth":"25.000","Units":"in","Rept_Date":"2021-02-08 09"},"coordinates":[2071,7415]},{"type":"Point","properties":{"Station_ID":"MALN6","Station_Nam":"MALONE","Latitude":"44.84180","Longitude":"-74.30600","Snowdepth":"25.000","Units":"in","Rept_Date":"2021-02-08 12"},"coordinates":[5240,5916]},{"type":"Point","properties":{"Station_ID":"LBKV1","Station_Nam":"LYE BROOK","Latitude":"43.05000","Longitude":"-73.03330","Snowdepth":"25.000","Units":"in","Rept_Date":"2021-02-09 05"},"coordinates":[5531,4853]},{"type":"Point","properties":{"Station_ID":"FISM1","Station_Nam":"FORT KENT COOP","Latitude":"47.23850","Longitude":"-68.61240","Snowdepth":"25.000","Units":"in","Rept_Date":"2021-02-08 12"},"coordinates":[6541,7337]},{"type":"Point","properties":{"Station_ID":"EHYM3","Station_Nam":"EAST HAWLEY","Latitude":"42.57410","Longitude":"-72.86790","Snowdepth":"25.000","Units":"in","Rept_Date":"2021-02-08 13"},"coordinates":[5568,4571]},{"type":"Point","properties":{"Station_ID":"BRAM1","Station_Nam":"BRASSUA DAM","Latitude":"45.66020","Longitude":"-69.81190","Snowdepth":"25.000","Units":"in","Rept_Date":"2021-02-08 12"},"coordinates":[6267,6401]},{"type":"Point","properties":{"Station_ID":"QGO","Station_Nam":"QGO","Latitude":"48.85500","Longitude":"-74.20640","Snowdepth":"24.764","Units":"in","Rept_Date":"2021-02-08 12"},"coordinates":[5263,8296]},{"type":"Point","properties":{"Station_ID":"IL-CK-288","Station_Nam":"ROSELLE 0.8 N, IL","Latitude":"41.99255","Longitude":"-88.08422","Snowdepth":"24.600","Units":"in","Rept_Date":"2021-02-08 13"},"coordinates":[2093,4226]},{"type":"Point","properties":{"Station_ID":"VT-OL-12","Station_Nam":"GREENSBORO 3.9 NNE, VT","Latitude":"44.63100","Longitude":"-72.28000","Snowdepth":"24.500","Units":"in","Rept_Date":"2021-02-08 14"},"coordinates":[5703,5791]},{"type":"Point","properties":{"Station_ID":"NY-LW-12","Station_Nam":"CHASES LAKE COOP, NY","Latitude":"43.75924","Longitude":"-75.29982","Snowdepth":"24.500","Units":"in","Rept_Date":"2021-02-08 11"},"coordinates":[5013,5274]},{"type":"Point","properties":{"Station_ID":"WI-MW-14","Station_Nam":"MILWAUKEE 3.6 NNW, WI","Latitude":"43.11300","Longitude":"-87.98730","Snowdepth":"24.000","Units":"in","Rept_Date":"2021-02-08 11"},"coordinates":[2115,4891]},{"type":"Point","properties":{"Station_ID":"VT-OL-1","Station_Nam":"WESTFIELD 0.7 WNW, VT","Latitude":"44.89160","Longitude":"-72.44350","Snowdepth":"24.000","Units":"in","Rept_Date":"2021-02-08 12"},"coordinates":[5665,5945]},{"type":"Point","properties":{"Station_ID":"RKWM1","Station_Nam":"MOOSEHEAD LAKE","Latitude":"45.58330","Longitude":"-69.71670","Snowdepth":"24.000","Units":"in","Rept_Date":"2021-02-08 12"},"coordinates":[6288,6356]},{"type":"Point","properties":{"Station_ID":"LPLN6","Station_Nam":"LAKE PLACID 2 S","Latitude":"44.30420","Longitude":"-73.98390","Snowdepth":"24.000","Units":"in","Rept_Date":"2021-02-08 13"},"coordinates":[5314,5597]},{"type":"Point","properties":{"Station_ID":"GHMN3","Station_Nam":"PINKHAM NOTCH","Latitude":"44.25800","Longitude":"-71.25250","Snowdepth":"24.000","Units":"in","Rept_Date":"2021-02-08 10"},"coordinates":[5937,5570]},{"type":"Point","properties":{"Station_ID":"GFDN6","Station_Nam":"CHASES LAKE","Latitude":"43.75920","Longitude":"-75.29980","Snowdepth":"24.000","Units":"in","Rept_Date":"2021-02-08 11"},"coordinates":[5013,5274]},{"type":"Point","properties":{"Station_ID":"CAN-QC-56","Station_Nam":"SUTTON 2.6 N, CAN","Latitude":"45.13119","Longitude":"-72.61218","Snowdepth":"24.000","Units":"in","Rept_Date":"2021-02-08 12"},"coordinates":[5627,6087]},{"type":"Point","properties":{"Station_ID":"QLB","Station_Nam":"QLB","Latitude":"50.72360","Longitude":"-75.10000","Snowdepth":"23.583","Units":"in","Rept_Date":"2021-02-08 12"},"coordinates":[5059,9404]},{"type":"Point","properties":{"Station_ID":"VT-WS-33","Station_Nam":"WAITSFIELD 3.5 WNW, VT","Latitude":"44.20052","Longitude":"-72.89421","Snowdepth":"23.500","Units":"in","Rept_Date":"2021-02-08 13"},"coordinates":[5562,5535]},{"type":"Point","properties":{"Station_ID":"NY-FK-9","Station_Nam":"GABRIELS 1.3 SE, NY","Latitude":"44.41934","Longitude":"-74.16194","Snowdepth":"23.500","Units":"in","Rept_Date":"2021-02-08 12"},"coordinates":[5273,5665]},{"type":"Point","properties":{"Station_ID":"NY-ES-11","Station_Nam":"VERMONTVILLE 2.8 S, NY","Latitude":"44.41205","Longitude":"-74.06760","Snowdepth":"23.500","Units":"in","Rept_Date":"2021-02-08 12"},"coordinates":[5294,5661]},{"type":"Point","properties":{"Station_ID":"MA-WR-70","Station_Nam":"GRAFTON 1.5 W, MA","Latitude":"42.20354","Longitude":"-71.71255","Snowdepth":"23.500","Units":"in","Rept_Date":"2021-02-08 13"},"coordinates":[5832,4351]},{"type":"Point","properties":{"Station_ID":"WNDP1","Station_Nam":"WINDBER COUNTY CLUB","Latitude":"40.28780","Longitude":"-78.77530","Snowdepth":"23.000","Units":"in","Rept_Date":"2021-02-08 12"},"coordinates":[4219,3215]},{"type":"Point","properties":{"Station_ID":"PTBN3","Station_Nam":"PITTSBURG RESERVOIR","Latitude":"45.04690","Longitude":"-71.38300","Snowdepth":"23.000","Units":"in","Rept_Date":"2021-02-08 12"},"coordinates":[5908,6037]},{"type":"Point","properties":{"Station_ID":"NY-HM-10","Station_Nam":"LAKE PLEASANT 2.3 WSW, NY","Latitude":"43.45490","Longitude":"-74.45287","Snowdepth":"23.000","Units":"in","Rept_Date":"2021-02-08 12"},"coordinates":[5206,5093]},{"type":"Point","properties":{"Station_ID":"NY-FK-7","Station_Nam":"SARANAC LAKE 6.2 N, NY","Latitude":"44.41359","Longitude":"-74.15211","Snowdepth":"23.000","Units":"in","Rept_Date":"2021-02-08 12"},"coordinates":[5275,5662]},{"type":"Point","properties":{"Station_ID":"NJ-SS-54","Station_Nam":"SPARTA TWP 3.6 SSW, NJ","Latitude":"41.00503","Longitude":"-74.66358","Snowdepth":"23.000","Units":"in","Rept_Date":"2021-02-08 12"},"coordinates":[5158,3640]},{"type":"Point","properties":{"Station_ID":"LVDW3","Station_Nam":"LAC VIEUX DESERT","Latitude":"46.12110","Longitude":"-89.07580","Snowdepth":"23.000","Units":"in","Rept_Date":"2021-02-08 15"},"coordinates":[1866,6674]},{"type":"Point","properties":{"Station_ID":"HRTM1","Station_Nam":"HARTFORD","Latitude":"44.37440","Longitude":"-70.31620","Snowdepth":"23.000","Units":"in","Rept_Date":"2021-02-08 12"},"coordinates":[6151,5639]},{"type":"Point","properties":{"Station_ID":"CAN-ON-224","Station_Nam":"NAKINA 3.8 N - MNRF, CAN","Latitude":"50.21269","Longitude":"-86.70099","Snowdepth":"22.800","Units":"in","Rept_Date":"2021-02-08 18"},"coordinates":[2409,9101]},{"type":"Point","properties":{"Station_ID":"NH-CS-19","Station_Nam":"CARROLL 4.6 NE, NH","Latitude":"44.33765","Longitude":"-71.46461","Snowdepth":"22.500","Units":"in","Rept_Date":"2021-02-08 12"},"coordinates":[5889,5617]},{"type":"Point","properties":{"Station_ID":"ME-SM-45","Station_Nam":"BRIGHTON PLANTATION 2.1 N, ME","Latitude":"45.07098","Longitude":"-69.69860","Snowdepth":"22.500","Units":"in","Rept_Date":"2021-02-08 12"},"coordinates":[6292,6052]},{"type":"Point","properties":{"Station_ID":"WLFM5","Station_Nam":"WOLF RIDGE ENVIRON LEARNING CENTER","Latitude":"47.38240","Longitude":"-91.19730","Snowdepth":"22.000","Units":"in","Rept_Date":"2021-02-08 13"},"coordinates":[1382,7422]},{"type":"Point","properties":{"Station_ID":"VT-WR-2","Station_Nam":"POMFRET 2.6 N, VT","Latitude":"43.74230","Longitude":"-72.52550","Snowdepth":"22.000","Units":"in","Rept_Date":"2021-02-08 12"},"coordinates":[5647,5264]},{"type":"Point","properties":{"Station_ID":"VT-WH-19","Station_Nam":"EAST DOVER 1.8 N, VT","Latitude":"42.97658","Longitude":"-72.77637","Snowdepth":"22.000","Units":"in","Rept_Date":"2021-02-08 12"},"coordinates":[5589,4810]},{"type":"Point","properties":{"Station_ID":"VT-CH-4","Station_Nam":"UNDERHILL 4.4 NNE, VT","Latitude":"44.58774","Longitude":"-72.92250","Snowdepth":"22.000","Units":"in","Rept_Date":"2021-02-08 12"},"coordinates":[5556,5765]},{"type":"Point","properties":{"Station_ID":"PHEW3","Station_Nam":"PHELPS","Latitude":"46.06630","Longitude":"-89.07520","Snowdepth":"22.000","Units":"in","Rept_Date":"2021-02-08 13"},"coordinates":[1866,6642]},{"type":"Point","properties":{"Station_ID":"NY-SL-6","Station_Nam":"HANNAWA FALLS 0.1 SW, NY","Latitude":"44.61154","Longitude":"-74.97190","Snowdepth":"22.000","Units":"in","Rept_Date":"2021-02-08 12"},"coordinates":[5088,5779]},{"type":"Point","properties":{"Station_ID":"NUNV1","Station_Nam":"NORTH UNDERHILL","Latitude":"44.58760","Longitude":"-72.92150","Snowdepth":"22.000","Units":"in","Rept_Date":"2021-02-08 12"},"coordinates":[5556,5765]},{"type":"Point","properties":{"Station_ID":"NGLW3","Station_Nam":"NEW GLARUS","Latitude":"42.83500","Longitude":"-89.62080","Snowdepth":"22.000","Units":"in","Rept_Date":"2021-02-08 13"},"coordinates":[1742,4726]},{"type":"Point","properties":{"Station_ID":"NCBN6","Station_Nam":"NEWCOMB","Latitude":"43.97070","Longitude":"-74.22200","Snowdepth":"22.000","Units":"in","Rept_Date":"2021-02-08 12"},"coordinates":[5259,5399]},{"type":"Point","properties":{"Station_ID":"MNSM4","Station_Nam":"MUNISING","Latitude":"46.41210","Longitude":"-86.66250","Snowdepth":"22.000","Units":"in","Rept_Date":"2021-02-08 11"},"coordinates":[2417,6847]},{"type":"Point","properties":{"Station_ID":"CAN-ON-335","Station_Nam":"NAKINA 1.6 NW - MNRF, CAN","Latitude":"50.18910","Longitude":"-86.72684","Snowdepth":"21.800","Units":"in","Rept_Date":"2021-02-08 13"},"coordinates":[2403,9087]},{"type":"Point","properties":{"Station_ID":"PA-BR-7","Station_Nam":"FLEETWOOD 2.0 ESE, PA","Latitude":"40.44292","Longitude":"-75.78720","Snowdepth":"21.500","Units":"in","Rept_Date":"2021-02-08 12"},"coordinates":[4902,3307]},{"type":"Point","properties":{"Station_ID":"NY-OD-2","Station_Nam":"POINT ROCK 0.6 SE, NY","Latitude":"43.37335","Longitude":"-75.53840","Snowdepth":"21.500","Units":"in","Rept_Date":"2021-02-08 13"},"coordinates":[4958,5045]},{"type":"Point","properties":{"Station_ID":"QTM","Station_Nam":"QTM","Latitude":"51.05780","Longitude":"-72.57190","Snowdepth":"21.142","Units":"in","Rept_Date":"2021-02-08 12"},"coordinates":[5636,9602]},{"type":"Point","properties":{"Station_ID":"WAIV1","Station_Nam":"WAITSFIELD","Latitude":"44.17560","Longitude":"-72.79610","Snowdepth":"21.000","Units":"in","Rept_Date":"2021-02-08 12"},"coordinates":[5585,5521]},{"type":"Point","properties":{"Station_ID":"VT-WS-30","Station_Nam":"WOODBURY 3.4 NNW, VT","Latitude":"44.48825","Longitude":"-72.43258","Snowdepth":"21.000","Units":"in","Rept_Date":"2021-02-08 12"},"coordinates":[5668,5706]},{"type":"Point","properties":{"Station_ID":"VT-WS-19","Station_Nam":"WATERBURY 3.0 NW, VT","Latitude":"44.36060","Longitude":"-72.80770","Snowdepth":"21.000","Units":"in","Rept_Date":"2021-02-08 11"},"coordinates":[5582,5630]},{"type":"Point","properties":{"Station_ID":"VT-WS-11","Station_Nam":"WAITSFIELD 1.8 SE, VT","Latitude":"44.17551","Longitude":"-72.79540","Snowdepth":"21.000","Units":"in","Rept_Date":"2021-02-08 12"},"coordinates":[5585,5521]},{"type":"Point","properties":{"Station_ID":"VT-WH-30","Station_Nam":"MARLBORO 2.0 NNE, VT","Latitude":"42.88484","Longitude":"-72.70935","Snowdepth":"21.000","Units":"in","Rept_Date":"2021-02-08 13"},"coordinates":[5605,4755]},{"type":"Point","properties":{"Station_ID":"SPRP1","Station_Nam":"SPRINGTOWN 1 NNE","Latitude":"40.57110","Longitude":"-75.27810","Snowdepth":"21.000","Units":"in","Rept_Date":"2021-02-08 12"},"coordinates":[5018,3383]},{"type":"Point","properties":{"Station_ID":"NH-MR-41","Station_Nam":"NEWBURY 1.6 NW, NH","Latitude":"43.33667","Longitude":"-72.06060","Snowdepth":"21.000","Units":"in","Rept_Date":"2021-02-08 12"},"coordinates":[5753,5023]},{"type":"Point","properties":{"Station_ID":"NH-CS-4","Station_Nam":"PITTSBURG 6.1 NE, NH","Latitude":"45.11060","Longitude":"-71.29760","Snowdepth":"21.000","Units":"in","Rept_Date":"2021-02-08 12"},"coordinates":[5927,6075]},{"type":"Point","properties":{"Station_ID":"NH-CR-26","Station_Nam":"CENTER SANDWICH 4.9 E, NH","Latitude":"43.80976","Longitude":"-71.34150","Snowdepth":"21.000","Units":"in","Rept_Date":"2021-02-08 12"},"coordinates":[5917,5304]},{"type":"Point","properties":{"Station_ID":"MRLV1","Station_Nam":"MARLBORO","Latitude":"42.86000","Longitude":"-72.72000","Snowdepth":"21.000","Units":"in","Rept_Date":"2021-02-08 13"},"coordinates":[5602,4740]},{"type":"Point","properties":{"Station_ID":"MI-BG-3","Station_Nam":"THREE LAKES, MI","Latitude":"46.55730","Longitude":"-88.20770","Snowdepth":"21.000","Units":"in","Rept_Date":"2021-02-08 13"},"coordinates":[2064,6933]},{"type":"Point","properties":{"Station_ID":"MA-HS-7","Station_Nam":"PLAINFIELD 2.2 SW, MA","Latitude":"42.49272","Longitude":"-72.94540","Snowdepth":"21.000","Units":"in","Rept_Date":"2021-02-08 13"},"coordinates":[5551,4523]},{"type":"Point","properties":{"Station_ID":"JCBM4","Station_Nam":"JACOBSVILLE","Latitude":"47.00830","Longitude":"-88.43180","Snowdepth":"21.000","Units":"in","Rept_Date":"2021-02-08 12"},"coordinates":[2013,7201]},{"type":"Point","properties":{"Station_ID":"ESDN3","Station_Nam":"EAST SANDWICH","Latitude":"43.80990","Longitude":"-71.34250","Snowdepth":"21.000","Units":"in","Rept_Date":"2021-02-08 11"},"coordinates":[5917,5304]},{"type":"Point","properties":{"Station_ID":"CAN-NB-11","Station_Nam":"MIRAMICHI 3.3 S, CAN","Latitude":"46.99343","Longitude":"-65.50690","Snowdepth":"21.000","Units":"in","Rept_Date":"2021-02-08 10"},"coordinates":[7250,7192]},{"type":"Point","properties":{"Station_ID":"VT-WS-23","Station_Nam":"CABOT 2.3 E, VT","Latitude":"44.39807","Longitude":"-72.26570","Snowdepth":"20.500","Units":"in","Rept_Date":"2021-02-08 12"},"coordinates":[5706,5653]},{"type":"Point","properties":{"Station_ID":"NE-SN-3","Station_Nam":"WESTON 0.2 ENE, NE","Latitude":"41.19322","Longitude":"-96.73740","Snowdepth":"20.500","Units":"in","Rept_Date":"2021-02-08 12"},"coordinates":[116,3752]},{"type":"Point","properties":{"Station_ID":"WI-VL-9","Station_Nam":"LAND O' LAKES 11.7 W, WI","Latitude":"46.19023","Longitude":"-89.45790","Snowdepth":"20.000","Units":"in","Rept_Date":"2021-02-08 13"},"coordinates":[1779,6715]},{"type":"Point","properties":{"Station_ID":"TOPN6","Station_Nam":"TUPPER LAKE SUNMOUNT","Latitude":"44.23070","Longitude":"-74.43820","Snowdepth":"20.000","Units":"in","Rept_Date":"2021-02-08 12"},"coordinates":[5210,5553]},{"type":"Point","properties":{"Station_ID":"SSMM4","Station_Nam":"SAULT STE MARIE","Latitude":"46.48660","Longitude":"-84.40250","Snowdepth":"20.000","Units":"in","Rept_Date":"2021-02-08 13"},"coordinates":[2934,6891]},{"type":"Point","properties":{"Station_ID":"PROP1","Station_Nam":"PROMPTON DAM","Latitude":"41.58900","Longitude":"-75.33030","Snowdepth":"20.000","Units":"in","Rept_Date":"2021-02-08 12"},"coordinates":[5006,3987]},{"type":"Point","properties":{"Station_ID":"PHON6","Station_Nam":"PHOENICIA 2SW","Latitude":"42.06420","Longitude":"-74.34080","Snowdepth":"20.000","Units":"in","Rept_Date":"2021-02-08 13"},"coordinates":[5232,4269]},{"type":"Point","properties":{"Station_ID":"NY-OS-38","Station_Nam":"MEXICO COOP, NY","Latitude":"43.43830","Longitude":"-76.26570","Snowdepth":"20.000","Units":"in","Rept_Date":"2021-02-08 12"},"coordinates":[4792,5083]},{"type":"Point","properties":{"Station_ID":"NJ-MS-98","Station_Nam":"HARDING TWP 2.4 W, NJ","Latitude":"40.74165","Longitude":"-74.54592","Snowdepth":"20.000","Units":"in","Rept_Date":"2021-02-08 12"},"coordinates":[5185,3484]},{"type":"Point","properties":{"Station_ID":"NJ-MS-19","Station_Nam":"LONG HILL TWP 1.8 WSW, NJ","Latitude":"40.67134","Longitude":"-74.51750","Snowdepth":"20.000","Units":"in","Rept_Date":"2021-02-08 14"},"coordinates":[5192,3442]},{"type":"Point","properties":{"Station_ID":"NJ-ES-31","Station_Nam":"MONTCLAIR 0.7 N, NJ","Latitude":"40.83534","Longitude":"-74.20896","Snowdepth":"20.000","Units":"in","Rept_Date":"2021-02-08 13"},"coordinates":[5262,3540]},{"type":"Point","properties":{"Station_ID":"MXON6","Station_Nam":"MEXICO","Latitude":"43.43830","Longitude":"-76.26560","Snowdepth":"20.000","Units":"in","Rept_Date":"2021-02-08 12"},"coordinates":[4792,5083]},{"type":"Point","properties":{"Station_ID":"MONW3","Station_Nam":"MONROE,WI","Latitude":"42.60000","Longitude":"-89.66670","Snowdepth":"20.000","Units":"in","Rept_Date":"2021-02-08 13"},"coordinates":[1731,4586]},{"type":"Point","properties":{"Station_ID":"MAYP1","Station_Nam":"MAHANOY CITY,PA","Latitude":"40.83330","Longitude":"-76.13330","Snowdepth":"20.000","Units":"in","Rept_Date":"2021-02-08 12"},"coordinates":[4823,3539]},{"type":"Point","properties":{"Station_ID":"MA-ES-10","Station_Nam":"ANDOVER 1.5 W, MA","Latitude":"42.64830","Longitude":"-71.17280","Snowdepth":"20.000","Units":"in","Rept_Date":"2021-02-08 12"},"coordinates":[5956,4615]},{"type":"Point","properties":{"Station_ID":"LNOW3","Station_Nam":"LAND O LAKES","Latitude":"46.19000","Longitude":"-89.45700","Snowdepth":"20.000","Units":"in","Rept_Date":"2021-02-08 13"},"coordinates":[1779,6715]},{"type":"Point","properties":{"Station_ID":"IWOM4","Station_Nam":"IRONWOOD#2","Latitude":"46.46520","Longitude":"-90.13820","Snowdepth":"20.000","Units":"in","Rept_Date":"2021-02-08 13"},"coordinates":[1623,6879]},{"type":"Point","properties":{"Station_ID":"HURW3","Station_Nam":"HURLEY","Latitude":"46.46250","Longitude":"-90.19550","Snowdepth":"20.000","Units":"in","Rept_Date":"2021-02-08 14"},"coordinates":[1610,6877]},{"type":"Point","properties":{"Station_ID":"FVLN6","Station_Nam":"FREEVILLE,NY","Latitude":"42.51670","Longitude":"-76.33330","Snowdepth":"20.000","Units":"in","Rept_Date":"2021-02-08 13"},"coordinates":[4777,4537]},{"type":"Point","properties":{"Station_ID":"FARM1","Station_Nam":"FARMINGTON","Latitude":"44.68930","Longitude":"-70.15640","Snowdepth":"20.000","Units":"in","Rept_Date":"2021-02-08 12"},"coordinates":[6188,5825]},{"type":"Point","properties":{"Station_ID":"CT-NH-72","Station_Nam":"NORTHFORD 0.8 SW, CT","Latitude":"41.38554","Longitude":"-72.80240","Snowdepth":"20.000","Units":"in","Rept_Date":"2021-02-08 12"},"coordinates":[5583,3866]},{"type":"Point","properties":{"Station_ID":"BKBW2","Station_Nam":"DAVIS.","Latitude":"39.09830","Longitude":"-79.43190","Snowdepth":"20.000","Units":"in","Rept_Date":"2021-02-08 12"},"coordinates":[4069,2510]},{"type":"Point","properties":{"Station_ID":"ANJM4","Station_Nam":"SNOW PAID OBSERVER FOR KANJ","Latitude":"46.48670","Longitude":"-84.40260","Snowdepth":"20.000","Units":"in","Rept_Date":"2021-02-08 18"},"coordinates":[2934,6891]},{"type":"Point","properties":{"Station_ID":"ANJ","Station_Nam":"SAULT STE MARIE","Latitude":"46.46670","Longitude":"-84.36670","Snowdepth":"20.000","Units":"in","Rept_Date":"2021-02-09 00"},"coordinates":[2942,6879]},{"type":"Point","properties":{"Station_ID":"MA-ES-48","Station_Nam":"ANDOVER 0.6 E, MA","Latitude":"42.65659","Longitude":"-71.13048","Snowdepth":"19.500","Units":"in","Rept_Date":"2021-02-08 10"},"coordinates":[5965,4620]},{"type":"Point","properties":{"Station_ID":"IL-DP-155","Station_Nam":"MEDINAH 1.0 SSW, IL","Latitude":"41.96360","Longitude":"-88.06590","Snowdepth":"19.500","Units":"in","Rept_Date":"2021-02-08 14"},"coordinates":[2097,4209]},{"type":"Point","properties":{"Station_ID":"CAN-QC-62","Station_Nam":"SAINT-LUC-DE-BELLECHASSE 2.2 SE, CAN","Latitude":"46.49532","Longitude":"-70.46313","Snowdepth":"19.500","Units":"in","Rept_Date":"2021-02-08 12"},"coordinates":[6118,6896]},{"type":"Point","properties":{"Station_ID":"CAN-PE-47","Station_Nam":"LONG CREEK 0.3 NNW, CAN","Latitude":"46.17420","Longitude":"-63.27320","Snowdepth":"19.300","Units":"in","Rept_Date":"2021-02-08 12"},"coordinates":[7760,6706]},{"type":"Point","properties":{"Station_ID":"WTNM4","Station_Nam":"WATTON 2WSW","Latitude":"46.52660","Longitude":"-88.64240","Snowdepth":"19.000","Units":"in","Rept_Date":"2021-02-08 13"},"coordinates":[1965,6915]},{"type":"Point","properties":{"Station_ID":"WI-BY-29","Station_Nam":"BAYFIELD 5.1 NNW, WI","Latitude":"46.88063","Longitude":"-90.85854","Snowdepth":"19.000","Units":"in","Rept_Date":"2021-02-08 14"},"coordinates":[1459,7125]},{"type":"Point","properties":{"Station_ID":"RKHN6","Station_Nam":"ROCK HILL 3 SW","Latitude":"41.59170","Longitude":"-74.61410","Snowdepth":"19.000","Units":"in","Rept_Date":"2021-02-08 13"},"coordinates":[5170,3988]},{"type":"Point","properties":{"Station_ID":"RGNM1","Station_Nam":"RANGELEY 2NW","Latitude":"44.98940","Longitude":"-70.67220","Snowdepth":"19.000","Units":"in","Rept_Date":"2021-02-08 11"},"coordinates":[6070,6003]},{"type":"Point","properties":{"Station_ID":"PRDM4","Station_Nam":"PARADISE","Latitude":"46.60380","Longitude":"-85.03960","Snowdepth":"19.000","Units":"in","Rept_Date":"2021-02-08 11"},"coordinates":[2788,6961]},{"type":"Point","properties":{"Station_ID":"PEKN6","Station_Nam":"PECK LAKE","Latitude":"43.11500","Longitude":"-74.42360","Snowdepth":"19.000","Units":"in","Rept_Date":"2021-02-08 12"},"coordinates":[5213,4892]},{"type":"Point","properties":{"Station_ID":"NY-MD-10","Station_Nam":"CAZENOVIA 2.9 SE, NY","Latitude":"42.90003","Longitude":"-75.81140","Snowdepth":"19.000","Units":"in","Rept_Date":"2021-02-08 12"},"coordinates":[4896,4764]},{"type":"Point","properties":{"Station_ID":"NY-ES-6","Station_Nam":"OLMSTEDVILLE 4.6 NNE, NY","Latitude":"43.83350","Longitude":"-73.89780","Snowdepth":"19.000","Units":"in","Rept_Date":"2021-02-08 13"},"coordinates":[5333,5318]},{"type":"Point","properties":{"Station_ID":"NY-ER-166","Station_Nam":"BOSTON 2.5 NE, NY","Latitude":"42.65480","Longitude":"-78.70300","Snowdepth":"19.000","Units":"in","Rept_Date":"2021-02-08 12"},"coordinates":[4236,4619]},{"type":"Point","properties":{"Station_ID":"NY-BM-21","Station_Nam":"WINDSOR 8.0 SE, NY","Latitude":"42.00992","Longitude":"-75.51420","Snowdepth":"19.000","Units":"in","Rept_Date":"2021-02-08 12"},"coordinates":[4964,4236]},{"type":"Point","properties":{"Station_ID":"NJ-SS-1","Station_Nam":"ANDOVER TWP 1.7 W, NJ","Latitude":"41.01974","Longitude":"-74.76110","Snowdepth":"19.000","Units":"in","Rept_Date":"2021-02-08 12"},"coordinates":[5136,3649]},{"type":"Point","properties":{"Station_ID":"NJ-MS-94","Station_Nam":"JEFFERSON TWP 4.4 SW, NJ","Latitude":"40.96404","Longitude":"-74.62162","Snowdepth":"19.000","Units":"in","Rept_Date":"2021-02-08 12"},"coordinates":[5168,3616]},{"type":"Point","properties":{"Station_ID":"NJ-MS-73","Station_Nam":"RANDOLPH TWP 2.2 SW, NJ","Latitude":"40.81729","Longitude":"-74.60490","Snowdepth":"19.000","Units":"in","Rept_Date":"2021-02-08 12"},"coordinates":[5172,3529]},{"type":"Point","properties":{"Station_ID":"NJ-MS-4","Station_Nam":"ROCKAWAY TWP 0.7 NE, NJ","Latitude":"40.96583","Longitude":"-74.48780","Snowdepth":"19.000","Units":"in","Rept_Date":"2021-02-08 13"},"coordinates":[5198,3617]},{"type":"Point","properties":{"Station_ID":"MQT","Station_Nam":"MARQUETTE, MI","Latitude":"46.53140","Longitude":"-87.54920","Snowdepth":"19.000","Units":"in","Rept_Date":"2021-02-09 06"},"coordinates":[2215,6918]},{"type":"Point","properties":{"Station_ID":"MIEM4","Station_Nam":"MICHIGAMME 3WNW","Latitude":"46.54530","Longitude":"-88.18000","Snowdepth":"19.000","Units":"in","Rept_Date":"2021-02-08 13"},"coordinates":[2071,6926]},{"type":"Point","properties":{"Station_ID":"MI-CX-7","Station_Nam":"EAST JORDAN 2.1 NNW, MI","Latitude":"45.18639","Longitude":"-85.14750","Snowdepth":"19.000","Units":"in","Rept_Date":"2021-02-08 13"},"coordinates":[2763,6120]},{"type":"Point","properties":{"Station_ID":"ME-WS-31","Station_Nam":"EASTPORT 1.4 ESE, ME","Latitude":"44.91044","Longitude":"-66.98572","Snowdepth":"19.000","Units":"in","Rept_Date":"2021-02-08 12"},"coordinates":[6912,5956]},{"type":"Point","properties":{"Station_ID":"ME-AR-18","Station_Nam":"NEW SWEDEN 4.9 NNW, ME","Latitude":"47.01080","Longitude":"-68.14390","Snowdepth":"19.000","Units":"in","Rept_Date":"2021-02-08 12"},"coordinates":[6648,7202]},{"type":"Point","properties":{"Station_ID":"MA-WR-56","Station_Nam":"STERLING 4.3 NW, MA","Latitude":"42.47540","Longitude":"-71.81140","Snowdepth":"19.000","Units":"in","Rept_Date":"2021-02-08 12"},"coordinates":[5810,4512]},{"type":"Point","properties":{"Station_ID":"LOWN6","Station_Nam":"LOWVILLE","Latitude":"43.79280","Longitude":"-75.48290","Snowdepth":"19.000","Units":"in","Rept_Date":"2021-02-08 12"},"coordinates":[4971,5294]},{"type":"Point","properties":{"Station_ID":"KGTB","Station_Nam":"FORT DRUM / WHEELER-SACK U. S. ARMY AIRFIELD","Latitude":"44.05000","Longitude":"-75.73333","Snowdepth":"19.000","Units":"in","Rept_Date":"2021-02-09 06"},"coordinates":[4914,5446]},{"type":"Point","properties":{"Station_ID":"JOHV1","Station_Nam":"JOHNSON 2 N","Latitude":"44.65790","Longitude":"-72.67850","Snowdepth":"19.000","Units":"in","Rept_Date":"2021-02-08 12"},"coordinates":[5612,5807]},{"type":"Point","properties":{"Station_ID":"IL-SP-27","Station_Nam":"DAVIS 2.7 N, IL","Latitude":"42.46110","Longitude":"-89.40890","Snowdepth":"19.000","Units":"in","Rept_Date":"2021-02-08 13"},"coordinates":[1790,4504]},{"type":"Point","properties":{"Station_ID":"EJNM4","Station_Nam":"EAST JORDAN 2NW","Latitude":"45.18630","Longitude":"-85.14770","Snowdepth":"19.000","Units":"in","Rept_Date":"2021-02-08 13"},"coordinates":[2763,6120]},{"type":"Point","properties":{"Station_ID":"CT-NH-75","Station_Nam":"MERIDEN 2.8 WSW, CT","Latitude":"41.52584","Longitude":"-72.84698","Snowdepth":"19.000","Units":"in","Rept_Date":"2021-02-08 12"},"coordinates":[5573,3949]},{"type":"Point","properties":{"Station_ID":"CAN-NB-13","Station_Nam":"BATHURST 3.8 NW, CAN","Latitude":"47.64212","Longitude":"-65.68756","Snowdepth":"19.000","Units":"in","Rept_Date":"2021-02-08 11"},"coordinates":[7209,7577]},{"type":"Point","properties":{"Station_ID":"AVLV1","Station_Nam":"AVERILL","Latitude":"45.00570","Longitude":"-71.69030","Snowdepth":"19.000","Units":"in","Rept_Date":"2021-02-08 13"},"coordinates":[5837,6013]},{"type":"Point","properties":{"Station_ID":"QCO","Station_Nam":"QCO","Latitude":"51.45280","Longitude":"-72.20110","Snowdepth":"18.976","Units":"in","Rept_Date":"2021-02-08 12"},"coordinates":[5721,9836]},{"type":"Point","properties":{"Station_ID":"CAN-ON-757","Station_Nam":"SAULT STE. MARIE 2.8 ESE - GLFC, CAN","Latitude":"46.50300","Longitude":"-84.30300","Snowdepth":"18.900","Units":"in","Rept_Date":"2021-02-08 13"},"coordinates":[2956,6901]},{"type":"Point","properties":{"Station_ID":"QFT","Station_Nam":"QFT","Latitude":"50.83280","Longitude":"-74.40390","Snowdepth":"18.819","Units":"in","Rept_Date":"2021-02-08 12"},"coordinates":[5218,9469]},{"type":"Point","properties":{"Station_ID":"CT-FR-67","Station_Nam":"TRUMBULL 1.2 S, CT","Latitude":"41.24103","Longitude":"-73.20499","Snowdepth":"18.800","Units":"in","Rept_Date":"2021-02-08 11"},"coordinates":[5491,3780]},{"type":"Point","properties":{"Station_ID":"VT-WS-10","Station_Nam":"NORTHFIELD 1.5 N, VT","Latitude":"44.16986","Longitude":"-72.65200","Snowdepth":"18.500","Units":"in","Rept_Date":"2021-02-08 12"},"coordinates":[5618,5517]},{"type":"Point","properties":{"Station_ID":"VT-CH-11","Station_Nam":"UNDERHILL 5.1 NNE, VT","Latitude":"44.59811","Longitude":"-72.91880","Snowdepth":"18.500","Units":"in","Rept_Date":"2021-02-08 13"},"coordinates":[5557,5771]},{"type":"Point","properties":{"Station_ID":"PA-BR-21","Station_Nam":"ALBURTIS 4.7 SW, PA","Latitude":"40.46515","Longitude":"-75.66820","Snowdepth":"18.500","Units":"in","Rept_Date":"2021-02-08 12"},"coordinates":[4929,3320]},{"type":"Point","properties":{"Station_ID":"NY-DL-28","Station_Nam":"FLEISCHMANNS 5.7 N, NY","Latitude":"42.23779","Longitude":"-74.52335","Snowdepth":"18.500","Units":"in","Rept_Date":"2021-02-08 12"},"coordinates":[5190,4371]},{"type":"Point","properties":{"Station_ID":"NJ-PS-14","Station_Nam":"HAWTHORNE 1.0 SSE, NJ","Latitude":"40.94364","Longitude":"-74.15230","Snowdepth":"18.500","Units":"in","Rept_Date":"2021-02-08 11"},"coordinates":[5275,3604]},{"type":"Point","properties":{"Station_ID":"NJ-MS-87","Station_Nam":"MOUNT ARLINGTON 0.8 S, NJ","Latitude":"40.90789","Longitude":"-74.64077","Snowdepth":"18.500","Units":"in","Rept_Date":"2021-02-08 12"},"coordinates":[5164,3583]},{"type":"Point","properties":{"Station_ID":"NJ-BG-23","Station_Nam":"OAKLAND 0.9 SSE, NJ","Latitude":"41.01905","Longitude":"-74.23340","Snowdepth":"18.500","Units":"in","Rept_Date":"2021-02-08 13"},"coordinates":[5257,3649]},{"type":"Point","properties":{"Station_ID":"MA-WR-88","Station_Nam":"LEICESTER 2.5 WSW, MA","Latitude":"42.23742","Longitude":"-71.94612","Snowdepth":"18.500","Units":"in","Rept_Date":"2021-02-08 12"},"coordinates":[5779,4371]},{"type":"Point","properties":{"Station_ID":"CAN-ON-5","Station_Nam":"OWEN SOUND 1.5 NW - GSCA, CAN","Latitude":"44.57837","Longitude":"-80.95461","Snowdepth":"18.500","Units":"in","Rept_Date":"2021-02-08 13"},"coordinates":[3721,5760]},{"type":"Point","properties":{"Station_ID":"CAN-ON-245","Station_Nam":"PHELPSTON 3.1 ESE, CAN","Latitude":"44.50564","Longitude":"-79.81035","Snowdepth":"18.500","Units":"in","Rept_Date":"2021-02-08 13"},"coordinates":[3983,5716]},{"type":"Point","properties":{"Station_ID":"SOCQ6","Station_Nam":"SOCKET LAKE","Latitude":"50.77870","Longitude":"-91.79300","Snowdepth":"18.430","Units":"in","Rept_Date":"2021-02-09 06"},"coordinates":[1245,9437]},{"type":"Point","properties":{"Station_ID":"OGIQ6","Station_Nam":"OGOKI CAMP","Latitude":"50.76680","Longitude":"-87.85820","Snowdepth":"18.390","Units":"in","Rept_Date":"2021-02-09 06"},"coordinates":[2144,9430]},{"type":"Point","properties":{"Station_ID":"NJ-SM-2","Station_Nam":"BERNARDS TWP 0.9 ENE, NJ","Latitude":"40.68306","Longitude":"-74.55240","Snowdepth":"18.300","Units":"in","Rept_Date":"2021-02-08 12"},"coordinates":[5184,3449]},{"type":"Point","properties":{"Station_ID":"CAN-QC-47","Station_Nam":"SAINTE-FOY 1.8 ENE, CAN","Latitude":"46.76934","Longitude":"-71.27124","Snowdepth":"18.100","Units":"in","Rept_Date":"2021-02-08 12"},"coordinates":[5933,7059]},{"type":"Point","properties":{"Station_ID":"QWE","Station_Nam":"QWE","Latitude":"47.84610","Longitude":"-73.80670","Snowdepth":"18.031","Units":"in","Rept_Date":"2021-02-08 12"},"coordinates":[5354,7697]},{"type":"Point","properties":{"Station_ID":"WORV1","Station_Nam":"WORCESTER 2 W","Latitude":"44.37470","Longitude":"-72.58220","Snowdepth":"18.000","Units":"in","Rept_Date":"2021-02-08 12"},"coordinates":[5634,5639]},{"type":"Point","properties":{"Station_ID":"WI-WB-2","Station_Nam":"STONE LAKE 2.0 NW, WI","Latitude":"45.85960","Longitude":"-91.57710","Snowdepth":"18.000","Units":"in","Rept_Date":"2021-02-08 13"},"coordinates":[1295,6519]},{"type":"Point","properties":{"Station_ID":"WI-IR-3","Station_Nam":"PENCE 0.1 E, WI","Latitude":"46.41555","Longitude":"-90.27013","Snowdepth":"18.000","Units":"in","Rept_Date":"2021-02-08 13"},"coordinates":[1593,6849]},{"type":"Point","properties":{"Station_ID":"VT-WS-5","Station_Nam":"BERLIN 4.3 WNW, VT","Latitude":"44.23360","Longitude":"-72.65610","Snowdepth":"18.000","Units":"in","Rept_Date":"2021-02-08 12"},"coordinates":[5617,5555]},{"type":"Point","properties":{"Station_ID":"VT-CH-13","Station_Nam":"RICHMOND 3.4 SSE, VT","Latitude":"44.36084","Longitude":"-72.96400","Snowdepth":"18.000","Units":"in","Rept_Date":"2021-02-08 12"},"coordinates":[5547,5631]},{"type":"Point","properties":{"Station_ID":"VT-BN-7","Station_Nam":"MANCHESTER 2.8 ENE, VT","Latitude":"43.17274","Longitude":"-73.01811","Snowdepth":"18.000","Units":"in","Rept_Date":"2021-02-08 12"},"coordinates":[5534,4926]},{"type":"Point","properties":{"Station_ID":"VT-AD-20","Station_Nam":"HANCOCK 0.3 S, VT","Latitude":"43.92166","Longitude":"-72.84042","Snowdepth":"18.000","Units":"in","Rept_Date":"2021-02-08 12"},"coordinates":[5575,5370]},{"type":"Point","properties":{"Station_ID":"STOI2","Station_Nam":"STOCKTON 3 NNE","Latitude":"42.40050","Longitude":"-89.99580","Snowdepth":"18.000","Units":"in","Rept_Date":"2021-02-09 03"},"coordinates":[1656,4468]},{"type":"Point","properties":{"Station_ID":"SNYI4","Station_Nam":"STANLEY","Latitude":"42.63330","Longitude":"-91.86320","Snowdepth":"18.000","Units":"in","Rept_Date":"2021-02-08 13"},"coordinates":[1229,4606]},{"type":"Point","properties":{"Station_ID":"SNOW2","Station_Nam":"SNOWSHOE","Latitude":"38.39900","Longitude":"-79.99490","Snowdepth":"18.000","Units":"in","Rept_Date":"2021-02-08 11"},"coordinates":[3940,2095]},{"type":"Point","properties":{"Station_ID":"RI-PR-50","Station_Nam":"HARRISVILLE 1.2 SSE, RI","Latitude":"41.95128","Longitude":"-71.67171","Snowdepth":"18.000","Units":"in","Rept_Date":"2021-02-08 12"},"coordinates":[5842,4202]},{"type":"Point","properties":{"Station_ID":"RANM1","Station_Nam":"RANGELEY","Latitude":"44.98910","Longitude":"-70.67190","Snowdepth":"18.000","Units":"in","Rept_Date":"2021-02-08 11"},"coordinates":[6070,6003]},{"type":"Point","properties":{"Station_ID":"PA-PK-22","Station_Nam":"MILFORD 8.7 NW, PA","Latitude":"41.42018","Longitude":"-74.90953","Snowdepth":"18.000","Units":"in","Rept_Date":"2021-02-08 12"},"coordinates":[5102,3887]},{"type":"Point","properties":{"Station_ID":"PA-MN-16","Station_Nam":"MOUNT POCONO 0.7 N, PA","Latitude":"41.13190","Longitude":"-75.35804","Snowdepth":"18.000","Units":"in","Rept_Date":"2021-02-08 12"},"coordinates":[5000,3716]},{"type":"Point","properties":{"Station_ID":"NY-TM-45","Station_Nam":"NEWFIELD HAMLET 4.3 S, NY","Latitude":"42.29650","Longitude":"-76.60676","Snowdepth":"18.000","Units":"in","Rept_Date":"2021-02-08 14"},"coordinates":[4714,4406]},{"type":"Point","properties":{"Station_ID":"NY-ER-65","Station_Nam":"BOSTON 1.5 NE, NY","Latitude":"42.65470","Longitude":"-78.72010","Snowdepth":"18.000","Units":"in","Rept_Date":"2021-02-08 12"},"coordinates":[4232,4619]},{"type":"Point","properties":{"Station_ID":"NY-ER-56","Station_Nam":"COLDEN 1.4 NNW, NY","Latitude":"42.64740","Longitude":"-78.71120","Snowdepth":"18.000","Units":"in","Rept_Date":"2021-02-08 12"},"coordinates":[4234,4614]},{"type":"Point","properties":{"Station_ID":"NVLV1","Station_Nam":"NASHVILLE","Latitude":"44.44970","Longitude":"-72.92640","Snowdepth":"18.000","Units":"in","Rept_Date":"2021-02-08 12"},"coordinates":[5555,5683]},{"type":"Point","properties":{"Station_ID":"NJ-UN-10","Station_Nam":"NEW PROVIDENCE 0.8 ESE, NJ","Latitude":"40.69450","Longitude":"-74.38980","Snowdepth":"18.000","Units":"in","Rept_Date":"2021-02-08 12"},"coordinates":[5221,3456]},{"type":"Point","properties":{"Station_ID":"NJ-SM-86","Station_Nam":"BRIDGEWATER TWP 3.1 SW, NJ","Latitude":"40.56607","Longitude":"-74.65406","Snowdepth":"18.000","Units":"in","Rept_Date":"2021-02-08 13"},"coordinates":[5160,3380]},{"type":"Point","properties":{"Station_ID":"NJ-SM-82","Station_Nam":"WARREN TWP 1.3 W, NJ","Latitude":"40.63473","Longitude":"-74.53892","Snowdepth":"18.000","Units":"in","Rept_Date":"2021-02-08 13"},"coordinates":[5187,3421]},{"type":"Point","properties":{"Station_ID":"NJ-MS-61","Station_Nam":"WASHINGTON TWP 3.6 W, NJ","Latitude":"40.78532","Longitude":"-74.86120","Snowdepth":"18.000","Units":"in","Rept_Date":"2021-02-08 12"},"coordinates":[5113,3510]},{"type":"Point","properties":{"Station_ID":"NJ-MS-6","Station_Nam":"ROCKAWAY 0.4 NNW, NJ","Latitude":"40.90184","Longitude":"-74.51890","Snowdepth":"18.000","Units":"in","Rept_Date":"2021-02-08 13"},"coordinates":[5191,3579]},{"type":"Point","properties":{"Station_ID":"NJ-HN-2","Station_Nam":"STOCKTON 4.4 NW, NJ","Latitude":"40.45471","Longitude":"-75.03180","Snowdepth":"18.000","Units":"in","Rept_Date":"2021-02-08 12"},"coordinates":[5074,3314]},{"type":"Point","properties":{"Station_ID":"NJ-BG-56","Station_Nam":"FAIR LAWN 1.2 SE, NJ","Latitude":"40.92170","Longitude":"-74.10440","Snowdepth":"18.000","Units":"in","Rept_Date":"2021-02-08 12"},"coordinates":[5286,3591]},{"type":"Point","properties":{"Station_ID":"NHPI4","Station_Nam":"NEW HAMPTON","Latitude":"43.05750","Longitude":"-92.31220","Snowdepth":"18.000","Units":"in","Rept_Date":"2021-02-08 13"},"coordinates":[1127,4858]},{"type":"Point","properties":{"Station_ID":"NH-CH-20","Station_Nam":"RINDGE 3.2 ESE, NH","Latitude":"42.73100","Longitude":"-71.95200","Snowdepth":"18.000","Units":"in","Rept_Date":"2021-02-08 12"},"coordinates":[5778,4664]},{"type":"Point","properties":{"Station_ID":"MN-IS-18","Station_Nam":"BRAHAM 0.7 SW, MN","Latitude":"45.71379","Longitude":"-93.18095","Snowdepth":"18.000","Units":"in","Rept_Date":"2021-02-08 14"},"coordinates":[928,6433]},{"type":"Point","properties":{"Station_ID":"ME-OX-34","Station_Nam":"ANDOVER 3.8 W, ME","Latitude":"44.64156","Longitude":"-70.82782","Snowdepth":"18.000","Units":"in","Rept_Date":"2021-02-08 12"},"coordinates":[6034,5797]},{"type":"Point","properties":{"Station_ID":"ME-AR-15","Station_Nam":"PRESQUE ISLE 1.3 WSW, ME","Latitude":"46.67960","Longitude":"-68.01270","Snowdepth":"18.000","Units":"in","Rept_Date":"2021-02-08 12"},"coordinates":[6678,7006]},{"type":"Point","properties":{"Station_ID":"IL-JD-8","Station_Nam":"STOCKTON 3.4 NNE, IL","Latitude":"42.39960","Longitude":"-89.99020","Snowdepth":"18.000","Units":"in","Rept_Date":"2021-02-08 13"},"coordinates":[1657,4467]},{"type":"Point","properties":{"Station_ID":"CT-NH-68","Station_Nam":"CHESHIRE 1.5 ENE, CT","Latitude":"41.51842","Longitude":"-72.88412","Snowdepth":"18.000","Units":"in","Rept_Date":"2021-02-08 12"},"coordinates":[5565,3945]},{"type":"Point","properties":{"Station_ID":"CT-NH-43","Station_Nam":"WALLINGFORD CENTER 3.3 NNW, CT","Latitude":"41.49109","Longitude":"-72.85065","Snowdepth":"18.000","Units":"in","Rept_Date":"2021-02-08 12"},"coordinates":[5572,3929]},{"type":"Point","properties":{"Station_ID":"CODN6","Station_Nam":"COLDEN","Latitude":"42.64720","Longitude":"-78.71110","Snowdepth":"18.000","Units":"in","Rept_Date":"2021-02-08 12"},"coordinates":[4234,4614]},{"type":"Point","properties":{"Station_ID":"CLQM5","Station_Nam":"CLOQUET","Latitude":"46.70470","Longitude":"-92.52530","Snowdepth":"18.000","Units":"in","Rept_Date":"2021-02-08 14"},"coordinates":[1078,7021]},{"type":"Point","properties":{"Station_ID":"CLKM4","Station_Nam":"CLARKSBURG","Latitude":"46.49910","Longitude":"-87.84500","Snowdepth":"18.000","Units":"in","Rept_Date":"2021-02-08 12"},"coordinates":[2147,6899]},{"type":"Point","properties":{"Station_ID":"CAN-QC-37","Station_Nam":"LAVAL 3.8 SSW, CAN","Latitude":"45.55358","Longitude":"-73.76976","Snowdepth":"18.000","Units":"in","Rept_Date":"2021-02-08 13"},"coordinates":[5362,6338]},{"type":"Point","properties":{"Station_ID":"CAN-NB-18","Station_Nam":"MCLEOD HILL 1.1 ENE, CA","Latitude":"46.02725","Longitude":"-66.67460","Snowdepth":"18.000","Units":"in","Rept_Date":"2021-02-08 12"},"coordinates":[6983,6619]},{"type":"Point","properties":{"Station_ID":"BBEM4","Station_Nam":"BIG BAY 9SW","Latitude":"46.74620","Longitude":"-87.88160","Snowdepth":"18.000","Units":"in","Rept_Date":"2021-02-08 13"},"coordinates":[2139,7045]},{"type":"Point","properties":{"Station_ID":"KABQ6","Station_Nam":"CAB LAKE","Latitude":"49.59950","Longitude":"-89.17990","Snowdepth":"17.830","Units":"in","Rept_Date":"2021-02-09 06"},"coordinates":[1842,8737]},{"type":"Point","properties":{"Station_ID":"CAN-NB-111","Station_Nam":"EDMUNDSTON 1.4 NE - SAJESS, CAN","Latitude":"47.37312","Longitude":"-68.32311","Snowdepth":"17.800","Units":"in","Rept_Date":"2021-02-08 12"},"coordinates":[6607,7417]},{"type":"Point","properties":{"Station_ID":"WI-IR-2","Station_Nam":"MERCER 2.0 SE, WI","Latitude":"46.14749","Longitude":"-90.03097","Snowdepth":"17.500","Units":"in","Rept_Date":"2021-02-08 13"},"coordinates":[1648,6690]},{"type":"Point","properties":{"Station_ID":"WI-BY-14","Station_Nam":"ASHLAND 9.8 W, WI","Latitude":"46.59742","Longitude":"-91.07856","Snowdepth":"17.500","Units":"in","Rept_Date":"2021-02-08 12"},"coordinates":[1409,6957]},{"type":"Point","properties":{"Station_ID":"VT-OL-9","Station_Nam":"GREENSBORO 2.1 NNW, VT","Latitude":"44.60528","Longitude":"-72.30940","Snowdepth":"17.500","Units":"in","Rept_Date":"2021-02-08 12"},"coordinates":[5696,5776]},{"type":"Point","properties":{"Station_ID":"VT-CH-7","Station_Nam":"HUNTINGTON 1.1 E, VT","Latitude":"44.32488","Longitude":"-72.96570","Snowdepth":"17.500","Units":"in","Rept_Date":"2021-02-08 12"},"coordinates":[5546,5609]},{"type":"Point","properties":{"Station_ID":"NY-OT-29","Station_Nam":"NEW BERLIN 1.5 NE, NY","Latitude":"42.63689","Longitude":"-75.31090","Snowdepth":"17.500","Units":"in","Rept_Date":"2021-02-08 13"},"coordinates":[5010,4608]},{"type":"Point","properties":{"Station_ID":"NY-ES-7","Station_Nam":"KEESEVILLE 0.8 SE, NY","Latitude":"44.49504","Longitude":"-73.47109","Snowdepth":"17.500","Units":"in","Rept_Date":"2021-02-08 12"},"coordinates":[5431,5710]},{"type":"Point","properties":{"Station_ID":"NY-CN-2","Station_Nam":"NORWICH 5.7 NE, NY","Latitude":"42.58333","Longitude":"-75.43330","Snowdepth":"17.500","Units":"in","Rept_Date":"2021-02-08 13"},"coordinates":[4982,4576]},{"type":"Point","properties":{"Station_ID":"NJ-WR-1","Station_Nam":"GREENWICH TWP 1.6 S, NJ","Latitude":"40.65545","Longitude":"-75.11670","Snowdepth":"17.500","Units":"in","Rept_Date":"2021-02-08 12"},"coordinates":[5055,3433]},{"type":"Point","properties":{"Station_ID":"NJ-SS-7","Station_Nam":"HARDYSTON TWP 3.2 SE, NJ","Latitude":"41.08903","Longitude":"-74.53990","Snowdepth":"17.500","Units":"in","Rept_Date":"2021-02-08 13"},"coordinates":[5187,3690]},{"type":"Point","properties":{"Station_ID":"NJ-SM-4","Station_Nam":"BERNARDS TWP 0.6 NNW, NJ","Latitude":"40.68340","Longitude":"-74.57310","Snowdepth":"17.500","Units":"in","Rept_Date":"2021-02-08 11"},"coordinates":[5179,3450]},{"type":"Point","properties":{"Station_ID":"NH-CR-41","Station_Nam":"ALBANY 2.8 SW, NH","Latitude":"43.92648","Longitude":"-71.21556","Snowdepth":"17.500","Units":"in","Rept_Date":"2021-02-08 13"},"coordinates":[5946,5373]},{"type":"Point","properties":{"Station_ID":"MI-OW-2","Station_Nam":"HOLLAND 3.9 NNE, MI","Latitude":"42.82296","Longitude":"-86.06780","Snowdepth":"17.500","Units":"in","Rept_Date":"2021-02-08 11"},"coordinates":[2553,4719]},{"type":"Point","properties":{"Station_ID":"MI-CP-14","Station_Nam":"SAULT STE. MARIE 2.2 E, MI","Latitude":"46.48933","Longitude":"-84.31971","Snowdepth":"17.500","Units":"in","Rept_Date":"2021-02-08 12"},"coordinates":[2953,6893]},{"type":"Point","properties":{"Station_ID":"ME-FR-22","Station_Nam":"FARMINGTON 4.8 NNW, ME","Latitude":"44.73396","Longitude":"-70.18007","Snowdepth":"17.500","Units":"in","Rept_Date":"2021-02-08 14"},"coordinates":[6182,5852]},{"type":"Point","properties":{"Station_ID":"CAN-NS-83","Station_Nam":"CENTRELEA 1.2 NNW, CAN","Latitude":"44.83073","Longitude":"-65.32664","Snowdepth":"17.500","Units":"in","Rept_Date":"2021-02-08 12"},"coordinates":[7291,5909]},{"type":"Point","properties":{"Station_ID":"CAN-NS-103","Station_Nam":"TRAFALGAR 4.9 WSW, CAN","Latitude":"45.26217","Longitude":"-62.72285","Snowdepth":"17.500","Units":"in","Rept_Date":"2021-02-08 11"},"coordinates":[7886,6165]},{"type":"Point","properties":{"Station_ID":"SVBQ6","Station_Nam":"SAVANT BASE","Latitude":"50.28730","Longitude":"-90.65670","Snowdepth":"17.320","Units":"in","Rept_Date":"2021-02-09 06"},"coordinates":[1505,9145]},{"type":"Point","properties":{"Station_ID":"CAN-QC-51","Station_Nam":"BELOEIL 0.7 NW, CAN","Latitude":"45.58049","Longitude":"-73.21218","Snowdepth":"17.300","Units":"in","Rept_Date":"2021-02-08 12"},"coordinates":[5490,6354]},{"type":"Point","properties":{"Station_ID":"QOU","Station_Nam":"QOU","Latitude":"50.79250","Longitude":"-69.67470","Snowdepth":"17.205","Units":"in","Rept_Date":"2021-02-08 12"},"coordinates":[6298,9445]},{"type":"Point","properties":{"Station_ID":"WI-LN-7","Station_Nam":"TOMAHAWK 1.2 SSW, WI","Latitude":"45.45760","Longitude":"-89.73248","Snowdepth":"17.200","Units":"in","Rept_Date":"2021-02-08 13"},"coordinates":[1716,6281]},{"type":"Point","properties":{"Station_ID":"IL-CK-193","Station_Nam":"WINNETKA 0.8 ESE, IL","Latitude":"42.10164","Longitude":"-87.72900","Snowdepth":"17.100","Units":"in","Rept_Date":"2021-02-08 14"},"coordinates":[2174,4291]},{"type":"Point","properties":{"Station_ID":"WTRM4","Station_Nam":"WATERSMEET 12WSW","Latitude":"46.22310","Longitude":"-89.40850","Snowdepth":"17.000","Units":"in","Rept_Date":"2021-02-08 12"},"coordinates":[1790,6735]},{"type":"Point","properties":{"Station_ID":"WSFW3","Station_Nam":"TOWN OF WESTFORD","Latitude":"43.47190","Longitude":"-88.88250","Snowdepth":"17.000","Units":"in","Rept_Date":"2021-02-08 13"},"coordinates":[1910,5103]},{"type":"Point","properties":{"Station_ID":"WRSN6","Station_Nam":"WARSAW 6SW","Latitude":"42.68550","Longitude":"-78.22020","Snowdepth":"17.000","Units":"in","Rept_Date":"2021-02-08 12"},"coordinates":[4346,4637]},{"type":"Point","properties":{"Station_ID":"WI-PC-25","Station_Nam":"ELLSWORTH 2.6 SW, WI","Latitude":"44.71119","Longitude":"-92.51849","Snowdepth":"17.000","Units":"in","Rept_Date":"2021-02-08 13"},"coordinates":[1080,5838]},{"type":"Point","properties":{"Station_ID":"WI-ON-4","Station_Nam":"RHINELANDER 0.6 SSW, WI","Latitude":"45.63141","Longitude":"-89.41470","Snowdepth":"17.000","Units":"in","Rept_Date":"2021-02-08 13"},"coordinates":[1789,6384]},{"type":"Point","properties":{"Station_ID":"WI-IW-3","Station_Nam":"MINERAL POINT 7.3 ENE, WI","Latitude":"42.91400","Longitude":"-90.05700","Snowdepth":"17.000","Units":"in","Rept_Date":"2021-02-08 13"},"coordinates":[1642,4773]},{"type":"Point","properties":{"Station_ID":"WI-DD-16","Station_Nam":"BEAVER DAM 2.4 WNW, WI","Latitude":"43.47210","Longitude":"-88.88280","Snowdepth":"17.000","Units":"in","Rept_Date":"2021-02-08 13"},"coordinates":[1910,5103]},{"type":"Point","properties":{"Station_ID":"WELM4","Station_Nam":"WELLSTON TIPPY DAM","Latitude":"44.25860","Longitude":"-85.93940","Snowdepth":"17.000","Units":"in","Rept_Date":"2021-02-08 13"},"coordinates":[2583,5570]},{"type":"Point","properties":{"Station_ID":"VT-FR-21","Station_Nam":"FAIRFAX 4.9 WNW, VT","Latitude":"44.68880","Longitude":"-73.10340","Snowdepth":"17.000","Units":"in","Rept_Date":"2021-02-08 14"},"coordinates":[5515,5825]},{"type":"Point","properties":{"Station_ID":"VT-ES-3","Station_Nam":"LUNENBURG 2.3 NNW, VT","Latitude":"44.49324","Longitude":"-71.70446","Snowdepth":"17.000","Units":"in","Rept_Date":"2021-02-08 11"},"coordinates":[5834,5709]},{"type":"Point","properties":{"Station_ID":"SUTV1","Station_Nam":"SUTTON","Latitude":"44.61220","Longitude":"-72.04810","Snowdepth":"17.000","Units":"in","Rept_Date":"2021-02-08 13"},"coordinates":[5756,5780]},{"type":"Point","properties":{"Station_ID":"SUAW3","Station_Nam":"SUAMICO","Latitude":"44.60190","Longitude":"-88.09780","Snowdepth":"17.000","Units":"in","Rept_Date":"2021-02-08 12"},"coordinates":[2090,5774]},{"type":"Point","properties":{"Station_ID":"STMM4","Station_Nam":"STAMBAUGH 2SSE","Latitude":"46.05550","Longitude":"-88.62780","Snowdepth":"17.000","Units":"in","Rept_Date":"2021-02-08 13"},"coordinates":[1968,6636]},{"type":"Point","properties":{"Station_ID":"SPTI4","Station_Nam":"STRAWBERRY POINT","Latitude":"42.68530","Longitude":"-91.53300","Snowdepth":"17.000","Units":"in","Rept_Date":"2021-02-08 13"},"coordinates":[1305,4637]},{"type":"Point","properties":{"Station_ID":"SLNV1","Station_Nam":"SOUTH LINCOLN","Latitude":"44.07460","Longitude":"-72.97180","Snowdepth":"17.000","Units":"in","Rept_Date":"2021-02-08 12"},"coordinates":[5545,5461]},{"type":"Point","properties":{"Station_ID":"RLKW3","Station_Nam":"REST LAKE","Latitude":"46.12220","Longitude":"-89.87720","Snowdepth":"17.000","Units":"in","Rept_Date":"2021-02-08 14"},"coordinates":[1683,6675]},{"type":"Point","properties":{"Station_ID":"PDGM4","Station_Nam":"PAULDING","Latitude":"46.39760","Longitude":"-89.17940","Snowdepth":"17.000","Units":"in","Rept_Date":"2021-02-08 12"},"coordinates":[1842,6838]},{"type":"Point","properties":{"Station_ID":"PA-CB-33","Station_Nam":"LAKE HARMONY 2.4 WNW, PA","Latitude":"41.07333","Longitude":"-75.63317","Snowdepth":"17.000","Units":"in","Rept_Date":"2021-02-08 12"},"coordinates":[4937,3681]},{"type":"Point","properties":{"Station_ID":"NY-TM-42","Station_Nam":"ITHACA 6.4 E, NY","Latitude":"42.43350","Longitude":"-76.37860","Snowdepth":"17.000","Units":"in","Rept_Date":"2021-02-08 12"},"coordinates":[4767,4488]},{"type":"Point","properties":{"Station_ID":"NY-OR-21","Station_Nam":"PORT JERVIS 2.9 ESE, NY","Latitude":"41.35990","Longitude":"-74.64090","Snowdepth":"17.000","Units":"in","Rept_Date":"2021-02-08 11"},"coordinates":[5163,3851]},{"type":"Point","properties":{"Station_ID":"NY-CR-1","Station_Nam":"FREETOWN 1.0 NE, NY","Latitude":"42.53299","Longitude":"-76.02111","Snowdepth":"17.000","Units":"in","Rept_Date":"2021-02-08 12"},"coordinates":[4848,4547]},{"type":"Point","properties":{"Station_ID":"NJ-UN-37","Station_Nam":"ELIZABETH 2.3 W, NJ","Latitude":"40.66234","Longitude":"-74.23562","Snowdepth":"17.000","Units":"in","Rept_Date":"2021-02-08 12"},"coordinates":[5256,3437]},{"type":"Point","properties":{"Station_ID":"NJ-SS-60","Station_Nam":"VERNON TWP 2.7 SSE, NJ","Latitude":"41.16332","Longitude":"-74.45938","Snowdepth":"17.000","Units":"in","Rept_Date":"2021-02-08 11"},"coordinates":[5205,3734]},{"type":"Point","properties":{"Station_ID":"NJ-SM-26","Station_Nam":"FRANKLIN TWP 3.1 NE, NJ","Latitude":"40.51233","Longitude":"-74.51740","Snowdepth":"17.000","Units":"in","Rept_Date":"2021-02-08 11"},"coordinates":[5192,3348]},{"type":"Point","properties":{"Station_ID":"NJ-PS-12","Station_Nam":"LITTLE FALLS TWP 0.5 WNW, NJ","Latitude":"40.87963","Longitude":"-74.22700","Snowdepth":"17.000","Units":"in","Rept_Date":"2021-02-08 12"},"coordinates":[5258,3566]},{"type":"Point","properties":{"Station_ID":"NJ-MS-71","Station_Nam":"DENVILLE TWP 1.5 ESE, NJ","Latitude":"40.88053","Longitude":"-74.46310","Snowdepth":"17.000","Units":"in","Rept_Date":"2021-02-08 12"},"coordinates":[5204,3567]},{"type":"Point","properties":{"Station_ID":"NJ-MS-42","Station_Nam":"RANDOLPH TWP 2.0 E, NJ","Latitude":"40.83980","Longitude":"-74.54320","Snowdepth":"17.000","Units":"in","Rept_Date":"2021-02-08 13"},"coordinates":[5186,3542]},{"type":"Point","properties":{"Station_ID":"NJ-MS-108","Station_Nam":"MONTVILLE TWP 0.4 E, NJ","Latitude":"40.91267","Longitude":"-74.35163","Snowdepth":"17.000","Units":"in","Rept_Date":"2021-02-08 13"},"coordinates":[5230,3586]},{"type":"Point","properties":{"Station_ID":"NJ-MS-105","Station_Nam":"MORRISTOWN 0.7 WNW, NJ","Latitude":"40.80150","Longitude":"-74.48795","Snowdepth":"17.000","Units":"in","Rept_Date":"2021-02-08 12"},"coordinates":[5198,3520]},{"type":"Point","properties":{"Station_ID":"NFKC3","Station_Nam":"NORFOLK","Latitude":"41.97250","Longitude":"-73.22080","Snowdepth":"17.000","Units":"in","Rept_Date":"2021-02-08 13"},"coordinates":[5488,4214]},{"type":"Point","properties":{"Station_ID":"MI-GG-4","Station_Nam":"WATERSMEET 5.0 SE, MI","Latitude":"46.20333","Longitude":"-89.13170","Snowdepth":"17.000","Units":"in","Rept_Date":"2021-02-08 14"},"coordinates":[1853,6723]},{"type":"Point","properties":{"Station_ID":"MI-EM-8","Station_Nam":"PETOSKEY 1.7 SSW, MI","Latitude":"45.34209","Longitude":"-84.96530","Snowdepth":"17.000","Units":"in","Rept_Date":"2021-02-08 11"},"coordinates":[2805,6212]},{"type":"Point","properties":{"Station_ID":"MHRI4","Station_Nam":"MANCHESTER #2","Latitude":"42.47320","Longitude":"-91.45160","Snowdepth":"17.000","Units":"in","Rept_Date":"2021-02-08 13"},"coordinates":[1323,4511]},{"type":"Point","properties":{"Station_ID":"ME-FR-4","Station_Nam":"NEW SHARON 2.0 NW, ME","Latitude":"44.66582","Longitude":"-70.02720","Snowdepth":"17.000","Units":"in","Rept_Date":"2021-02-08 12"},"coordinates":[6217,5811]},{"type":"Point","properties":{"Station_ID":"MAPM4","Station_Nam":"MAPLE CITY 1E","Latitude":"44.85500","Longitude":"-85.83520","Snowdepth":"17.000","Units":"in","Rept_Date":"2021-02-08 23"},"coordinates":[2606,5924]},{"type":"Point","properties":{"Station_ID":"MA-MD-89","Station_Nam":"SUDBURY 3.6 W, MA","Latitude":"42.36394","Longitude":"-71.47012","Snowdepth":"17.000","Units":"in","Rept_Date":"2021-02-08 12"},"coordinates":[5888,4446]},{"type":"Point","properties":{"Station_ID":"MA-MD-125","Station_Nam":"TEWKSBURY 3.6 SSE, MA","Latitude":"42.57083","Longitude":"-71.19813","Snowdepth":"17.000","Units":"in","Rept_Date":"2021-02-08 12"},"coordinates":[5950,4569]},{"type":"Point","properties":{"Station_ID":"KINM1","Station_Nam":"KINGFIELD","Latitude":"44.95950","Longitude":"-70.17530","Snowdepth":"17.000","Units":"in","Rept_Date":"2021-02-08 11"},"coordinates":[6184,5986]},{"type":"Point","properties":{"Station_ID":"KABM5","Station_Nam":"KABETOGAMA LAKE VISITOR CTR","Latitude":"48.40880","Longitude":"-93.04840","Snowdepth":"17.000","Units":"in","Rept_Date":"2021-02-08 13"},"coordinates":[959,8031]},{"type":"Point","properties":{"Station_ID":"IRMM4","Station_Nam":"WWTP","Latitude":"46.46670","Longitude":"-90.18330","Snowdepth":"17.000","Units":"in","Rept_Date":"2021-02-08 13"},"coordinates":[1613,6879]},{"type":"Point","properties":{"Station_ID":"INDN6","Station_Nam":"INDIAN LAKE","Latitude":"43.75500","Longitude":"-74.27560","Snowdepth":"17.000","Units":"in","Rept_Date":"2021-02-08 13"},"coordinates":[5247,5271]},{"type":"Point","properties":{"Station_ID":"HVJP1","Station_Nam":"HIDDEN VALLEY COOP","Latitude":"40.04200","Longitude":"-79.25660","Snowdepth":"17.000","Units":"in","Rept_Date":"2021-02-08 13"},"coordinates":[4109,3069]},{"type":"Point","properties":{"Station_ID":"HUBN3","Station_Nam":"HUBBARD BROOK","Latitude":"43.93330","Longitude":"-71.71670","Snowdepth":"17.000","Units":"in","Rept_Date":"2021-02-09 06"},"coordinates":[5831,5377]},{"type":"Point","properties":{"Station_ID":"HGHN4","Station_Nam":"HIGHLAND LAKES 1SW","Latitude":"41.16330","Longitude":"-74.45930","Snowdepth":"17.000","Units":"in","Rept_Date":"2021-02-08 11"},"coordinates":[5205,3734]},{"type":"Point","properties":{"Station_ID":"GOVN6","Station_Nam":"GOUVERNEUR 3 NW","Latitude":"44.35400","Longitude":"-75.51230","Snowdepth":"17.000","Units":"in","Rept_Date":"2021-02-08 12"},"coordinates":[4964,5627]},{"type":"Point","properties":{"Station_ID":"GERW3","Station_Nam":"GERMANTOWN,WI","Latitude":"43.21670","Longitude":"-88.11670","Snowdepth":"17.000","Units":"in","Rept_Date":"2021-02-08 13"},"coordinates":[2085,4952]},{"type":"Point","properties":{"Station_ID":"EVRW3","Station_Nam":"EAGLE RIVER-4 E","Latitude":"45.91890","Longitude":"-89.15280","Snowdepth":"17.000","Units":"in","Rept_Date":"2021-02-08 13"},"coordinates":[1849,6555]},{"type":"Point","properties":{"Station_ID":"DLDI4","Station_Nam":"MISSISSIPPI RIVER","Latitude":"42.51670","Longitude":"-90.65000","Snowdepth":"17.000","Units":"in","Rept_Date":"2021-02-08 12"},"coordinates":[1507,4537]},{"type":"Point","properties":{"Station_ID":"CLUI4","Station_Nam":"CLUTIER,IA","Latitude":"42.08330","Longitude":"-92.40000","Snowdepth":"17.000","Units":"in","Rept_Date":"2021-02-08 13"},"coordinates":[1107,4280]},{"type":"Point","properties":{"Station_ID":"CLNI4","Station_Nam":"CLINTON NO 1","Latitude":"41.79470","Longitude":"-90.26390","Snowdepth":"17.000","Units":"in","Rept_Date":"2021-02-09 00"},"coordinates":[1595,4109]},{"type":"Point","properties":{"Station_ID":"CAN-NB-64","Station_Nam":"KESWICK RIDGE 4.0 SE, CAN","Latitude":"45.97014","Longitude":"-66.85538","Snowdepth":"17.000","Units":"in","Rept_Date":"2021-02-08 13"},"coordinates":[6942,6585]},{"type":"Point","properties":{"Station_ID":"BRLN3","Station_Nam":"BERLIN","Latitude":"44.45350","Longitude":"-71.18540","Snowdepth":"17.000","Units":"in","Rept_Date":"2021-02-08 12"},"coordinates":[5953,5686]},{"type":"Point","properties":{"Station_ID":"BEAW3","Station_Nam":"BEAVER DAM,WI","Latitude":"43.45000","Longitude":"-88.85000","Snowdepth":"17.000","Units":"in","Rept_Date":"2021-02-08 13"},"coordinates":[1918,5090]},{"type":"Point","properties":{"Station_ID":"AMAM4","Station_Nam":"AMASA 1W","Latitude":"46.23470","Longitude":"-88.45440","Snowdepth":"17.000","Units":"in","Rept_Date":"2021-02-08 14"},"coordinates":[2008,6742]},{"type":"Point","properties":{"Station_ID":"AGNW3","Station_Nam":"ARGONNE-1.5 NW","Latitude":"45.67360","Longitude":"-88.90380","Snowdepth":"17.000","Units":"in","Rept_Date":"2021-02-08 13"},"coordinates":[1905,6409]},{"type":"Point","properties":{"Station_ID":"42.1173_079.8962","Station_Nam":"4 W Colt Station  Trained Spotter (CLE0298)","Latitude":"42.11734","Longitude":"-79.89615","Snowdepth":"17.000","Units":"in","Rept_Date":"2021-02-08 13"},"coordinates":[3963,4300]},{"type":"Point","properties":{"Station_ID":"CAN-PE-19","Station_Nam":"CHARLOTTETOWN 6.5 NNW, CAN","Latitude":"46.29235","Longitude":"-63.17271","Snowdepth":"16.900","Units":"in","Rept_Date":"2021-02-08 12"},"coordinates":[7783,6776]},{"type":"Point","properties":{"Station_ID":"WI-SR-1","Station_Nam":"HAYWARD 9.2 NNE, WI","Latitude":"46.13255","Longitude":"-91.40500","Snowdepth":"16.500","Units":"in","Rept_Date":"2021-02-08 12"},"coordinates":[1334,6681]},{"type":"Point","properties":{"Station_ID":"NY-ER-194","Station_Nam":"GLENWOOD 1.0 SE, NY","Latitude":"42.60740","Longitude":"-78.64610","Snowdepth":"16.500","Units":"in","Rept_Date":"2021-02-08 12"},"coordinates":[4249,4591]},{"type":"Point","properties":{"Station_ID":"NJ-SM-67","Station_Nam":"FRANKLIN TWP 2.4 ENE, NJ","Latitude":"40.49170","Longitude":"-74.51077","Snowdepth":"16.500","Units":"in","Rept_Date":"2021-02-08 12"},"coordinates":[5193,3336]},{"type":"Point","properties":{"Station_ID":"NJ-SM-11","Station_Nam":"BEDMINSTER TWP 2.9 ESE, NJ","Latitude":"40.65634","Longitude":"-74.63050","Snowdepth":"16.500","Units":"in","Rept_Date":"2021-02-08 11"},"coordinates":[5166,3434]},{"type":"Point","properties":{"Station_ID":"NJ-BG-17","Station_Nam":"GLEN ROCK 0.7 SSE, NJ","Latitude":"40.95109","Longitude":"-74.11830","Snowdepth":"16.500","Units":"in","Rept_Date":"2021-02-08 13"},"coordinates":[5283,3608]},{"type":"Point","properties":{"Station_ID":"MI-AG-6","Station_Nam":"MUNISING 11.1 SSW, MI","Latitude":"46.27805","Longitude":"-86.75747","Snowdepth":"16.500","Units":"in","Rept_Date":"2021-02-08 12"},"coordinates":[2396,6768]},{"type":"Point","properties":{"Station_ID":"MA-ES-19","Station_Nam":"WEST NEWBURY 1.8 SSE, MA","Latitude":"42.77473","Longitude":"-70.98826","Snowdepth":"16.500","Units":"in","Rept_Date":"2021-02-08 12"},"coordinates":[5998,4690]},{"type":"Point","properties":{"Station_ID":"CT-HR-15","Station_Nam":"SOUTHINGTON 3.0 E, CT","Latitude":"41.60798","Longitude":"-72.82220","Snowdepth":"16.500","Units":"in","Rept_Date":"2021-02-08 12"},"coordinates":[5579,3998]},{"type":"Point","properties":{"Station_ID":"CAN-NS-23","Station_Nam":"MIDDLETON 7.8 NNW, CA","Latitude":"45.00427","Longitude":"-65.11690","Snowdepth":"16.500","Units":"in","Rept_Date":"2021-02-08 11"},"coordinates":[7339,6012]},{"type":"Point","properties":{"Station_ID":"CAN-NB-16","Station_Nam":"DORCHESTER 1.0 SSE, CAN","Latitude":"45.89160","Longitude":"-64.51269","Snowdepth":"16.500","Units":"in","Rept_Date":"2021-02-08 11"},"coordinates":[7477,6538]},{"type":"Point","properties":{"Station_ID":"QTV","Station_Nam":"QTV","Latitude":"49.66000","Longitude":"-69.35690","Snowdepth":"16.339","Units":"in","Rept_Date":"2021-02-08 12"},"coordinates":[6370,8773]},{"type":"Point","properties":{"Station_ID":"CAN-NB-105","Station_Nam":"SISSON BROOK 3.8 E, CAN","Latitude":"46.98305","Longitude":"-67.32532","Snowdepth":"16.300","Units":"in","Rept_Date":"2021-02-08 12"},"coordinates":[6835,7186]},{"type":"Point","properties":{"Station_ID":"NJ-UN-36","Station_Nam":"CLARK TWP 1.3 ENE, NJ","Latitude":"40.62605","Longitude":"-74.28967","Snowdepth":"16.200","Units":"in","Rept_Date":"2021-02-08 14"},"coordinates":[5244,3416]},{"type":"Point","properties":{"Station_ID":"CAN-ON-451","Station_Nam":"OWEN SOUND 1.2 N - GSCA, CAN","Latitude":"44.58092","Longitude":"-80.93025","Snowdepth":"16.100","Units":"in","Rept_Date":"2021-02-08 13"},"coordinates":[3727,5761]},{"type":"Point","properties":{"Station_ID":"CAN-NB-98","Station_Nam":"HOYT 4.2 S, CAN","Latitude":"45.54763","Longitude":"-66.55440","Snowdepth":"16.100","Units":"in","Rept_Date":"2021-02-08 13"},"coordinates":[7011,6334]},{"type":"Point","properties":{"Station_ID":"WI-VL-14","Station_Nam":"BOULDER JUNCTION 1.4 NE, WI","Latitude":"46.12840","Longitude":"-89.62470","Snowdepth":"16.000","Units":"in","Rept_Date":"2021-02-08 13"},"coordinates":[1741,6679]},{"type":"Point","properties":{"Station_ID":"WI-RK-12","Station_Nam":"JANESVILLE 3.1 W, WI","Latitude":"42.67576","Longitude":"-89.07614","Snowdepth":"16.000","Units":"in","Rept_Date":"2021-02-08 13"},"coordinates":[1866,4631]},{"type":"Point","properties":{"Station_ID":"WI-PR-6","Station_Nam":"PHILLIPS 1.3 S, WI","Latitude":"45.67677","Longitude":"-90.39543","Snowdepth":"16.000","Units":"in","Rept_Date":"2021-02-08 12"},"coordinates":[1565,6411]},{"type":"Point","properties":{"Station_ID":"WI-LF-6","Station_Nam":"SOUTH WAYNE 3.9 SSW, WI","Latitude":"42.51173","Longitude":"-89.89555","Snowdepth":"16.000","Units":"in","Rept_Date":"2021-02-08 12"},"coordinates":[1679,4534]},{"type":"Point","properties":{"Station_ID":"WI-DA-35","Station_Nam":"MADISON 5.5 N, WI","Latitude":"43.15858","Longitude":"-89.37280","Snowdepth":"16.000","Units":"in","Rept_Date":"2021-02-08 14"},"coordinates":[1798,4918]},{"type":"Point","properties":{"Station_ID":"WI-CB-5","Station_Nam":"PORTAGE 7.2 SW, WI","Latitude":"43.47933","Longitude":"-89.57370","Snowdepth":"16.000","Units":"in","Rept_Date":"2021-02-08 13"},"coordinates":[1752,5108]},{"type":"Point","properties":{"Station_ID":"WALM3","Station_Nam":"WALPOLE 2","Latitude":"42.16090","Longitude":"-71.24610","Snowdepth":"16.000","Units":"in","Rept_Date":"2021-02-08 12"},"coordinates":[5939,4326]},{"type":"Point","properties":{"Station_ID":"VT-WR-10","Station_Nam":"WEST WINDSOR 1.7 S, VT","Latitude":"43.46164","Longitude":"-72.49197","Snowdepth":"16.000","Units":"in","Rept_Date":"2021-02-08 12"},"coordinates":[5654,5097]},{"type":"Point","properties":{"Station_ID":"VT-OL-2","Station_Nam":"BARTON 3.0 ENE, VT","Latitude":"44.75863","Longitude":"-72.11680","Snowdepth":"16.000","Units":"in","Rept_Date":"2021-02-08 12"},"coordinates":[5740,5866]},{"type":"Point","properties":{"Station_ID":"VT-LM-1","Station_Nam":"STOWE 0.2 SW, VT","Latitude":"44.46399","Longitude":"-72.69070","Snowdepth":"16.000","Units":"in","Rept_Date":"2021-02-08 12"},"coordinates":[5609,5692]},{"type":"Point","properties":{"Station_ID":"VT-CL-27","Station_Nam":"DANVILLE 0.4 N, VT","Latitude":"44.41769","Longitude":"-72.13936","Snowdepth":"16.000","Units":"in","Rept_Date":"2021-02-08 12"},"coordinates":[5735,5664]},{"type":"Point","properties":{"Station_ID":"VT-CL-18","Station_Nam":"WHEELOCK 1.6 S, VT","Latitude":"44.56491","Longitude":"-72.08830","Snowdepth":"16.000","Units":"in","Rept_Date":"2021-02-08 12"},"coordinates":[5747,5752]},{"type":"Point","properties":{"Station_ID":"SUXN4","Station_Nam":"SUSSEX 1 NW","Latitude":"41.21840","Longitude":"-74.62070","Snowdepth":"16.000","Units":"in","Rept_Date":"2021-02-08 12"},"coordinates":[5168,3767]},{"type":"Point","properties":{"Station_ID":"RCHW3","Station_Nam":"RICHRIELD,WI","Latitude":"43.21080","Longitude":"-88.20940","Snowdepth":"16.000","Units":"in","Rept_Date":"2021-02-08 12"},"coordinates":[2064,4949]},{"type":"Point","properties":{"Station_ID":"PA-WN-26","Station_Nam":"CANAAN - 11, PA","Latitude":"41.59018","Longitude":"-75.35900","Snowdepth":"16.000","Units":"in","Rept_Date":"2021-02-08 12"},"coordinates":[4999,3987]},{"type":"Point","properties":{"Station_ID":"OKLM2","Station_Nam":"SINES DEEP CREEK LAKE","Latitude":"39.52270","Longitude":"-79.41310","Snowdepth":"16.000","Units":"in","Rept_Date":"2021-02-08 12"},"coordinates":[4073,2761]},{"type":"Point","properties":{"Station_ID":"NY-WC-18","Station_Nam":"ARMONK 0.3 SE, NY","Latitude":"41.12996","Longitude":"-73.70816","Snowdepth":"16.000","Units":"in","Rept_Date":"2021-02-08 13"},"coordinates":[5377,3714]},{"type":"Point","properties":{"Station_ID":"NY-OT-31","Station_Nam":"MARYLAND 1.8 W, NY","Latitude":"42.53310","Longitude":"-74.92090","Snowdepth":"16.000","Units":"in","Rept_Date":"2021-02-08 13"},"coordinates":[5100,4547]},{"type":"Point","properties":{"Station_ID":"NY-KN-25","Station_Nam":"BROOKLYN 3.1 NW, NY","Latitude":"40.68460","Longitude":"-73.98670","Snowdepth":"16.000","Units":"in","Rept_Date":"2021-02-08 12"},"coordinates":[5313,3450]},{"type":"Point","properties":{"Station_ID":"NSNM1","Station_Nam":"NEW SHARON","Latitude":"44.63330","Longitude":"-70.00000","Snowdepth":"16.000","Units":"in","Rept_Date":"2021-02-08 12"},"coordinates":[6224,5792]},{"type":"Point","properties":{"Station_ID":"NJ-SM-63","Station_Nam":"FRANKLIN TWP 2.7 NE, NJ","Latitude":"40.49979","Longitude":"-74.51140","Snowdepth":"16.000","Units":"in","Rept_Date":"2021-02-08 12"},"coordinates":[5193,3341]},{"type":"Point","properties":{"Station_ID":"NJ-SM-5","Station_Nam":"BRIDGEWATER TWP 3.3 NW, NJ","Latitude":"40.62625","Longitude":"-74.65350","Snowdepth":"16.000","Units":"in","Rept_Date":"2021-02-08 12"},"coordinates":[5161,3416]},{"type":"Point","properties":{"Station_ID":"NJ-SM-12","Station_Nam":"FRANKLIN TWP 3.8 ENE, NJ","Latitude":"40.50058","Longitude":"-74.48752","Snowdepth":"16.000","Units":"in","Rept_Date":"2021-02-08 13"},"coordinates":[5199,3341]},{"type":"Point","properties":{"Station_ID":"NJ-HN-9","Station_Nam":"FRANKLIN TWP 0.4 W, NJ","Latitude":"40.56633","Longitude":"-74.94430","Snowdepth":"16.000","Units":"in","Rept_Date":"2021-02-08 12"},"coordinates":[5094,3380]},{"type":"Point","properties":{"Station_ID":"NJ-HN-31","Station_Nam":"FRENCHTOWN 0.5 N, NJ","Latitude":"40.53420","Longitude":"-75.05590","Snowdepth":"16.000","Units":"in","Rept_Date":"2021-02-08 12"},"coordinates":[5069,3361]},{"type":"Point","properties":{"Station_ID":"NJ-HN-10","Station_Nam":"FLEMINGTON 2.3 E, NJ","Latitude":"40.50830","Longitude":"-74.81520","Snowdepth":"16.000","Units":"in","Rept_Date":"2021-02-08 13"},"coordinates":[5124,3346]},{"type":"Point","properties":{"Station_ID":"NH-MR-60","Station_Nam":"SOUTH SUTTON 1.3 SE, NH","Latitude":"43.29531","Longitude":"-71.90238","Snowdepth":"16.000","Units":"in","Rept_Date":"2021-02-08 13"},"coordinates":[5789,4999]},{"type":"Point","properties":{"Station_ID":"NH-CR-11","Station_Nam":"NORTH CONWAY 1.4 SSW, NH","Latitude":"44.03556","Longitude":"-71.14010","Snowdepth":"16.000","Units":"in","Rept_Date":"2021-02-08 12"},"coordinates":[5963,5438]},{"type":"Point","properties":{"Station_ID":"NE-LA-52","Station_Nam":"LINCOLN 1.2 ENE, NE","Latitude":"40.82411","Longitude":"-96.66780","Snowdepth":"16.000","Units":"in","Rept_Date":"2021-02-08 13"},"coordinates":[132,3533]},{"type":"Point","properties":{"Station_ID":"NCON3","Station_Nam":"NORTH CONWAY","Latitude":"44.05620","Longitude":"-71.12970","Snowdepth":"16.000","Units":"in","Rept_Date":"2021-02-08 13"},"coordinates":[5966,5450]},{"type":"Point","properties":{"Station_ID":"ME-SM-4","Station_Nam":"SOLON 3.9 ESE, ME","Latitude":"44.94705","Longitude":"-69.77790","Snowdepth":"16.000","Units":"in","Rept_Date":"2021-02-08 12"},"coordinates":[6274,5978]},{"type":"Point","properties":{"Station_ID":"ME-AN-32","Station_Nam":"WINTHROP 9.4 W, ME","Latitude":"44.30476","Longitude":"-70.15835","Snowdepth":"16.000","Units":"in","Rept_Date":"2021-02-08 12"},"coordinates":[6187,5597]},{"type":"Point","properties":{"Station_ID":"MA-NF-1","Station_Nam":"NORWOOD 1.3 NW, MA","Latitude":"42.19738","Longitude":"-71.21526","Snowdepth":"16.000","Units":"in","Rept_Date":"2021-02-08 12"},"coordinates":[5946,4348]},{"type":"Point","properties":{"Station_ID":"MA-MD-51","Station_Nam":"MAYNARD 0.7 ESE, MA","Latitude":"42.42027","Longitude":"-71.44484","Snowdepth":"16.000","Units":"in","Rept_Date":"2021-02-08 12"},"coordinates":[5894,4480]},{"type":"Point","properties":{"Station_ID":"MA-MD-42","Station_Nam":"HOLLISTON 0.8 S, MA","Latitude":"42.18820","Longitude":"-71.43390","Snowdepth":"16.000","Units":"in","Rept_Date":"2021-02-08 12"},"coordinates":[5896,4342]},{"type":"Point","properties":{"Station_ID":"LODW3","Station_Nam":"LODI","Latitude":"43.32170","Longitude":"-89.53110","Snowdepth":"16.000","Units":"in","Rept_Date":"2021-02-08 13"},"coordinates":[1762,5014]},{"type":"Point","properties":{"Station_ID":"FLMN4","Station_Nam":"FLEMINGTON 5 NNW","Latitude":"40.57400","Longitude":"-74.88160","Snowdepth":"16.000","Units":"in","Rept_Date":"2021-02-08 13"},"coordinates":[5108,3385]},{"type":"Point","properties":{"Station_ID":"F8114_MADIS","Station_Nam":"FW8114 BRIDGEWATER","Latitude":"40.62650","Longitude":"-74.65470","Snowdepth":"16.000","Units":"in","Rept_Date":"2021-02-08 12"},"coordinates":[5160,3416]},{"type":"Point","properties":{"Station_ID":"EGRW3","Station_Nam":"EAGLE RIVER-SOUTH","Latitude":"45.91360","Longitude":"-89.24360","Snowdepth":"16.000","Units":"in","Rept_Date":"2021-02-08 13"},"coordinates":[1828,6551]},{"type":"Point","properties":{"Station_ID":"EAHV1","Station_Nam":"EAST HAVEN","Latitude":"44.64250","Longitude":"-71.89120","Snowdepth":"16.000","Units":"in","Rept_Date":"2021-02-08 12"},"coordinates":[5792,5798]},{"type":"Point","properties":{"Station_ID":"DUBI4","Station_Nam":"DUBUQUE #3","Latitude":"42.40870","Longitude":"-90.73250","Snowdepth":"16.000","Units":"in","Rept_Date":"2021-02-09 00"},"coordinates":[1488,4473]},{"type":"Point","properties":{"Station_ID":"DBQ","Station_Nam":"DUBUQUE REGIONAL AIRPORT","Latitude":"42.40310","Longitude":"-90.70920","Snowdepth":"16.000","Units":"in","Rept_Date":"2021-02-09 00"},"coordinates":[1493,4470]},{"type":"Point","properties":{"Station_ID":"CT-WN-12","Station_Nam":"EASTFORD 2.0 W, CT","Latitude":"41.89906","Longitude":"-72.12071","Snowdepth":"16.000","Units":"in","Rept_Date":"2021-02-08 11"},"coordinates":[5739,4171]},{"type":"Point","properties":{"Station_ID":"CT-FR-58","Station_Nam":"RIDGEFIELD 3.6 N, CT","Latitude":"41.32589","Longitude":"-73.48902","Snowdepth":"16.000","Units":"in","Rept_Date":"2021-02-08 11"},"coordinates":[5427,3831]},{"type":"Point","properties":{"Station_ID":"CARM1","Station_Nam":"CARIBOU WFO","Latitude":"46.86810","Longitude":"-68.01250","Snowdepth":"16.000","Units":"in","Rept_Date":"2021-02-08 13"},"coordinates":[6678,7117]},{"type":"Point","properties":{"Station_ID":"CAR","Station_Nam":"CARIBOU, ME","Latitude":"46.86830","Longitude":"-68.01360","Snowdepth":"16.000","Units":"in","Rept_Date":"2021-02-08 12"},"coordinates":[6677,7118]},{"type":"Point","properties":{"Station_ID":"CAN-ON-42","Station_Nam":"VANKLEEK HILL 3.4 S, CA","Latitude":"45.48987","Longitude":"-74.64570","Snowdepth":"16.000","Units":"in","Rept_Date":"2021-02-08 12"},"coordinates":[5162,6300]},{"type":"Point","properties":{"Station_ID":"BLHM3","Station_Nam":"BLUE HILL COOP","Latitude":"42.21230","Longitude":"-71.11370","Snowdepth":"16.000","Units":"in","Rept_Date":"2021-02-08 12"},"coordinates":[5969,4356]},{"type":"Point","properties":{"Station_ID":"BETM1","Station_Nam":"BETHEL 6 SSE","Latitude":"44.32000","Longitude":"-70.75680","Snowdepth":"16.000","Units":"in","Rept_Date":"2021-02-08 12"},"coordinates":[6051,5606]},{"type":"Point","properties":{"Station_ID":"BDMW3","Station_Nam":"BEAVER DAM 1 N","Latitude":"43.46860","Longitude":"-88.83970","Snowdepth":"16.000","Units":"in","Rept_Date":"2021-02-08 13"},"coordinates":[1920,5101]},{"type":"Point","properties":{"Station_ID":"ATAN6","Station_Nam":"ATTICA 7 SW","Latitude":"42.81070","Longitude":"-78.39790","Snowdepth":"16.000","Units":"in","Rept_Date":"2021-02-08 11"},"coordinates":[4305,4711]},{"type":"Point","properties":{"Station_ID":"VT-OL-25","Station_Nam":"NEWPORT 1.5 WSW, VT","Latitude":"44.93059","Longitude":"-72.23731","Snowdepth":"15.800","Units":"in","Rept_Date":"2021-02-08 12"},"coordinates":[5713,5968]},{"type":"Point","properties":{"Station_ID":"CAN-ON-791","Station_Nam":"METCALFE 4.4 NNW, CAN","Latitude":"45.27286","Longitude":"-75.48952","Snowdepth":"15.700","Units":"in","Rept_Date":"2021-02-08 11"},"coordinates":[4970,6171]},{"type":"Point","properties":{"Station_ID":"CAN-NB-97","Station_Nam":"NEW MARYLAND 0.6 NW, CAN","Latitude":"45.90112","Longitude":"-66.68739","Snowdepth":"15.700","Units":"in","Rept_Date":"2021-02-08 12"},"coordinates":[6980,6544]},{"type":"Point","properties":{"Station_ID":"CAN-MB-368","Station_Nam":"WHITESHELL 1.3 NE, CAN","Latitude":"49.74405","Longitude":"-95.19123","Snowdepth":"15.700","Units":"in","Rept_Date":"2021-02-08 14"},"coordinates":[469,8823]},{"type":"Point","properties":{"Station_ID":"WI-WW-12","Station_Nam":"ELKHORN 0.4 ESE, WI","Latitude":"42.66970","Longitude":"-88.53170","Snowdepth":"15.600","Units":"in","Rept_Date":"2021-02-08 11"},"coordinates":[1990,4628]},{"type":"Point","properties":{"Station_ID":"WI-DA-99","Station_Nam":"FITCHBURG 1.1 NW, WI","Latitude":"42.99740","Longitude":"-89.44046","Snowdepth":"15.500","Units":"in","Rept_Date":"2021-02-08 13"},"coordinates":[1783,4822]},{"type":"Point","properties":{"Station_ID":"RI-PR-28","Station_Nam":"NORTH SMITHFIELD 0.7 SE, RI","Latitude":"41.95910","Longitude":"-71.54201","Snowdepth":"15.500","Units":"in","Rept_Date":"2021-02-08 12"},"coordinates":[5871,4206]},{"type":"Point","properties":{"Station_ID":"NY-TM-27","Station_Nam":"GROTON 3.2 SSW, NY","Latitude":"42.54725","Longitude":"-76.39960","Snowdepth":"15.500","Units":"in","Rept_Date":"2021-02-08 12"},"coordinates":[4762,4555]},{"type":"Point","properties":{"Station_ID":"NY-TM-18","Station_Nam":"EAST ITHACA 4.7 E, NY","Latitude":"42.41910","Longitude":"-76.37330","Snowdepth":"15.500","Units":"in","Rept_Date":"2021-02-08 12"},"coordinates":[4768,4479]},{"type":"Point","properties":{"Station_ID":"NJ-SM-84","Station_Nam":"BRANCHBURG TWP 2.0 NE, NJ","Latitude":"40.58600","Longitude":"-74.69200","Snowdepth":"15.500","Units":"in","Rept_Date":"2021-02-08 13"},"coordinates":[5152,3392]},{"type":"Point","properties":{"Station_ID":"NJ-SM-56","Station_Nam":"FRANKLIN TWP 5.9 SW, NJ","Latitude":"40.40787","Longitude":"-74.61990","Snowdepth":"15.500","Units":"in","Rept_Date":"2021-02-08 13"},"coordinates":[5168,3286]},{"type":"Point","properties":{"Station_ID":"NJ-MD-2","Station_Nam":"NORTH BRUNSWICK TWP 1.5 W, NJ","Latitude":"40.44700","Longitude":"-74.50800","Snowdepth":"15.500","Units":"in","Rept_Date":"2021-02-08 12"},"coordinates":[5194,3309]},{"type":"Point","properties":{"Station_ID":"NJ-HN-18","Station_Nam":"CLINTON TWP 3.9 N, NJ","Latitude":"40.68717","Longitude":"-74.85750","Snowdepth":"15.500","Units":"in","Rept_Date":"2021-02-08 13"},"coordinates":[5114,3452]},{"type":"Point","properties":{"Station_ID":"MI-MQ-28","Station_Nam":"CARLSHEND, MI","Latitude":"46.31638","Longitude":"-87.19944","Snowdepth":"15.500","Units":"in","Rept_Date":"2021-02-08 13"},"coordinates":[2295,6790]},{"type":"Point","properties":{"Station_ID":"MA-WR-41","Station_Nam":"AUBURN 2.6 SW, MA","Latitude":"42.17336","Longitude":"-71.86869","Snowdepth":"15.500","Units":"in","Rept_Date":"2021-02-08 13"},"coordinates":[5797,4333]},{"type":"Point","properties":{"Station_ID":"MA-MD-156","Station_Nam":"MARLBOROUGH 2.8 ENE, MA","Latitude":"42.37021","Longitude":"-71.50011","Snowdepth":"15.500","Units":"in","Rept_Date":"2021-02-08 11"},"coordinates":[5881,4450]},{"type":"Point","properties":{"Station_ID":"IL-MCH-95","Station_Nam":"CARY 0.5 SSW, IL","Latitude":"42.20235","Longitude":"-88.25224","Snowdepth":"15.500","Units":"in","Rept_Date":"2021-02-08 13"},"coordinates":[2054,4350]},{"type":"Point","properties":{"Station_ID":"IA-ST-1","Station_Nam":"LE CLAIRE 1.8 NNE, IA","Latitude":"41.62355","Longitude":"-90.35140","Snowdepth":"15.500","Units":"in","Rept_Date":"2021-02-08 14"},"coordinates":[1575,4007]},{"type":"Point","properties":{"Station_ID":"NJ-MS-82","Station_Nam":"MENDHAM 1.5 W, NJ","Latitude":"40.77272","Longitude":"-74.62908","Snowdepth":"15.300","Units":"in","Rept_Date":"2021-02-08 14"},"coordinates":[5166,3503]},{"type":"Point","properties":{"Station_ID":"WILW3","Station_Nam":"RESERVOIR","Latitude":"45.70000","Longitude":"-89.83330","Snowdepth":"15.000","Units":"in","Rept_Date":"2021-02-08 12"},"coordinates":[1693,6425]},{"type":"Point","properties":{"Station_ID":"WI-WK-34","Station_Nam":"MUKWONAGO 5.3 W, WI","Latitude":"42.85380","Longitude":"-88.43550","Snowdepth":"15.000","Units":"in","Rept_Date":"2021-02-08 13"},"coordinates":[2012,4737]},{"type":"Point","properties":{"Station_ID":"WI-RC-3","Station_Nam":"RACINE 2.3 WSW, WI","Latitude":"42.71124","Longitude":"-87.84570","Snowdepth":"15.000","Units":"in","Rept_Date":"2021-02-08 13"},"coordinates":[2147,4652]},{"type":"Point","properties":{"Station_ID":"WI-PK-33","Station_Nam":"FREDERIC 4.8 NE, WI","Latitude":"45.70970","Longitude":"-92.39950","Snowdepth":"15.000","Units":"in","Rept_Date":"2021-02-08 13"},"coordinates":[1107,6431]},{"type":"Point","properties":{"Station_ID":"WI-OZ-12","Station_Nam":"PORT WASHINGTON 0.5 S, WI","Latitude":"43.38610","Longitude":"-87.87900","Snowdepth":"15.000","Units":"in","Rept_Date":"2021-02-08 13"},"coordinates":[2140,5052]},{"type":"Point","properties":{"Station_ID":"WI-ON-8","Station_Nam":"HAZELHURST 2.1 SSE, WI","Latitude":"45.78186","Longitude":"-89.70330","Snowdepth":"15.000","Units":"in","Rept_Date":"2021-02-08 13"},"coordinates":[1723,6473]},{"type":"Point","properties":{"Station_ID":"WI-MW-43","Station_Nam":"BROWN DEER 0.8 NW, WI","Latitude":"43.18438","Longitude":"-87.98401","Snowdepth":"15.000","Units":"in","Rept_Date":"2021-02-08 13"},"coordinates":[2116,4933]},{"type":"Point","properties":{"Station_ID":"WI-DD-4","Station_Nam":"BEAVER DAM 1.4 SSW, WI","Latitude":"43.44719","Longitude":"-88.85260","Snowdepth":"15.000","Units":"in","Rept_Date":"2021-02-08 14"},"coordinates":[1917,5089]},{"type":"Point","properties":{"Station_ID":"WI-CB-4","Station_Nam":"PORTAGE 5.7 WSW, WI","Latitude":"43.51411","Longitude":"-89.56910","Snowdepth":"15.000","Units":"in","Rept_Date":"2021-02-08 12"},"coordinates":[1753,5128]},{"type":"Point","properties":{"Station_ID":"WI-BY-2","Station_Nam":"MELLEN 18.6 SW, WI","Latitude":"46.16937","Longitude":"-90.98090","Snowdepth":"15.000","Units":"in","Rept_Date":"2021-02-08 13"},"coordinates":[1431,6703]},{"type":"Point","properties":{"Station_ID":"WDSV1","Station_Nam":"WOODSTOCK","Latitude":"43.63030","Longitude":"-72.50720","Snowdepth":"15.000","Units":"in","Rept_Date":"2021-02-08 13"},"coordinates":[5651,5197]},{"type":"Point","properties":{"Station_ID":"VT-WH-26","Station_Nam":"WESTMINSTER 5.5 NW, VT","Latitude":"43.12572","Longitude":"-72.53419","Snowdepth":"15.000","Units":"in","Rept_Date":"2021-02-08 12"},"coordinates":[5645,4898]},{"type":"Point","properties":{"Station_ID":"VT-CL-14","Station_Nam":"LYNDONVILLE 1.1 W, VT","Latitude":"44.53582","Longitude":"-72.02867","Snowdepth":"15.000","Units":"in","Rept_Date":"2021-02-08 12"},"coordinates":[5760,5734]},{"type":"Point","properties":{"Station_ID":"VQAW3","Station_Nam":"VIROQUA","Latitude":"43.55970","Longitude":"-90.87560","Snowdepth":"15.000","Units":"in","Rept_Date":"2021-02-08 13"},"coordinates":[1455,5155]},{"type":"Point","properties":{"Station_ID":"VNTI4","Station_Nam":"VINTON","Latitude":"42.17020","Longitude":"-92.00770","Snowdepth":"15.000","Units":"in","Rept_Date":"2021-02-08 13"},"coordinates":[1196,4331]},{"type":"Point","properties":{"Station_ID":"TOPM1","Station_Nam":"TOPSFIELD","Latitude":"45.43470","Longitude":"-67.72020","Snowdepth":"15.000","Units":"in","Rept_Date":"2021-02-08 12"},"coordinates":[6744,6267]},{"type":"Point","properties":{"Station_ID":"TMWN3","Station_Nam":"TAMWORTH 4","Latitude":"43.86390","Longitude":"-71.26610","Snowdepth":"15.000","Units":"in","Rept_Date":"2021-02-08 12"},"coordinates":[5934,5336]},{"type":"Point","properties":{"Station_ID":"TAKW3","Station_Nam":"RICE RESERVOIR NO. 2","Latitude":"45.53770","Longitude":"-89.73220","Snowdepth":"15.000","Units":"in","Rept_Date":"2021-02-08 13"},"coordinates":[1716,6328]},{"type":"Point","properties":{"Station_ID":"STOW3","Station_Nam":"STOUGHTON,WI","Latitude":"42.91670","Longitude":"-89.21670","Snowdepth":"15.000","Units":"in","Rept_Date":"2021-02-08 13"},"coordinates":[1834,4774]},{"type":"Point","properties":{"Station_ID":"STGW3","Station_Nam":"ST GERMAIN","Latitude":"45.91550","Longitude":"-89.48940","Snowdepth":"15.000","Units":"in","Rept_Date":"2021-02-08 12"},"coordinates":[1772,6553]},{"type":"Point","properties":{"Station_ID":"SHHN6","Station_Nam":"SCHOHARIE VILLAGE","Latitude":"42.66500","Longitude":"-74.30360","Snowdepth":"15.000","Units":"in","Rept_Date":"2021-02-08 13"},"coordinates":[5241,4625]},{"type":"Point","properties":{"Station_ID":"RI-PR-51","Station_Nam":"NORTH SMITHFIELD 0.6 S, RI","Latitude":"41.95440","Longitude":"-71.54944","Snowdepth":"15.000","Units":"in","Rept_Date":"2021-02-08 11"},"coordinates":[5870,4203]},{"type":"Point","properties":{"Station_ID":"RHRW3","Station_Nam":"RHINELANDER WJFW TV-12","Latitude":"45.62220","Longitude":"-89.41000","Snowdepth":"15.000","Units":"in","Rept_Date":"2021-02-09 04"},"coordinates":[1790,6379]},{"type":"Point","properties":{"Station_ID":"RHLW3","Station_Nam":"RHINELANDER 4NE","Latitude":"45.65270","Longitude":"-89.30740","Snowdepth":"15.000","Units":"in","Rept_Date":"2021-02-08 12"},"coordinates":[1813,6397]},{"type":"Point","properties":{"Station_ID":"RHIW3","Station_Nam":"RHINELANDER","Latitude":"45.59860","Longitude":"-89.45080","Snowdepth":"15.000","Units":"in","Rept_Date":"2021-02-08 13"},"coordinates":[1780,6365]},{"type":"Point","properties":{"Station_ID":"RHI","Station_Nam":"RHINELANDER-ONEIDA COUNTY AIRPORT","Latitude":"45.63080","Longitude":"-89.46530","Snowdepth":"15.000","Units":"in","Rept_Date":"2021-02-08 12"},"coordinates":[1777,6384]},{"type":"Point","properties":{"Station_ID":"PA-MN-7","Station_Nam":"STROUDSBURG 5.1 W, PA","Latitude":"40.98869","Longitude":"-75.29590","Snowdepth":"15.000","Units":"in","Rept_Date":"2021-02-08 13"},"coordinates":[5014,3631]},{"type":"Point","properties":{"Station_ID":"NY-OR-19","Station_Nam":"GREENWOOD LAKE 3.0 SW, NY","Latitude":"41.18900","Longitude":"-74.32650","Snowdepth":"15.000","Units":"in","Rept_Date":"2021-02-08 13"},"coordinates":[5235,3749]},{"type":"Point","properties":{"Station_ID":"NY-FL-7","Station_Nam":"BROADALBIN 4.7 ESE, NY","Latitude":"43.03940","Longitude":"-74.10845","Snowdepth":"15.000","Units":"in","Rept_Date":"2021-02-08 14"},"coordinates":[5285,4847]},{"type":"Point","properties":{"Station_ID":"NY-ER-63","Station_Nam":"GLENWOOD 1.5 SE, NY","Latitude":"42.60195","Longitude":"-78.63910","Snowdepth":"15.000","Units":"in","Rept_Date":"2021-02-08 13"},"coordinates":[4250,4587]},{"type":"Point","properties":{"Station_ID":"NY-DL-23","Station_Nam":"LONG EDDY 6.5 NNE, NY","Latitude":"41.93510","Longitude":"-75.07840","Snowdepth":"15.000","Units":"in","Rept_Date":"2021-02-08 13"},"coordinates":[5064,4192]},{"type":"Point","properties":{"Station_ID":"NWSM1","Station_Nam":"NEW SHARON","Latitude":"44.63520","Longitude":"-70.00020","Snowdepth":"15.000","Units":"in","Rept_Date":"2021-02-08 12"},"coordinates":[6224,5793]},{"type":"Point","properties":{"Station_ID":"NPTV1","Station_Nam":"NEWPORT","Latitude":"44.94900","Longitude":"-72.19120","Snowdepth":"15.000","Units":"in","Rept_Date":"2021-02-08 12"},"coordinates":[5723,5979]},{"type":"Point","properties":{"Station_ID":"NJ-WR-5","Station_Nam":"HACKETTSTOWN 0.8 W, NJ","Latitude":"40.85155","Longitude":"-74.84030","Snowdepth":"15.000","Units":"in","Rept_Date":"2021-02-08 12"},"coordinates":[5118,3549]},{"type":"Point","properties":{"Station_ID":"NJ-SM-65","Station_Nam":"HILLSBOROUGH TWP 3.5 SE, NJ","Latitude":"40.46772","Longitude":"-74.62178","Snowdepth":"15.000","Units":"in","Rept_Date":"2021-02-08 13"},"coordinates":[5168,3322]},{"type":"Point","properties":{"Station_ID":"NH-CR-27","Station_Nam":"TAMWORTH 0.4 NNW, NH","Latitude":"43.86449","Longitude":"-71.26610","Snowdepth":"15.000","Units":"in","Rept_Date":"2021-02-08 12"},"coordinates":[5934,5336]},{"type":"Point","properties":{"Station_ID":"NBRN4","Station_Nam":"NEW BRUNSWICK 3 SE","Latitude":"40.47280","Longitude":"-74.42260","Snowdepth":"15.000","Units":"in","Rept_Date":"2021-02-08 13"},"coordinates":[5213,3325]},{"type":"Point","properties":{"Station_ID":"MZUI4","Station_Nam":"MONTEZUMA,IA","Latitude":"41.58330","Longitude":"-92.53330","Snowdepth":"15.000","Units":"in","Rept_Date":"2021-02-08 13"},"coordinates":[1076,3983]},{"type":"Point","properties":{"Station_ID":"MWOW3","Station_Nam":"MUKWONAGO","Latitude":"42.85380","Longitude":"-88.43550","Snowdepth":"15.000","Units":"in","Rept_Date":"2021-02-08 13"},"coordinates":[2012,4737]},{"type":"Point","properties":{"Station_ID":"MTCI2","Station_Nam":"MOUNT CARROLL","Latitude":"42.09800","Longitude":"-89.98410","Snowdepth":"15.000","Units":"in","Rept_Date":"2021-02-08 14"},"coordinates":[1659,4289]},{"type":"Point","properties":{"Station_ID":"MNPV1","Station_Nam":"MONTPELIER 2","Latitude":"44.25530","Longitude":"-72.60060","Snowdepth":"15.000","Units":"in","Rept_Date":"2021-02-08 12"},"coordinates":[5630,5568]},{"type":"Point","properties":{"Station_ID":"MI-OT-17","Station_Nam":"GAYLORD 4.1 S, MI","Latitude":"44.96388","Longitude":"-84.68467","Snowdepth":"15.000","Units":"in","Rept_Date":"2021-02-08 12"},"coordinates":[2869,5988]},{"type":"Point","properties":{"Station_ID":"MI-MQ-19","Station_Nam":"ISHPEMING 7.2 SW, MI","Latitude":"46.40550","Longitude":"-87.75670","Snowdepth":"15.000","Units":"in","Rept_Date":"2021-02-08 11"},"coordinates":[2167,6843]},{"type":"Point","properties":{"Station_ID":"MI-AT-6","Station_Nam":"MANCELONA 0.5 ESE, MI","Latitude":"44.89981","Longitude":"-85.05100","Snowdepth":"15.000","Units":"in","Rept_Date":"2021-02-08 13"},"coordinates":[2786,5950]},{"type":"Point","properties":{"Station_ID":"MA-WR-89","Station_Nam":"HOLDEN 0.9 SSE, MA","Latitude":"42.33809","Longitude":"-71.85686","Snowdepth":"15.000","Units":"in","Rept_Date":"2021-02-08 12"},"coordinates":[5799,4431]},{"type":"Point","properties":{"Station_ID":"MA-MD-158","Station_Nam":"SHERBORN 1.1 NW, MA","Latitude":"42.24460","Longitude":"-71.38130","Snowdepth":"15.000","Units":"in","Rept_Date":"2021-02-08 10"},"coordinates":[5908,4376]},{"type":"Point","properties":{"Station_ID":"LGEW3","Station_Nam":"LAKE GENEVA, WI","Latitude":"42.60000","Longitude":"-88.43440","Snowdepth":"15.000","Units":"in","Rept_Date":"2021-02-08 13"},"coordinates":[2013,4586]},{"type":"Point","properties":{"Station_ID":"KISM4","Station_Nam":"K.I. SAWYER WWTP","Latitude":"46.33410","Longitude":"-87.37790","Snowdepth":"15.000","Units":"in","Rept_Date":"2021-02-08 13"},"coordinates":[2254,6801]},{"type":"Point","properties":{"Station_ID":"JKMM1","Station_Nam":"JACKMAN","Latitude":"45.62600","Longitude":"-70.24600","Snowdepth":"15.000","Units":"in","Rept_Date":"2021-02-08 12"},"coordinates":[6167,6381]},{"type":"Point","properties":{"Station_ID":"ISLV1","Station_Nam":"ISLAND POND","Latitude":"44.81280","Longitude":"-71.89020","Snowdepth":"15.000","Units":"in","Rept_Date":"2021-02-08 14"},"coordinates":[5792,5899]},{"type":"Point","properties":{"Station_ID":"IL-WN-32","Station_Nam":"ROCKFORD 5.5 S, IL","Latitude":"42.19058","Longitude":"-89.06040","Snowdepth":"15.000","Units":"in","Rept_Date":"2021-02-08 14"},"coordinates":[1870,4343]},{"type":"Point","properties":{"Station_ID":"IL-SP-6","Station_Nam":"FREEPORT 2.0 NW, IL","Latitude":"42.30955","Longitude":"-89.66370","Snowdepth":"15.000","Units":"in","Rept_Date":"2021-02-08 13"},"coordinates":[1732,4414]},{"type":"Point","properties":{"Station_ID":"IL-SP-25","Station_Nam":"FREEPORT 1.7 NW, IL","Latitude":"42.30427","Longitude":"-89.66285","Snowdepth":"15.000","Units":"in","Rept_Date":"2021-02-08 13"},"coordinates":[1732,4411]},{"type":"Point","properties":{"Station_ID":"IL-MCH-13","Station_Nam":"BULL VALLEY 2.5 WNW, IL","Latitude":"42.32455","Longitude":"-88.39460","Snowdepth":"15.000","Units":"in","Rept_Date":"2021-02-08 14"},"coordinates":[2022,4423]},{"type":"Point","properties":{"Station_ID":"IL-LK-69","Station_Nam":"HIGHWOOD 0.9 S, IL","Latitude":"42.19841","Longitude":"-87.81400","Snowdepth":"15.000","Units":"in","Rept_Date":"2021-02-08 13"},"coordinates":[2154,4348]},{"type":"Point","properties":{"Station_ID":"IL-DP-157","Station_Nam":"WEST CHICAGO 3.5 NNE, IL","Latitude":"41.93718","Longitude":"-88.19884","Snowdepth":"15.000","Units":"in","Rept_Date":"2021-02-08 13"},"coordinates":[2066,4193]},{"type":"Point","properties":{"Station_ID":"IL-BN-19","Station_Nam":"BELVIDERE 5.0 NNW, IL","Latitude":"42.32071","Longitude":"-88.88282","Snowdepth":"15.000","Units":"in","Rept_Date":"2021-02-08 13"},"coordinates":[1910,4421]},{"type":"Point","properties":{"Station_ID":"HERM4","Station_Nam":"HERMAN,MI","Latitude":"46.65000","Longitude":"-88.33330","Snowdepth":"15.000","Units":"in","Rept_Date":"2021-02-08 13"},"coordinates":[2036,6988]},{"type":"Point","properties":{"Station_ID":"FLNW3","Station_Nam":"FLORENCE","Latitude":"45.93360","Longitude":"-88.25830","Snowdepth":"15.000","Units":"in","Rept_Date":"2021-02-08 13"},"coordinates":[2053,6563]},{"type":"Point","properties":{"Station_ID":"ESGM1","Station_Nam":"EAST SANGERVILLE","Latitude":"45.13690","Longitude":"-69.28060","Snowdepth":"15.000","Units":"in","Rept_Date":"2021-02-08 12"},"coordinates":[6388,6091]},{"type":"Point","properties":{"Station_ID":"ENFV1","Station_Nam":"ENOSBURG FALLS 2","Latitude":"44.90960","Longitude":"-72.81370","Snowdepth":"15.000","Units":"in","Rept_Date":"2021-02-08 10"},"coordinates":[5581,5956]},{"type":"Point","properties":{"Station_ID":"DARW3","Station_Nam":"DARLINGTON","Latitude":"42.67780","Longitude":"-90.11860","Snowdepth":"15.000","Units":"in","Rept_Date":"2021-02-08 13"},"coordinates":[1628,4632]},{"type":"Point","properties":{"Station_ID":"CT-FR-23","Station_Nam":"SHELTON 1.3 W, CT","Latitude":"41.30533","Longitude":"-73.16350","Snowdepth":"15.000","Units":"in","Rept_Date":"2021-02-08 12"},"coordinates":[5501,3818]},{"type":"Point","properties":{"Station_ID":"CRPI4","Station_Nam":"CEDAR RAPIDS NO 1","Latitude":"42.05000","Longitude":"-91.58810","Snowdepth":"15.000","Units":"in","Rept_Date":"2021-02-08 23"},"coordinates":[1292,4260]},{"type":"Point","properties":{"Station_ID":"CORV1","Station_Nam":"CORINTH","Latitude":"44.00690","Longitude":"-72.31940","Snowdepth":"15.000","Units":"in","Rept_Date":"2021-02-08 12"},"coordinates":[5694,5421]},{"type":"Point","properties":{"Station_ID":"CNDP1","Station_Nam":"CANADENSIS","Latitude":"41.18980","Longitude":"-75.23830","Snowdepth":"15.000","Units":"in","Rept_Date":"2021-02-08 12"},"coordinates":[5027,3750]},{"type":"Point","properties":{"Station_ID":"CMKW3","Station_Nam":"CLAM LAKE 4W","Latitude":"46.16940","Longitude":"-90.98080","Snowdepth":"15.000","Units":"in","Rept_Date":"2021-02-08 13"},"coordinates":[1431,6703]},{"type":"Point","properties":{"Station_ID":"CHRM4","Station_Nam":"CHARLEVOIX","Latitude":"45.31720","Longitude":"-85.26720","Snowdepth":"15.000","Units":"in","Rept_Date":"2021-02-08 13"},"coordinates":[2736,6198]},{"type":"Point","properties":{"Station_ID":"CAN-ON-203","Station_Nam":"LUCKNOW 1.5 NNE - MVCA, CAN","Latitude":"43.97350","Longitude":"-81.50764","Snowdepth":"15.000","Units":"in","Rept_Date":"2021-02-08 13"},"coordinates":[3595,5401]},{"type":"Point","properties":{"Station_ID":"CAN-NS-18","Station_Nam":"HAMMONDS PLAINS 2.1 NNW, CA","Latitude":"44.75181","Longitude":"-63.79100","Snowdepth":"15.000","Units":"in","Rept_Date":"2021-02-08 11"},"coordinates":[7642,5862]},{"type":"Point","properties":{"Station_ID":"BRUM5","Station_Nam":"BRUNO,MN","Latitude":"46.28330","Longitude":"-92.50000","Snowdepth":"15.000","Units":"in","Rept_Date":"2021-02-08 14"},"coordinates":[1084,6771]},{"type":"Point","properties":{"Station_ID":"BROW3","Station_Nam":"BRODHEAD,WI","Latitude":"42.61720","Longitude":"-89.38970","Snowdepth":"15.000","Units":"in","Rept_Date":"2021-02-08 13"},"coordinates":[1794,4596]},{"type":"Point","properties":{"Station_ID":"BBDW3","Station_Nam":"BIG BEND","Latitude":"42.88140","Longitude":"-88.20670","Snowdepth":"15.000","Units":"in","Rept_Date":"2021-02-08 13"},"coordinates":[2065,4753]},{"type":"Point","properties":{"Station_ID":"NJ-WR-42","Station_Nam":"KNOWLTON TWP 1.7 S, NJ","Latitude":"40.90560","Longitude":"-75.05880","Snowdepth":"14.900","Units":"in","Rept_Date":"2021-02-08 12"},"coordinates":[5068,3581]},{"type":"Point","properties":{"Station_ID":"WI-WW-2","Station_Nam":"LAKE GENEVA 0.6 ENE, WI","Latitude":"42.59169","Longitude":"-88.41770","Snowdepth":"14.800","Units":"in","Rept_Date":"2021-02-08 13"},"coordinates":[2016,4581]},