{"type":"Topology","objects":{"snowdepth_geo":{"type":"GeometryCollection","name":"snowdepth","crs":{"type":"name","properties":{"name":"urn:ogc:def:crs:OGC:1.3:CRS84"}},"geometries":[{"type":"Point","properties":{"Station_ID":"PRKM4","Station_Nam":"MUNISING EAST","Latitude":"46.42580","Longitude":"-86.62000","Snowdepth":"76.500","Units":"in","Rept_Date":"2020-04-15 06"},"coordinates":[2491,7371]},{"type":"Point","properties":{"Station_ID":"OGIQ6","Station_Nam":"OGOKI CAMP","Latitude":"50.76680","Longitude":"-87.85820","Snowdepth":"61.100","Units":"in","Rept_Date":"2020-04-15 06"},"coordinates":[2201,9523]},{"type":"Point","properties":{"Station_ID":"AUDQ6","Station_Nam":"AUDEN","Latitude":"48.52600","Longitude":"-82.57570","Snowdepth":"47.640","Units":"in","Rept_Date":"2020-04-15 06"},"coordinates":[3440,8412]},{"type":"Point","properties":{"Station_ID":"DVLQ6","Station_Nam":"DEVIOUS LAKE","Latitude":"49.19890","Longitude":"-87.76440","Snowdepth":"43.460","Units":"in","Rept_Date":"2020-04-15 06"},"coordinates":[2223,8746]},{"type":"Point","properties":{"Station_ID":"CLUM4","Station_Nam":"CALUMET-TAMARACK","Latitude":"47.24550","Longitude":"-88.46790","Snowdepth":"38.000","Units":"in","Rept_Date":"2020-04-14 13"},"coordinates":[2057,7777]},{"type":"Point","properties":{"Station_ID":"PDLM4","Station_Nam":"PAINESDALE","Latitude":"47.04160","Longitude":"-88.67170","Snowdepth":"33.000","Units":"in","Rept_Date":"2020-04-14 12"},"coordinates":[2010,7676]},{"type":"Point","properties":{"Station_ID":"MNSM4","Station_Nam":"MUNISING","Latitude":"46.41210","Longitude":"-86.66250","Snowdepth":"32.000","Units":"in","Rept_Date":"2020-04-14 10"},"coordinates":[2481,7364]},{"type":"Point","properties":{"Station_ID":"CAN-NS-39","Station_Nam":"ST. ANNS 2.8 NW, CA","Latitude":"46.25082","Longitude":"-60.64340","Snowdepth":"29.000","Units":"in","Rept_Date":"2020-04-14 10"},"coordinates":[8588,7284]},{"type":"Point","properties":{"Station_ID":"MI-BG-3","Station_Nam":"L'ANSE 17.8 SE, MI","Latitude":"46.55730","Longitude":"-88.20770","Snowdepth":"27.000","Units":"in","Rept_Date":"2020-04-14 12"},"coordinates":[2119,7436]},{"type":"Point","properties":{"Station_ID":"MQT","Station_Nam":"MARQUETTE, MI","Latitude":"46.53140","Longitude":"-87.54920","Snowdepth":"26.000","Units":"in","Rept_Date":"2020-04-15 06"},"coordinates":[2273,7424]},{"type":"Point","properties":{"Station_ID":"HERM4","Station_Nam":"HERMAN,MI","Latitude":"46.65000","Longitude":"-88.33330","Snowdepth":"25.000","Units":"in","Rept_Date":"2020-04-14 12"},"coordinates":[2089,7482]},{"type":"Point","properties":{"Station_ID":"KSGM4","Station_Nam":"KEARSARGE","Latitude":"47.27520","Longitude":"-88.41700","Snowdepth":"21.000","Units":"in","Rept_Date":"2020-04-14 12"},"coordinates":[2069,7792]},{"type":"Point","properties":{"Station_ID":"ALSM1","Station_Nam":"ALLAGASH SNOW COURSE","Latitude":"47.07110","Longitude":"-69.07720","Snowdepth":"18.500","Units":"in","Rept_Date":"2020-04-14 16"},"coordinates":[6609,7691]},{"type":"Point","properties":{"Station_ID":"QNCM4","Station_Nam":"QUINCY HILL","Latitude":"47.13640","Longitude":"-88.57950","Snowdepth":"18.000","Units":"in","Rept_Date":"2020-04-14 12"},"coordinates":[2031,7723]},{"type":"Point","properties":{"Station_ID":"HWRM1","Station_Nam":"HATHAWAY ROAD SNOW CORE","Latitude":"46.80830","Longitude":"-68.49580","Snowdepth":"18.000","Units":"in","Rept_Date":"2020-04-14 18"},"coordinates":[6745,7561]},{"type":"Point","properties":{"Station_ID":"GURM1","Station_Nam":"GUERETTE SNOW COURSE","Latitude":"47.08360","Longitude":"-68.23140","Snowdepth":"17.800","Units":"in","Rept_Date":"2020-04-14 13"},"coordinates":[6807,7697]},{"type":"Point","properties":{"Station_ID":"FISM1","Station_Nam":"FORT KENT COOP","Latitude":"47.23850","Longitude":"-68.61240","Snowdepth":"17.400","Units":"in","Rept_Date":"2020-04-14 14"},"coordinates":[6718,7774]},{"type":"Point","properties":{"Station_ID":"CAN-NL-82","Station_Nam":"GANDER 2.7 NW, CAN","Latitude":"48.97737","Longitude":"-54.63396","Snowdepth":"17.300","Units":"in","Rept_Date":"2020-04-14 09"},"coordinates":[9999,8636]},{"type":"Point","properties":{"Station_ID":"CAN-NB-13","Station_Nam":"BATHURST 3.8 NW, CAN","Latitude":"47.64212","Longitude":"-65.68756","Snowdepth":"17.000","Units":"in","Rept_Date":"2020-04-14 10"},"coordinates":[7404,7974]},{"type":"Point","properties":{"Station_ID":"PTLQ6","Station_Nam":"PORTAGE LAKE","Latitude":"49.06950","Longitude":"-86.65940","Snowdepth":"16.460","Units":"in","Rept_Date":"2020-04-15 06"},"coordinates":[2482,8682]},{"type":"Point","properties":{"Station_ID":"WNTM1","Station_Nam":"WINTERVILLE SNOW COURSE","Latitude":"46.93170","Longitude":"-68.52720","Snowdepth":"16.000","Units":"in","Rept_Date":"2020-04-14 18"},"coordinates":[6738,7622]},{"type":"Point","properties":{"Station_ID":"NH-CS-10","Station_Nam":"RANDOLPH 1.4 NE, NH","Latitude":"44.38824","Longitude":"-71.26950","Snowdepth":"16.000","Units":"in","Rept_Date":"2020-04-14 11"},"coordinates":[6094,6361]},{"type":"Point","properties":{"Station_ID":"CAN-NS-61","Station_Nam":"ASPY  BAY 0.9 SW, CA","Latitude":"46.91621","Longitude":"-60.49460","Snowdepth":"16.000","Units":"in","Rept_Date":"2020-04-14 10"},"coordinates":[8623,7614]},{"type":"Point","properties":{"Station_ID":"TRIQ6","Station_Nam":"TRIO LAKE","Latitude":"49.22880","Longitude":"-87.22920","Snowdepth":"15.430","Units":"in","Rept_Date":"2020-04-15 06"},"coordinates":[2348,8761]},{"type":"Point","properties":{"Station_ID":"SVBQ6","Station_Nam":"SAVANT BASE","Latitude":"50.28730","Longitude":"-90.65670","Snowdepth":"14.610","Units":"in","Rept_Date":"2020-04-15 06"},"coordinates":[1544,9285]},{"type":"Point","properties":{"Station_ID":"PNKM1","Station_Nam":"PINKHAM MILL SNOW CORE","Latitude":"46.71270","Longitude":"-68.45840","Snowdepth":"14.200","Units":"in","Rept_Date":"2020-04-14 15"},"coordinates":[6754,7513]},{"type":"Point","properties":{"Station_ID":"WLFM5","Station_Nam":"WOLF RIDGE ENVIRON LEARNING CENTER","Latitude":"47.38240","Longitude":"-91.19730","Snowdepth":"14.000","Units":"in","Rept_Date":"2020-04-14 12"},"coordinates":[1417,7845]},{"type":"Point","properties":{"Station_ID":"STEM4","Station_Nam":"STEUBEN","Latitude":"46.18530","Longitude":"-86.46410","Snowdepth":"14.000","Units":"in","Rept_Date":"2020-04-14 13"},"coordinates":[2528,7252]},{"type":"Point","properties":{"Station_ID":"BBEM4","Station_Nam":"BIG BAY 9SW","Latitude":"46.74620","Longitude":"-87.88160","Snowdepth":"14.000","Units":"in","Rept_Date":"2020-04-14 12"},"coordinates":[2195,7530]},{"type":"Point","properties":{"Station_ID":"ME-AR-18","Station_Nam":"NEW SWEDEN 4.9 NNW, ME","Latitude":"47.01080","Longitude":"-68.14390","Snowdepth":"13.500","Units":"in","Rept_Date":"2020-04-14 11"},"coordinates":[6828,7661]},{"type":"Point","properties":{"Station_ID":"KNCM1","Station_Nam":"KNOWLES CORNER - MCOOP","Latitude":"46.20780","Longitude":"-68.31420","Snowdepth":"13.400","Units":"in","Rept_Date":"2020-04-14 17"},"coordinates":[6788,7263]},{"type":"Point","properties":{"Station_ID":"KISM4","Station_Nam":"K.I. SAWYER WWTP","Latitude":"46.33410","Longitude":"-87.37790","Snowdepth":"13.000","Units":"in","Rept_Date":"2020-04-14 12"},"coordinates":[2313,7326]},{"type":"Point","properties":{"Station_ID":"CAN-NL-65","Station_Nam":"KIPPENS 0.7 NE, CA","Latitude":"48.55436","Longitude":"-58.61850","Snowdepth":"12.500","Units":"in","Rept_Date":"2020-04-14 11"},"coordinates":[9064,8426]},{"type":"Point","properties":{"Station_ID":"CAN-NB-11","Station_Nam":"MIRAMICHI 3.3 S, CAN","Latitude":"46.99343","Longitude":"-65.50690","Snowdepth":"12.500","Units":"in","Rept_Date":"2020-04-14 09"},"coordinates":[7447,7653]},{"type":"Point","properties":{"Station_ID":"MI-HG-6","Station_Nam":"CALUMET 5.8 ENE, MI","Latitude":"47.27200","Longitude":"-88.33400","Snowdepth":"12.000","Units":"in","Rept_Date":"2020-04-14 10"},"coordinates":[2089,7791]},{"type":"Point","properties":{"Station_ID":"HRVM4","Station_Nam":"HARVEY","Latitude":"46.49080","Longitude":"-87.35470","Snowdepth":"12.000","Units":"in","Rept_Date":"2020-04-14 11"},"coordinates":[2319,7403]},{"type":"Point","properties":{"Station_ID":"GGRM4","Station_Nam":"GREEN GARDEN NO.2","Latitude":"46.45330","Longitude":"-87.30380","Snowdepth":"12.000","Units":"in","Rept_Date":"2020-04-14 11"},"coordinates":[2331,7385]},{"type":"Point","properties":{"Station_ID":"BGBM4","Station_Nam":"BIG BAY 1NW","Latitude":"46.83250","Longitude":"-87.75040","Snowdepth":"12.000","Units":"in","Rept_Date":"2020-04-14 12"},"coordinates":[2226,7573]},{"type":"Point","properties":{"Station_ID":"LNOW3","Station_Nam":"LAND O LAKES","Latitude":"46.19000","Longitude":"-89.45700","Snowdepth":"11.000","Units":"in","Rept_Date":"2020-04-14 12"},"coordinates":[1825,7254]},{"type":"Point","properties":{"Station_ID":"CNNW3","Station_Nam":"CRANDON","Latitude":"45.55110","Longitude":"-88.89830","Snowdepth":"11.000","Units":"in","Rept_Date":"2020-04-14 16"},"coordinates":[1956,6938]},{"type":"Point","properties":{"Station_ID":"AROM4","Station_Nam":"ARNOLD,MI","Latitude":"46.06670","Longitude":"-87.48330","Snowdepth":"11.000","Units":"in","Rept_Date":"2020-04-14 12"},"coordinates":[2289,7193]},{"type":"Point","properties":{"Station_ID":"WI-VL-9","Station_Nam":"LAND O' LAKES 11.7 W, WI","Latitude":"46.19023","Longitude":"-89.45790","Snowdepth":"10.500","Units":"in","Rept_Date":"2020-04-14 12"},"coordinates":[1825,7254]},{"type":"Point","properties":{"Station_ID":"WI-IR-3","Station_Nam":"PENCE 0.1 E, WI","Latitude":"46.41555","Longitude":"-90.27013","Snowdepth":"10.000","Units":"in","Rept_Date":"2020-04-14 12"},"coordinates":[1634,7366]},{"type":"Point","properties":{"Station_ID":"MI-GG-4","Station_Nam":"WATERSMEET 5.0 SE, MI","Latitude":"46.20333","Longitude":"-89.13170","Snowdepth":"10.000","Units":"in","Rept_Date":"2020-04-14 13"},"coordinates":[1902,7261]},{"type":"Point","properties":{"Station_ID":"ABGW3","Station_Nam":"AMBERG 9 E","Latitude":"45.48250","Longitude":"-87.81190","Snowdepth":"10.000","Units":"in","Rept_Date":"2020-04-14 11"},"coordinates":[2211,6904]},{"type":"Point","properties":{"Station_ID":"SQPM1","Station_Nam":"SQUA PAN DAM","Latitude":"46.55610","Longitude":"-68.32550","Snowdepth":"9.300","Units":"in","Rept_Date":"2020-04-14 15"},"coordinates":[6785,7436]},{"type":"Point","properties":{"Station_ID":"WI-VL-10","Station_Nam":"LAND O LAKES 4.3 WNW, WI","Latitude":"46.17440","Longitude":"-89.30380","Snowdepth":"9.000","Units":"in","Rept_Date":"2020-04-14 12"},"coordinates":[1861,7247]},{"type":"Point","properties":{"Station_ID":"WI-LN-2","Station_Nam":"MERRILL 7.0 W, WI","Latitude":"45.17746","Longitude":"-89.84820","Snowdepth":"9.000","Units":"in","Rept_Date":"2020-04-14 11"},"coordinates":[1733,6752]},{"type":"Point","properties":{"Station_ID":"TAKW3","Station_Nam":"RICE RESERVOIR NO. 2","Latitude":"45.53770","Longitude":"-89.73220","Snowdepth":"9.000","Units":"in","Rept_Date":"2020-04-14 12"},"coordinates":[1761,6931]},{"type":"Point","properties":{"Station_ID":"PDGM4","Station_Nam":"PAULDING","Latitude":"46.39760","Longitude":"-89.17940","Snowdepth":"9.000","Units":"in","Rept_Date":"2020-04-14 12"},"coordinates":[1890,7357]},{"type":"Point","properties":{"Station_ID":"MRQM4","Station_Nam":"MARQUETTE WFP","Latitude":"46.54580","Longitude":"-87.37950","Snowdepth":"9.000","Units":"in","Rept_Date":"2020-04-14 12"},"coordinates":[2313,7431]},{"type":"Point","properties":{"Station_ID":"MLLW3","Station_Nam":"MERRILL 8W","Latitude":"45.17810","Longitude":"-89.84810","Snowdepth":"9.000","Units":"in","Rept_Date":"2020-04-14 16"},"coordinates":[1733,6753]},{"type":"Point","properties":{"Station_ID":"MI-MQ-19","Station_Nam":"ISHPEMING 7.2 SW, MI","Latitude":"46.40550","Longitude":"-87.75670","Snowdepth":"9.000","Units":"in","Rept_Date":"2020-04-14 10"},"coordinates":[2224,7361]},{"type":"Point","properties":{"Station_ID":"LVDW3","Station_Nam":"LAC VIEUX DESERT","Latitude":"46.12110","Longitude":"-89.07580","Snowdepth":"9.000","Units":"in","Rept_Date":"2020-04-14 14"},"coordinates":[1915,7220]},{"type":"Point","properties":{"Station_ID":"IBLM5","Station_Nam":"ISABELLA 14W","Latitude":"47.59360","Longitude":"-91.65140","Snowdepth":"9.000","Units":"in","Rept_Date":"2020-04-14 14"},"coordinates":[1310,7950]},{"type":"Point","properties":{"Station_ID":"COVM4","Station_Nam":"COVINGTON","Latitude":"46.55880","Longitude":"-88.54190","Snowdepth":"9.000","Units":"in","Rept_Date":"2020-04-14 12"},"coordinates":[2040,7437]},{"type":"Point","properties":{"Station_ID":"AMAM4","Station_Nam":"AMASA 1W","Latitude":"46.23470","Longitude":"-88.45440","Snowdepth":"9.000","Units":"in","Rept_Date":"2020-04-14 13"},"coordinates":[2061,7276]},{"type":"Point","properties":{"Station_ID":"AGNW3","Station_Nam":"ARGONNE-1.5 NW","Latitude":"45.67360","Longitude":"-88.90380","Snowdepth":"9.000","Units":"in","Rept_Date":"2020-04-14 13"},"coordinates":[1955,6998]},{"type":"Point","properties":{"Station_ID":"ZNOM4","Station_Nam":"NORWAY","Latitude":"45.77810","Longitude":"-87.89560","Snowdepth":"8.000","Units":"in","Rept_Date":"2020-04-14 12"},"coordinates":[2192,7050]},{"type":"Point","properties":{"Station_ID":"WTNM4","Station_Nam":"WATTON 2WSW","Latitude":"46.52660","Longitude":"-88.64240","Snowdepth":"8.000","Units":"in","Rept_Date":"2020-04-14 12"},"coordinates":[2016,7421]},{"type":"Point","properties":{"Station_ID":"WI-ON-8","Station_Nam":"HAZELHURST 2.1 SSE, WI","Latitude":"45.78186","Longitude":"-89.70330","Snowdepth":"8.000","Units":"in","Rept_Date":"2020-04-14 12"},"coordinates":[1767,7052]},{"type":"Point","properties":{"Station_ID":"STGW3","Station_Nam":"ST GERMAIN","Latitude":"45.91550","Longitude":"-89.48940","Snowdepth":"8.000","Units":"in","Rept_Date":"2020-04-14 11"},"coordinates":[1818,7118]},{"type":"Point","properties":{"Station_ID":"RHIW3","Station_Nam":"RHINELANDER","Latitude":"45.59860","Longitude":"-89.45080","Snowdepth":"8.000","Units":"in","Rept_Date":"2020-04-14 12"},"coordinates":[1827,6961]},{"type":"Point","properties":{"Station_ID":"RGNM1","Station_Nam":"RANGELEY 2NW","Latitude":"44.98940","Longitude":"-70.67220","Snowdepth":"8.000","Units":"in","Rept_Date":"2020-04-14 10"},"coordinates":[6234,6659]},{"type":"Point","properties":{"Station_ID":"PRDM4","Station_Nam":"PARADISE","Latitude":"46.60380","Longitude":"-85.03960","Snowdepth":"8.000","Units":"in","Rept_Date":"2020-04-14 10"},"coordinates":[2862,7459]},{"type":"Point","properties":{"Station_ID":"FLNW3","Station_Nam":"FLORENCE","Latitude":"45.93360","Longitude":"-88.25830","Snowdepth":"8.000","Units":"in","Rept_Date":"2020-04-14 12"},"coordinates":[2107,7127]},{"type":"Point","properties":{"Station_ID":"CLKM4","Station_Nam":"CLARKSBURG","Latitude":"46.49910","Longitude":"-87.84500","Snowdepth":"8.000","Units":"in","Rept_Date":"2020-04-14 11"},"coordinates":[2204,7407]},{"type":"Point","properties":{"Station_ID":"BRAM1","Station_Nam":"BRASSUA DAM","Latitude":"45.66020","Longitude":"-69.81190","Snowdepth":"8.000","Units":"in","Rept_Date":"2020-04-14 11"},"coordinates":[6436,6992]},{"type":"Point","properties":{"Station_ID":"ASTW3","Station_Nam":"ATHELSTANE","Latitude":"45.42500","Longitude":"-88.05750","Snowdepth":"8.000","Units":"in","Rept_Date":"2020-04-14 16"},"coordinates":[2154,6875]},{"type":"Point","properties":{"Station_ID":"OXBM1","Station_Nam":"OXBOW - MCOOP","Latitude":"46.42700","Longitude":"-68.55300","Snowdepth":"7.900","Units":"in","Rept_Date":"2020-04-14 16"},"coordinates":[6732,7372]},{"type":"Point","properties":{"Station_ID":"WI-ON-6","Station_Nam":"RHINELANDER 5.2 N, WI","Latitude":"45.71388","Longitude":"-89.42150","Snowdepth":"7.500","Units":"in","Rept_Date":"2020-04-14 13"},"coordinates":[1834,7018]},{"type":"Point","properties":{"Station_ID":"WI-CK-3","Station_Nam":"COLBY 5.9 WSW, WI","Latitude":"44.87209","Longitude":"-90.42463","Snowdepth":"7.500","Units":"in","Rept_Date":"2020-04-15 00"},"coordinates":[1598,6601]},{"type":"Point","properties":{"Station_ID":"MI-HG-1","Station_Nam":"HOUGHTON 1.6 ESE, MI","Latitude":"47.10774","Longitude":"-88.52940","Snowdepth":"7.500","Units":"in","Rept_Date":"2020-04-14 12"},"coordinates":[2043,7709]},{"type":"Point","properties":{"Station_ID":"CAN-QC-47","Station_Nam":"SAINTE-FOY 1.8 ENE, CAN","Latitude":"46.76934","Longitude":"-71.27124","Snowdepth":"7.100","Units":"in","Rept_Date":"2020-04-14 11"},"coordinates":[6094,7541]},{"type":"Point","properties":{"Station_ID":"WRPW3","Station_Nam":"WATER PURIFICATION PLANT","Latitude":"44.38800","Longitude":"-89.80550","Snowdepth":"7.000","Units":"in","Rept_Date":"2020-04-14 16"},"coordinates":[1743,6361]},{"type":"Point","properties":{"Station_ID":"SULW3","Station_Nam":"SUMMIT LAKE","Latitude":"45.37880","Longitude":"-89.19410","Snowdepth":"7.000","Units":"in","Rept_Date":"2020-04-14 15"},"coordinates":[1887,6852]},{"type":"Point","properties":{"Station_ID":"RLKW3","Station_Nam":"REST LAKE","Latitude":"46.12220","Longitude":"-89.87720","Snowdepth":"7.000","Units":"in","Rept_Date":"2020-04-14 13"},"coordinates":[1727,7221]},{"type":"Point","properties":{"Station_ID":"RHLW3","Station_Nam":"RHINELANDER 4NE","Latitude":"45.65270","Longitude":"-89.30740","Snowdepth":"7.000","Units":"in","Rept_Date":"2020-04-14 16"},"coordinates":[1860,6988]},{"type":"Point","properties":{"Station_ID":"MEDW3","Station_Nam":"MEDFORD","Latitude":"45.13080","Longitude":"-90.34390","Snowdepth":"7.000","Units":"in","Rept_Date":"2020-04-14 13"},"coordinates":[1617,6729]},{"type":"Point","properties":{"Station_ID":"IWOM4","Station_Nam":"IRONWOOD#2","Latitude":"46.46520","Longitude":"-90.13820","Snowdepth":"7.000","Units":"in","Rept_Date":"2020-04-14 12"},"coordinates":[1665,7391]},{"type":"Point","properties":{"Station_ID":"EVRW3","Station_Nam":"EAGLE RIVER-4 E","Latitude":"45.91890","Longitude":"-89.15280","Snowdepth":"7.000","Units":"in","Rept_Date":"2020-04-14 16"},"coordinates":[1897,7120]},{"type":"Point","properties":{"Station_ID":"CRVW3","Station_Nam":"CRIVITZ HIGH FALLS","Latitude":"45.35750","Longitude":"-88.19190","Snowdepth":"7.000","Units":"in","Rept_Date":"2020-04-14 12"},"coordinates":[2122,6842]},{"type":"Point","properties":{"Station_ID":"KABQ6","Station_Nam":"CAB LAKE","Latitude":"49.59950","Longitude":"-89.17990","Snowdepth":"6.650","Units":"in","Rept_Date":"2020-04-15 06"},"coordinates":[1890,8944]},{"type":"Point","properties":{"Station_ID":"MN-OL-18","Station_Nam":"ROCHESTER 2.6 NE, MN","Latitude":"44.03975","Longitude":"-92.43750","Snowdepth":"6.500","Units":"in","Rept_Date":"2020-04-14 11"},"coordinates":[1126,6188]},{"type":"Point","properties":{"Station_ID":"SOCQ6","Station_Nam":"SOCKET LAKE","Latitude":"50.77870","Longitude":"-91.79300","Snowdepth":"6.460","Units":"in","Rept_Date":"2020-04-15 06"},"coordinates":[1277,9529]},{"type":"Point","properties":{"Station_ID":"DYRM1","Station_Nam":"DYER BROOK SNOWCOR","Latitude":"46.04820","Longitude":"-68.22600","Snowdepth":"6.200","Units":"in","Rept_Date":"2020-04-14 18"},"coordinates":[6809,7184]},{"type":"Point","properties":{"Station_ID":"WI-VL-14","Station_Nam":"BOULDER JUNCTION 1.4 NE, WI","Latitude":"46.12840","Longitude":"-89.62470","Snowdepth":"6.000","Units":"in","Rept_Date":"2020-04-14 12"},"coordinates":[1786,7224]},{"type":"Point","properties":{"Station_ID":"VT-CL-3","Station_Nam":"GROTON 4.4 WSW, VT","Latitude":"44.19440","Longitude":"-72.28240","Snowdepth":"6.000","Units":"in","Rept_Date":"2020-04-14 10"},"coordinates":[5857,6265]},{"type":"Point","properties":{"Station_ID":"SUAW3","Station_Nam":"SUAMICO","Latitude":"44.60190","Longitude":"-88.09780","Snowdepth":"6.000","Units":"in","Rept_Date":"2020-04-14 16"},"coordinates":[2144,6467]},{"type":"Point","properties":{"Station_ID":"SPCW3","Station_Nam":"SPENCER-WWTP","Latitude":"44.75390","Longitude":"-90.28920","Snowdepth":"6.000","Units":"in","Rept_Date":"2020-04-14 12"},"coordinates":[1630,6542]},{"type":"Point","properties":{"Station_ID":"RKWM1","Station_Nam":"MOOSEHEAD LAKE","Latitude":"45.58330","Longitude":"-69.71670","Snowdepth":"6.000","Units":"in","Rept_Date":"2020-04-14 11"},"coordinates":[6459,6954]},{"type":"Point","properties":{"Station_ID":"MNEY8CTB","Station_Nam":"MIDLAND JUNCTION 2.2 ENE","Latitude":"44.33041","Longitude":"-91.95891","Snowdepth":"6.000","Units":"in","Rept_Date":"2020-04-14 13"},"coordinates":[1238,6332]},{"type":"Point","properties":{"Station_ID":"MIEM4","Station_Nam":"MICHIGAMME 3WNW","Latitude":"46.54530","Longitude":"-88.18000","Snowdepth":"6.000","Units":"in","Rept_Date":"2020-04-14 12"},"coordinates":[2125,7430]},{"type":"Point","properties":{"Station_ID":"ME-FR-2","Station_Nam":"TEMPLE 1.8 W, ME","Latitude":"44.68329","Longitude":"-70.26420","Snowdepth":"6.000","Units":"in","Rept_Date":"2020-04-14 11"},"coordinates":[6330,6507]},{"type":"Point","properties":{"Station_ID":"HURW3","Station_Nam":"HURLEY","Latitude":"46.46250","Longitude":"-90.19550","Snowdepth":"6.000","Units":"in","Rept_Date":"2020-04-14 13"},"coordinates":[1652,7389]},{"type":"Point","properties":{"Station_ID":"GHMN3","Station_Nam":"PINKHAM NOTCH","Latitude":"44.25800","Longitude":"-71.25250","Snowdepth":"6.000","Units":"in","Rept_Date":"2020-04-14 10"},"coordinates":[6098,6297]},{"type":"Point","properties":{"Station_ID":"EGNM5","Station_Nam":"ELGIN 2SSW","Latitude":"44.09700","Longitude":"-92.27010","Snowdepth":"6.000","Units":"in","Rept_Date":"2020-04-14 12"},"coordinates":[1165,6217]},{"type":"Point","properties":{"Station_ID":"AVTW3","Station_Nam":"ARBOR VITAE-JOHNSON LAKE","Latitude":"45.89940","Longitude":"-89.72670","Snowdepth":"6.000","Units":"in","Rept_Date":"2020-04-14 16"},"coordinates":[1762,7110]},{"type":"Point","properties":{"Station_ID":"AURW3","Station_Nam":"AURORA","Latitude":"45.77000","Longitude":"-88.11810","Snowdepth":"6.000","Units":"in","Rept_Date":"2020-04-14 12"},"coordinates":[2140,7046]},{"type":"Point","properties":{"Station_ID":"ALBM5","Station_Nam":"ALBERT LEA 3 SE","Latitude":"43.60640","Longitude":"-93.30190","Snowdepth":"6.000","Units":"in","Rept_Date":"2020-04-14 13"},"coordinates":[923,5974]},{"type":"Point","properties":{"Station_ID":"WI-PR-6","Station_Nam":"PHILLIPS 1.3 S, WI","Latitude":"45.67677","Longitude":"-90.39543","Snowdepth":"5.500","Units":"in","Rept_Date":"2020-04-14 11"},"coordinates":[1605,7000]},{"type":"Point","properties":{"Station_ID":"CA2M1","Station_Nam":"CARIBOU (CARY MED.) SNOW COURSE","Latitude":"46.87920","Longitude":"-68.00030","Snowdepth":"5.300","Units":"in","Rept_Date":"2020-04-14 19"},"coordinates":[6862,7596]},{"type":"Point","properties":{"Station_ID":"WTRM4","Station_Nam":"WATERSMEET 12WSW","Latitude":"46.22310","Longitude":"-89.40850","Snowdepth":"5.000","Units":"in","Rept_Date":"2020-04-14 11"},"coordinates":[1837,7271]},{"type":"Point","properties":{"Station_ID":"WSKW3","Station_Nam":"WAUSAUKEE","Latitude":"45.38020","Longitude":"-87.95660","Snowdepth":"5.000","Units":"in","Rept_Date":"2020-04-14 13"},"coordinates":[2177,6853]},{"type":"Point","properties":{"Station_ID":"WI-RS-3","Station_Nam":"BRUCE 1.9 E, WI","Latitude":"45.45415","Longitude":"-91.23510","Snowdepth":"5.000","Units":"in","Rept_Date":"2020-04-14 12"},"coordinates":[1408,6889]},{"type":"Point","properties":{"Station_ID":"WI-IR-2","Station_Nam":"MERCER 2.0 SE, WI","Latitude":"46.14749","Longitude":"-90.03097","Snowdepth":"5.000","Units":"in","Rept_Date":"2020-04-14 12"},"coordinates":[1691,7233]},{"type":"Point","properties":{"Station_ID":"WI-DN-1","Station_Nam":"BOYCEVILLE 3.3 N, WI","Latitude":"45.08913","Longitude":"-92.02760","Snowdepth":"5.000","Units":"in","Rept_Date":"2020-04-14 12"},"coordinates":[1222,6709]},{"type":"Point","properties":{"Station_ID":"VT-OL-12","Station_Nam":"GREENSBORO 3.9 NNE, VT","Latitude":"44.63100","Longitude":"-72.28000","Snowdepth":"5.000","Units":"in","Rept_Date":"2020-04-14 10"},"coordinates":[5857,6481]},{"type":"Point","properties":{"Station_ID":"SPRI4","Station_Nam":"SPIRIT LAKE","Latitude":"43.42310","Longitude":"-95.10000","Snowdepth":"5.000","Units":"in","Rept_Date":"2020-04-14 12"},"coordinates":[501,5883]},{"type":"Point","properties":{"Station_ID":"RST","Station_Nam":"ROCHESTER INTERNATIONAL ARPT","Latitude":"43.90890","Longitude":"-92.49780","Snowdepth":"5.000","Units":"in","Rept_Date":"2020-04-15 00"},"coordinates":[1112,6123]},{"type":"Point","properties":{"Station_ID":"RSRM5","Station_Nam":"ROCHESTER AP 2NE","Latitude":"43.92810","Longitude":"-92.47580","Snowdepth":"5.000","Units":"in","Rept_Date":"2020-04-14 23"},"coordinates":[1117,6133]},{"type":"Point","properties":{"Station_ID":"RRLW3","Station_Nam":"MERRILL,WI","Latitude":"45.17860","Longitude":"-89.66170","Snowdepth":"5.000","Units":"in","Rept_Date":"2020-04-14 13"},"coordinates":[1777,6753]},{"type":"Point","properties":{"Station_ID":"RHRW3","Station_Nam":"RHINELANDER WJFW TV-12","Latitude":"45.62220","Longitude":"-89.41000","Snowdepth":"5.000","Units":"in","Rept_Date":"2020-04-15 03"},"coordinates":[1836,6973]},{"type":"Point","properties":{"Station_ID":"RHI","Station_Nam":"RHINELANDER-ONEIDA COUNTY AIRPORT","Latitude":"45.63080","Longitude":"-89.46530","Snowdepth":"5.000","Units":"in","Rept_Date":"2020-04-14 12"},"coordinates":[1823,6977]},{"type":"Point","properties":{"Station_ID":"PRNW3","Station_Nam":"PRENTICE,WI","Latitude":"45.54780","Longitude":"-90.30000","Snowdepth":"5.000","Units":"in","Rept_Date":"2020-04-14 13"},"coordinates":[1627,6936]},{"type":"Point","properties":{"Station_ID":"MWN","Station_Nam":"MOUNT WASHINGTON","Latitude":"44.26670","Longitude":"-71.30000","Snowdepth":"5.000","Units":"in","Rept_Date":"2020-04-14 12"},"coordinates":[6087,6301]},{"type":"Point","properties":{"Station_ID":"MSCM5","Station_Nam":"MINNESOTA CITY","Latitude":"44.16000","Longitude":"-91.81220","Snowdepth":"5.000","Units":"in","Rept_Date":"2020-04-14 13"},"coordinates":[1272,6248]},{"type":"Point","properties":{"Station_ID":"MNCKG6BM","Station_Nam":"VISTA 4.6 SE","Latitude":"43.91333","Longitude":"-93.39663","Snowdepth":"5.000","Units":"in","Rept_Date":"2020-04-14 12"},"coordinates":[901,6126]},{"type":"Point","properties":{"Station_ID":"KMWN","Station_Nam":"MOUNT WASHINGTON","Latitude":"44.26666","Longitude":"-71.30000","Snowdepth":"5.000","Units":"in","Rept_Date":"2020-04-15 06"},"coordinates":[6087,6301]},{"type":"Point","properties":{"Station_ID":"JCBM4","Station_Nam":"JACOBSVILLE","Latitude":"47.00830","Longitude":"-88.43180","Snowdepth":"5.000","Units":"in","Rept_Date":"2020-04-14 11"},"coordinates":[2066,7660]},{"type":"Point","properties":{"Station_ID":"IRMM4","Station_Nam":"WWTP","Latitude":"46.46670","Longitude":"-90.18330","Snowdepth":"5.000","Units":"in","Rept_Date":"2020-04-14 12"},"coordinates":[1655,7391]},{"type":"Point","properties":{"Station_ID":"HSTM5","Station_Nam":"HASTINGS DAM 2","Latitude":"44.75970","Longitude":"-92.86890","Snowdepth":"5.000","Units":"in","Rept_Date":"2020-04-14 11"},"coordinates":[1024,6545]},{"type":"Point","properties":{"Station_ID":"ERRW3","Station_Nam":"MERRILL-4 W","Latitude":"45.17360","Longitude":"-89.77580","Snowdepth":"5.000","Units":"in","Rept_Date":"2020-04-14 21"},"coordinates":[1750,6750]},{"type":"Point","properties":{"Station_ID":"EPTW3","Station_Nam":"EAU PLEINE TENDER","Latitude":"44.77220","Longitude":"-89.76720","Snowdepth":"5.000","Units":"in","Rept_Date":"2020-04-14 12"},"coordinates":[1752,6551]},{"type":"Point","properties":{"Station_ID":"EGRW3","Station_Nam":"EAGLE RIVER-SOUTH","Latitude":"45.91360","Longitude":"-89.24360","Snowdepth":"5.000","Units":"in","Rept_Date":"2020-04-14 12"},"coordinates":[1875,7117]},{"type":"Point","properties":{"Station_ID":"CARM1","Station_Nam":"CARIBOU WFO","Latitude":"46.86810","Longitude":"-68.01250","Snowdepth":"5.000","Units":"in","Rept_Date":"2020-04-15 04"},"coordinates":[6859,7590]},{"type":"Point","properties":{"Station_ID":"BREW3","Station_Nam":"SURING","Latitude":"44.99580","Longitude":"-88.37860","Snowdepth":"5.000","Units":"in","Rept_Date":"2020-04-14 12"},"coordinates":[2078,6662]},{"type":"Point","properties":{"Station_ID":"MTCM1","Station_Nam":"MONTICELLO SNOW COURSE","Latitude":"46.33280","Longitude":"-67.84190","Snowdepth":"4.900","Units":"in","Rept_Date":"2020-04-14 19"},"coordinates":[6899,7325]},{"type":"Point","properties":{"Station_ID":"CAN-ON-757","Station_Nam":"SAULT STE. MARIE 2.8 ESE - GLFC, CAN","Latitude":"46.50300","Longitude":"-84.30300","Snowdepth":"4.800","Units":"in","Rept_Date":"2020-04-14 12"},"coordinates":[3035,7409]},{"type":"Point","properties":{"Station_ID":"CAN-NB-96","Station_Nam":"SAINT-IGNACE 2.6 NE, CAN","Latitude":"46.71424","Longitude":"-65.05609","Snowdepth":"4.700","Units":"in","Rept_Date":"2020-04-14 10"},"coordinates":[7553,7514]},{"type":"Point","properties":{"Station_ID":"WI-EC-25","Station_Nam":"EAU CLAIRE 5.4 SSE, WI","Latitude":"44.75300","Longitude":"-91.43830","Snowdepth":"4.500","Units":"in","Rept_Date":"2020-04-14 13"},"coordinates":[1360,6542]},{"type":"Point","properties":{"Station_ID":"WI-EC-23","Station_Nam":"EAU CLAIRE 3.7 S, WI","Latitude":"44.76858","Longitude":"-91.49898","Snowdepth":"4.500","Units":"in","Rept_Date":"2020-04-14 13"},"coordinates":[1346,6550]},{"type":"Point","properties":{"Station_ID":"MI-CP-14","Station_Nam":"SAULT STE. MARIE 2.2 E, MI","Latitude":"46.48933","Longitude":"-84.31971","Snowdepth":"4.500","Units":"in","Rept_Date":"2020-04-14 13"},"coordinates":[3031,7403]},{"type":"Point","properties":{"Station_ID":"WLKW3","Station_Nam":"WHITE LAKE 1 SE","Latitude":"45.14520","Longitude":"-88.74160","Snowdepth":"4.000","Units":"in","Rept_Date":"2020-04-14 13"},"coordinates":[1993,6736]},{"type":"Point","properties":{"Station_ID":"WI-WB-2","Station_Nam":"STONE LAKE 2.0 NW, WI","Latitude":"45.85960","Longitude":"-91.57710","Snowdepth":"4.000","Units":"in","Rept_Date":"2020-04-14 12"},"coordinates":[1328,7090]},{"type":"Point","properties":{"Station_ID":"WI-RS-1","Station_Nam":"LADYSMITH 2.8 WNW, WI","Latitude":"45.48180","Longitude":"-91.14680","Snowdepth":"4.000","Units":"in","Rept_Date":"2020-04-14 12"},"coordinates":[1429,6903]},{"type":"Point","properties":{"Station_ID":"WI-EC-5","Station_Nam":"ALTOONA 0.4 SW, WI","Latitude":"44.80128","Longitude":"-91.44819","Snowdepth":"4.000","Units":"in","Rept_Date":"2020-04-14 11"},"coordinates":[1358,6566]},{"type":"Point","properties":{"Station_ID":"WI-CH-7","Station_Nam":"CHIPPEWA FALLS 1.2 E, WI","Latitude":"44.92920","Longitude":"-91.36730","Snowdepth":"4.000","Units":"in","Rept_Date":"2020-04-14 12"},"coordinates":[1377,6629]},{"type":"Point","properties":{"Station_ID":"WABM5","Station_Nam":"WABASHA","Latitude":"44.38500","Longitude":"-92.04860","Snowdepth":"4.000","Units":"in","Rept_Date":"2020-04-14 12"},"coordinates":[1217,6359]},{"type":"Point","properties":{"Station_ID":"THLM5","Station_Nam":"THEILMAN 1SSW","Latitude":"44.28130","Longitude":"-92.19430","Snowdepth":"4.000","Units":"in","Rept_Date":"2020-04-14 12"},"coordinates":[1183,6308]},{"type":"Point","properties":{"Station_ID":"STRW3","Station_Nam":"STRATFORD 1NW","Latitude":"44.81750","Longitude":"-90.08990","Snowdepth":"4.000","Units":"in","Rept_Date":"2020-04-14 16"},"coordinates":[1677,6574]},{"type":"Point","properties":{"Station_ID":"STMM4","Station_Nam":"STAMBAUGH 2SSE","Latitude":"46.05550","Longitude":"-88.62780","Snowdepth":"4.000","Units":"in","Rept_Date":"2020-04-14 12"},"coordinates":[2020,7188]},{"type":"Point","properties":{"Station_ID":"PKFW3","Station_Nam":"PARK FALLS,WI","Latitude":"45.93360","Longitude":"-90.45060","Snowdepth":"4.000","Units":"in","Rept_Date":"2020-04-14 13"},"coordinates":[1592,7127]},{"type":"Point","properties":{"Station_ID":"PIPM5","Station_Nam":"PIPESTONE,MN","Latitude":"44.01390","Longitude":"-96.32580","Snowdepth":"4.000","Units":"in","Rept_Date":"2020-04-14 13"},"coordinates":[213,6176]},{"type":"Point","properties":{"Station_ID":"OWEW3","Station_Nam":"OWEN 1E","Latitude":"44.94610","Longitude":"-90.55170","Snowdepth":"4.000","Units":"in","Rept_Date":"2020-04-14 12"},"coordinates":[1568,6638]},{"type":"Point","properties":{"Station_ID":"MONS2","Station_Nam":"MONTROSE","Latitude":"43.70500","Longitude":"-97.18780","Snowdepth":"4.000","Units":"in","Rept_Date":"2020-04-14 13"},"coordinates":[11,6022]},{"type":"Point","properties":{"Station_ID":"MNOW3","Station_Nam":"CEDAR FALLS HYDRO PLANT","Latitude":"44.93550","Longitude":"-91.88850","Snowdepth":"4.000","Units":"in","Rept_Date":"2020-04-14 12"},"coordinates":[1255,6632]},{"type":"Point","properties":{"Station_ID":"MN-GH-3","Station_Nam":"LAKE CITY 1.2 NNW, MN","Latitude":"44.45597","Longitude":"-92.29070","Snowdepth":"4.000","Units":"in","Rept_Date":"2020-04-14 12"},"coordinates":[1160,6395]},{"type":"Point","properties":{"Station_ID":"MN-CV-22","Station_Nam":"VICTORIA 1.6 WSW, MN","Latitude":"44.85670","Longitude":"-93.68640","Snowdepth":"4.000","Units":"in","Rept_Date":"2020-04-14 12"},"coordinates":[833,6593]},{"type":"Point","properties":{"Station_ID":"MN-CK-6","Station_Nam":"GRAND MARAIS 4.4 W, MN","Latitude":"47.74865","Longitude":"-90.43760","Snowdepth":"4.000","Units":"in","Rept_Date":"2020-04-14 12"},"coordinates":[1595,8027]},{"type":"Point","properties":{"Station_ID":"MFDW3","Station_Nam":"MARSHFIELD EXP FARM","Latitude":"44.64110","Longitude":"-90.13330","Snowdepth":"4.000","Units":"in","Rept_Date":"2020-04-14 12"},"coordinates":[1667,6486]},{"type":"Point","properties":{"Station_ID":"ME-AR-15","Station_Nam":"PRESQUE ISLE 1.3 WSW, ME","Latitude":"46.67960","Longitude":"-68.01270","Snowdepth":"4.000","Units":"in","Rept_Date":"2020-04-14 11"},"coordinates":[6859,7497]},{"type":"Point","properties":{"Station_ID":"LAMM5","Station_Nam":"LAMBERTON SW RESEARCH AND OUTREACH CENTER","Latitude":"44.23950","Longitude":"-95.31520","Snowdepth":"4.000","Units":"in","Rept_Date":"2020-04-14 13"},"coordinates":[450,6287]},{"type":"Point","properties":{"Station_ID":"HOLW3","Station_Nam":"HOLCOMBE","Latitude":"45.22370","Longitude":"-91.12700","Snowdepth":"4.000","Units":"in","Rept_Date":"2020-04-14 12"},"coordinates":[1433,6775]},{"type":"Point","properties":{"Station_ID":"ELWW3","Station_Nam":"ELLSWORTH 1E","Latitude":"44.73030","Longitude":"-92.45860","Snowdepth":"4.000","Units":"in","Rept_Date":"2020-04-14 12"},"coordinates":[1121,6531]},{"type":"Point","properties":{"Station_ID":"ELRW3","Station_Nam":"EAU CLAIRE 3SW","Latitude":"44.78780","Longitude":"-91.51650","Snowdepth":"4.000","Units":"in","Rept_Date":"2020-04-15 05"},"coordinates":[1342,6559]},{"type":"Point","properties":{"Station_ID":"EAU","Station_Nam":"CHIPPEWA VALLEY REGIONAL AIRPORT","Latitude":"44.86650","Longitude":"-91.48790","Snowdepth":"4.000","Units":"in","Rept_Date":"2020-04-15 00"},"coordinates":[1349,6598]},{"type":"Point","properties":{"Station_ID":"CNRM1","Station_Nam":"CONNOR TWP","Latitude":"46.95830","Longitude":"-68.03330","Snowdepth":"4.000","Units":"in","Rept_Date":"2020-04-14 12"},"coordinates":[6854,7635]},{"type":"Point","properties":{"Station_ID":"CHES2","Station_Nam":"CHESTER 2N","Latitude":"43.92830","Longitude":"-96.93160","Snowdepth":"4.000","Units":"in","Rept_Date":"2020-04-14 12"},"coordinates":[71,6133]},{"type":"Point","properties":{"Station_ID":"BOWW3","Station_Nam":"STOCKBRIDGE-MUNSEE RESERVATION","Latitude":"44.87000","Longitude":"-88.90440","Snowdepth":"4.000","Units":"in","Rept_Date":"2020-04-14 12"},"coordinates":[1955,6600]},{"type":"Point","properties":{"Station_ID":"BLKW3","Station_Nam":"BLACK RIVER FALLS SEWAGE","Latitude":"44.29040","Longitude":"-90.85360","Snowdepth":"4.000","Units":"in","Rept_Date":"2020-04-14 13"},"coordinates":[1497,6313]},{"type":"Point","properties":{"Station_ID":"ANJM4","Station_Nam":"SNOW PAID OBSERVER FOR KANJ","Latitude":"46.48670","Longitude":"-84.40260","Snowdepth":"4.000","Units":"in","Rept_Date":"2020-04-15 06"},"coordinates":[3012,7401]},{"type":"Point","properties":{"Station_ID":"ANJ","Station_Nam":"SAULT STE MARIE","Latitude":"46.46670","Longitude":"-84.36670","Snowdepth":"4.000","Units":"in","Rept_Date":"2020-04-15 00"},"coordinates":[3020,7391]},{"type":"Point","properties":{"Station_ID":"ALMW3","Station_Nam":"ALMA DAM 4","Latitude":"44.32710","Longitude":"-91.91940","Snowdepth":"4.000","Units":"in","Rept_Date":"2020-04-14 13"},"coordinates":[1247,6331]},{"type":"Point","properties":{"Station_ID":"WI-PR-8","Station_Nam":"PHILLIPS 0.4 SSW, WI","Latitude":"45.69086","Longitude":"-90.40200","Snowdepth":"3.500","Units":"in","Rept_Date":"2020-04-14 12"},"coordinates":[1603,7007]},{"type":"Point","properties":{"Station_ID":"SD-MH-1","Station_Nam":"SIOUX FALLS 5.0 SE ARPT, SD","Latitude":"43.52360","Longitude":"-96.66780","Snowdepth":"3.500","Units":"in","Rept_Date":"2020-04-14 12"},"coordinates":[133,5932]},{"type":"Point","properties":{"Station_ID":"MN-SE-2","Station_Nam":"OWATONNA 0.8 E, MN","Latitude":"44.09170","Longitude":"-93.21380","Snowdepth":"3.500","Units":"in","Rept_Date":"2020-04-14 12"},"coordinates":[943,6214]},{"type":"Point","properties":{"Station_ID":"MN-GH-4","Station_Nam":"NERSTRAND 4.2 E, MN","Latitude":"44.34247","Longitude":"-92.97920","Snowdepth":"3.500","Units":"in","Rept_Date":"2020-04-14 12"},"coordinates":[999,6338]},{"type":"Point","properties":{"Station_ID":"CAN-NB-105","Station_Nam":"SISSON BROOK 3.8 E, CAN","Latitude":"46.98305","Longitude":"-67.32532","Snowdepth":"3.500","Units":"in","Rept_Date":"2020-04-14 11"},"coordinates":[7020,7647]},{"type":"Point","properties":{"Station_ID":"CATQ6","Station_Nam":"CAT LAKE","Latitude":"51.72690","Longitude":"-91.82210","Snowdepth":"3.390","Units":"in","Rept_Date":"2020-04-15 06"},"coordinates":[1270,9999]},{"type":"Point","properties":{"Station_ID":"WUNW3","Station_Nam":"WAUSAU-NORTHEAST","Latitude":"44.97310","Longitude":"-89.61690","Snowdepth":"3.000","Units":"in","Rept_Date":"2020-04-14 16"},"coordinates":[1788,6651]},{"type":"Point","properties":{"Station_ID":"WILW3","Station_Nam":"RESERVOIR","Latitude":"45.70000","Longitude":"-89.83330","Snowdepth":"3.000","Units":"in","Rept_Date":"2020-04-14 16"},"coordinates":[1737,7011]},{"type":"Point","properties":{"Station_ID":"WI-TR-8","Station_Nam":"ETTRICK 4.0 WNW, WI","Latitude":"44.19004","Longitude":"-91.34249","Snowdepth":"3.000","Units":"in","Rept_Date":"2020-04-14 12"},"coordinates":[1383,6263]},{"type":"Point","properties":{"Station_ID":"WI-PR-2","Station_Nam":"BUTTERNUT 5.9 SW, WI","Latitude":"45.96501","Longitude":"-90.59750","Snowdepth":"3.000","Units":"in","Rept_Date":"2020-04-14 11"},"coordinates":[1558,7143]},{"type":"Point","properties":{"Station_ID":"WI-PC-10","Station_Nam":"RIVER FALLS 1.4 S, WI","Latitude":"44.83580","Longitude":"-92.62100","Snowdepth":"3.000","Units":"in","Rept_Date":"2020-04-14 12"},"coordinates":[1083,6583]},{"type":"Point","properties":{"Station_ID":"WI-DN-5","Station_Nam":"ELK MOUND 1.3 NE, WI","Latitude":"44.88627","Longitude":"-91.66680","Snowdepth":"3.000","Units":"in","Rept_Date":"2020-04-14 12"},"coordinates":[1307,6608]},{"type":"Point","properties":{"Station_ID":"WI-DN-15","Station_Nam":"MENOMONIE 0.9 NW, WI","Latitude":"44.89832","Longitude":"-91.92398","Snowdepth":"3.000","Units":"in","Rept_Date":"2020-04-14 12"},"coordinates":[1246,6614]},{"type":"Point","properties":{"Station_ID":"WELM5","Station_Nam":"WELLS","Latitude":"43.74680","Longitude":"-93.73680","Snowdepth":"3.000","Units":"in","Rept_Date":"2020-04-14 13"},"coordinates":[821,6043]},{"type":"Point","properties":{"Station_ID":"WDOM5","Station_Nam":"WINDOM","Latitude":"43.87700","Longitude":"-95.11590","Snowdepth":"3.000","Units":"in","Rept_Date":"2020-04-14 13"},"coordinates":[497,6108]},{"type":"Point","properties":{"Station_ID":"SSMM4","Station_Nam":"SAULT STE MARIE","Latitude":"46.48660","Longitude":"-84.40250","Snowdepth":"3.000","Units":"in","Rept_Date":"2020-04-14 12"},"coordinates":[3012,7401]},{"type":"Point","properties":{"Station_ID":"SRAW3","Station_Nam":"SARONA","Latitude":"45.80250","Longitude":"-91.86700","Snowdepth":"3.000","Units":"in","Rept_Date":"2020-04-14 13"},"coordinates":[1260,7062]},{"type":"Point","properties":{"Station_ID":"RSTW3","Station_Nam":"ROSHOLT","Latitude":"44.62710","Longitude":"-89.30600","Snowdepth":"3.000","Units":"in","Rept_Date":"2020-04-14 13"},"coordinates":[1861,6480]},{"type":"Point","properties":{"Station_ID":"NUMM5","Station_Nam":"NEW ULM 3SE","Latitude":"44.29450","Longitude":"-94.40840","Snowdepth":"3.000","Units":"in","Rept_Date":"2020-04-14 11"},"coordinates":[663,6315]},{"type":"Point","properties":{"Station_ID":"NELW3","Station_Nam":"NEILLSVILLE 3ESE","Latitude":"44.53780","Longitude":"-90.53500","Snowdepth":"3.000","Units":"in","Rept_Date":"2020-04-14 12"},"coordinates":[1572,6435]},{"type":"Point","properties":{"Station_ID":"MQRW3","Station_Nam":"MINOCQUA","Latitude":"45.88630","Longitude":"-89.73220","Snowdepth":"3.000","Units":"in","Rept_Date":"2020-04-14 11"},"coordinates":[1761,7104]},{"type":"Point","properties":{"Station_ID":"MNG28BBT","Station_Nam":"HENDERSON 0.6 SE","Latitude":"44.52188","Longitude":"-93.89863","Snowdepth":"3.000","Units":"in","Rept_Date":"2020-04-14 13"},"coordinates":[783,6427]},{"type":"Point","properties":{"Station_ID":"MN-MT-6","Station_Nam":"FAIRMONT 0.7 E, MN","Latitude":"43.64501","Longitude":"-94.44860","Snowdepth":"3.000","Units":"in","Rept_Date":"2020-04-14 12"},"coordinates":[654,5993]},{"type":"Point","properties":{"Station_ID":"MN-DK-73","Station_Nam":"LAKEVILLE 2.6 NNE, MN","Latitude":"44.71250","Longitude":"-93.23043","Snowdepth":"3.000","Units":"in","Rept_Date":"2020-04-14 12"},"coordinates":[940,6522]},{"type":"Point","properties":{"Station_ID":"MN-DK-44","Station_Nam":"ROSEMOUNT 4.5 WSW, MN","Latitude":"44.72079","Longitude":"-93.14970","Snowdepth":"3.000","Units":"in","Rept_Date":"2020-04-14 12"},"coordinates":[959,6526]},{"type":"Point","properties":{"Station_ID":"LKFM5","Station_Nam":"LAKEFIELD,MN","Latitude":"43.68330","Longitude":"-95.18330","Snowdepth":"3.000","Units":"in","Rept_Date":"2020-04-14 12"},"coordinates":[481,6012]},{"type":"Point","properties":{"Station_ID":"LAKM5","Station_Nam":"LAKE CITY","Latitude":"44.43630","Longitude":"-92.27930","Snowdepth":"3.000","Units":"in","Rept_Date":"2020-04-14 12"},"coordinates":[1163,6385]},{"type":"Point","properties":{"Station_ID":"GLDM4","Station_Nam":"GLADSTONE NO. 2","Latitude":"45.84330","Longitude":"-87.03910","Snowdepth":"3.000","Units":"in","Rept_Date":"2020-04-14 11"},"coordinates":[2393,7082]},{"type":"Point","properties":{"Station_ID":"FSD","Station_Nam":"SIOUX FALLS, SD","Latitude":"43.58750","Longitude":"-96.72940","Snowdepth":"3.000","Units":"in","Rept_Date":"2020-04-14 12"},"coordinates":[118,5964]},{"type":"Point","properties":{"Station_ID":"CVZW3","Station_Nam":"WISCONSIN PUBLIC SERVICE","Latitude":"45.23530","Longitude":"-88.01360","Snowdepth":"3.000","Units":"in","Rept_Date":"2020-04-14 12"},"coordinates":[2164,6781]},{"type":"Point","properties":{"Station_ID":"CNNS2","Station_Nam":"CANTON","Latitude":"43.31120","Longitude":"-96.58770","Snowdepth":"3.000","Units":"in","Rept_Date":"2020-04-14 12"},"coordinates":[152,5827]},{"type":"Point","properties":{"Station_ID":"BMRW3","Station_Nam":"BLOOMER","Latitude":"45.09070","Longitude":"-91.48640","Snowdepth":"3.000","Units":"in","Rept_Date":"2020-04-14 13"},"coordinates":[1349,6709]},{"type":"Point","properties":{"Station_ID":"AUW","Station_Nam":"WAUSAU MUNICIPAL AIRPORT","Latitude":"44.92580","Longitude":"-89.62560","Snowdepth":"3.000","Units":"in","Rept_Date":"2020-04-14 12"},"coordinates":[1786,6628]},{"type":"Point","properties":{"Station_ID":"ASTM5","Station_Nam":"AUSTIN WASTE WATER TREATMENT FACILITY","Latitude":"43.65420","Longitude":"-92.97390","Snowdepth":"3.000","Units":"in","Rept_Date":"2020-04-14 12"},"coordinates":[1000,5997]},{"type":"Point","properties":{"Station_ID":"ANTW3","Station_Nam":"ANTIGO,WI","Latitude":"45.13330","Longitude":"-89.15000","Snowdepth":"3.000","Units":"in","Rept_Date":"2020-04-14 13"},"coordinates":[1897,6730]},{"type":"Point","properties":{"Station_ID":"MN-MW-8","Station_Nam":"AUSTIN 2.4 W, MN","Latitude":"43.67190","Longitude":"-93.02280","Snowdepth":"2.500","Units":"in","Rept_Date":"2020-04-14 12"},"coordinates":[988,6006]},{"type":"Point","properties":{"Station_ID":"MN-RC-38","Station_Nam":"FARIBAULT 1.6 S, MN","Latitude":"44.27639","Longitude":"-93.27306","Snowdepth":"2.300","Units":"in","Rept_Date":"2020-04-14 12"},"coordinates":[930,6306]},{"type":"Point","properties":{"Station_ID":"HPN04_MADIS","Station_Nam":"HANOVER","Latitude":"45.16770","Longitude":"-93.63430","Snowdepth":"2.010","Units":"in","Rept_Date":"2020-04-15 06"},"coordinates":[845,6747]},{"type":"Point","properties":{"Station_ID":"WNNM5","Station_Nam":"WINNEBAGO","Latitude":"43.76920","Longitude":"-94.18730","Snowdepth":"2.000","Units":"in","Rept_Date":"2020-04-14 13"},"coordinates":[715,6054]},{"type":"Point","properties":{"Station_ID":"WI-SR-5","Station_Nam":"HAYWARD 9.7 NE, WI","Latitude":"46.12030","Longitude":"-91.35370","Snowdepth":"2.000","Units":"in","Rept_Date":"2020-04-14 13"},"coordinates":[1380,7220]},{"type":"Point","properties":{"Station_ID":"WI-PC-5","Station_Nam":"RIVER FALLS 1.2 SSW, WI","Latitude":"44.84032","Longitude":"-92.63500","Snowdepth":"2.000","Units":"in","Rept_Date":"2020-04-14 12"},"coordinates":[1079,6585]},{"type":"Point","properties":{"Station_ID":"WI-BY-2","Station_Nam":"MELLEN 18.6 SW, WI","Latitude":"46.16937","Longitude":"-90.98090","Snowdepth":"2.000","Units":"in","Rept_Date":"2020-04-14 12"},"coordinates":[1468,7244]},{"type":"Point","properties":{"Station_ID":"WI-BY-14","Station_Nam":"ASHLAND 9.8 W, WI","Latitude":"46.59742","Longitude":"-91.07856","Snowdepth":"2.000","Units":"in","Rept_Date":"2020-04-14 11"},"coordinates":[1445,7456]},{"type":"Point","properties":{"Station_ID":"TCYM5","Station_Nam":"TRACY,MN","Latitude":"44.23330","Longitude":"-95.61670","Snowdepth":"2.000","Units":"in","Rept_Date":"2020-04-14 13"},"coordinates":[379,6284]},{"type":"Point","properties":{"Station_ID":"SWEI4","Station_Nam":"SWEA CITY,IA","Latitude":"43.38530","Longitude":"-94.25000","Snowdepth":"2.000","Units":"in","Rept_Date":"2020-04-14 11"},"coordinates":[700,5864]},{"type":"Point","properties":{"Station_ID":"SIBI4","Station_Nam":"SIBLEY","Latitude":"43.40470","Longitude":"-95.74830","Snowdepth":"2.000","Units":"in","Rept_Date":"2020-04-14 12"},"coordinates":[349,5874]},{"type":"Point","properties":{"Station_ID":"SHDI4","Station_Nam":"SHELDON,IA","Latitude":"43.18080","Longitude":"-95.85280","Snowdepth":"2.000","Units":"in","Rept_Date":"2020-04-14 12"},"coordinates":[324,5763]},{"type":"Point","properties":{"Station_ID":"SD-UN-2","Station_Nam":"ELK POINT 5.6 NNE, SD","Latitude":"42.76126","Longitude":"-96.65320","Snowdepth":"2.000","Units":"in","Rept_Date":"2020-04-14 13"},"coordinates":[136,5555]},{"type":"Point","properties":{"Station_ID":"SD-MH-41","Station_Nam":"SIOUX FALLS 3.9 SW, SD","Latitude":"43.50475","Longitude":"-96.78660","Snowdepth":"2.000","Units":"in","Rept_Date":"2020-04-14 12"},"coordinates":[105,5923]},{"type":"Point","properties":{"Station_ID":"SD-LN-32","Station_Nam":"SIOUX FALLS 3.6 SSE, SD","Latitude":"43.49360","Longitude":"-96.71249","Snowdepth":"2.000","Units":"in","Rept_Date":"2020-04-14 12"},"coordinates":[122,5918]},{"type":"Point","properties":{"Station_ID":"SAUW3","Station_Nam":"WAUSAU WSAW TV","Latitude":"44.94630","Longitude":"-89.62220","Snowdepth":"2.000","Units":"in","Rept_Date":"2020-04-15 02"},"coordinates":[1786,6638]},{"type":"Point","properties":{"Station_ID":"RWGM5","Station_Nam":"RED WING","Latitude":"44.57120","Longitude":"-92.52830","Snowdepth":"2.000","Units":"in","Rept_Date":"2020-04-14 13"},"coordinates":[1104,6452]},{"type":"Point","properties":{"Station_ID":"ROBW3","Station_Nam":"ROBERTS WWTP","Latitude":"44.97070","Longitude":"-92.56200","Snowdepth":"2.000","Units":"in","Rept_Date":"2020-04-14 13"},"coordinates":[1096,6650]},{"type":"Point","properties":{"Station_ID":"RMSI4","Station_Nam":"REMSEN NO. 2","Latitude":"42.81050","Longitude":"-95.97530","Snowdepth":"2.000","Units":"in","Rept_Date":"2020-04-14 15"},"coordinates":[295,5579]},{"type":"Point","properties":{"Station_ID":"RANM1","Station_Nam":"RANGELEY","Latitude":"44.98910","Longitude":"-70.67190","Snowdepth":"2.000","Units":"in","Rept_Date":"2020-04-14 10"},"coordinates":[6235,6659]},{"type":"Point","properties":{"Station_ID":"ORCI4","Station_Nam":"ORANGE CITY","Latitude":"43.00080","Longitude":"-96.05390","Snowdepth":"2.000","Units":"in","Rept_Date":"2020-04-14 12"},"coordinates":[277,5673]},{"type":"Point","properties":{"Station_ID":"NH-CR-15","Station_Nam":"JACKSON 3.7 NW, NH","Latitude":"44.19069","Longitude":"-71.22598","Snowdepth":"2.000","Units":"in","Rept_Date":"2020-04-14 11"},"coordinates":[6104,6263]},{"type":"Point","properties":{"Station_ID":"MN0GWSNW","Station_Nam":"LAKE ELMO 2.9 SE","Latitude":"44.97220","Longitude":"-92.83065","Snowdepth":"2.000","Units":"in","Rept_Date":"2020-04-14 12"},"coordinates":[1033,6651]},{"type":"Point","properties":{"Station_ID":"MN-SC-2","Station_Nam":"PRIOR LAKE 2.0 W, MN","Latitude":"44.71250","Longitude":"-93.46360","Snowdepth":"2.000","Units":"in","Rept_Date":"2020-04-14 11"},"coordinates":[885,6522]},{"type":"Point","properties":{"Station_ID":"MN-RM-2","Station_Nam":"NORTH SAINT PAUL 1.0 NNW, MN","Latitude":"45.02629","Longitude":"-93.00790","Snowdepth":"2.000","Units":"in","Rept_Date":"2020-04-14 11"},"coordinates":[992,6677]},{"type":"Point","properties":{"Station_ID":"MN-RM-15","Station_Nam":"ROSEVILLE 2.1 NW, MN","Latitude":"45.03502","Longitude":"-93.18620","Snowdepth":"2.000","Units":"in","Rept_Date":"2020-04-14 11"},"coordinates":[950,6682]},{"type":"Point","properties":{"Station_ID":"MN-RK-5","Station_Nam":"HILLS 0.2 NW, MN","Latitude":"43.52960","Longitude":"-96.36146","Snowdepth":"2.000","Units":"in","Rept_Date":"2020-04-14 12"},"coordinates":[205,5935]},{"type":"Point","properties":{"Station_ID":"MN-RC-36","Station_Nam":"NORTHFIELD 3.9 SSW, MN","Latitude":"44.40859","Longitude":"-93.20025","Snowdepth":"2.000","Units":"in","Rept_Date":"2020-04-14 12"},"coordinates":[947,6371]},{"type":"Point","properties":{"Station_ID":"MN-HN-19","Station_Nam":"EDINA 1.3 SW, MN","Latitude":"44.87830","Longitude":"-93.37890","Snowdepth":"2.000","Units":"in","Rept_Date":"2020-04-14 12"},"coordinates":[905,6604]},{"type":"Point","properties":{"Station_ID":"MN-HN-110","Station_Nam":"EDINA 1.9 SSE, MN","Latitude":"44.86875","Longitude":"-93.33940","Snowdepth":"2.000","Units":"in","Rept_Date":"2020-04-14 12"},"coordinates":[914,6599]},{"type":"Point","properties":{"Station_ID":"MN-GH-33","Station_Nam":"DENNISON 2.0 NNE, MN","Latitude":"44.43470","Longitude":"-93.02000","Snowdepth":"2.000","Units":"in","Rept_Date":"2020-04-14 12"},"coordinates":[989,6384]},{"type":"Point","properties":{"Station_ID":"MN-GH-28","Station_Nam":"CANNON FALLS 0.5 SE, MN","Latitude":"44.50866","Longitude":"-92.89526","Snowdepth":"2.000","Units":"in","Rept_Date":"2020-04-14 13"},"coordinates":[1018,6421]},{"type":"Point","properties":{"Station_ID":"MN-DK-15","Station_Nam":"BURNSVILLE 3.0 NE, MN","Latitude":"44.79136","Longitude":"-93.23040","Snowdepth":"2.000","Units":"in","Rept_Date":"2020-04-14 12"},"coordinates":[940,6561]},{"type":"Point","properties":{"Station_ID":"MN-DK-104","Station_Nam":"HASTINGS 1.6 NW, MN","Latitude":"44.74458","Longitude":"-92.88035","Snowdepth":"2.000","Units":"in","Rept_Date":"2020-04-14 12"},"coordinates":[1022,6538]},{"type":"Point","properties":{"Station_ID":"MN-CV-1","Station_Nam":"CARVER 0.7 W, MN","Latitude":"44.75728","Longitude":"-93.64160","Snowdepth":"2.000","Units":"in","Rept_Date":"2020-04-14 12"},"coordinates":[843,6544]},{"type":"Point","properties":{"Station_ID":"MMLM5","Station_Nam":"DIVERSION","Latitude":"44.47060","Longitude":"-95.80000","Snowdepth":"2.000","Units":"in","Rept_Date":"2020-04-14 13"},"coordinates":[336,6402]},{"type":"Point","properties":{"Station_ID":"LADW3","Station_Nam":"LADYSMITH WTP","Latitude":"45.44290","Longitude":"-91.08970","Snowdepth":"2.000","Units":"in","Rept_Date":"2020-04-14 12"},"coordinates":[1442,6884]},{"type":"Point","properties":{"Station_ID":"IA-DK-11","Station_Nam":"SPIRIT LAKE 1.7 SW, IA","Latitude":"43.40694","Longitude":"-95.13694","Snowdepth":"2.000","Units":"in","Rept_Date":"2020-04-14 12"},"coordinates":[492,5875]},{"type":"Point","properties":{"Station_ID":"FSDS2","Station_Nam":"SIOUX FALLS NWS WFO AP","Latitude":"43.58780","Longitude":"-96.73000","Snowdepth":"2.000","Units":"in","Rept_Date":"2020-04-15 05"},"coordinates":[118,5964]},{"type":"Point","properties":{"Station_ID":"EVYI4","Station_Nam":"EVERLY,IA","Latitude":"43.18330","Longitude":"-95.36670","Snowdepth":"2.000","Units":"in","Rept_Date":"2020-04-14 12"},"coordinates":[438,5764]},{"type":"Point","properties":{"Station_ID":"ESAM4","Station_Nam":"ESCANABA","Latitude":"45.74380","Longitude":"-87.04060","Snowdepth":"2.000","Units":"in","Rept_Date":"2020-04-14 11"},"coordinates":[2392,7033]},{"type":"Point","properties":{"Station_ID":"CMKW3","Station_Nam":"CLAM LAKE 4W","Latitude":"46.16940","Longitude":"-90.98080","Snowdepth":"2.000","Units":"in","Rept_Date":"2020-04-14 12"},"coordinates":[1468,7244]},{"type":"Point","properties":{"Station_ID":"CENS2","Station_Nam":"CENTERVILLE,SD","Latitude":"43.04310","Longitude":"-96.90330","Snowdepth":"2.000","Units":"in","Rept_Date":"2020-04-14 13"},"coordinates":[77,5694]},{"type":"Point","properties":{"Station_ID":"BALW3","Station_Nam":"BALDWIN","Latitude":"44.96330","Longitude":"-92.39050","Snowdepth":"2.000","Units":"in","Rept_Date":"2020-04-14 12"},"coordinates":[1137,6646]},{"type":"Point","properties":{"Station_ID":"ALTM5","Station_Nam":"ALTURA 5W","Latitude":"44.06330","Longitude":"-92.03970","Snowdepth":"2.000","Units":"in","Rept_Date":"2020-04-14 12"},"coordinates":[1219,6200]},{"type":"Point","properties":{"Station_ID":"AKRI4","Station_Nam":"BIG SIOUX RIVER","Latitude":"42.82580","Longitude":"-96.55140","Snowdepth":"2.000","Units":"in","Rept_Date":"2020-04-14 12"},"coordinates":[160,5587]},{"type":"Point","properties":{"Station_ID":"PA-HN-2","Station_Nam":"WOOD 0.1 S, PA","Latitude":"40.16754","Longitude":"-78.13631","Snowdepth":"1.700","Units":"in","Rept_Date":"2020-04-15 02"},"coordinates":[4482,4269]},{"type":"Point","properties":{"Station_ID":"ND-CS-25","Station_Nam":"FARGO 2.1 N, ND","Latitude":"46.90816","Longitude":"-96.77937","Snowdepth":"1.500","Units":"in","Rept_Date":"2020-04-14 13"},"coordinates":[107,7610]},{"type":"Point","properties":{"Station_ID":"MN-CY-20","Station_Nam":"HAWLEY 5.2 WNW, MN","Latitude":"46.91652","Longitude":"-96.41147","Snowdepth":"1.500","Units":"in","Rept_Date":"2020-04-14 12"},"coordinates":[193,7614]},{"type":"Point","properties":{"Station_ID":"MN-CY-19","Station_Nam":"GLYNDON 6.9 ENE, MN","Latitude":"46.91908","Longitude":"-96.45112","Snowdepth":"1.500","Units":"in","Rept_Date":"2020-04-14 12"},"coordinates":[184,7616]},{"type":"Point","properties":{"Station_ID":"MN-BK-6","Station_Nam":"LAKE PARK 6.0 S, MN","Latitude":"46.79850","Longitude":"-96.12180","Snowdepth":"1.500","Units":"in","Rept_Date":"2020-04-14 12"},"coordinates":[261,7556]},{"type":"Point","properties":{"Station_ID":"MI-NW-8","Station_Nam":"WHITE CLOUD 7.5 ENE, MI","Latitude":"43.60630","Longitude":"-85.64190","Snowdepth":"1.500","Units":"in","Rept_Date":"2020-04-14 10"},"coordinates":[2721,5973]},{"type":"Point","properties":{"Station_ID":"MI-CX-7","Station_Nam":"EAST JORDAN 2.1 NNW, MI","Latitude":"45.18639","Longitude":"-85.14750","Snowdepth":"1.500","Units":"in","Rept_Date":"2020-04-14 12"},"coordinates":[2837,6757]},{"type":"Point","properties":{"Station_ID":"ME-WS-34","Station_Nam":"PERRY 3.8 NNW, ME","Latitude":"45.02578","Longitude":"-67.10286","Snowdepth":"1.500","Units":"in","Rept_Date":"2020-04-14 11"},"coordinates":[7072,6677]},{"type":"Point","properties":{"Station_ID":"WI-WD-2","Station_Nam":"WISCONSIN RAPIDS 4.6 SSE, WI","Latitude":"44.33823","Longitude":"-89.78200","Snowdepth":"1.000","Units":"in","Rept_Date":"2020-04-14 12"},"coordinates":[1749,6336]},{"type":"Point","properties":{"Station_ID":"WI-SC-24","Station_Nam":"DEER PARK 2.6 SSE, WI","Latitude":"45.15739","Longitude":"-92.35759","Snowdepth":"1.000","Units":"in","Rept_Date":"2020-04-14 12"},"coordinates":[1144,6742]},{"type":"Point","properties":{"Station_ID":"WI-MN-9","Station_Nam":"WARRENS 4.7 WSW, WI","Latitude":"44.10386","Longitude":"-90.58884","Snowdepth":"1.000","Units":"in","Rept_Date":"2020-04-14 12"},"coordinates":[1560,6220]},{"type":"Point","properties":{"Station_ID":"WI-BY-22","Station_Nam":"MASON 11.5 WNW, WI","Latitude":"46.50198","Longitude":"-91.28339","Snowdepth":"1.000","Units":"in","Rept_Date":"2020-04-14 13"},"coordinates":[1397,7409]},{"type":"Point","properties":{"Station_ID":"TX-LT-2","Station_Nam":"MEXIA 9.4 SSE, TX","Latitude":"31.55614","Longitude":"-96.42510","Snowdepth":"1.000","Units":"in","Rept_Date":"2020-04-14 10"},"coordinates":[190,0]},{"type":"Point","properties":{"Station_ID":"STPW3","Station_Nam":"STEVENS POINT","Latitude":"44.51130","Longitude":"-89.58550","Snowdepth":"1.000","Units":"in","Rept_Date":"2020-04-14 12"},"coordinates":[1795,6422]},{"type":"Point","properties":{"Station_ID":"SPGM5","Station_Nam":"SPRING VALLEY","Latitude":"43.69330","Longitude":"-92.39260","Snowdepth":"1.000","Units":"in","Rept_Date":"2020-04-14 12"},"coordinates":[1136,6017]},{"type":"Point","properties":{"Station_ID":"SLBI4","Station_Nam":"STORM LAKE","Latitude":"42.64690","Longitude":"-95.19330","Snowdepth":"1.000","Units":"in","Rept_Date":"2020-04-14 13"},"coordinates":[479,5498]},{"type":"Point","properties":{"Station_ID":"SHHW3","Station_Nam":"SHAWANO 2SSW","Latitude":"44.76310","Longitude":"-88.61830","Snowdepth":"1.000","Units":"in","Rept_Date":"2020-04-14 13"},"coordinates":[2022,6547]},{"type":"Point","properties":{"Station_ID":"SD-BK-7","Station_Nam":"BROOKINGS 0.2 SSW, SD","Latitude":"44.30389","Longitude":"-96.78780","Snowdepth":"1.000","Units":"in","Rept_Date":"2020-04-14 12"},"coordinates":[105,6319]},{"type":"Point","properties":{"Station_ID":"SBNM5","Station_Nam":"SABIN","Latitude":"46.77690","Longitude":"-96.65610","Snowdepth":"1.000","Units":"in","Rept_Date":"2020-04-14 13"},"coordinates":[135,7545]},{"type":"Point","properties":{"Station_ID":"RLWM5","Station_Nam":"CAMP NORRIS DNR","Latitude":"48.61000","Longitude":"-95.18170","Snowdepth":"1.000","Units":"in","Rept_Date":"2020-04-14 12"},"coordinates":[482,8454]},{"type":"Point","properties":{"Station_ID":"RFDM4","Station_Nam":"ROCKFORD","Latitude":"43.11580","Longitude":"-85.56410","Snowdepth":"1.000","Units":"in","Rept_Date":"2020-04-14 11"},"coordinates":[2739,5730]},{"type":"Point","properties":{"Station_ID":"REWM5","Station_Nam":"REDWOOD FALLS","Latitude":"44.54850","Longitude":"-95.09980","Snowdepth":"1.000","Units":"in","Rept_Date":"2020-04-14 12"},"coordinates":[501,6441]},{"type":"Point","properties":{"Station_ID":"RARM4","Station_Nam":"RAPID RIVER 1 SW","Latitude":"45.91500","Longitude":"-86.98800","Snowdepth":"1.000","Units":"in","Rept_Date":"2020-04-14 11"},"coordinates":[2405,7118]},{"type":"Point","properties":{"Station_ID":"POCI4","Station_Nam":"POCAHONTAS,IA","Latitude":"42.72920","Longitude":"-94.66060","Snowdepth":"1.000","Units":"in","Rept_Date":"2020-04-14 13"},"coordinates":[604,5539]},{"type":"Point","properties":{"Station_ID":"OTTM5","Station_Nam":"OTTERTAIL,MN","Latitude":"46.41670","Longitude":"-95.56670","Snowdepth":"1.000","Units":"in","Rept_Date":"2020-04-14 12"},"coordinates":[391,7367]},{"type":"Point","properties":{"Station_ID":"NPTM4","Station_Nam":"NORTHPORT 2W","Latitude":"45.13220","Longitude":"-85.64720","Snowdepth":"1.000","Units":"in","Rept_Date":"2020-04-14 12"},"coordinates":[2720,6730]},{"type":"Point","properties":{"Station_ID":"NEWN1","Station_Nam":"NEWCASTLE","Latitude":"42.65300","Longitude":"-96.87750","Snowdepth":"1.000","Units":"in","Rept_Date":"2020-04-14 11"},"coordinates":[84,5501]},{"type":"Point","properties":{"Station_ID":"MRFS2","Station_Nam":"MADISON,SD","Latitude":"44.00000","Longitude":"-97.23330","Snowdepth":"1.000","Units":"in","Rept_Date":"2020-04-14 14"},"coordinates":[0,6169]},{"type":"Point","properties":{"Station_ID":"MNE9SLWI","Station_Nam":"LEAVENWORTH 5.4 S","Latitude":"44.14481","Longitude":"-94.78882","Snowdepth":"1.000","Units":"in","Rept_Date":"2020-04-14 12"},"coordinates":[574,6240]},{"type":"Point","properties":{"Station_ID":"MN-WG-16","Station_Nam":"WOODBURY 1.7 N, MN","Latitude":"44.93054","Longitude":"-92.92490","Snowdepth":"1.000","Units":"in","Rept_Date":"2020-04-14 12"},"coordinates":[1011,6630]},{"type":"Point","properties":{"Station_ID":"MN-MR-13","Station_Nam":"LITTLE FALLS 8.0 NE, MN","Latitude":"46.06785","Longitude":"-94.24789","Snowdepth":"1.000","Units":"in","Rept_Date":"2020-04-14 12"},"coordinates":[701,7194]},{"type":"Point","properties":{"Station_ID":"MN-HN-181","Station_Nam":"MINNEAPOLIS 0.4 NE, MN","Latitude":"44.96708","Longitude":"-93.26222","Snowdepth":"1.000","Units":"in","Rept_Date":"2020-04-14 12"},"coordinates":[932,6648]},{"type":"Point","properties":{"Station_ID":"MN-DK-53","Station_Nam":"LAKEVILLE 3.8 ENE, MN","Latitude":"44.70423","Longitude":"-93.18460","Snowdepth":"1.000","Units":"in","Rept_Date":"2020-04-14 12"},"coordinates":[950,6518]},{"type":"Point","properties":{"Station_ID":"MN-CY-1","Station_Nam":"MOORHEAD 2.0 N, MN","Latitude":"46.88766","Longitude":"-96.74800","Snowdepth":"1.000","Units":"in","Rept_Date":"2020-04-14 12"},"coordinates":[114,7600]},{"type":"Point","properties":{"Station_ID":"MN-BW-8","Station_Nam":"COMFREY 6.5 ENE, MN","Latitude":"44.15109","Longitude":"-94.78516","Snowdepth":"1.000","Units":"in","Rept_Date":"2020-04-14 12"},"coordinates":[575,6244]},{"type":"Point","properties":{"Station_ID":"MLCM5","Station_Nam":"MILACA","Latitude":"45.75320","Longitude":"-93.66170","Snowdepth":"1.000","Units":"in","Rept_Date":"2020-04-14 12"},"coordinates":[838,7038]},{"type":"Point","properties":{"Station_ID":"MI-NW-10","Station_Nam":"WHITE CLOUD 9.6 E, MI","Latitude":"43.52587","Longitude":"-85.58461","Snowdepth":"1.000","Units":"in","Rept_Date":"2020-04-14 12"},"coordinates":[2734,5934]},{"type":"Point","properties":{"Station_ID":"MI-DL-1","Station_Nam":"GARDEN CORNERS 0.8 NW, MI","Latitude":"45.89815","Longitude":"-86.54850","Snowdepth":"1.000","Units":"in","Rept_Date":"2020-04-14 12"},"coordinates":[2508,7110]},{"type":"Point","properties":{"Station_ID":"LKCM4","Station_Nam":"LAKE CITY EXP FARM","Latitude":"44.30880","Longitude":"-85.20500","Snowdepth":"1.000","Units":"in","Rept_Date":"2020-04-14 12"},"coordinates":[2823,6322]},{"type":"Point","properties":{"Station_ID":"LILM1","Station_Nam":"LILLE","Latitude":"47.27770","Longitude":"-68.10520","Snowdepth":"1.000","Units":"in","Rept_Date":"2020-04-14 11"},"coordinates":[6837,7793]},{"type":"Point","properties":{"Station_ID":"KSEM4","Station_Nam":"KALKASKA 11SE","Latitude":"44.58970","Longitude":"-85.04860","Snowdepth":"1.000","Units":"in","Rept_Date":"2020-04-14 12"},"coordinates":[2860,6461]},{"type":"Point","properties":{"Station_ID":"KMSP","Station_Nam":"MINNEAPOLIS-ST PAUL INTERNATIONAL","Latitude":"44.86666","Longitude":"-93.21666","Snowdepth":"1.000","Units":"in","Rept_Date":"2020-04-14 18"},"coordinates":[943,6598]},{"type":"Point","properties":{"Station_ID":"KGFK","Station_Nam":"GRAND FORKS INTERNATIONAL","Latitude":"47.95000","Longitude":"-97.18333","Snowdepth":"1.000","Units":"in","Rept_Date":"2020-04-14 18"},"coordinates":[12,8127]},{"type":"Point","properties":{"Station_ID":"KDSM","Station_Nam":"DES MOINES INTERNATIONAL","Latitude":"41.53333","Longitude":"-93.66666","Snowdepth":"1.000","Units":"in","Rept_Date":"2020-04-15 06"},"coordinates":[837,4946]},{"type":"Point","properties":{"Station_ID":"JORM5","Station_Nam":"JORDAN 1SSW","Latitude":"44.65010","Longitude":"-93.63560","Snowdepth":"1.000","Units":"in","Rept_Date":"2020-04-14 10"},"coordinates":[844,6491]},{"type":"Point","properties":{"Station_ID":"HLYI4","Station_Nam":"HORNICK 4 NNE","Latitude":"42.28390","Longitude":"-96.05800","Snowdepth":"1.000","Units":"in","Rept_Date":"2020-04-14 12"},"coordinates":[276,5318]},{"type":"Point","properties":{"Station_ID":"HLSI4","Station_Nam":"HOLSTEIN 5 NNW","Latitude":"42.54630","Longitude":"-95.61100","Snowdepth":"1.000","Units":"in","Rept_Date":"2020-04-14 12"},"coordinates":[381,5448]},{"type":"Point","properties":{"Station_ID":"GRRM4","Station_Nam":"NWS FORECAST OFFICE GRAND RAPIDS","Latitude":"42.89330","Longitude":"-85.54480","Snowdepth":"1.000","Units":"in","Rept_Date":"2020-04-15 06"},"coordinates":[2744,5620]},{"type":"Point","properties":{"Station_ID":"GMDM5","Station_Nam":"GRAND MEADOW","Latitude":"43.70740","Longitude":"-92.56440","Snowdepth":"1.000","Units":"in","Rept_Date":"2020-04-14 10"},"coordinates":[1096,6024]},{"type":"Point","properties":{"Station_ID":"GLVW3","Station_Nam":"GALESVILLE 2WSW","Latitude":"44.07430","Longitude":"-91.38720","Snowdepth":"1.000","Units":"in","Rept_Date":"2020-04-14 12"},"coordinates":[1372,6205]},{"type":"Point","properties":{"Station_ID":"GFK","Station_Nam":"GRAND FORKS INTERNATIONAL AIRPORT","Latitude":"47.94920","Longitude":"-97.17610","Snowdepth":"1.000","Units":"in","Rept_Date":"2020-04-14 12"},"coordinates":[13,8126]},{"type":"Point","properties":{"Station_ID":"GDCM4","Station_Nam":"GARDEN CORNERS","Latitude":"45.89830","Longitude":"-86.54850","Snowdepth":"1.000","Units":"in","Rept_Date":"2020-04-14 12"},"coordinates":[2508,7110]},{"type":"Point","properties":{"Station_ID":"FORM5","Station_Nam":"FOREST LAKE 5NE","Latitude":"45.33170","Longitude":"-92.89820","Snowdepth":"1.000","Units":"in","Rept_Date":"2020-04-14 12"},"coordinates":[1018,6829]},{"type":"Point","properties":{"Station_ID":"FBTM5","Station_Nam":"FARIBAULT","Latitude":"44.30920","Longitude":"-93.26600","Snowdepth":"1.000","Units":"in","Rept_Date":"2020-04-14 12"},"coordinates":[931,6322]},{"type":"Point","properties":{"Station_ID":"EJNM4","Station_Nam":"EAST JORDAN 2NW","Latitude":"45.18630","Longitude":"-85.14770","Snowdepth":"1.000","Units":"in","Rept_Date":"2020-04-14 12"},"coordinates":[2837,6757]},{"type":"Point","properties":{"Station_ID":"DSXI4","Station_Nam":"DES MOINES SNOW","Latitude":"41.54130","Longitude":"-93.65570","Snowdepth":"1.000","Units":"in","Rept_Date":"2020-04-15 05"},"coordinates":[840,4950]},{"type":"Point","properties":{"Station_ID":"DFXM1","Station_Nam":"DOVER-FOXCROFT","Latitude":"45.18720","Longitude":"-69.18350","Snowdepth":"1.000","Units":"in","Rept_Date":"2020-04-14 11"},"coordinates":[6584,6757]},{"type":"Point","properties":{"Station_ID":"COKM5","Station_Nam":"COOK","Latitude":"47.85060","Longitude":"-92.69250","Snowdepth":"1.000","Units":"in","Rept_Date":"2020-04-14 11"},"coordinates":[1066,8077]},{"type":"Point","properties":{"Station_ID":"CKPI4","Station_Nam":"CHEROKEE,IA","Latitude":"42.75720","Longitude":"-95.53780","Snowdepth":"1.000","Units":"in","Rept_Date":"2020-04-14 13"},"coordinates":[398,5553]},{"type":"Point","properties":{"Station_ID":"CBLW3","Station_Nam":"CUMBERLAND","Latitude":"45.53310","Longitude":"-92.02260","Snowdepth":"1.000","Units":"in","Rept_Date":"2020-04-14 12"},"coordinates":[1223,6929]},{"type":"Point","properties":{"Station_ID":"CAN-NS-60","Station_Nam":"SYDNEY FORKS, CAN","Latitude":"46.05645","Longitude":"-60.31510","Snowdepth":"1.000","Units":"in","Rept_Date":"2020-04-14 12"},"coordinates":[8666,7188]},{"type":"Point","properties":{"Station_ID":"BWNM5","Station_Nam":"BROWNTON WWTP","Latitude":"44.73350","Longitude":"-94.34180","Snowdepth":"1.000","Units":"in","Rept_Date":"2020-04-14 13"},"coordinates":[679,6532]},{"type":"Point","properties":{"Station_ID":"BTHM5","Station_Nam":"BLUE EARTH 1S","Latitude":"43.62370","Longitude":"-94.09470","Snowdepth":"1.000","Units":"in","Rept_Date":"2020-04-14 13"},"coordinates":[737,5982]},{"type":"Point","properties":{"Station_ID":"BNDM5","Station_Nam":"ELY 25E","Latitude":"47.97190","Longitude":"-91.44860","Snowdepth":"1.000","Units":"in","Rept_Date":"2020-04-14 12"},"coordinates":[1358,8138]},{"type":"Point","properties":{"Station_ID":"BKEM5","Station_Nam":"BRECKENRIDGE 4NE","Latitude":"46.30470","Longitude":"-96.52170","Snowdepth":"1.000","Units":"in","Rept_Date":"2020-04-14 12"},"coordinates":[167,7311]},{"type":"Point","properties":{"Station_ID":"BFSW3","Station_Nam":"BIG FALLS-5 NW","Latitude":"44.63980","Longitude":"-89.11330","Snowdepth":"1.000","Units":"in","Rept_Date":"2020-04-14 12"},"coordinates":[1906,6486]},{"type":"Point","properties":{"Station_ID":"APXM4","Station_Nam":"GAYLORD 9SSW","Latitude":"44.90720","Longitude":"-84.71880","Snowdepth":"1.000","Units":"in","Rept_Date":"2020-04-15 06"},"coordinates":[2937,6618]}]}},"arcs":[],"transform":{"scale":[0.0042603600360036,0.0020172777277727774],"translate":[-97.2333,31.55614]}}