{"type":"Topology","objects":{"snowdepth_geo":{"type":"GeometryCollection","name":"snowdepth","crs":{"type":"name","properties":{"name":"urn:ogc:def:crs:OGC:1.3:CRS84"}},"geometries":[{"type":"Point","properties":{"Station_ID":"PRKM4","Station_Nam":"MUNISING EAST","Latitude":"46.42580","Longitude":"-86.62000","Snowdepth":"76.500","Units":"in","Rept_Date":"2021-02-23 06"},"coordinates":[2492,7237]},{"type":"Point","properties":{"Station_ID":"MMNV1","Station_Nam":"MT. MANSFIELD","Latitude":"44.52480","Longitude":"-72.81540","Snowdepth":"48.000","Units":"in","Rept_Date":"2021-02-22 21"},"coordinates":[5732,6247]},{"type":"Point","properties":{"Station_ID":"TRIQ6","Station_Nam":"TRIO LAKE","Latitude":"49.22880","Longitude":"-87.22920","Snowdepth":"45.240","Units":"in","Rept_Date":"2021-02-23 06"},"coordinates":[2349,8698]},{"type":"Point","properties":{"Station_ID":"NY-RN-24","Station_Nam":"NASSAU 4.2 ESE, NY","Latitude":"42.49091","Longitude":"-73.53462","Snowdepth":"45.000","Units":"in","Rept_Date":"2021-02-22 13"},"coordinates":[5563,5187]},{"type":"Point","properties":{"Station_ID":"HTLN3","Station_Nam":"HERMIT LAKE SNOWPLOT","Latitude":"44.26130","Longitude":"-71.28330","Snowdepth":"45.000","Units":"in","Rept_Date":"2021-02-22 10"},"coordinates":[6092,6110]},{"type":"Point","properties":{"Station_ID":"IL-CK-193","Station_Nam":"WINNETKA 0.8 ESE, IL","Latitude":"42.10164","Longitude":"-87.72900","Snowdepth":"44.300","Units":"in","Rept_Date":"2021-02-22 14"},"coordinates":[2232,4985]},{"type":"Point","properties":{"Station_ID":"PDLM4","Station_Nam":"PAINESDALE","Latitude":"47.04160","Longitude":"-88.67170","Snowdepth":"43.000","Units":"in","Rept_Date":"2021-02-22 13"},"coordinates":[2011,7558]},{"type":"Point","properties":{"Station_ID":"HLSN3","Station_Nam":"HERMIT LAKE SNOTEL","Latitude":"44.26130","Longitude":"-71.28320","Snowdepth":"41.420","Units":"in","Rept_Date":"2021-02-23 06"},"coordinates":[6092,6110]},{"type":"Point","properties":{"Station_ID":"NY-ER-65","Station_Nam":"BOSTON 1.5 NE, NY","Latitude":"42.65470","Longitude":"-78.72010","Snowdepth":"38.000","Units":"in","Rept_Date":"2021-02-22 12"},"coordinates":[4346,5273]},{"type":"Point","properties":{"Station_ID":"NY-HM-9","Station_Nam":"HOFFMEISTER 2.0 E, NY","Latitude":"43.38695","Longitude":"-74.67723","Snowdepth":"36.000","Units":"in","Rept_Date":"2021-02-22 13"},"coordinates":[5295,5654]},{"type":"Point","properties":{"Station_ID":"KSGM4","Station_Nam":"KEARSARGE","Latitude":"47.27520","Longitude":"-88.41700","Snowdepth":"36.000","Units":"in","Rept_Date":"2021-02-22 13"},"coordinates":[2070,7680]},{"type":"Point","properties":{"Station_ID":"HOKN6","Station_Nam":"HOOKER 12 NNW","Latitude":"43.85240","Longitude":"-75.71580","Snowdepth":"36.000","Units":"in","Rept_Date":"2021-02-22 11"},"coordinates":[5051,5897]},{"type":"Point","properties":{"Station_ID":"WSWN6","Station_Nam":"WARSAW","Latitude":"42.74220","Longitude":"-78.20850","Snowdepth":"35.000","Units":"in","Rept_Date":"2021-02-22 12"},"coordinates":[4466,5318]},{"type":"Point","properties":{"Station_ID":"HGHN6","Station_Nam":"HIGHMARKET","Latitude":"43.60510","Longitude":"-75.55430","Snowdepth":"34.000","Units":"in","Rept_Date":"2021-02-22 11"},"coordinates":[5089,5768]},{"type":"Point","properties":{"Station_ID":"NY-ER-166","Station_Nam":"BOSTON 2.5 NE, NY","Latitude":"42.65480","Longitude":"-78.70300","Snowdepth":"33.500","Units":"in","Rept_Date":"2021-02-22 12"},"coordinates":[4350,5273]},{"type":"Point","properties":{"Station_ID":"QNCM4","Station_Nam":"QUINCY HILL","Latitude":"47.13640","Longitude":"-88.57950","Snowdepth":"33.000","Units":"in","Rept_Date":"2021-02-22 12"},"coordinates":[2032,7608]},{"type":"Point","properties":{"Station_ID":"LBKV1","Station_Nam":"LYE BROOK","Latitude":"43.05000","Longitude":"-73.03330","Snowdepth":"33.000","Units":"in","Rept_Date":"2021-02-23 06"},"coordinates":[5681,5479]},{"type":"Point","properties":{"Station_ID":"PTLQ6","Station_Nam":"PORTAGE LAKE","Latitude":"49.06950","Longitude":"-86.65940","Snowdepth":"32.950","Units":"in","Rept_Date":"2021-02-23 06"},"coordinates":[2483,8615]},{"type":"Point","properties":{"Station_ID":"WNDP1","Station_Nam":"WINDBER COUNTY CLUB","Latitude":"40.28780","Longitude":"-78.77530","Snowdepth":"32.000","Units":"in","Rept_Date":"2021-02-22 12"},"coordinates":[4333,4040]},{"type":"Point","properties":{"Station_ID":"VT-BN-12","Station_Nam":"STAMFORD 5.0 NNE, VT","Latitude":"42.82000","Longitude":"-73.02000","Snowdepth":"31.500","Units":"in","Rept_Date":"2021-02-22 22"},"coordinates":[5684,5359]},{"type":"Point","properties":{"Station_ID":"NY-ER-56","Station_Nam":"COLDEN 1.4 NNW, NY","Latitude":"42.64740","Longitude":"-78.71120","Snowdepth":"31.000","Units":"in","Rept_Date":"2021-02-22 12"},"coordinates":[4348,5269]},{"type":"Point","properties":{"Station_ID":"CODN6","Station_Nam":"COLDEN","Latitude":"42.64720","Longitude":"-78.71110","Snowdepth":"31.000","Units":"in","Rept_Date":"2021-02-22 12"},"coordinates":[4348,5269]},{"type":"Point","properties":{"Station_ID":"WI-MW-14","Station_Nam":"MILWAUKEE 3.6 NNW, WI","Latitude":"43.11300","Longitude":"-87.98730","Snowdepth":"30.000","Units":"in","Rept_Date":"2021-02-22 11"},"coordinates":[2171,5512]},{"type":"Point","properties":{"Station_ID":"NH-CS-10","Station_Nam":"RANDOLPH 1.4 NE, NH","Latitude":"44.38824","Longitude":"-71.26950","Snowdepth":"30.000","Units":"in","Rept_Date":"2021-02-22 12"},"coordinates":[6095,6176]},{"type":"Point","properties":{"Station_ID":"WELM4","Station_Nam":"WELLSTON TIPPY DAM","Latitude":"44.25860","Longitude":"-85.93940","Snowdepth":"29.000","Units":"in","Rept_Date":"2021-02-22 13"},"coordinates":[2652,6108]},{"type":"Point","properties":{"Station_ID":"STRN6","Station_Nam":"STILLWATER RESERVOIR","Latitude":"43.89140","Longitude":"-75.03610","Snowdepth":"29.000","Units":"in","Rept_Date":"2021-02-22 13"},"coordinates":[5211,5917]},{"type":"Point","properties":{"Station_ID":"PERV1","Station_Nam":"PERU","Latitude":"43.26670","Longitude":"-72.90000","Snowdepth":"29.000","Units":"in","Rept_Date":"2021-02-22 12"},"coordinates":[5712,5592]},{"type":"Point","properties":{"Station_ID":"GNLM4","Station_Nam":"GREENLAND 6N","Latitude":"46.87360","Longitude":"-89.10060","Snowdepth":"29.000","Units":"in","Rept_Date":"2021-02-22 13"},"coordinates":[1910,7471]},{"type":"Point","properties":{"Station_ID":"DVLQ6","Station_Nam":"DEVIOUS LAKE","Latitude":"49.19890","Longitude":"-87.76440","Snowdepth":"28.700","Units":"in","Rept_Date":"2021-02-23 06"},"coordinates":[2224,8682]},{"type":"Point","properties":{"Station_ID":"VT-BN-3","Station_Nam":"LANDGROVE 1.1 NNE, VT","Latitude":"43.29092","Longitude":"-72.83260","Snowdepth":"28.000","Units":"in","Rept_Date":"2021-02-22 12"},"coordinates":[5728,5604]},{"type":"Point","properties":{"Station_ID":"MNSM4","Station_Nam":"MUNISING","Latitude":"46.41210","Longitude":"-86.66250","Snowdepth":"28.000","Units":"in","Rept_Date":"2021-02-22 11"},"coordinates":[2482,7230]},{"type":"Point","properties":{"Station_ID":"IL-CK-211","Station_Nam":"OAK LAWN 1.6 WNW, IL","Latitude":"41.72686","Longitude":"-87.77770","Snowdepth":"28.000","Units":"in","Rept_Date":"2021-02-22 14"},"coordinates":[2220,4789]},{"type":"Point","properties":{"Station_ID":"GMSM4","Station_Nam":"GRAND MARAIS 10S","Latitude":"46.50940","Longitude":"-85.96310","Snowdepth":"28.000","Units":"in","Rept_Date":"2021-02-22 12"},"coordinates":[2646,7281]},{"type":"Point","properties":{"Station_ID":"AUDQ6","Station_Nam":"AUDEN","Latitude":"48.52600","Longitude":"-82.57570","Snowdepth":"27.800","Units":"in","Rept_Date":"2021-02-23 06"},"coordinates":[3441,8331]},{"type":"Point","properties":{"Station_ID":"NY-HR-18","Station_Nam":"SALISBURY CENTER 1.8 NW, NY","Latitude":"43.16260","Longitude":"-74.80880","Snowdepth":"27.500","Units":"in","Rept_Date":"2021-02-22 11"},"coordinates":[5264,5537]},{"type":"Point","properties":{"Station_ID":"VT-OL-12","Station_Nam":"GREENSBORO 3.9 NNE, VT","Latitude":"44.63100","Longitude":"-72.28000","Snowdepth":"27.000","Units":"in","Rept_Date":"2021-02-22 13"},"coordinates":[5858,6302]},{"type":"Point","properties":{"Station_ID":"NY-JF-30","Station_Nam":"WEST CARTHAGE 0.3 ENE, NY","Latitude":"43.97493","Longitude":"-75.61640","Snowdepth":"27.000","Units":"in","Rept_Date":"2021-02-22 12"},"coordinates":[5075,5961]},{"type":"Point","properties":{"Station_ID":"NY-ER-66","Station_Nam":"EAST AURORA 1.0 ESE, NY","Latitude":"42.76450","Longitude":"-78.59800","Snowdepth":"27.000","Units":"in","Rept_Date":"2021-02-22 19"},"coordinates":[4375,5330]},{"type":"Point","properties":{"Station_ID":"NY-ER-63","Station_Nam":"GLENWOOD 1.5 SE, NY","Latitude":"42.60195","Longitude":"-78.63910","Snowdepth":"27.000","Units":"in","Rept_Date":"2021-02-22 12"},"coordinates":[4365,5245]},{"type":"Point","properties":{"Station_ID":"CHRM4","Station_Nam":"CHARLEVOIX","Latitude":"45.31720","Longitude":"-85.26720","Snowdepth":"27.000","Units":"in","Rept_Date":"2021-02-22 13"},"coordinates":[2810,6660]},{"type":"Point","properties":{"Station_ID":"BRAM1","Station_Nam":"BRASSUA DAM","Latitude":"45.66020","Longitude":"-69.81190","Snowdepth":"27.000","Units":"in","Rept_Date":"2021-02-22 12"},"coordinates":[6437,6839]},{"type":"Point","properties":{"Station_ID":"BOON6","Station_Nam":"BOONVILLE 4 SSW","Latitude":"43.43610","Longitude":"-75.36970","Snowdepth":"27.000","Units":"in","Rept_Date":"2021-02-22 12"},"coordinates":[5132,5680]},{"type":"Point","properties":{"Station_ID":"CAN-ON-699","Station_Nam":"DALHOUSIE MILLS, CAN","Latitude":"45.31670","Longitude":"-74.47120","Snowdepth":"26.900","Units":"in","Rept_Date":"2021-02-22 11"},"coordinates":[5343,6660]},{"type":"Point","properties":{"Station_ID":"QGO","Station_Nam":"QGO","Latitude":"48.85500","Longitude":"-74.20640","Snowdepth":"26.457","Units":"in","Rept_Date":"2021-02-22 12"},"coordinates":[5405,8503]},{"type":"Point","properties":{"Station_ID":"WHFN6","Station_Nam":"WILMINGTON 2W","Latitude":"44.39310","Longitude":"-73.85890","Snowdepth":"26.000","Units":"in","Rept_Date":"2021-02-22 13"},"coordinates":[5487,6178]},{"type":"Point","properties":{"Station_ID":"MI-EM-8","Station_Nam":"PETOSKEY 1.7 SSW, MI","Latitude":"45.34209","Longitude":"-84.96530","Snowdepth":"26.000","Units":"in","Rept_Date":"2021-02-22 16"},"coordinates":[2880,6673]},{"type":"Point","properties":{"Station_ID":"JEFV1","Station_Nam":"JEFFERSONVILLE","Latitude":"44.58430","Longitude":"-72.78700","Snowdepth":"26.000","Units":"in","Rept_Date":"2021-02-22 12"},"coordinates":[5739,6278]},{"type":"Point","properties":{"Station_ID":"IL-CK-12","Station_Nam":"BRIDGEVIEW 1.3 NNW, IL","Latitude":"41.75502","Longitude":"-87.81730","Snowdepth":"26.000","Units":"in","Rept_Date":"2021-02-22 13"},"coordinates":[2211,4804]},{"type":"Point","properties":{"Station_ID":"GHMN3","Station_Nam":"PINKHAM NOTCH","Latitude":"44.25800","Longitude":"-71.25250","Snowdepth":"26.000","Units":"in","Rept_Date":"2021-02-22 11"},"coordinates":[6099,6108]},{"type":"Point","properties":{"Station_ID":"EHYM3","Station_Nam":"EAST HAWLEY","Latitude":"42.57410","Longitude":"-72.86790","Snowdepth":"26.000","Units":"in","Rept_Date":"2021-02-22 13"},"coordinates":[5720,5231]},{"type":"Point","properties":{"Station_ID":"CAN-NB-112","Station_Nam":"LAC BAKER 3.1 NW - SAJESS, CAN","Latitude":"47.35162","Longitude":"-68.67100","Snowdepth":"26.000","Units":"in","Rept_Date":"2021-02-22 11"},"coordinates":[6705,7720]},{"type":"Point","properties":{"Station_ID":"WV-PR-10","Station_Nam":"TERRA ALTA 4.9 NNE, WV","Latitude":"39.51024","Longitude":"-79.51024","Snowdepth":"25.500","Units":"in","Rept_Date":"2021-02-22 13"},"coordinates":[4161,3635]},{"type":"Point","properties":{"Station_ID":"NY-LW-12","Station_Nam":"CHASES LAKE COOP, NY","Latitude":"43.75924","Longitude":"-75.29982","Snowdepth":"25.000","Units":"in","Rept_Date":"2021-02-22 11"},"coordinates":[5149,5848]},{"type":"Point","properties":{"Station_ID":"LAUP1","Station_Nam":"1.5MI S OF RT 30 ON SMIT (LAUREL RIDGE)","Latitude":"40.05000","Longitude":"-79.22060","Snowdepth":"25.000","Units":"in","Rept_Date":"2021-02-22 12"},"coordinates":[4229,3916]},{"type":"Point","properties":{"Station_ID":"GFDN6","Station_Nam":"CHASES LAKE","Latitude":"43.75920","Longitude":"-75.29980","Snowdepth":"25.000","Units":"in","Rept_Date":"2021-02-22 11"},"coordinates":[5149,5848]},{"type":"Point","properties":{"Station_ID":"CAN-ON-491","Station_Nam":"MILVERTON 1.1 ESE- CANWARN, CAN","Latitude":"43.56074","Longitude":"-80.90887","Snowdepth":"25.000","Units":"in","Rept_Date":"2021-02-22 11"},"coordinates":[3832,5745]},{"type":"Point","properties":{"Station_ID":"AVLV1","Station_Nam":"AVERILL","Latitude":"45.00570","Longitude":"-71.69030","Snowdepth":"25.000","Units":"in","Rept_Date":"2021-02-22 13"},"coordinates":[5996,6498]},{"type":"Point","properties":{"Station_ID":"QLB","Station_Nam":"QLB","Latitude":"50.72360","Longitude":"-75.10000","Snowdepth":"24.921","Units":"in","Rept_Date":"2021-02-22 12"},"coordinates":[5196,9476]},{"type":"Point","properties":{"Station_ID":"VT-WR-17","Station_Nam":"ROCHESTER 2.3 NE, VT","Latitude":"43.89418","Longitude":"-72.76992","Snowdepth":"24.500","Units":"in","Rept_Date":"2021-02-22 12"},"coordinates":[5743,5919]},{"type":"Point","properties":{"Station_ID":"CAN-ON-224","Station_Nam":"NAKINA 3.8 N - MNRF, CAN","Latitude":"50.21269","Longitude":"-86.70099","Snowdepth":"24.200","Units":"in","Rept_Date":"2021-02-22 14"},"coordinates":[2473,9210]},{"type":"Point","properties":{"Station_ID":"WRSN6","Station_Nam":"WARSAW 6SW","Latitude":"42.68550","Longitude":"-78.22020","Snowdepth":"24.000","Units":"in","Rept_Date":"2021-02-22 12"},"coordinates":[4463,5289]},{"type":"Point","properties":{"Station_ID":"WI-RC-3","Station_Nam":"RACINE 2.3 WSW, WI","Latitude":"42.71124","Longitude":"-87.84570","Snowdepth":"24.000","Units":"in","Rept_Date":"2021-02-22 13"},"coordinates":[2204,5302]},{"type":"Point","properties":{"Station_ID":"ROWM3","Station_Nam":"ROWE 3NE","Latitude":"42.73500","Longitude":"-72.86920","Snowdepth":"24.000","Units":"in","Rept_Date":"2021-02-22 12"},"coordinates":[5719,5315]},{"type":"Point","properties":{"Station_ID":"RKWM1","Station_Nam":"MOOSEHEAD LAKE","Latitude":"45.58330","Longitude":"-69.71670","Snowdepth":"24.000","Units":"in","Rept_Date":"2021-02-22 12"},"coordinates":[6459,6798]},{"type":"Point","properties":{"Station_ID":"PRGN6","Station_Nam":"PERRYSBURG","Latitude":"42.46470","Longitude":"-79.00310","Snowdepth":"24.000","Units":"in","Rept_Date":"2021-02-22 12"},"coordinates":[4280,5174]},{"type":"Point","properties":{"Station_ID":"OLMN6","Station_Nam":"OLD FORGE - MOOSE","Latitude":"43.71270","Longitude":"-74.96930","Snowdepth":"24.000","Units":"in","Rept_Date":"2021-02-22 13"},"coordinates":[5226,5824]},{"type":"Point","properties":{"Station_ID":"NY-FK-9","Station_Nam":"GABRIELS 1.3 SE, NY","Latitude":"44.41934","Longitude":"-74.16194","Snowdepth":"24.000","Units":"in","Rept_Date":"2021-02-22 12"},"coordinates":[5416,6192]},{"type":"Point","properties":{"Station_ID":"MONW3","Station_Nam":"MONROE,WI","Latitude":"42.60000","Longitude":"-89.66670","Snowdepth":"24.000","Units":"in","Rept_Date":"2021-02-22 13"},"coordinates":[1777,5244]},{"type":"Point","properties":{"Station_ID":"MI-HG-1","Station_Nam":"HOUGHTON 1.6 ESE, MI","Latitude":"47.10774","Longitude":"-88.52940","Snowdepth":"24.000","Units":"in","Rept_Date":"2021-02-22 13"},"coordinates":[2044,7593]},{"type":"Point","properties":{"Station_ID":"ME-FR-2","Station_Nam":"TEMPLE 1.8 W, ME","Latitude":"44.68329","Longitude":"-70.26420","Snowdepth":"24.000","Units":"in","Rept_Date":"2021-02-22 12"},"coordinates":[6331,6330]},{"type":"Point","properties":{"Station_ID":"MALN6","Station_Nam":"MALONE","Latitude":"44.84180","Longitude":"-74.30600","Snowdepth":"24.000","Units":"in","Rept_Date":"2021-02-22 12"},"coordinates":[5382,6412]},{"type":"Point","properties":{"Station_ID":"LSXI4","Station_Nam":"LITTLE SIOUX,IA","Latitude":"41.81670","Longitude":"-96.01670","Snowdepth":"24.000","Units":"in","Rept_Date":"2021-02-22 13"},"coordinates":[287,4836]},{"type":"Point","properties":{"Station_ID":"LPLN6","Station_Nam":"LAKE PLACID 2 S","Latitude":"44.30420","Longitude":"-73.98390","Snowdepth":"24.000","Units":"in","Rept_Date":"2021-02-22 12"},"coordinates":[5458,6132]},{"type":"Point","properties":{"Station_ID":"FISM1","Station_Nam":"FORT KENT COOP","Latitude":"47.23850","Longitude":"-68.61240","Snowdepth":"24.000","Units":"in","Rept_Date":"2021-02-22 12"},"coordinates":[6718,7661]},{"type":"Point","properties":{"Station_ID":"CAN-ON-208","Station_Nam":"PAKENHAM 7.8 NNW, CAN","Latitude":"45.39166","Longitude":"-76.34111","Snowdepth":"24.000","Units":"in","Rept_Date":"2021-02-22 12"},"coordinates":[4904,6699]},{"type":"Point","properties":{"Station_ID":"CAN-NB-11","Station_Nam":"MIRAMICHI 3.3 S, CAN","Latitude":"46.99343","Longitude":"-65.50690","Snowdepth":"24.000","Units":"in","Rept_Date":"2021-02-22 12"},"coordinates":[7447,7533]},{"type":"Point","properties":{"Station_ID":"BMON6","Station_Nam":"BIG MOOSE 3SE","Latitude":"43.80000","Longitude":"-74.86670","Snowdepth":"24.000","Units":"in","Rept_Date":"2021-02-22 13"},"coordinates":[5251,5869]},{"type":"Point","properties":{"Station_ID":"CAN-ON-335","Station_Nam":"NAKINA 1.6 NW - MNRF, CAN","Latitude":"50.18910","Longitude":"-86.72684","Snowdepth":"23.800","Units":"in","Rept_Date":"2021-02-22 13"},"coordinates":[2467,9198]},{"type":"Point","properties":{"Station_ID":"CAN-ON-245","Station_Nam":"PHELPSTON 3.1 ESE, CAN","Latitude":"44.50564","Longitude":"-79.81035","Snowdepth":"23.500","Units":"in","Rept_Date":"2021-02-22 12"},"coordinates":[4090,6237]},{"type":"Point","properties":{"Station_ID":"VT-WS-33","Station_Nam":"WAITSFIELD 3.5 WNW, VT","Latitude":"44.20052","Longitude":"-72.89421","Snowdepth":"23.000","Units":"in","Rept_Date":"2021-02-22 13"},"coordinates":[5713,6078]},{"type":"Point","properties":{"Station_ID":"PLEP1","Station_Nam":"PLEASANT MOUNT 1 W","Latitude":"41.73940","Longitude":"-75.44650","Snowdepth":"23.000","Units":"in","Rept_Date":"2021-02-22 13"},"coordinates":[5114,4796]},{"type":"Point","properties":{"Station_ID":"NY-HM-10","Station_Nam":"LAKE PLEASANT 2.3 WSW, NY","Latitude":"43.45490","Longitude":"-74.45287","Snowdepth":"23.000","Units":"in","Rept_Date":"2021-02-22 12"},"coordinates":[5348,5690]},{"type":"Point","properties":{"Station_ID":"NY-ES-11","Station_Nam":"VERMONTVILLE 2.8 S, NY","Latitude":"44.41205","Longitude":"-74.06760","Snowdepth":"23.000","Units":"in","Rept_Date":"2021-02-22 12"},"coordinates":[5438,6188]},{"type":"Point","properties":{"Station_ID":"MHRI4","Station_Nam":"MANCHESTER #2","Latitude":"42.47320","Longitude":"-91.45160","Snowdepth":"23.000","Units":"in","Rept_Date":"2021-02-22 13"},"coordinates":[1358,5178]},{"type":"Point","properties":{"Station_ID":"CAN-QC-56","Station_Nam":"SUTTON 2.6 N, CAN","Latitude":"45.13119","Longitude":"-72.61218","Snowdepth":"23.000","Units":"in","Rept_Date":"2021-02-22 12"},"coordinates":[5780,6563]},{"type":"Point","properties":{"Station_ID":"VT-WR-2","Station_Nam":"POMFRET 2.6 N, VT","Latitude":"43.74230","Longitude":"-72.52550","Snowdepth":"22.500","Units":"in","Rept_Date":"2021-02-22 12"},"coordinates":[5800,5839]},{"type":"Point","properties":{"Station_ID":"MI-OG-6","Station_Nam":"WEST BRANCH 2.1 SSW, MI","Latitude":"44.24814","Longitude":"-84.25089","Snowdepth":"22.500","Units":"in","Rept_Date":"2021-02-22 12"},"coordinates":[3048,6103]},{"type":"Point","properties":{"Station_ID":"ME-SM-45","Station_Nam":"BRIGHTON PLANTATION 2.1 N, ME","Latitude":"45.07098","Longitude":"-69.69860","Snowdepth":"22.500","Units":"in","Rept_Date":"2021-02-22 12"},"coordinates":[6463,6532]},{"type":"Point","properties":{"Station_ID":"QFT","Station_Nam":"QFT","Latitude":"50.83280","Longitude":"-74.40390","Snowdepth":"22.047","Units":"in","Rept_Date":"2021-02-22 12"},"coordinates":[5359,9533]},{"type":"Point","properties":{"Station_ID":"WLFM5","Station_Nam":"WOLF RIDGE ENVIRON LEARNING CENTER","Latitude":"47.38240","Longitude":"-91.19730","Snowdepth":"22.000","Units":"in","Rept_Date":"2021-02-22 13"},"coordinates":[1418,7736]},{"type":"Point","properties":{"Station_ID":"TOPN6","Station_Nam":"TUPPER LAKE SUNMOUNT","Latitude":"44.23070","Longitude":"-74.43820","Snowdepth":"22.000","Units":"in","Rept_Date":"2021-02-22 12"},"coordinates":[5351,6094]},{"type":"Point","properties":{"Station_ID":"SGVN6","Station_Nam":"SPRINGVILLE","Latitude":"42.54970","Longitude":"-78.57670","Snowdepth":"22.000","Units":"in","Rept_Date":"2021-02-23 00"},"coordinates":[4380,5218]},{"type":"Point","properties":{"Station_ID":"PTBN3","Station_Nam":"PITTSBURG RESERVOIR","Latitude":"45.04690","Longitude":"-71.38300","Snowdepth":"22.000","Units":"in","Rept_Date":"2021-02-22 12"},"coordinates":[6068,6519]},{"type":"Point","properties":{"Station_ID":"OCON6","Station_Nam":"OSCEOLA","Latitude":"43.50370","Longitude":"-75.72170","Snowdepth":"22.000","Units":"in","Rept_Date":"2021-02-22 13"},"coordinates":[5050,5715]},{"type":"Point","properties":{"Station_ID":"NY-FK-7","Station_Nam":"SARANAC LAKE 6.2 N, NY","Latitude":"44.41359","Longitude":"-74.15211","Snowdepth":"22.000","Units":"in","Rept_Date":"2021-02-22 12"},"coordinates":[5418,6189]},{"type":"Point","properties":{"Station_ID":"NY-ER-158","Station_Nam":"EAST AURORA 2.7 SSE, NY","Latitude":"42.72936","Longitude":"-78.60561","Snowdepth":"22.000","Units":"in","Rept_Date":"2021-02-22 13"},"coordinates":[4373,5312]},{"type":"Point","properties":{"Station_ID":"NGLW3","Station_Nam":"NEW GLARUS","Latitude":"42.83500","Longitude":"-89.62080","Snowdepth":"22.000","Units":"in","Rept_Date":"2021-02-22 13"},"coordinates":[1788,5367]},{"type":"Point","properties":{"Station_ID":"NCBN6","Station_Nam":"NEWCOMB","Latitude":"43.97070","Longitude":"-74.22200","Snowdepth":"22.000","Units":"in","Rept_Date":"2021-02-22 13"},"coordinates":[5402,5958]},{"type":"Point","properties":{"Station_ID":"MI-BG-3","Station_Nam":"THREE LAKES, MI","Latitude":"46.55730","Longitude":"-88.20770","Snowdepth":"22.000","Units":"in","Rept_Date":"2021-02-22 13"},"coordinates":[2119,7306]},{"type":"Point","properties":{"Station_ID":"IWOM4","Station_Nam":"IRONWOOD#2","Latitude":"46.46520","Longitude":"-90.13820","Snowdepth":"22.000","Units":"in","Rept_Date":"2021-02-22 13"},"coordinates":[1666,7258]},{"type":"Point","properties":{"Station_ID":"ISLV1","Station_Nam":"ISLAND POND","Latitude":"44.81280","Longitude":"-71.89020","Snowdepth":"22.000","Units":"in","Rept_Date":"2021-02-22 15"},"coordinates":[5949,6397]},{"type":"Point","properties":{"Station_ID":"IL-JD-8","Station_Nam":"STOCKTON 3.4 NNE, IL","Latitude":"42.39960","Longitude":"-89.99020","Snowdepth":"22.000","Units":"in","Rept_Date":"2021-02-22 13"},"coordinates":[1701,5140]},{"type":"Point","properties":{"Station_ID":"HUBN3","Station_Nam":"HUBBARD BROOK","Latitude":"43.93330","Longitude":"-71.71670","Snowdepth":"22.000","Units":"in","Rept_Date":"2021-02-23 06"},"coordinates":[5990,5939]},{"type":"Point","properties":{"Station_ID":"MI-AN-20","Station_Nam":"HOLLAND 5.3 WSW, MI","Latitude":"42.74900","Longitude":"-86.20200","Snowdepth":"21.800","Units":"in","Rept_Date":"2021-02-22 13"},"coordinates":[2590,5322]},{"type":"Point","properties":{"Station_ID":"VT-OL-1","Station_Nam":"WESTFIELD 0.7 WNW, VT","Latitude":"44.89160","Longitude":"-72.44350","Snowdepth":"21.500","Units":"in","Rept_Date":"2021-02-22 12"},"coordinates":[5819,6438]},{"type":"Point","properties":{"Station_ID":"NY-ES-6","Station_Nam":"OLMSTEDVILLE 4.6 NNE, NY","Latitude":"43.83350","Longitude":"-73.89780","Snowdepth":"21.500","Units":"in","Rept_Date":"2021-02-22 13"},"coordinates":[5478,5887]},{"type":"Point","properties":{"Station_ID":"ME-AR-18","Station_Nam":"NEW SWEDEN 4.9 NNW, ME","Latitude":"47.01080","Longitude":"-68.14390","Snowdepth":"21.500","Units":"in","Rept_Date":"2021-02-22 12"},"coordinates":[6828,7542]},{"type":"Point","properties":{"Station_ID":"CAN-QC-51","Station_Nam":"BELOEIL 0.7 NW, CAN","Latitude":"45.58049","Longitude":"-73.21218","Snowdepth":"21.100","Units":"in","Rept_Date":"2021-02-22 12"},"coordinates":[5639,6797]},{"type":"Point","properties":{"Station_ID":"WAIV1","Station_Nam":"WAITSFIELD","Latitude":"44.17560","Longitude":"-72.79610","Snowdepth":"21.000","Units":"in","Rept_Date":"2021-02-22 12"},"coordinates":[5736,6065]},{"type":"Point","properties":{"Station_ID":"VT-WS-30","Station_Nam":"WOODBURY 3.4 NNW, VT","Latitude":"44.48825","Longitude":"-72.43258","Snowdepth":"21.000","Units":"in","Rept_Date":"2021-02-22 12"},"coordinates":[5822,6228]},{"type":"Point","properties":{"Station_ID":"VT-WS-23","Station_Nam":"CABOT 2.3 E, VT","Latitude":"44.39807","Longitude":"-72.26570","Snowdepth":"21.000","Units":"in","Rept_Date":"2021-02-22 12"},"coordinates":[5861,6181]},{"type":"Point","properties":{"Station_ID":"VT-WS-19","Station_Nam":"WATERBURY 3.0 NW, VT","Latitude":"44.36060","Longitude":"-72.80770","Snowdepth":"21.000","Units":"in","Rept_Date":"2021-02-22 11"},"coordinates":[5734,6162]},{"type":"Point","properties":{"Station_ID":"VT-WS-11","Station_Nam":"WAITSFIELD 1.8 SE, VT","Latitude":"44.17551","Longitude":"-72.79540","Snowdepth":"21.000","Units":"in","Rept_Date":"2021-02-22 12"},"coordinates":[5737,6065]},{"type":"Point","properties":{"Station_ID":"VT-WH-30","Station_Nam":"MARLBORO 2.0 NNE, VT","Latitude":"42.88484","Longitude":"-72.70935","Snowdepth":"21.000","Units":"in","Rept_Date":"2021-02-22 13"},"coordinates":[5757,5393]},{"type":"Point","properties":{"Station_ID":"VT-AD-20","Station_Nam":"HANCOCK 0.3 S, VT","Latitude":"43.92166","Longitude":"-72.84042","Snowdepth":"21.000","Units":"in","Rept_Date":"2021-02-22 12"},"coordinates":[5726,5933]},{"type":"Point","properties":{"Station_ID":"PWKW3","Station_Nam":"PEWAUKEE WWTP","Latitude":"43.06170","Longitude":"-88.29500","Snowdepth":"21.000","Units":"in","Rept_Date":"2021-02-22 13"},"coordinates":[2099,5485]},{"type":"Point","properties":{"Station_ID":"NY-OT-29","Station_Nam":"NEW BERLIN 1.5 NE, NY","Latitude":"42.63689","Longitude":"-75.31090","Snowdepth":"21.000","Units":"in","Rept_Date":"2021-02-22 13"},"coordinates":[5146,5264]},{"type":"Point","properties":{"Station_ID":"NY-ER-96","Station_Nam":"ELMA 2.7 WSW, NY","Latitude":"42.81004","Longitude":"-78.68130","Snowdepth":"21.000","Units":"in","Rept_Date":"2021-02-22 12"},"coordinates":[4355,5354]},{"type":"Point","properties":{"Station_ID":"NH-CR-26","Station_Nam":"CENTER SANDWICH 4.9 E, NH","Latitude":"43.80976","Longitude":"-71.34150","Snowdepth":"21.000","Units":"in","Rept_Date":"2021-02-22 12"},"coordinates":[6078,5875]},{"type":"Point","properties":{"Station_ID":"MRLV1","Station_Nam":"MARLBORO","Latitude":"42.86000","Longitude":"-72.72000","Snowdepth":"21.000","Units":"in","Rept_Date":"2021-02-22 13"},"coordinates":[5754,5380]},{"type":"Point","properties":{"Station_ID":"MKE","Station_Nam":"GEN MITCHELL INTL AIRPORT","Latitude":"42.94720","Longitude":"-87.89670","Snowdepth":"21.000","Units":"in","Rept_Date":"2021-02-23 00"},"coordinates":[2192,5425]},{"type":"Point","properties":{"Station_ID":"MA-HS-7","Station_Nam":"PLAINFIELD 2.2 SW, MA","Latitude":"42.49272","Longitude":"-72.94540","Snowdepth":"21.000","Units":"in","Rept_Date":"2021-02-22 13"},"coordinates":[5701,5188]},{"type":"Point","properties":{"Station_ID":"IL-SP-27","Station_Nam":"DAVIS 2.7 N, IL","Latitude":"42.46110","Longitude":"-89.40890","Snowdepth":"21.000","Units":"in","Rept_Date":"2021-02-22 13"},"coordinates":[1838,5172]},{"type":"Point","properties":{"Station_ID":"IL-CK-149","Station_Nam":"OAK LAWN 0.5 SSW, IL","Latitude":"41.70845","Longitude":"-87.75390","Snowdepth":"21.000","Units":"in","Rept_Date":"2021-02-22 15"},"coordinates":[2226,4780]},{"type":"Point","properties":{"Station_ID":"IA-SH-6","Station_Nam":"KIRKMAN 1.0 SE, IA","Latitude":"41.71810","Longitude":"-95.25310","Snowdepth":"21.000","Units":"in","Rept_Date":"2021-02-22 13"},"coordinates":[466,4785]},{"type":"Point","properties":{"Station_ID":"HVJP1","Station_Nam":"HIDDEN VALLEY COOP","Latitude":"40.04200","Longitude":"-79.25660","Snowdepth":"21.000","Units":"in","Rept_Date":"2021-02-22 13"},"coordinates":[4220,3912]},{"type":"Point","properties":{"Station_ID":"GTTI4","Station_Nam":"LOCK & DAM 10","Latitude":"42.78580","Longitude":"-91.09970","Snowdepth":"21.000","Units":"in","Rept_Date":"2021-02-22 14"},"coordinates":[1441,5341]},{"type":"Point","properties":{"Station_ID":"ESDN3","Station_Nam":"EAST SANDWICH","Latitude":"43.80990","Longitude":"-71.34250","Snowdepth":"21.000","Units":"in","Rept_Date":"2021-02-22 11"},"coordinates":[6078,5875]},{"type":"Point","properties":{"Station_ID":"ENFV1","Station_Nam":"ENOSBURG FALLS 2","Latitude":"44.90960","Longitude":"-72.81370","Snowdepth":"21.000","Units":"in","Rept_Date":"2021-02-22 10"},"coordinates":[5732,6448]},{"type":"Point","properties":{"Station_ID":"CLQM5","Station_Nam":"CLOQUET","Latitude":"46.70470","Longitude":"-92.52530","Snowdepth":"21.000","Units":"in","Rept_Date":"2021-02-22 14"},"coordinates":[1106,7383]},{"type":"Point","properties":{"Station_ID":"CLKM4","Station_Nam":"CLARKSBURG","Latitude":"46.49910","Longitude":"-87.84500","Snowdepth":"21.000","Units":"in","Rept_Date":"2021-02-22 12"},"coordinates":[2205,7276]},{"type":"Point","properties":{"Station_ID":"CAN-QC-47","Station_Nam":"SAINTE-FOY 1.8 ENE, CAN","Latitude":"46.76934","Longitude":"-71.27124","Snowdepth":"21.000","Units":"in","Rept_Date":"2021-02-22 12"},"coordinates":[6094,7416]},{"type":"Point","properties":{"Station_ID":"CAN-NB-13","Station_Nam":"BATHURST 3.8 NW, CAN","Latitude":"47.64212","Longitude":"-65.68756","Snowdepth":"21.000","Units":"in","Rept_Date":"2021-02-22 11"},"coordinates":[7405,7871]},{"type":"Point","properties":{"Station_ID":"BKBW2","Station_Nam":"DAVIS.","Latitude":"39.09830","Longitude":"-79.43190","Snowdepth":"21.000","Units":"in","Rept_Date":"2021-02-22 12"},"coordinates":[4179,3420]},{"type":"Point","properties":{"Station_ID":"CAN-ON-791","Station_Nam":"METCALFE 4.4 NNW, CAN","Latitude":"45.27286","Longitude":"-75.48952","Snowdepth":"20.900","Units":"in","Rept_Date":"2021-02-22 11"},"coordinates":[5104,6637]},{"type":"Point","properties":{"Station_ID":"CAN-NB-111","Station_Nam":"EDMUNDSTON 1.4 NE - SAJESS, CAN","Latitude":"47.37312","Longitude":"-68.32311","Snowdepth":"20.900","Units":"in","Rept_Date":"2021-02-22 14"},"coordinates":[6786,7731]},{"type":"Point","properties":{"Station_ID":"QWE","Station_Nam":"QWE","Latitude":"47.84610","Longitude":"-73.80670","Snowdepth":"20.748","Units":"in","Rept_Date":"2021-02-22 12"},"coordinates":[5499,7977]},{"type":"Point","properties":{"Station_ID":"VT-BN-7","Station_Nam":"MANCHESTER 2.8 ENE, VT","Latitude":"43.17274","Longitude":"-73.01811","Snowdepth":"20.500","Units":"in","Rept_Date":"2021-02-22 12"},"coordinates":[5684,5543]},{"type":"Point","properties":{"Station_ID":"PA-CL-15","Station_Nam":"STRATTANVILLE 6.6 NE, PA","Latitude":"41.25777","Longitude":"-79.22476","Snowdepth":"20.500","Units":"in","Rept_Date":"2021-02-22 12"},"coordinates":[4228,4545]},{"type":"Point","properties":{"Station_ID":"IL-DP-155","Station_Nam":"MEDINAH 1.0 SSW, IL","Latitude":"41.96360","Longitude":"-88.06590","Snowdepth":"20.500","Units":"in","Rept_Date":"2021-02-22 14"},"coordinates":[2153,4913]},{"type":"Point","properties":{"Station_ID":"QTM","Station_Nam":"QTM","Latitude":"51.05780","Longitude":"-72.57190","Snowdepth":"20.433","Units":"in","Rept_Date":"2021-02-22 12"},"coordinates":[5789,9650]},{"type":"Point","properties":{"Station_ID":"CAN-NB-113","Station_Nam":"SAINTE-ANNE-DE-MADAWASKA 0.3 W - SAJESS, CAN","Latitude":"47.24960","Longitude":"-68.02757","Snowdepth":"20.100","Units":"in","Rept_Date":"2021-02-22 12"},"coordinates":[6856,7667]},{"type":"Point","properties":{"Station_ID":"CAN-NB-105","Station_Nam":"SISSON BROOK 3.8 E, CAN","Latitude":"46.98305","Longitude":"-67.32532","Snowdepth":"20.100","Units":"in","Rept_Date":"2021-02-22 12"},"coordinates":[7020,7528]},{"type":"Point","properties":{"Station_ID":"WSFW3","Station_Nam":"TOWN OF WESTFORD","Latitude":"43.47190","Longitude":"-88.88250","Snowdepth":"20.000","Units":"in","Rept_Date":"2021-02-22 13"},"coordinates":[1961,5699]},{"type":"Point","properties":{"Station_ID":"WMTI4","Station_Nam":"FORT DODGE,IA","Latitude":"42.50610","Longitude":"-94.20110","Snowdepth":"20.000","Units":"in","Rept_Date":"2021-02-22 14"},"coordinates":[713,5195]},{"type":"Point","properties":{"Station_ID":"WI-WW-26","Station_Nam":"WHITEWATER 4.7 SSE, WI","Latitude":"42.77690","Longitude":"-88.68760","Snowdepth":"20.000","Units":"in","Rept_Date":"2021-02-22 13"},"coordinates":[2007,5336]},{"type":"Point","properties":{"Station_ID":"WI-WK-74","Station_Nam":"BROOKFIELD 2.8 SSW, WI","Latitude":"43.02390","Longitude":"-88.13760","Snowdepth":"20.000","Units":"in","Rept_Date":"2021-02-22 14"},"coordinates":[2136,5465]},{"type":"Point","properties":{"Station_ID":"WI-RK-12","Station_Nam":"JANESVILLE 3.1 W, WI","Latitude":"42.67576","Longitude":"-89.07614","Snowdepth":"20.000","Units":"in","Rept_Date":"2021-02-22 13"},"coordinates":[1916,5284]},{"type":"Point","properties":{"Station_ID":"WI-BY-29","Station_Nam":"BAYFIELD 5.1 NNW, WI","Latitude":"46.88063","Longitude":"-90.85854","Snowdepth":"20.000","Units":"in","Rept_Date":"2021-02-22 13"},"coordinates":[1497,7474]},{"type":"Point","properties":{"Station_ID":"VT-WR-10","Station_Nam":"WEST WINDSOR 1.7 S, VT","Latitude":"43.46164","Longitude":"-72.49197","Snowdepth":"20.000","Units":"in","Rept_Date":"2021-02-22 12"},"coordinates":[5808,5693]},{"type":"Point","properties":{"Station_ID":"VT-CH-4","Station_Nam":"UNDERHILL 4.4 NNE, VT","Latitude":"44.58774","Longitude":"-72.92250","Snowdepth":"20.000","Units":"in","Rept_Date":"2021-02-22 12"},"coordinates":[5707,6280]},{"type":"Point","properties":{"Station_ID":"SSMM4","Station_Nam":"SAULT STE MARIE","Latitude":"46.48660","Longitude":"-84.40250","Snowdepth":"20.000","Units":"in","Rept_Date":"2021-02-22 13"},"coordinates":[3013,7269]},{"type":"Point","properties":{"Station_ID":"SEEW3","Station_Nam":"SOUTH MILWAUKEE WWTP","Latitude":"42.90110","Longitude":"-87.84940","Snowdepth":"20.000","Units":"in","Rept_Date":"2021-02-22 13"},"coordinates":[2204,5401]},{"type":"Point","properties":{"Station_ID":"PRDM4","Station_Nam":"PARADISE","Latitude":"46.60380","Longitude":"-85.03960","Snowdepth":"20.000","Units":"in","Rept_Date":"2021-02-22 11"},"coordinates":[2863,7330]},{"type":"Point","properties":{"Station_ID":"PLMN6","Station_Nam":"PALERMO 2SSE","Latitude":"43.33140","Longitude":"-76.26930","Snowdepth":"20.000","Units":"in","Rept_Date":"2021-02-22 11"},"coordinates":[4921,5625]},{"type":"Point","properties":{"Station_ID":"PEKN6","Station_Nam":"PECK LAKE","Latitude":"43.11500","Longitude":"-74.42360","Snowdepth":"20.000","Units":"in","Rept_Date":"2021-02-22 12"},"coordinates":[5355,5513]},{"type":"Point","properties":{"Station_ID":"OKLM2","Station_Nam":"SINES DEEP CREEK LAKE","Latitude":"39.52270","Longitude":"-79.41310","Snowdepth":"20.000","Units":"in","Rept_Date":"2021-02-22 12"},"coordinates":[4184,3641]},{"type":"Point","properties":{"Station_ID":"NY-TM-45","Station_Nam":"NEWFIELD HAMLET 4.3 S, NY","Latitude":"42.29650","Longitude":"-76.60676","Snowdepth":"20.000","Units":"in","Rept_Date":"2021-02-22 14"},"coordinates":[4842,5086]},{"type":"Point","properties":{"Station_ID":"NY-SL-6","Station_Nam":"HANNAWA FALLS 0.1 SW, NY","Latitude":"44.61154","Longitude":"-74.97190","Snowdepth":"20.000","Units":"in","Rept_Date":"2021-02-22 12"},"coordinates":[5226,6292]},{"type":"Point","properties":{"Station_ID":"NY-OD-2","Station_Nam":"POINT ROCK 0.6 SE, NY","Latitude":"43.37335","Longitude":"-75.53840","Snowdepth":"20.000","Units":"in","Rept_Date":"2021-02-22 13"},"coordinates":[5093,5647]},{"type":"Point","properties":{"Station_ID":"NY-MD-10","Station_Nam":"CAZENOVIA 2.9 SE, NY","Latitude":"42.90003","Longitude":"-75.81140","Snowdepth":"20.000","Units":"in","Rept_Date":"2021-02-22 12"},"coordinates":[5029,5401]},{"type":"Point","properties":{"Station_ID":"NY-ER-75","Station_Nam":"ELMA CENTER 0.7 SE, NY","Latitude":"42.81936","Longitude":"-78.62140","Snowdepth":"20.000","Units":"in","Rept_Date":"2021-02-22 14"},"coordinates":[4369,5359]},{"type":"Point","properties":{"Station_ID":"NY-ER-194","Station_Nam":"GLENWOOD 1.0 SE, NY","Latitude":"42.60740","Longitude":"-78.64610","Snowdepth":"20.000","Units":"in","Rept_Date":"2021-02-22 12"},"coordinates":[4364,5248]},{"type":"Point","properties":{"Station_ID":"NUNV1","Station_Nam":"NORTH UNDERHILL","Latitude":"44.58760","Longitude":"-72.92150","Snowdepth":"20.000","Units":"in","Rept_Date":"2021-02-22 12"},"coordinates":[5707,6280]},{"type":"Point","properties":{"Station_ID":"NJ-SS-54","Station_Nam":"SPARTA TWP 3.6 SSW, NJ","Latitude":"41.00503","Longitude":"-74.66358","Snowdepth":"20.000","Units":"in","Rept_Date":"2021-02-22 12"},"coordinates":[5298,4413]},{"type":"Point","properties":{"Station_ID":"NH-MR-41","Station_Nam":"NEWBURY 1.6 NW, NH","Latitude":"43.33667","Longitude":"-72.06060","Snowdepth":"20.000","Units":"in","Rept_Date":"2021-02-22 12"},"coordinates":[5909,5628]},{"type":"Point","properties":{"Station_ID":"MTQM4","Station_Nam":"MANISTIQUE WWTP","Latitude":"45.95120","Longitude":"-86.25130","Snowdepth":"20.000","Units":"in","Rept_Date":"2021-02-22 12"},"coordinates":[2579,6990]},{"type":"Point","properties":{"Station_ID":"MPTI4","Station_Nam":"NO.2","Latitude":"42.16670","Longitude":"-95.78330","Snowdepth":"20.000","Units":"in","Rept_Date":"2021-02-22 13"},"coordinates":[342,5019]},{"type":"Point","properties":{"Station_ID":"MI-MQ-28","Station_Nam":"CARLSHEND, MI","Latitude":"46.31638","Longitude":"-87.19944","Snowdepth":"20.000","Units":"in","Rept_Date":"2021-02-22 13"},"coordinates":[2356,7180]},{"type":"Point","properties":{"Station_ID":"MI-BZ-1","Station_Nam":"BENZONIA 5.3 S, MI","Latitude":"44.53976","Longitude":"-86.10650","Snowdepth":"20.000","Units":"in","Rept_Date":"2021-02-22 14"},"coordinates":[2613,6255]},{"type":"Point","properties":{"Station_ID":"LVRM1","Station_Nam":"LIVERMORE FALLS 1 E","Latitude":"44.47160","Longitude":"-70.15940","Snowdepth":"20.000","Units":"in","Rept_Date":"2021-02-22 12"},"coordinates":[6355,6219]},{"type":"Point","properties":{"Station_ID":"KMKE","Station_Nam":"GEN MITCHELL INTERNATIONAL  AIRPORT","Latitude":"42.95000","Longitude":"-87.90000","Snowdepth":"20.000","Units":"in","Rept_Date":"2021-02-23 06"},"coordinates":[2192,5427]},{"type":"Point","properties":{"Station_ID":"IL-LK-9","Station_Nam":"LAKE VILLA 1.1 SSW, IL","Latitude":"42.40305","Longitude":"-88.09050","Snowdepth":"20.000","Units":"in","Rept_Date":"2021-02-22 12"},"coordinates":[2147,5142]},{"type":"Point","properties":{"Station_ID":"IL-LK-15","Station_Nam":"BANNOCKBURN 0.5 ESE, IL","Latitude":"42.18963","Longitude":"-87.86000","Snowdepth":"20.000","Units":"in","Rept_Date":"2021-02-22 13"},"coordinates":[2201,5031]},{"type":"Point","properties":{"Station_ID":"IL-CK-296","Station_Nam":"CHICAGO HEIGHTS 2.4 NNW, IL","Latitude":"41.54277","Longitude":"-87.65407","Snowdepth":"20.000","Units":"in","Rept_Date":"2021-02-22 14"},"coordinates":[2249,4694]},{"type":"Point","properties":{"Station_ID":"GERW3","Station_Nam":"GERMANTOWN,WI","Latitude":"43.21670","Longitude":"-88.11670","Snowdepth":"20.000","Units":"in","Rept_Date":"2021-02-22 13"},"coordinates":[2141,5566]},{"type":"Point","properties":{"Station_ID":"BLVI4","Station_Nam":"MISSISSIPPI RIVER","Latitude":"42.26670","Longitude":"-90.41670","Snowdepth":"20.000","Units":"in","Rept_Date":"2021-02-22 12"},"coordinates":[1601,5071]},{"type":"Point","properties":{"Station_ID":"BLTW3","Station_Nam":"BELOIT,WI","Latitude":"42.50000","Longitude":"-89.03330","Snowdepth":"20.000","Units":"in","Rept_Date":"2021-02-22 12"},"coordinates":[1926,5192]},{"type":"Point","properties":{"Station_ID":"ANJM4","Station_Nam":"SNOW PAID OBSERVER FOR KANJ","Latitude":"46.48670","Longitude":"-84.40260","Snowdepth":"20.000","Units":"in","Rept_Date":"2021-02-22 18"},"coordinates":[3013,7269]},{"type":"Point","properties":{"Station_ID":"ANJ","Station_Nam":"SAULT STE MARIE","Latitude":"46.46670","Longitude":"-84.36670","Snowdepth":"20.000","Units":"in","Rept_Date":"2021-02-23 00"},"coordinates":[3021,7259]},{"type":"Point","properties":{"Station_ID":"PA-MN-16","Station_Nam":"MOUNT POCONO 0.7 N, PA","Latitude":"41.13190","Longitude":"-75.35804","Snowdepth":"19.500","Units":"in","Rept_Date":"2021-02-22 12"},"coordinates":[5135,4480]},{"type":"Point","properties":{"Station_ID":"NY-OG-10","Station_Nam":"CAMILLUS 1.0 W, NY","Latitude":"43.03962","Longitude":"-76.32830","Snowdepth":"19.500","Units":"in","Rept_Date":"2021-02-22 12"},"coordinates":[4908,5473]},{"type":"Point","properties":{"Station_ID":"IL-SP-7","Station_Nam":"DAVIS 0.5 N, IL","Latitude":"42.42919","Longitude":"-89.41730","Snowdepth":"19.500","Units":"in","Rept_Date":"2021-02-22 14"},"coordinates":[1836,5155]},{"type":"Point","properties":{"Station_ID":"IL-KN-78","Station_Nam":"GENEVA 1.3 SSW, IL","Latitude":"41.86442","Longitude":"-88.32320","Snowdepth":"19.500","Units":"in","Rept_Date":"2021-02-22 13"},"coordinates":[2092,4861]},{"type":"Point","properties":{"Station_ID":"IL-CK-180","Station_Nam":"PARK RIDGE 0.5 SSW, IL","Latitude":"42.00443","Longitude":"-87.84600","Snowdepth":"19.500","Units":"in","Rept_Date":"2021-02-22 13"},"coordinates":[2204,4934]},{"type":"Point","properties":{"Station_ID":"CAN-QC-37","Station_Nam":"LAVAL 3.8 SSW, CAN","Latitude":"45.55358","Longitude":"-73.76976","Snowdepth":"19.500","Units":"in","Rept_Date":"2021-02-22 13"},"coordinates":[5508,6783]},{"type":"Point","properties":{"Station_ID":"OGIQ6","Station_Nam":"OGOKI CAMP","Latitude":"50.76680","Longitude":"-87.85820","Snowdepth":"19.450","Units":"in","Rept_Date":"2021-02-23 06"},"coordinates":[2202,9499]},{"type":"Point","properties":{"Station_ID":"QOU","Station_Nam":"QOU","Latitude":"50.79250","Longitude":"-69.67470","Snowdepth":"19.449","Units":"in","Rept_Date":"2021-02-22 12"},"coordinates":[6469,9512]},{"type":"Point","properties":{"Station_ID":"MLZ","Station_Nam":"MLZ","Latitude":"50.66170","Longitude":"-68.82360","Snowdepth":"19.331","Units":"in","Rept_Date":"2021-02-22 12"},"coordinates":[6669,9444]},{"type":"Point","properties":{"Station_ID":"QCO","Station_Nam":"QCO","Latitude":"51.45280","Longitude":"-72.20110","Snowdepth":"19.252","Units":"in","Rept_Date":"2021-02-22 12"},"coordinates":[5876,9856]},{"type":"Point","properties":{"Station_ID":"WTNM4","Station_Nam":"WATTON 2WSW","Latitude":"46.52660","Longitude":"-88.64240","Snowdepth":"19.000","Units":"in","Rept_Date":"2021-02-22 13"},"coordinates":[2017,7290]},{"type":"Point","properties":{"Station_ID":"WORV1","Station_Nam":"WORCESTER 2 W","Latitude":"44.37470","Longitude":"-72.58220","Snowdepth":"19.000","Units":"in","Rept_Date":"2021-02-22 12"},"coordinates":[5787,6169]},{"type":"Point","properties":{"Station_ID":"WLSN6","Station_Nam":"WALES","Latitude":"42.73920","Longitude":"-78.58780","Snowdepth":"19.000","Units":"in","Rept_Date":"2021-02-22 12"},"coordinates":[4377,5317]},{"type":"Point","properties":{"Station_ID":"WLNM4","Station_Nam":"WELLSTON 1N","Latitude":"44.22940","Longitude":"-85.95690","Snowdepth":"19.000","Units":"in","Rept_Date":"2021-02-22 12"},"coordinates":[2648,6093]},{"type":"Point","properties":{"Station_ID":"WI-VL-9","Station_Nam":"LAND O' LAKES 11.7 W, WI","Latitude":"46.19023","Longitude":"-89.45790","Snowdepth":"19.000","Units":"in","Rept_Date":"2021-02-22 13"},"coordinates":[1826,7115]},{"type":"Point","properties":{"Station_ID":"WI-MW-43","Station_Nam":"BROWN DEER 0.8 NW, WI","Latitude":"43.18438","Longitude":"-87.98401","Snowdepth":"19.000","Units":"in","Rept_Date":"2021-02-22 13"},"coordinates":[2172,5549]},{"type":"Point","properties":{"Station_ID":"WI-DD-16","Station_Nam":"BEAVER DAM 2.4 WNW, WI","Latitude":"43.47210","Longitude":"-88.88280","Snowdepth":"19.000","Units":"in","Rept_Date":"2021-02-22 13"},"coordinates":[1961,5699]},{"type":"Point","properties":{"Station_ID":"VT-WS-10","Station_Nam":"NORTHFIELD 1.5 N, VT","Latitude":"44.16986","Longitude":"-72.65200","Snowdepth":"19.000","Units":"in","Rept_Date":"2021-02-22 12"},"coordinates":[5770,6062]},{"type":"Point","properties":{"Station_ID":"VT-ES-3","Station_Nam":"LUNENBURG 2.3 NNW, VT","Latitude":"44.49324","Longitude":"-71.70446","Snowdepth":"19.000","Units":"in","Rept_Date":"2021-02-22 11"},"coordinates":[5993,6231]},{"type":"Point","properties":{"Station_ID":"UGRW3","Station_Nam":"UNION GROVE,WI","Latitude":"42.70000","Longitude":"-88.03220","Snowdepth":"19.000","Units":"in","Rept_Date":"2021-02-22 13"},"coordinates":[2161,5296]},{"type":"Point","properties":{"Station_ID":"TLDI4","Station_Nam":"TOLEDO,IA","Latitude":"41.98330","Longitude":"-92.58330","Snowdepth":"19.000","Units":"in","Rept_Date":"2021-02-22 13"},"coordinates":[1093,4923]},{"type":"Point","properties":{"Station_ID":"SUAW3","Station_Nam":"SUAMICO","Latitude":"44.60190","Longitude":"-88.09780","Snowdepth":"19.000","Units":"in","Rept_Date":"2021-02-22 12"},"coordinates":[2145,6287]},{"type":"Point","properties":{"Station_ID":"SPTI4","Station_Nam":"STRAWBERRY POINT","Latitude":"42.68530","Longitude":"-91.53300","Snowdepth":"19.000","Units":"in","Rept_Date":"2021-02-22 13"},"coordinates":[1339,5289]},{"type":"Point","properties":{"Station_ID":"SPRP1","Station_Nam":"SPRINGTOWN 1 NNE","Latitude":"40.57110","Longitude":"-75.27810","Snowdepth":"19.000","Units":"in","Rept_Date":"2021-02-22 12"},"coordinates":[5154,4187]},{"type":"Point","properties":{"Station_ID":"SNYI4","Station_Nam":"STANLEY","Latitude":"42.63330","Longitude":"-91.86320","Snowdepth":"19.000","Units":"in","Rept_Date":"2021-02-22 13"},"coordinates":[1262,5262]},{"type":"Point","properties":{"Station_ID":"SILN6","Station_Nam":"SILVER CREEK","Latitude":"42.53800","Longitude":"-79.16990","Snowdepth":"19.000","Units":"in","Rept_Date":"2021-02-22 12"},"coordinates":[4241,5212]},{"type":"Point","properties":{"Station_ID":"SACI4","Station_Nam":"SAC CITY,IA","Latitude":"42.42390","Longitude":"-94.99080","Snowdepth":"19.000","Units":"in","Rept_Date":"2021-02-22 12"},"coordinates":[528,5153]},{"type":"Point","properties":{"Station_ID":"RKWI4","Station_Nam":"ROCKWELL CITY,IA","Latitude":"42.40000","Longitude":"-94.61670","Snowdepth":"19.000","Units":"in","Rept_Date":"2021-02-22 13"},"coordinates":[615,5140]},{"type":"Point","properties":{"Station_ID":"RKHN6","Station_Nam":"ROCK HILL 3 SW","Latitude":"41.59170","Longitude":"-74.61410","Snowdepth":"19.000","Units":"in","Rept_Date":"2021-02-22 12"},"coordinates":[5310,4719]},{"type":"Point","properties":{"Station_ID":"RANM1","Station_Nam":"RANGELEY","Latitude":"44.98910","Longitude":"-70.67190","Snowdepth":"19.000","Units":"in","Rept_Date":"2021-02-22 11"},"coordinates":[6235,6489]},{"type":"Point","properties":{"Station_ID":"NY-ES-7","Station_Nam":"KEESEVILLE 0.8 SE, NY","Latitude":"44.49504","Longitude":"-73.47109","Snowdepth":"19.000","Units":"in","Rept_Date":"2021-02-22 12"},"coordinates":[5578,6232]},{"type":"Point","properties":{"Station_ID":"NY-CR-1","Station_Nam":"FREETOWN 1.0 NE, NY","Latitude":"42.53299","Longitude":"-76.02111","Snowdepth":"19.000","Units":"in","Rept_Date":"2021-02-22 12"},"coordinates":[4980,5209]},{"type":"Point","properties":{"Station_ID":"NH-CS-19","Station_Nam":"CARROLL 4.6 NE, NH","Latitude":"44.33765","Longitude":"-71.46461","Snowdepth":"19.000","Units":"in","Rept_Date":"2021-02-22 12"},"coordinates":[6049,6150]},{"type":"Point","properties":{"Station_ID":"MTCI2","Station_Nam":"MOUNT CARROLL","Latitude":"42.09800","Longitude":"-89.98410","Snowdepth":"19.000","Units":"in","Rept_Date":"2021-02-22 13"},"coordinates":[1703,4983]},{"type":"Point","properties":{"Station_ID":"MQT","Station_Nam":"MARQUETTE, MI","Latitude":"46.53140","Longitude":"-87.54920","Snowdepth":"19.000","Units":"in","Rept_Date":"2021-02-23 06"},"coordinates":[2274,7292]},{"type":"Point","properties":{"Station_ID":"MN-IS-18","Station_Nam":"BRAHAM 0.7 SW, MN","Latitude":"45.71379","Longitude":"-93.18095","Snowdepth":"19.000","Units":"in","Rept_Date":"2021-02-22 14"},"coordinates":[952,6866]},{"type":"Point","properties":{"Station_ID":"MD-GR-4","Station_Nam":"MC HENRY 4.8 SSE, MD","Latitude":"39.48539","Longitude":"-79.31830","Snowdepth":"19.000","Units":"in","Rept_Date":"2021-02-22 13"},"coordinates":[4206,3622]},{"type":"Point","properties":{"Station_ID":"LOWN6","Station_Nam":"LOWVILLE","Latitude":"43.79280","Longitude":"-75.48290","Snowdepth":"19.000","Units":"in","Rept_Date":"2021-02-22 12"},"coordinates":[5106,5866]},{"type":"Point","properties":{"Station_ID":"LODW3","Station_Nam":"LODI","Latitude":"43.32170","Longitude":"-89.53110","Snowdepth":"19.000","Units":"in","Rept_Date":"2021-02-22 13"},"coordinates":[1809,5620]},{"type":"Point","properties":{"Station_ID":"LNOW3","Station_Nam":"LAND O LAKES","Latitude":"46.19000","Longitude":"-89.45700","Snowdepth":"19.000","Units":"in","Rept_Date":"2021-02-22 13"},"coordinates":[1826,7115]},{"type":"Point","properties":{"Station_ID":"KGTB","Station_Nam":"FORT DRUM / WHEELER-SACK U. S. ARMY AIRFIELD","Latitude":"44.05000","Longitude":"-75.73333","Snowdepth":"19.000","Units":"in","Rept_Date":"2021-02-23 06"},"coordinates":[5047,6000]},{"type":"Point","properties":{"Station_ID":"JOHV1","Station_Nam":"JOHNSON 2 N","Latitude":"44.65790","Longitude":"-72.67850","Snowdepth":"19.000","Units":"in","Rept_Date":"2021-02-22 12"},"coordinates":[5764,6316]},{"type":"Point","properties":{"Station_ID":"JCBM4","Station_Nam":"JACOBSVILLE","Latitude":"47.00830","Longitude":"-88.43180","Snowdepth":"19.000","Units":"in","Rept_Date":"2021-02-22 12"},"coordinates":[2067,7541]},{"type":"Point","properties":{"Station_ID":"IL-LK-69","Station_Nam":"HIGHWOOD 0.9 S, IL","Latitude":"42.19841","Longitude":"-87.81400","Snowdepth":"19.000","Units":"in","Rept_Date":"2021-02-22 13"},"coordinates":[2212,5035]},{"type":"Point","properties":{"Station_ID":"IL-DP-118","Station_Nam":"DARIEN 0.4 SSE, IL","Latitude":"41.74312","Longitude":"-87.97462","Snowdepth":"19.000","Units":"in","Rept_Date":"2021-02-22 14"},"coordinates":[2174,4798]},{"type":"Point","properties":{"Station_ID":"IL-CR-12","Station_Nam":"MOUNT CARROLL 6.8 NNW, IL","Latitude":"42.18735","Longitude":"-90.02185","Snowdepth":"19.000","Units":"in","Rept_Date":"2021-02-22 13"},"coordinates":[1694,5029]},{"type":"Point","properties":{"Station_ID":"IL-CK-285","Station_Nam":"HARWOOD HEIGHTS 0.4 NNE, IL","Latitude":"41.97154","Longitude":"-87.80325","Snowdepth":"19.000","Units":"in","Rept_Date":"2021-02-22 13"},"coordinates":[2214,4917]},{"type":"Point","properties":{"Station_ID":"HRTM1","Station_Nam":"HARTFORD","Latitude":"44.37440","Longitude":"-70.31620","Snowdepth":"19.000","Units":"in","Rept_Date":"2021-02-22 12"},"coordinates":[6318,6169]},{"type":"Point","properties":{"Station_ID":"CSSM4","Station_Nam":"CASS CITY,MI","Latitude":"43.58330","Longitude":"-83.18330","Snowdepth":"19.000","Units":"in","Rept_Date":"2021-02-22 11"},"coordinates":[3299,5757]},{"type":"Point","properties":{"Station_ID":"COVP1","Station_Nam":"COVINGTON 2WSW","Latitude":"41.73330","Longitude":"-77.11670","Snowdepth":"19.000","Units":"in","Rept_Date":"2021-02-22 11"},"coordinates":[4722,4793]},{"type":"Point","properties":{"Station_ID":"CLUI4","Station_Nam":"CLUTIER,IA","Latitude":"42.08330","Longitude":"-92.40000","Snowdepth":"19.000","Units":"in","Rept_Date":"2021-02-22 13"},"coordinates":[1136,4975]},{"type":"Point","properties":{"Station_ID":"CAN-ON-5","Station_Nam":"OWEN SOUND 1.5 NW - GSCA, CAN","Latitude":"44.57837","Longitude":"-80.95461","Snowdepth":"19.000","Units":"in","Rept_Date":"2021-02-22 13"},"coordinates":[3822,6275]},{"type":"Point","properties":{"Station_ID":"BEAW3","Station_Nam":"BEAVER DAM,WI","Latitude":"43.45000","Longitude":"-88.85000","Snowdepth":"19.000","Units":"in","Rept_Date":"2021-02-22 13"},"coordinates":[1969,5687]},{"type":"Point","properties":{"Station_ID":"BBDW3","Station_Nam":"BIG BEND","Latitude":"42.88140","Longitude":"-88.20670","Snowdepth":"19.000","Units":"in","Rept_Date":"2021-02-22 13"},"coordinates":[2120,5391]},{"type":"Point","properties":{"Station_ID":"AUDI4","Station_Nam":"AUDUBON,IA","Latitude":"41.71670","Longitude":"-94.93330","Snowdepth":"19.000","Units":"in","Rept_Date":"2021-02-22 14"},"coordinates":[541,4784]},{"type":"Point","properties":{"Station_ID":"CAN-NL-82","Station_Nam":"GANDER 2.7 NW, CAN","Latitude":"48.97737","Longitude":"-54.63396","Snowdepth":"18.900","Units":"in","Rept_Date":"2021-02-22 10"},"coordinates":[9999,8567]},{"type":"Point","properties":{"Station_ID":"WI-DA-87","Station_Nam":"DUNKIRK 0.1 NW, WI","Latitude":"42.88356","Longitude":"-89.21056","Snowdepth":"18.700","Units":"in","Rept_Date":"2021-02-22 12"},"coordinates":[1884,5392]},{"type":"Point","properties":{"Station_ID":"WI-DA-35","Station_Nam":"MADISON 5.5 N, WI","Latitude":"43.15858","Longitude":"-89.37280","Snowdepth":"18.500","Units":"in","Rept_Date":"2021-02-22 14"},"coordinates":[1846,5535]},{"type":"Point","properties":{"Station_ID":"VT-OL-9","Station_Nam":"GREENSBORO 2.1 NNW, VT","Latitude":"44.60528","Longitude":"-72.30940","Snowdepth":"18.500","Units":"in","Rept_Date":"2021-02-22 12"},"coordinates":[5851,6289]},{"type":"Point","properties":{"Station_ID":"NY-SR-22","Station_Nam":"GREENFIELD CENTER 1.6 W, NY","Latitude":"43.12684","Longitude":"-73.87860","Snowdepth":"18.500","Units":"in","Rept_Date":"2021-02-22 12"},"coordinates":[5482,5519]},{"type":"Point","properties":{"Station_ID":"NY-ER-39","Station_Nam":"HAMBURG 0.4 WSW, NY","Latitude":"42.72253","Longitude":"-78.84330","Snowdepth":"18.500","Units":"in","Rept_Date":"2021-02-22 12"},"coordinates":[4317,5308]},{"type":"Point","properties":{"Station_ID":"NH-CR-41","Station_Nam":"ALBANY 2.8 SW, NH","Latitude":"43.92648","Longitude":"-71.21556","Snowdepth":"18.500","Units":"in","Rept_Date":"2021-02-22 13"},"coordinates":[6107,5935]},{"type":"Point","properties":{"Station_ID":"MI-BN-5","Station_Nam":"BUCHANAN 1.3 WNW, MI","Latitude":"41.83634","Longitude":"-86.38900","Snowdepth":"18.500","Units":"in","Rept_Date":"2021-02-22 12"},"coordinates":[2546,4846]},{"type":"Point","properties":{"Station_ID":"MA-HS-14","Station_Nam":"PLAINFIELD 2.4 ESE, MA","Latitude":"42.49792","Longitude":"-72.87769","Snowdepth":"18.500","Units":"in","Rept_Date":"2021-02-22 12"},"coordinates":[5717,5191]},{"type":"Point","properties":{"Station_ID":"IL-CK-61","Station_Nam":"OAK PARK 1.0 SW, IL","Latitude":"41.87558","Longitude":"-87.80110","Snowdepth":"18.500","Units":"in","Rept_Date":"2021-02-22 13"},"coordinates":[2215,4867]},{"type":"Point","properties":{"Station_ID":"CAN-ON-42","Station_Nam":"VANKLEEK HILL 3.4 S, CA","Latitude":"45.48987","Longitude":"-74.64570","Snowdepth":"18.500","Units":"in","Rept_Date":"2021-02-22 12"},"coordinates":[5302,6750]},{"type":"Point","properties":{"Station_ID":"WTRM4","Station_Nam":"WATERSMEET 12WSW","Latitude":"46.22310","Longitude":"-89.40850","Snowdepth":"18.000","Units":"in","Rept_Date":"2021-02-22 12"},"coordinates":[1838,7132]},{"type":"Point","properties":{"Station_ID":"WI-WW-2","Station_Nam":"LAKE GENEVA 0.6 ENE, WI","Latitude":"42.59169","Longitude":"-88.41770","Snowdepth":"18.000","Units":"in","Rept_Date":"2021-02-22 13"},"coordinates":[2070,5240]},{"type":"Point","properties":{"Station_ID":"WI-WK-61","Station_Nam":"HARTLAND 5.0 NNE, WI","Latitude":"43.16351","Longitude":"-88.30400","Snowdepth":"18.000","Units":"in","Rept_Date":"2021-02-22 12"},"coordinates":[2097,5538]},{"type":"Point","properties":{"Station_ID":"WI-WK-34","Station_Nam":"MUKWONAGO 5.3 W, WI","Latitude":"42.85380","Longitude":"-88.43550","Snowdepth":"18.000","Units":"in","Rept_Date":"2021-02-22 13"},"coordinates":[2066,5377]},{"type":"Point","properties":{"Station_ID":"WI-DA-99","Station_Nam":"FITCHBURG 1.1 NW, WI","Latitude":"42.99740","Longitude":"-89.44046","Snowdepth":"18.000","Units":"in","Rept_Date":"2021-02-22 13"},"coordinates":[1830,5451]},{"type":"Point","properties":{"Station_ID":"WI-CB-5","Station_Nam":"PORTAGE 7.2 SW, WI","Latitude":"43.47933","Longitude":"-89.57370","Snowdepth":"18.000","Units":"in","Rept_Date":"2021-02-22 13"},"coordinates":[1799,5702]},{"type":"Point","properties":{"Station_ID":"WI-BY-14","Station_Nam":"ASHLAND 9.8 W, WI","Latitude":"46.59742","Longitude":"-91.07856","Snowdepth":"18.000","Units":"in","Rept_Date":"2021-02-22 12"},"coordinates":[1446,7327]},{"type":"Point","properties":{"Station_ID":"VT-FR-21","Station_Nam":"FAIRFAX 4.9 WNW, VT","Latitude":"44.68880","Longitude":"-73.10340","Snowdepth":"18.000","Units":"in","Rept_Date":"2021-02-22 14"},"coordinates":[5664,6332]},{"type":"Point","properties":{"Station_ID":"VT-CH-7","Station_Nam":"HUNTINGTON 1.1 E, VT","Latitude":"44.32488","Longitude":"-72.96570","Snowdepth":"18.000","Units":"in","Rept_Date":"2021-02-22 12"},"coordinates":[5697,6143]},{"type":"Point","properties":{"Station_ID":"VT-CH-11","Station_Nam":"UNDERHILL 5.1 NNE, VT","Latitude":"44.59811","Longitude":"-72.91880","Snowdepth":"18.000","Units":"in","Rept_Date":"2021-02-22 13"},"coordinates":[5708,6285]},{"type":"Point","properties":{"Station_ID":"VNTI4","Station_Nam":"VINTON","Latitude":"42.17020","Longitude":"-92.00770","Snowdepth":"18.000","Units":"in","Rept_Date":"2021-02-22 13"},"coordinates":[1228,5020]},{"type":"Point","properties":{"Station_ID":"TCEM4","Station_Nam":"TRAVERSE CITY 5ESE","Latitude":"44.73370","Longitude":"-85.51180","Snowdepth":"18.000","Units":"in","Rept_Date":"2021-02-22 12"},"coordinates":[2752,6356]},{"type":"Point","properties":{"Station_ID":"SUTV1","Station_Nam":"SUTTON","Latitude":"44.61220","Longitude":"-72.04810","Snowdepth":"18.000","Units":"in","Rept_Date":"2021-02-22 13"},"coordinates":[5912,6293]},{"type":"Point","properties":{"Station_ID":"STOW3","Station_Nam":"STOUGHTON,WI","Latitude":"42.91670","Longitude":"-89.21670","Snowdepth":"18.000","Units":"in","Rept_Date":"2021-02-22 13"},"coordinates":[1883,5409]},{"type":"Point","properties":{"Station_ID":"STOI2","Station_Nam":"STOCKTON 3 NNE","Latitude":"42.40050","Longitude":"-89.99580","Snowdepth":"18.000","Units":"in","Rept_Date":"2021-02-23 03"},"coordinates":[1700,5140]},{"type":"Point","properties":{"Station_ID":"STEM4","Station_Nam":"STEUBEN","Latitude":"46.18530","Longitude":"-86.46410","Snowdepth":"18.000","Units":"in","Rept_Date":"2021-02-22 14"},"coordinates":[2529,7112]},{"type":"Point","properties":{"Station_ID":"ROCW3","Station_Nam":"ROCHESTER WWTP","Latitude":"42.72690","Longitude":"-88.22580","Snowdepth":"18.000","Units":"in","Rept_Date":"2021-02-22 10"},"coordinates":[2115,5310]},{"type":"Point","properties":{"Station_ID":"RICM4","Station_Nam":"RICHMOND 4 NNW","Latitude":"42.87830","Longitude":"-82.79580","Snowdepth":"18.000","Units":"in","Rept_Date":"2021-02-22 14"},"coordinates":[3390,5389]},{"type":"Point","properties":{"Station_ID":"PDGM4","Station_Nam":"PAULDING","Latitude":"46.39760","Longitude":"-89.17940","Snowdepth":"18.000","Units":"in","Rept_Date":"2021-02-22 13"},"coordinates":[1891,7223]},{"type":"Point","properties":{"Station_ID":"PA-PK-22","Station_Nam":"MILFORD 8.7 NW, PA","Latitude":"41.42018","Longitude":"-74.90953","Snowdepth":"18.000","Units":"in","Rept_Date":"2021-02-22 12"},"coordinates":[5240,4630]},{"type":"Point","properties":{"Station_ID":"OH-HC-12","Station_Nam":"FINDLAY 0.4 WSW, OH","Latitude":"41.04010","Longitude":"-83.64919","Snowdepth":"18.000","Units":"in","Rept_Date":"2021-02-22 15"},"coordinates":[3189,4432]},{"type":"Point","properties":{"Station_ID":"NY-CL-12","Station_Nam":"SARANAC 0.8 SSE, NY","Latitude":"44.63980","Longitude":"-73.73848","Snowdepth":"18.000","Units":"in","Rept_Date":"2021-02-22 12"},"coordinates":[5515,6307]},{"type":"Point","properties":{"Station_ID":"MWOW3","Station_Nam":"MUKWONAGO","Latitude":"42.85380","Longitude":"-88.43550","Snowdepth":"18.000","Units":"in","Rept_Date":"2021-02-22 13"},"coordinates":[2066,5377]},{"type":"Point","properties":{"Station_ID":"MN-HS-4","Station_Nam":"CALEDONIA 5.4 S, MN","Latitude":"43.55696","Longitude":"-91.51300","Snowdepth":"18.000","Units":"in","Rept_Date":"2021-02-22 14"},"coordinates":[1344,5743]},{"type":"Point","properties":{"Station_ID":"MIEM4","Station_Nam":"MICHIGAMME 3WNW","Latitude":"46.54530","Longitude":"-88.18000","Snowdepth":"18.000","Units":"in","Rept_Date":"2021-02-22 13"},"coordinates":[2126,7300]},{"type":"Point","properties":{"Station_ID":"MI-OC-3","Station_Nam":"HART 3 WSW, MI","Latitude":"43.67470","Longitude":"-86.42250","Snowdepth":"18.000","Units":"in","Rept_Date":"2021-02-22 12"},"coordinates":[2538,5804]},{"type":"Point","properties":{"Station_ID":"MI-GT-25","Station_Nam":"TRAVERSE CITY 4.7 ESE, MI","Latitude":"44.73370","Longitude":"-85.51189","Snowdepth":"18.000","Units":"in","Rept_Date":"2021-02-22 12"},"coordinates":[2752,6356]},{"type":"Point","properties":{"Station_ID":"MI-CP-14","Station_Nam":"SAULT STE. MARIE 2.2 E, MI","Latitude":"46.48933","Longitude":"-84.31971","Snowdepth":"18.000","Units":"in","Rept_Date":"2021-02-22 14"},"coordinates":[3032,7270]},{"type":"Point","properties":{"Station_ID":"MECN6","Station_Nam":"MECKLENBURG 4 SW","Latitude":"42.44220","Longitude":"-76.75740","Snowdepth":"18.000","Units":"in","Rept_Date":"2021-02-22 12"},"coordinates":[4807,5162]},{"type":"Point","properties":{"Station_ID":"ME-AR-15","Station_Nam":"PRESQUE ISLE 1.3 WSW, ME","Latitude":"46.67960","Longitude":"-68.01270","Snowdepth":"18.000","Units":"in","Rept_Date":"2021-02-22 12"},"coordinates":[6859,7370]},{"type":"Point","properties":{"Station_ID":"MD-GR-9","Station_Nam":"MOUNTAIN LAKE PARK 0.4 E, MD","Latitude":"39.40407","Longitude":"-79.37220","Snowdepth":"18.000","Units":"in","Rept_Date":"2021-02-22 11"},"coordinates":[4193,3579]},{"type":"Point","properties":{"Station_ID":"MA-BE-24","Station_Nam":"HANCOCK 3.6 NNE, MA","Latitude":"42.59130","Longitude":"-73.29530","Snowdepth":"18.000","Units":"in","Rept_Date":"2021-02-22 17"},"coordinates":[5619,5240]},{"type":"Point","properties":{"Station_ID":"LYNW3","Station_Nam":"LYNXVILLE DAM 9","Latitude":"43.21180","Longitude":"-91.09850","Snowdepth":"18.000","Units":"in","Rept_Date":"2021-02-22 14"},"coordinates":[1441,5563]},{"type":"Point","properties":{"Station_ID":"LOGI4","Station_Nam":"LOGAN,IA","Latitude":"41.63330","Longitude":"-95.81670","Snowdepth":"18.000","Units":"in","Rept_Date":"2021-02-22 13"},"coordinates":[334,4741]},{"type":"Point","properties":{"Station_ID":"LNCM1","Station_Nam":"LINCOLN WATER DISTRICT","Latitude":"45.32410","Longitude":"-68.58300","Snowdepth":"18.000","Units":"in","Rept_Date":"2021-02-22 12"},"coordinates":[6725,6663]},{"type":"Point","properties":{"Station_ID":"INDN6","Station_Nam":"INDIAN LAKE","Latitude":"43.75500","Longitude":"-74.27560","Snowdepth":"18.000","Units":"in","Rept_Date":"2021-02-22 13"},"coordinates":[5389,5846]},{"type":"Point","properties":{"Station_ID":"IL-WN-40","Station_Nam":"ROCKFORD 4.5 WSW, IL","Latitude":"42.24878","Longitude":"-89.14556","Snowdepth":"18.000","Units":"in","Rept_Date":"2021-02-22 13"},"coordinates":[1899,5061]},{"type":"Point","properties":{"Station_ID":"IL-MCH-13","Station_Nam":"BULL VALLEY 2.5 WNW, IL","Latitude":"42.32455","Longitude":"-88.39460","Snowdepth":"18.000","Units":"in","Rept_Date":"2021-02-22 14"},"coordinates":[2076,5101]},{"type":"Point","properties":{"Station_ID":"IL-DP-157","Station_Nam":"WEST CHICAGO 3.5 NNE, IL","Latitude":"41.93718","Longitude":"-88.19884","Snowdepth":"18.000","Units":"in","Rept_Date":"2021-02-22 13"},"coordinates":[2122,4899]},{"type":"Point","properties":{"Station_ID":"IL-CK-288","Station_Nam":"ROSELLE 0.8 N, IL","Latitude":"41.99255","Longitude":"-88.08422","Snowdepth":"18.000","Units":"in","Rept_Date":"2021-02-22 13"},"coordinates":[2148,4928]},{"type":"Point","properties":{"Station_ID":"IL-CK-145","Station_Nam":"OAK PARK 1.5 S, IL","Latitude":"41.86592","Longitude":"-87.79280","Snowdepth":"18.000","Units":"in","Rept_Date":"2021-02-22 12"},"coordinates":[2217,4862]},{"type":"Point","properties":{"Station_ID":"HTLM4","Station_Nam":"SNOW PAID OBSERVER FOR KHTL","Latitude":"44.34470","Longitude":"-84.67730","Snowdepth":"18.000","Units":"in","Rept_Date":"2021-02-22 18"},"coordinates":[2948,6153]},{"type":"Point","properties":{"Station_ID":"HTL","Station_Nam":"ROSCOMMON COUNTY AIRPORT","Latitude":"44.35000","Longitude":"-84.66670","Snowdepth":"18.000","Units":"in","Rept_Date":"2021-02-23 00"},"coordinates":[2951,6156]},{"type":"Point","properties":{"Station_ID":"HRTM4","Station_Nam":"HART,MI","Latitude":"43.70000","Longitude":"-86.36670","Snowdepth":"18.000","Units":"in","Rept_Date":"2021-02-22 12"},"coordinates":[2552,5817]},{"type":"Point","properties":{"Station_ID":"FARM1","Station_Nam":"FARMINGTON","Latitude":"44.68930","Longitude":"-70.15640","Snowdepth":"18.000","Units":"in","Rept_Date":"2021-02-22 12"},"coordinates":[6356,6333]},{"type":"Point","properties":{"Station_ID":"EVRW3","Station_Nam":"EAGLE RIVER-4 E","Latitude":"45.91890","Longitude":"-89.15280","Snowdepth":"18.000","Units":"in","Rept_Date":"2021-02-22 12"},"coordinates":[1898,6973]},{"type":"Point","properties":{"Station_ID":"DUBI4","Station_Nam":"DUBUQUE #3","Latitude":"42.40870","Longitude":"-90.73250","Snowdepth":"18.000","Units":"in","Rept_Date":"2021-02-22 18"},"coordinates":[1527,5145]},{"type":"Point","properties":{"Station_ID":"DGVW3","Station_Nam":"DODGEVILLE","Latitude":"42.96670","Longitude":"-90.11670","Snowdepth":"18.000","Units":"in","Rept_Date":"2021-02-22 13"},"coordinates":[1671,5435]},{"type":"Point","properties":{"Station_ID":"DBQ","Station_Nam":"DUBUQUE REGIONAL AIRPORT","Latitude":"42.40310","Longitude":"-90.70920","Snowdepth":"18.000","Units":"in","Rept_Date":"2021-02-22 12"},"coordinates":[1532,5142]},{"type":"Point","properties":{"Station_ID":"CLIW3","Station_Nam":"CLINTON - TURTLE CREEK","Latitude":"42.60000","Longitude":"-88.88330","Snowdepth":"18.000","Units":"in","Rept_Date":"2021-02-22 15"},"coordinates":[1961,5244]},{"type":"Point","properties":{"Station_ID":"CARM1","Station_Nam":"CARIBOU WFO","Latitude":"46.86810","Longitude":"-68.01250","Snowdepth":"18.000","Units":"in","Rept_Date":"2021-02-23 05"},"coordinates":[6859,7468]},{"type":"Point","properties":{"Station_ID":"BROW3","Station_Nam":"BRODHEAD,WI","Latitude":"42.61720","Longitude":"-89.38970","Snowdepth":"18.000","Units":"in","Rept_Date":"2021-02-22 13"},"coordinates":[1842,5253]},{"type":"Point","properties":{"Station_ID":"BLGW3","Station_Nam":"BELGIUM WWTP","Latitude":"43.51310","Longitude":"-87.85440","Snowdepth":"18.000","Units":"in","Rept_Date":"2021-02-22 13"},"coordinates":[2202,5720]},{"type":"Point","properties":{"Station_ID":"BAYW2","Station_Nam":"BAYARD COOP","Latitude":"39.27280","Longitude":"-79.36830","Snowdepth":"18.000","Units":"in","Rept_Date":"2021-02-22 12"},"coordinates":[4194,3511]},{"type":"Point","properties":{"Station_ID":"AMAM4","Station_Nam":"AMASA 1W","Latitude":"46.23470","Longitude":"-88.45440","Snowdepth":"18.000","Units":"in","Rept_Date":"2021-02-22 14"},"coordinates":[2062,7138]},{"type":"Point","properties":{"Station_ID":"ALBM4","Station_Nam":"ALBERTA FORD FOR CEN","Latitude":"46.64480","Longitude":"-88.48120","Snowdepth":"18.000","Units":"in","Rept_Date":"2021-02-22 14"},"coordinates":[2055,7351]},{"type":"Point","properties":{"Station_ID":"41.0401_083.6492","Station_Nam":"WSW Findlay  CoCoRaHS (OH-HC-12)","Latitude":"41.04010","Longitude":"-83.64920","Snowdepth":"18.000","Units":"in","Rept_Date":"2021-02-22 15"},"coordinates":[3189,4432]},{"type":"Point","properties":{"Station_ID":"WI-GT-9","Station_Nam":"CASSVILLE 7.8 ENE, WI","Latitude":"42.74949","Longitude":"-90.84390","Snowdepth":"17.800","Units":"in","Rept_Date":"2021-02-22 14"},"coordinates":[1501,5322]},{"type":"Point","properties":{"Station_ID":"SOCQ6","Station_Nam":"SOCKET LAKE","Latitude":"50.77870","Longitude":"-91.79300","Snowdepth":"17.760","Units":"in","Rept_Date":"2021-02-23 06"},"coordinates":[1278,9505]},{"type":"Point","properties":{"Station_ID":"CAN-ON-757","Station_Nam":"SAULT STE. MARIE 2.8 ESE - GLFC, CAN","Latitude":"46.50300","Longitude":"-84.30300","Snowdepth":"17.700","Units":"in","Rept_Date":"2021-02-22 13"},"coordinates":[3036,7278]},{"type":"Point","properties":{"Station_ID":"CAN-ON-526","Station_Nam":"HILTON BEACH 0.7 SW - MNRF, CAN","Latitude":"46.25357","Longitude":"-83.90014","Snowdepth":"17.700","Units":"in","Rept_Date":"2021-02-22 12"},"coordinates":[3130,7148]},{"type":"Point","properties":{"Station_ID":"CAN-ON-220","Station_Nam":"DEEP RIVER 1.5 SE - MNRF, CAN","Latitude":"46.09592","Longitude":"-77.47853","Snowdepth":"17.700","Units":"in","Rept_Date":"2021-02-22 14"},"coordinates":[4638,7066]},{"type":"Point","properties":{"Station_ID":"CAN-NB-98","Station_Nam":"HOYT 4.2 S, CAN","Latitude":"45.54763","Longitude":"-66.55440","Snowdepth":"17.700","Units":"in","Rept_Date":"2021-02-22 11"},"coordinates":[7201,6780]},{"type":"Point","properties":{"Station_ID":"WI-RC-33","Station_Nam":"RACINE 5.9 N, WI","Latitude":"42.81268","Longitude":"-87.81460","Snowdepth":"17.500","Units":"in","Rept_Date":"2021-02-22 13"},"coordinates":[2212,5355]},{"type":"Point","properties":{"Station_ID":"WI-PR-6","Station_Nam":"PHILLIPS 1.3 S, WI","Latitude":"45.67677","Longitude":"-90.39543","Snowdepth":"17.500","Units":"in","Rept_Date":"2021-02-22 13"},"coordinates":[1606,6847]},{"type":"Point","properties":{"Station_ID":"WI-PR-2","Station_Nam":"BUTTERNUT 5.9 SW, WI","Latitude":"45.96501","Longitude":"-90.59750","Snowdepth":"17.500","Units":"in","Rept_Date":"2021-02-22 12"},"coordinates":[1559,6997]},{"type":"Point","properties":{"Station_ID":"WI-OZ-12","Station_Nam":"PORT WASHINGTON 0.5 S, WI","Latitude":"43.38610","Longitude":"-87.87900","Snowdepth":"17.500","Units":"in","Rept_Date":"2021-02-22 13"},"coordinates":[2197,5654]},{"type":"Point","properties":{"Station_ID":"WI-IR-2","Station_Nam":"MERCER 2.0 SE, WI","Latitude":"46.14749","Longitude":"-90.03097","Snowdepth":"17.500","Units":"in","Rept_Date":"2021-02-22 13"},"coordinates":[1692,7092]},{"type":"Point","properties":{"Station_ID":"VT-OL-24","Station_Nam":"DERBY LINE 1.9 W, VT","Latitude":"45.00454","Longitude":"-72.14170","Snowdepth":"17.500","Units":"in","Rept_Date":"2021-02-22 12"},"coordinates":[5890,6497]},{"type":"Point","properties":{"Station_ID":"NY-OT-31","Station_Nam":"MARYLAND 1.8 W, NY","Latitude":"42.53310","Longitude":"-74.92090","Snowdepth":"17.500","Units":"in","Rept_Date":"2021-02-22 13"},"coordinates":[5238,5209]},{"type":"Point","properties":{"Station_ID":"NY-OS-15","Station_Nam":"MINETTO 0.1 SE, NY","Latitude":"43.39771","Longitude":"-76.47960","Snowdepth":"17.500","Units":"in","Rept_Date":"2021-02-22 13"},"coordinates":[4872,5660]},{"type":"Point","properties":{"Station_ID":"NY-ER-138","Station_Nam":"EAST AURORA 3.4 NNE, NY","Latitude":"42.81400","Longitude":"-78.59670","Snowdepth":"17.500","Units":"in","Rept_Date":"2021-02-22 14"},"coordinates":[4375,5356]},{"type":"Point","properties":{"Station_ID":"MN-SL-105","Station_Nam":"DULUTH 11.8 NNE, MN","Latitude":"46.94680","Longitude":"-92.03925","Snowdepth":"17.500","Units":"in","Rept_Date":"2021-02-22 14"},"coordinates":[1220,7509]},{"type":"Point","properties":{"Station_ID":"IN-PT-98","Station_Nam":"VALPARAISO 0.9 NNW, IN","Latitude":"41.48956","Longitude":"-87.05800","Snowdepth":"17.500","Units":"in","Rept_Date":"2021-02-22 12"},"coordinates":[2389,4666]},{"type":"Point","properties":{"Station_ID":"IL-MCH-95","Station_Nam":"CARY 0.5 SSW, IL","Latitude":"42.20235","Longitude":"-88.25224","Snowdepth":"17.500","Units":"in","Rept_Date":"2021-02-22 21"},"coordinates":[2109,5037]},{"type":"Point","properties":{"Station_ID":"IL-CK-50","Station_Nam":"PALOS PARK 1.3 SW, IL","Latitude":"41.65281","Longitude":"-87.86310","Snowdepth":"17.500","Units":"in","Rept_Date":"2021-02-22 13"},"coordinates":[2200,4751]},{"type":"Point","properties":{"Station_ID":"CAN-NL-65","Station_Nam":"KIPPENS 0.7 NE, CA","Latitude":"48.55436","Longitude":"-58.61850","Snowdepth":"17.500","Units":"in","Rept_Date":"2021-02-22 12"},"coordinates":[9064,8346]},{"type":"Point","properties":{"Station_ID":"WI-SR-1","Station_Nam":"HAYWARD 9.2 NNE, WI","Latitude":"46.13255","Longitude":"-91.40500","Snowdepth":"17.400","Units":"in","Rept_Date":"2021-02-22 12"},"coordinates":[1369,7085]},{"type":"Point","properties":{"Station_ID":"NY-WY-10","Station_Nam":"WYOMING COOP, NY","Latitude":"42.82060","Longitude":"-78.14810","Snowdepth":"17.400","Units":"in","Rept_Date":"2021-02-22 12"},"coordinates":[4480,5359]},{"type":"Point","properties":{"Station_ID":"KABQ6","Station_Nam":"CAB LAKE","Latitude":"49.59950","Longitude":"-89.17990","Snowdepth":"17.400","Units":"in","Rept_Date":"2021-02-23 06"},"coordinates":[1891,8891]},{"type":"Point","properties":{"Station_ID":"QMD","Station_Nam":"QMD","Latitude":"49.29060","Longitude":"-75.84500","Snowdepth":"17.323","Units":"in","Rept_Date":"2021-02-22 12"},"coordinates":[5021,8730]},{"type":"Point","properties":{"Station_ID":"QTV","Station_Nam":"QTV","Latitude":"49.66000","Longitude":"-69.35690","Snowdepth":"17.205","Units":"in","Rept_Date":"2021-02-22 12"},"coordinates":[6544,8922]},{"type":"Point","properties":{"Station_ID":"WYON6","Station_Nam":"WYOMING 3W","Latitude":"42.82020","Longitude":"-78.14780","Snowdepth":"17.000","Units":"in","Rept_Date":"2021-02-22 12"},"coordinates":[4480,5359]},{"type":"Point","properties":{"Station_ID":"WI-WK-22","Station_Nam":"PEWAUKEE 3.8 WSW, WI","Latitude":"43.05915","Longitude":"-88.31910","Snowdepth":"17.000","Units":"in","Rept_Date":"2021-02-22 14"},"coordinates":[2093,5484]},{"type":"Point","properties":{"Station_ID":"WI-WB-2","Station_Nam":"STONE LAKE 2.0 NW, WI","Latitude":"45.85960","Longitude":"-91.57710","Snowdepth":"17.000","Units":"in","Rept_Date":"2021-02-22 13"},"coordinates":[1329,6942]},{"type":"Point","properties":{"Station_ID":"WI-SB-10","Station_Nam":"RANDOM LAKE 0.5 SSE, WI","Latitude":"43.54812","Longitude":"-87.95050","Snowdepth":"17.000","Units":"in","Rept_Date":"2021-02-22 13"},"coordinates":[2180,5738]},{"type":"Point","properties":{"Station_ID":"WI-KN-16","Station_Nam":"SALEM 0.9 ESE, WI","Latitude":"42.55160","Longitude":"-88.09374","Snowdepth":"17.000","Units":"in","Rept_Date":"2021-02-22 13"},"coordinates":[2146,5219]},{"type":"Point","properties":{"Station_ID":"WI-JF-17","Station_Nam":"JOHNSON CREEK 2.7 SSW, WI","Latitude":"43.04559","Longitude":"-88.79925","Snowdepth":"17.000","Units":"in","Rept_Date":"2021-02-22 12"},"coordinates":[1981,5476]},{"type":"Point","properties":{"Station_ID":"WI-IR-3","Station_Nam":"PENCE 0.1 E, WI","Latitude":"46.41555","Longitude":"-90.27013","Snowdepth":"17.000","Units":"in","Rept_Date":"2021-02-22 13"},"coordinates":[1635,7232]},{"type":"Point","properties":{"Station_ID":"WI-CB-4","Station_Nam":"PORTAGE 5.7 WSW, WI","Latitude":"43.51411","Longitude":"-89.56910","Snowdepth":"17.000","Units":"in","Rept_Date":"2021-02-22 12"},"coordinates":[1800,5721]},{"type":"Point","properties":{"Station_ID":"WI-BY-2","Station_Nam":"MELLEN 18.6 SW, WI","Latitude":"46.16937","Longitude":"-90.98090","Snowdepth":"17.000","Units":"in","Rept_Date":"2021-02-22 13"},"coordinates":[1469,7104]},{"type":"Point","properties":{"Station_ID":"VT-WH-26","Station_Nam":"WESTMINSTER 5.5 NW, VT","Latitude":"43.12572","Longitude":"-72.53419","Snowdepth":"17.000","Units":"in","Rept_Date":"2021-02-22 12"},"coordinates":[5798,5518]},{"type":"Point","properties":{"Station_ID":"VT-OL-25","Station_Nam":"NEWPORT 1.5 WSW, VT","Latitude":"44.93059","Longitude":"-72.23731","Snowdepth":"17.000","Units":"in","Rept_Date":"2021-02-22 12"},"coordinates":[5868,6458]},{"type":"Point","properties":{"Station_ID":"VT-CL-18","Station_Nam":"WHEELOCK 1.6 S, VT","Latitude":"44.56491","Longitude":"-72.08830","Snowdepth":"17.000","Units":"in","Rept_Date":"2021-02-22 12"},"coordinates":[5903,6268]},{"type":"Point","properties":{"Station_ID":"SAVW3","Station_Nam":"SAUKVILLE WWTP","Latitude":"43.37470","Longitude":"-87.93940","Snowdepth":"17.000","Units":"in","Rept_Date":"2021-02-22 12"},"coordinates":[2182,5648]},{"type":"Point","properties":{"Station_ID":"RFDM4","Station_Nam":"ROCKFORD","Latitude":"43.11580","Longitude":"-85.56410","Snowdepth":"17.000","Units":"in","Rept_Date":"2021-02-22 12"},"coordinates":[2740,5513]},{"type":"Point","properties":{"Station_ID":"RCHW3","Station_Nam":"RICHRIELD,WI","Latitude":"43.21080","Longitude":"-88.20940","Snowdepth":"17.000","Units":"in","Rept_Date":"2021-02-22 12"},"coordinates":[2119,5563]},{"type":"Point","properties":{"Station_ID":"NY-TM-42","Station_Nam":"ITHACA 6.4 E, NY","Latitude":"42.43350","Longitude":"-76.37860","Snowdepth":"17.000","Units":"in","Rept_Date":"2021-02-22 12"},"coordinates":[4896,5158]},{"type":"Point","properties":{"Station_ID":"NY-OG-61","Station_Nam":"SKANEATELES 0.8 NNW, NY","Latitude":"42.95538","Longitude":"-76.43362","Snowdepth":"17.000","Units":"in","Rept_Date":"2021-02-22 12"},"coordinates":[4883,5429]},{"type":"Point","properties":{"Station_ID":"NY-ER-50","Station_Nam":"EAST AURORA 0.1 ENE, NY","Latitude":"42.76750","Longitude":"-78.61580","Snowdepth":"17.000","Units":"in","Rept_Date":"2021-02-22 13"},"coordinates":[4371,5332]},{"type":"Point","properties":{"Station_ID":"NY-CN-9","Station_Nam":"NORWICH 5.4 W, NY","Latitude":"42.53356","Longitude":"-75.63060","Snowdepth":"17.000","Units":"in","Rept_Date":"2021-02-22 12"},"coordinates":[5071,5210]},{"type":"Point","properties":{"Station_ID":"NWSM1","Station_Nam":"NEW SHARON","Latitude":"44.63520","Longitude":"-70.00020","Snowdepth":"17.000","Units":"in","Rept_Date":"2021-02-22 12"},"coordinates":[6393,6305]},{"type":"Point","properties":{"Station_ID":"NVLV1","Station_Nam":"NASHVILLE","Latitude":"44.44970","Longitude":"-72.92640","Snowdepth":"17.000","Units":"in","Rept_Date":"2021-02-22 12"},"coordinates":[5706,6208]},{"type":"Point","properties":{"Station_ID":"NJ-SS-7","Station_Nam":"HARDYSTON TWP 3.2 SE, NJ","Latitude":"41.08903","Longitude":"-74.53990","Snowdepth":"17.000","Units":"in","Rept_Date":"2021-02-22 13"},"coordinates":[5327,4457]},{"type":"Point","properties":{"Station_ID":"NJ-MS-94","Station_Nam":"JEFFERSON TWP 4.4 SW, NJ","Latitude":"40.96404","Longitude":"-74.62162","Snowdepth":"17.000","Units":"in","Rept_Date":"2021-02-22 11"},"coordinates":[5308,4392]},{"type":"Point","properties":{"Station_ID":"NH-MR-60","Station_Nam":"SOUTH SUTTON 1.3 SE, NH","Latitude":"43.29531","Longitude":"-71.90238","Snowdepth":"17.000","Units":"in","Rept_Date":"2021-02-22 13"},"coordinates":[5946,5607]},{"type":"Point","properties":{"Station_ID":"NFKC3","Station_Nam":"NORFOLK","Latitude":"41.97250","Longitude":"-73.22080","Snowdepth":"17.000","Units":"in","Rept_Date":"2021-02-22 13"},"coordinates":[5637,4917]},{"type":"Point","properties":{"Station_ID":"MI-MQ-19","Station_Nam":"ISHPEMING 7.2 SW, MI","Latitude":"46.40550","Longitude":"-87.75670","Snowdepth":"17.000","Units":"in","Rept_Date":"2021-02-22 11"},"coordinates":[2225,7227]},{"type":"Point","properties":{"Station_ID":"MI-GN-34","Station_Nam":"DAVISON 3.4 NNW, MI","Latitude":"43.07662","Longitude":"-83.54797","Snowdepth":"17.000","Units":"in","Rept_Date":"2021-02-22 13"},"coordinates":[3213,5493]},{"type":"Point","properties":{"Station_ID":"ME-SM-4","Station_Nam":"SOLON 3.9 ESE, ME","Latitude":"44.94705","Longitude":"-69.77790","Snowdepth":"17.000","Units":"in","Rept_Date":"2021-02-22 12"},"coordinates":[6445,6467]},{"type":"Point","properties":{"Station_ID":"ME-FR-4","Station_Nam":"NEW SHARON 2.0 NW, ME","Latitude":"44.66582","Longitude":"-70.02720","Snowdepth":"17.000","Units":"in","Rept_Date":"2021-02-22 12"},"coordinates":[6386,6321]},{"type":"Point","properties":{"Station_ID":"LKMW3","Station_Nam":"LAKE MILLS,WI","Latitude":"43.06670","Longitude":"-88.91220","Snowdepth":"17.000","Units":"in","Rept_Date":"2021-02-22 12"},"coordinates":[1954,5487]},{"type":"Point","properties":{"Station_ID":"JKMM1","Station_Nam":"JACKMAN","Latitude":"45.62600","Longitude":"-70.24600","Snowdepth":"17.000","Units":"in","Rept_Date":"2021-02-22 12"},"coordinates":[6335,6821]},{"type":"Point","properties":{"Station_ID":"IN-PT-63","Station_Nam":"VALPARAISO 1.8 NW, IN","Latitude":"41.49775","Longitude":"-87.07300","Snowdepth":"17.000","Units":"in","Rept_Date":"2021-02-22 15"},"coordinates":[2386,4670]},{"type":"Point","properties":{"Station_ID":"IN-PT-3","Station_Nam":"VALPARAISO 2.0 WSW, IN","Latitude":"41.46741","Longitude":"-87.08750","Snowdepth":"17.000","Units":"in","Rept_Date":"2021-02-22 21"},"coordinates":[2382,4654]},{"type":"Point","properties":{"Station_ID":"IN-LP-7","Station_Nam":"LA PORTE 1.6 SW, IN","Latitude":"41.59040","Longitude":"-86.73430","Snowdepth":"17.000","Units":"in","Rept_Date":"2021-02-22 13"},"coordinates":[2465,4718]},{"type":"Point","properties":{"Station_ID":"IL-LK-81","Station_Nam":"LAKE VILLA 2.3 WSW, IL","Latitude":"42.40532","Longitude":"-88.12380","Snowdepth":"17.000","Units":"in","Rept_Date":"2021-02-22 13"},"coordinates":[2139,5143]},{"type":"Point","properties":{"Station_ID":"IL-DP-79","Station_Nam":"BURR RIDGE 1.9 SW, IL","Latitude":"41.73194","Longitude":"-87.94860","Snowdepth":"17.000","Units":"in","Rept_Date":"2021-02-22 14"},"coordinates":[2180,4792]},{"type":"Point","properties":{"Station_ID":"IL-DP-127","Station_Nam":"DOWNERS GROVE 0.4 NNE, IL","Latitude":"41.80331","Longitude":"-88.01542","Snowdepth":"17.000","Units":"in","Rept_Date":"2021-02-22 13"},"coordinates":[2165,4829]},{"type":"Point","properties":{"Station_ID":"IL-CK-75","Station_Nam":"ELK GROVE VILLAGE 2.2 WSW, IL","Latitude":"41.99526","Longitude":"-88.05270","Snowdepth":"17.000","Units":"in","Rept_Date":"2021-02-22 13"},"coordinates":[2156,4929]},{"type":"Point","properties":{"Station_ID":"IL-CK-152","Station_Nam":"CHICAGO RIDGE 0.2 WSW, IL","Latitude":"41.70177","Longitude":"-87.78200","Snowdepth":"17.000","Units":"in","Rept_Date":"2021-02-22 13"},"coordinates":[2219,4776]},{"type":"Point","properties":{"Station_ID":"IA-CH-2","Station_Nam":"MANSON 1.4 NE, IA","Latitude":"42.54288","Longitude":"-94.51930","Snowdepth":"17.000","Units":"in","Rept_Date":"2021-02-22 13"},"coordinates":[638,5215]},{"type":"Point","properties":{"Station_ID":"GTHI4","Station_Nam":"GUTHRIE CENTER,IA","Latitude":"41.68330","Longitude":"-94.50000","Snowdepth":"17.000","Units":"in","Rept_Date":"2021-02-22 14"},"coordinates":[643,4767]},{"type":"Point","properties":{"Station_ID":"GOVN6","Station_Nam":"GOUVERNEUR 3 NW","Latitude":"44.35400","Longitude":"-75.51230","Snowdepth":"17.000","Units":"in","Rept_Date":"2021-02-22 12"},"coordinates":[5099,6158]},{"type":"Point","properties":{"Station_ID":"GNDI4","Station_Nam":"GRUNDY CENTER,IA","Latitude":"42.35530","Longitude":"-92.77390","Snowdepth":"17.000","Units":"in","Rept_Date":"2021-02-22 14"},"coordinates":[1048,5117]},{"type":"Point","properties":{"Station_ID":"GLAM4","Station_Nam":"GLADWIN","Latitude":"43.97580","Longitude":"-84.49080","Snowdepth":"17.000","Units":"in","Rept_Date":"2021-02-22 12"},"coordinates":[2992,5961]},{"type":"Point","properties":{"Station_ID":"FLAM4","Station_Nam":"FIFE LAKE 2WNW","Latitude":"44.58480","Longitude":"-85.36530","Snowdepth":"17.000","Units":"in","Rept_Date":"2021-02-22 12"},"coordinates":[2787,6278]},{"type":"Point","properties":{"Station_ID":"EGRW3","Station_Nam":"EAGLE RIVER-SOUTH","Latitude":"45.91360","Longitude":"-89.24360","Snowdepth":"17.000","Units":"in","Rept_Date":"2021-02-22 13"},"coordinates":[1876,6971]},{"type":"Point","properties":{"Station_ID":"EAHV1","Station_Nam":"EAST HAVEN","Latitude":"44.64250","Longitude":"-71.89120","Snowdepth":"17.000","Units":"in","Rept_Date":"2021-02-22 12"},"coordinates":[5949,6308]},{"type":"Point","properties":{"Station_ID":"CMRI4","Station_Nam":"CALMAR NE","Latitude":"43.18760","Longitude":"-91.86200","Snowdepth":"17.000","Units":"in","Rept_Date":"2021-02-22 13"},"coordinates":[1262,5550]},{"type":"Point","properties":{"Station_ID":"CMKW3","Station_Nam":"CLAM LAKE 4W","Latitude":"46.16940","Longitude":"-90.98080","Snowdepth":"17.000","Units":"in","Rept_Date":"2021-02-22 13"},"coordinates":[1469,7104]},{"type":"Point","properties":{"Station_ID":"CLYN6","Station_Nam":"CLYDE LOCK 26","Latitude":"43.05900","Longitude":"-76.83840","Snowdepth":"17.000","Units":"in","Rept_Date":"2021-02-22 12"},"coordinates":[4788,5483]},{"type":"Point","properties":{"Station_ID":"CDLM4","Station_Nam":"CADILLAC 9&10 NEWS","Latitude":"44.21130","Longitude":"-85.40860","Snowdepth":"17.000","Units":"in","Rept_Date":"2021-02-22 12"},"coordinates":[2776,6084]},{"type":"Point","properties":{"Station_ID":"CCTI4","Station_Nam":"CENTRAL CITY","Latitude":"42.21480","Longitude":"-91.52230","Snowdepth":"17.000","Units":"in","Rept_Date":"2021-02-22 16"},"coordinates":[1342,5044]},{"type":"Point","properties":{"Station_ID":"CCON6","Station_Nam":"CALLICOON CENTER","Latitude":"41.82750","Longitude":"-74.95060","Snowdepth":"17.000","Units":"in","Rept_Date":"2021-02-22 12"},"coordinates":[5231,4842]},{"type":"Point","properties":{"Station_ID":"CAN-ON-451","Station_Nam":"OWEN SOUND 1.2 N - GSCA, CAN","Latitude":"44.58092","Longitude":"-80.93025","Snowdepth":"17.000","Units":"in","Rept_Date":"2021-02-22 13"},"coordinates":[3827,6276]},{"type":"Point","properties":{"Station_ID":"CAN-ON-203","Station_Nam":"LUCKNOW 1.5 NNE - MVCA, CAN","Latitude":"43.97350","Longitude":"-81.50764","Snowdepth":"17.000","Units":"in","Rept_Date":"2021-02-22 13"},"coordinates":[3692,5960]},{"type":"Point","properties":{"Station_ID":"CAN-ON-118","Station_Nam":"DURHAM 1.4 S, CAN","Latitude":"44.16525","Longitude":"-80.82064","Snowdepth":"17.000","Units":"in","Rept_Date":"2021-02-22 12"},"coordinates":[3853,6060]},{"type":"Point","properties":{"Station_ID":"CAAW2","Station_Nam":"CANAAN VALLEY","Latitude":"39.05890","Longitude":"-79.44030","Snowdepth":"17.000","Units":"in","Rept_Date":"2021-02-22 14"},"coordinates":[4177,3400]},{"type":"Point","properties":{"Station_ID":"BRKI4","Station_Nam":"BROOKLYN,IA","Latitude":"41.72830","Longitude":"-92.43330","Snowdepth":"17.000","Units":"in","Rept_Date":"2021-02-22 13"},"coordinates":[1128,4790]},{"type":"Point","properties":{"Station_ID":"BDMW3","Station_Nam":"BEAVER DAM 1 N","Latitude":"43.46860","Longitude":"-88.83970","Snowdepth":"17.000","Units":"in","Rept_Date":"2021-02-22 17"},"coordinates":[1971,5697]},{"type":"Point","properties":{"Station_ID":"BBEM4","Station_Nam":"BIG BAY 9SW","Latitude":"46.74620","Longitude":"-87.88160","Snowdepth":"17.000","Units":"in","Rept_Date":"2021-02-22 13"},"coordinates":[2196,7404]},{"type":"Point","properties":{"Station_ID":"BAGM4","Station_Nam":"BARAGA 7NW","Latitude":"46.82100","Longitude":"-88.60590","Snowdepth":"17.000","Units":"in","Rept_Date":"2021-02-22 13"},"coordinates":[2026,7443]},{"type":"Point","properties":{"Station_ID":"CAN-ON-801","Station_Nam":"KANATA 9.4 NNW - RVCA, CAN","Latitude":"45.38428","Longitude":"-75.96845","Snowdepth":"16.900","Units":"in","Rept_Date":"2021-02-22 12"},"coordinates":[4992,6695]},{"type":"Point","properties":{"Station_ID":"MI-OK-121","Station_Nam":"LAKE ORION 1.1 ENE, MI","Latitude":"42.78680","Longitude":"-83.22323","Snowdepth":"16.700","Units":"in","Rept_Date":"2021-02-22 11"},"coordinates":[3289,5342]},{"type":"Point","properties":{"Station_ID":"WI-WK-73","Station_Nam":"MENOMONEE FALLS 3.2 NNW, WI","Latitude":"43.18817","Longitude":"-88.15555","Snowdepth":"16.500","Units":"in","Rept_Date":"2021-02-22 13"},"coordinates":[2132,5551]},{"type":"Point","properties":{"Station_ID":"WI-SB-19","Station_Nam":"SHEBOYGAN 0.7 SSW, WI","Latitude":"43.73560","Longitude":"-87.73490","Snowdepth":"16.500","Units":"in","Rept_Date":"2021-02-22 14"},"coordinates":[2230,5836]},{"type":"Point","properties":{"Station_ID":"WI-OZ-22","Station_Nam":"SAUKVILLE 0.9 SSW, WI","Latitude":"43.37254","Longitude":"-87.95009","Snowdepth":"16.500","Units":"in","Rept_Date":"2021-02-22 13"},"coordinates":[2180,5647]},{"type":"Point","properties":{"Station_ID":"WI-IW-3","Station_Nam":"MINERAL POINT 7.3 ENE, WI","Latitude":"42.91400","Longitude":"-90.05700","Snowdepth":"16.500","Units":"in","Rept_Date":"2021-02-22 13"},"coordinates":[1685,5408]},{"type":"Point","properties":{"Station_ID":"WI-GL-4","Station_Nam":"GREEN LAKE 0.8 E, WI","Latitude":"43.84369","Longitude":"-88.94066","Snowdepth":"16.500","Units":"in","Rept_Date":"2021-02-22 13"},"coordinates":[1947,5892]},{"type":"Point","properties":{"Station_ID":"WI-DA-39","Station_Nam":"MADISON 4.0 W, WI","Latitude":"43.07741","Longitude":"-89.46757","Snowdepth":"16.500","Units":"in","Rept_Date":"2021-02-22 13"},"coordinates":[1824,5493]},{"type":"Point","properties":{"Station_ID":"WI-DA-31","Station_Nam":"DEERFIELD 0.6 N, WI","Latitude":"43.05958","Longitude":"-89.07340","Snowdepth":"16.500","Units":"in","Rept_Date":"2021-02-22 14"},"coordinates":[1916,5484]},{"type":"Point","properties":{"Station_ID":"PA-CB-33","Station_Nam":"LAKE HARMONY 2.4 WNW, PA","Latitude":"41.07333","Longitude":"-75.63317","Snowdepth":"16.500","Units":"in","Rept_Date":"2021-02-22 12"},"coordinates":[5071,4449]},{"type":"Point","properties":{"Station_ID":"NY-CT-22","Station_Nam":"FRANKLINVILLE 0.5 NNE, NY","Latitude":"42.34166","Longitude":"-78.45280","Snowdepth":"16.500","Units":"in","Rept_Date":"2021-02-22 13"},"coordinates":[4409,5110]},{"type":"Point","properties":{"Station_ID":"NY-CR-5","Station_Nam":"MARATHON 1.0 NW, NY","Latitude":"42.45161","Longitude":"-76.04370","Snowdepth":"16.500","Units":"in","Rept_Date":"2021-02-22 12"},"coordinates":[4974,5167]},{"type":"Point","properties":{"Station_ID":"NJ-SS-1","Station_Nam":"ANDOVER TWP 1.7 W, NJ","Latitude":"41.01974","Longitude":"-74.76110","Snowdepth":"16.500","Units":"in","Rept_Date":"2021-02-22 12"},"coordinates":[5275,4421]},{"type":"Point","properties":{"Station_ID":"MN-SL-143","Station_Nam":"CANYON 4.6 NNE, MN","Latitude":"47.09800","Longitude":"-92.42170","Snowdepth":"16.500","Units":"in","Rept_Date":"2021-02-22 13"},"coordinates":[1130,7588]},{"type":"Point","properties":{"Station_ID":"MI-GT-21","Station_Nam":"KINGSLEY 2.7 ENE, MI","Latitude":"44.59871","Longitude":"-85.48426","Snowdepth":"16.500","Units":"in","Rept_Date":"2021-02-22 13"},"coordinates":[2759,6286]},{"type":"Point","properties":{"Station_ID":"MI-CX-7","Station_Nam":"EAST JORDAN 2.1 NNW, MI","Latitude":"45.18639","Longitude":"-85.14750","Snowdepth":"16.500","Units":"in","Rept_Date":"2021-02-22 13"},"coordinates":[2838,6592]},{"type":"Point","properties":{"Station_ID":"IL-WL-131","Station_Nam":"HOMER GLEN 0.7 NNE, IL","Latitude":"41.60842","Longitude":"-87.93270","Snowdepth":"16.500","Units":"in","Rept_Date":"2021-02-22 13"},"coordinates":[2184,4728]},{"type":"Point","properties":{"Station_ID":"IL-SP-6","Station_Nam":"FREEPORT 2.0 NW, IL","Latitude":"42.30955","Longitude":"-89.66370","Snowdepth":"16.500","Units":"in","Rept_Date":"2021-02-22 13"},"coordinates":[1778,5093]},{"type":"Point","properties":{"Station_ID":"IL-SP-25","Station_Nam":"FREEPORT 1.7 NW, IL","Latitude":"42.30427","Longitude":"-89.66285","Snowdepth":"16.500","Units":"in","Rept_Date":"2021-02-22 13"},"coordinates":[1778,5090]},{"type":"Point","properties":{"Station_ID":"IL-LK-42","Station_Nam":"GURNEE 1.6 W, IL","Latitude":"42.37776","Longitude":"-87.96740","Snowdepth":"16.500","Units":"in","Rept_Date":"2021-02-22 13"},"coordinates":[2176,5129]},{"type":"Point","properties":{"Station_ID":"IL-DP-109","Station_Nam":"ELMHURST 0.8 ESE, IL","Latitude":"41.89287","Longitude":"-87.92960","Snowdepth":"16.500","Units":"in","Rept_Date":"2021-02-22 13"},"coordinates":[2185,4876]},{"type":"Point","properties":{"Station_ID":"IL-BN-19","Station_Nam":"BELVIDERE 5.0 NNW, IL","Latitude":"42.32071","Longitude":"-88.88282","Snowdepth":"16.500","Units":"in","Rept_Date":"2021-02-22 13"},"coordinates":[1961,5099]},{"type":"Point","properties":{"Station_ID":"IA-CT-8","Station_Nam":"ELKADER 6.8 WSW, IA","Latitude":"42.81136","Longitude":"-91.52332","Snowdepth":"16.500","Units":"in","Rept_Date":"2021-02-22 14"},"coordinates":[1341,5354]},{"type":"Point","properties":{"Station_ID":"IA-BT-16","Station_Nam":"SHELLSBURG 2.9 S, IA","Latitude":"42.05091","Longitude":"-91.87008","Snowdepth":"16.500","Units":"in","Rept_Date":"2021-02-22 13"},"coordinates":[1260,4958]},{"type":"Point","properties":{"Station_ID":"SVBQ6","Station_Nam":"SAVANT BASE","Latitude":"50.28730","Longitude":"-90.65670","Snowdepth":"16.420","Units":"in","Rept_Date":"2021-02-23 06"},"coordinates":[1545,9249]},{"type":"Point","properties":{"Station_ID":"QLP","Station_Nam":"QLP","Latitude":"48.13920","Longitude":"-72.63830","Snowdepth":"16.378","Units":"in","Rept_Date":"2021-02-22 12"},"coordinates":[5774,8130]},{"type":"Point","properties":{"Station_ID":"MI-GT-27","Station_Nam":"TRAVERSE CITY 4.7 W, MI","Latitude":"44.75372","Longitude":"-85.69934","Snowdepth":"16.300","Units":"in","Rept_Date":"2021-02-22 13"},"coordinates":[2708,6366]},{"type":"Point","properties":{"Station_ID":"WRSM5","Station_Nam":"WRENSHALL","Latitude":"46.61550","Longitude":"-92.38380","Snowdepth":"16.000","Units":"in","Rept_Date":"2021-02-22 14"},"coordinates":[1139,7336]},{"type":"Point","properties":{"Station_ID":"WODI2","Station_Nam":"WOODSTOCK","Latitude":"42.36280","Longitude":"-88.53140","Snowdepth":"16.000","Units":"in","Rept_Date":"2021-02-22 13"},"coordinates":[2044,5121]},{"type":"Point","properties":{"Station_ID":"WI-WK-47","Station_Nam":"NEW BERLIN 1.9 WNW, WI","Latitude":"42.98378","Longitude":"-88.16323","Snowdepth":"16.000","Units":"in","Rept_Date":"2021-02-22 13"},"coordinates":[2130,5444]},{"type":"Point","properties":{"Station_ID":"WI-WK-29","Station_Nam":"OCONOMOWOC 4.6 NE, WI","Latitude":"43.14621","Longitude":"-88.42860","Snowdepth":"16.000","Units":"in","Rept_Date":"2021-02-22 15"},"coordinates":[2068,5529]},{"type":"Point","properties":{"Station_ID":"WI-MN-4","Station_Nam":"WILTON 4.2 E, WI","Latitude":"43.81028","Longitude":"-90.44360","Snowdepth":"16.000","Units":"in","Rept_Date":"2021-02-22 13"},"coordinates":[1595,5875]},{"type":"Point","properties":{"Station_ID":"WI-DA-75","Station_Nam":"COTTAGE GROVE 2.2 E, WI","Latitude":"43.08112","Longitude":"-89.15945","Snowdepth":"16.000","Units":"in","Rept_Date":"2021-02-22 13"},"coordinates":[1896,5495]},{"type":"Point","properties":{"Station_ID":"WDSV1","Station_Nam":"WOODSTOCK","Latitude":"43.63030","Longitude":"-72.50720","Snowdepth":"16.000","Units":"in","Rept_Date":"2021-02-22 13"},"coordinates":[5804,5781]},{"type":"Point","properties":{"Station_ID":"VT-WS-15","Station_Nam":"EAST CALAIS 1.5 SW, VT","Latitude":"44.35523","Longitude":"-72.45540","Snowdepth":"16.000","Units":"in","Rept_Date":"2021-02-22 12"},"coordinates":[5816,6159]},{"type":"Point","properties":{"Station_ID":"VT-OL-2","Station_Nam":"BARTON 3.0 ENE, VT","Latitude":"44.75863","Longitude":"-72.11680","Snowdepth":"16.000","Units":"in","Rept_Date":"2021-02-22 12"},"coordinates":[5896,6369]},{"type":"Point","properties":{"Station_ID":"VT-LM-1","Station_Nam":"STOWE 0.2 SW, VT","Latitude":"44.46399","Longitude":"-72.69070","Snowdepth":"16.000","Units":"in","Rept_Date":"2021-02-22 12"},"coordinates":[5761,6215]},{"type":"Point","properties":{"Station_ID":"VT-CL-14","Station_Nam":"LYNDONVILLE 1.1 W, VT","Latitude":"44.53582","Longitude":"-72.02867","Snowdepth":"16.000","Units":"in","Rept_Date":"2021-02-22 13"},"coordinates":[5917,6253]},{"type":"Point","properties":{"Station_ID":"VQAW3","Station_Nam":"VIROQUA","Latitude":"43.55970","Longitude":"-90.87560","Snowdepth":"16.000","Units":"in","Rept_Date":"2021-02-22 13"},"coordinates":[1493,5744]},{"type":"Point","properties":{"Station_ID":"TOPM1","Station_Nam":"TOPSFIELD","Latitude":"45.43470","Longitude":"-67.72020","Snowdepth":"16.000","Units":"in","Rept_Date":"2021-02-22 12"},"coordinates":[6928,6721]},{"type":"Point","properties":{"Station_ID":"TMWN3","Station_Nam":"TAMWORTH 4","Latitude":"43.86390","Longitude":"-71.26610","Snowdepth":"16.000","Units":"in","Rept_Date":"2021-02-22 12"},"coordinates":[6096,5903]},{"type":"Point","properties":{"Station_ID":"TAKW3","Station_Nam":"RICE RESERVOIR NO. 2","Latitude":"45.53770","Longitude":"-89.73220","Snowdepth":"16.000","Units":"in","Rept_Date":"2021-02-22 13"},"coordinates":[1762,6775]},{"type":"Point","properties":{"Station_ID":"STMM4","Station_Nam":"STAMBAUGH 2SSE","Latitude":"46.05550","Longitude":"-88.62780","Snowdepth":"16.000","Units":"in","Rept_Date":"2021-02-22 13"},"coordinates":[2021,7044]},{"type":"Point","properties":{"Station_ID":"STGW3","Station_Nam":"ST GERMAIN","Latitude":"45.91550","Longitude":"-89.48940","Snowdepth":"16.000","Units":"in","Rept_Date":"2021-02-22 12"},"coordinates":[1819,6972]},{"type":"Point","properties":{"Station_ID":"SNOW2","Station_Nam":"SNOWSHOE","Latitude":"38.39900","Longitude":"-79.99490","Snowdepth":"16.000","Units":"in","Rept_Date":"2021-02-22 11"},"coordinates":[4047,3056]},{"type":"Point","properties":{"Station_ID":"RHIW3","Station_Nam":"RHINELANDER","Latitude":"45.59860","Longitude":"-89.45080","Snowdepth":"16.000","Units":"in","Rept_Date":"2021-02-22 13"},"coordinates":[1828,6806]},{"type":"Point","properties":{"Station_ID":"RGNM1","Station_Nam":"RANGELEY 2NW","Latitude":"44.98940","Longitude":"-70.67220","Snowdepth":"16.000","Units":"in","Rept_Date":"2021-02-22 11"},"coordinates":[6235,6489]},{"type":"Point","properties":{"Station_ID":"PRNW3","Station_Nam":"PRENTICE,WI","Latitude":"45.54780","Longitude":"-90.30000","Snowdepth":"16.000","Units":"in","Rept_Date":"2021-02-22 14"},"coordinates":[1628,6780]},{"type":"Point","properties":{"Station_ID":"PKFW3","Station_Nam":"PARK FALLS,WI","Latitude":"45.93360","Longitude":"-90.45060","Snowdepth":"16.000","Units":"in","Rept_Date":"2021-02-22 14"},"coordinates":[1593,6981]},{"type":"Point","properties":{"Station_ID":"PHON6","Station_Nam":"PHOENICIA 2SW","Latitude":"42.06420","Longitude":"-74.34080","Snowdepth":"16.000","Units":"in","Rept_Date":"2021-02-22 13"},"coordinates":[5374,4965]},{"type":"Point","properties":{"Station_ID":"OSAI4","Station_Nam":"OSAGE","Latitude":"43.27940","Longitude":"-92.81060","Snowdepth":"16.000","Units":"in","Rept_Date":"2021-02-22 13"},"coordinates":[1039,5598]},{"type":"Point","properties":{"Station_ID":"OILM4","Station_Nam":"OIL CITY 3E","Latitude":"43.61140","Longitude":"-84.52810","Snowdepth":"16.000","Units":"in","Rept_Date":"2021-02-22 12"},"coordinates":[2983,5771]},{"type":"Point","properties":{"Station_ID":"NY-CY-8","Station_Nam":"AUBURN 8.3 SSE, NY","Latitude":"42.82869","Longitude":"-76.48670","Snowdepth":"16.000","Units":"in","Rept_Date":"2021-02-22 12"},"coordinates":[4870,5363]},{"type":"Point","properties":{"Station_ID":"NY-CQ-27","Station_Nam":"SILVER CREEK 1.0 SSE, NY","Latitude":"42.53088","Longitude":"-79.15986","Snowdepth":"16.000","Units":"in","Rept_Date":"2021-02-22 11"},"coordinates":[4243,5208]},{"type":"Point","properties":{"Station_ID":"NPTV1","Station_Nam":"NEWPORT","Latitude":"44.94900","Longitude":"-72.19120","Snowdepth":"16.000","Units":"in","Rept_Date":"2021-02-22 12"},"coordinates":[5878,6468]},{"type":"Point","properties":{"Station_ID":"NJ-SS-60","Station_Nam":"VERNON TWP 2.7 SSE, NJ","Latitude":"41.16332","Longitude":"-74.45938","Snowdepth":"16.000","Units":"in","Rept_Date":"2021-02-22 11"},"coordinates":[5346,4496]},{"type":"Point","properties":{"Station_ID":"NJ-MS-4","Station_Nam":"ROCKAWAY TWP 0.7 NE, NJ","Latitude":"40.96583","Longitude":"-74.48780","Snowdepth":"16.000","Units":"in","Rept_Date":"2021-02-22 13"},"coordinates":[5339,4393]},{"type":"Point","properties":{"Station_ID":"NH-CR-27","Station_Nam":"TAMWORTH 0.4 NNW, NH","Latitude":"43.86449","Longitude":"-71.26610","Snowdepth":"16.000","Units":"in","Rept_Date":"2021-02-22 12"},"coordinates":[6096,5903]},{"type":"Point","properties":{"Station_ID":"NH-CR-11","Station_Nam":"NORTH CONWAY 1.4 SSW, NH","Latitude":"44.03556","Longitude":"-71.14010","Snowdepth":"16.000","Units":"in","Rept_Date":"2021-02-22 12"},"coordinates":[6125,5992]},