{"type":"Topology","objects":{"snowdepth_geo":{"type":"GeometryCollection","name":"snowdepth","crs":{"type":"name","properties":{"name":"urn:ogc:def:crs:OGC:1.3:CRS84"}},"geometries":[{"type":"Point","properties":{"Station_ID":"PRKM4","Station_Nam":"MUNISING EAST","Latitude":"46.42580","Longitude":"-86.62000","Snowdepth":"76.500","Units":"in","Rept_Date":"2020-01-30 06"},"coordinates":[2430,6710]},{"type":"Point","properties":{"Station_ID":"OGIQ6","Station_Nam":"OGOKI CAMP","Latitude":"50.76680","Longitude":"-87.85820","Snowdepth":"61.100","Units":"in","Rept_Date":"2020-01-30 06"},"coordinates":[2147,9403]},{"type":"Point","properties":{"Station_ID":"CLUM4","Station_Nam":"CALUMET-TAMARACK","Latitude":"47.24550","Longitude":"-88.46790","Snowdepth":"55.000","Units":"in","Rept_Date":"2020-01-29 14"},"coordinates":[2007,7219]},{"type":"Point","properties":{"Station_ID":"PDLM4","Station_Nam":"PAINESDALE","Latitude":"47.04160","Longitude":"-88.67170","Snowdepth":"54.000","Units":"in","Rept_Date":"2020-01-29 13"},"coordinates":[1961,7092]},{"type":"Point","properties":{"Station_ID":"KSGM4","Station_Nam":"KEARSARGE","Latitude":"47.27520","Longitude":"-88.41700","Snowdepth":"50.000","Units":"in","Rept_Date":"2020-01-29 13"},"coordinates":[2019,7237]},{"type":"Point","properties":{"Station_ID":"AUDQ6","Station_Nam":"AUDEN","Latitude":"48.52600","Longitude":"-82.57570","Snowdepth":"47.640","Units":"in","Rept_Date":"2020-01-30 06"},"coordinates":[3355,8013]},{"type":"Point","properties":{"Station_ID":"HTLN3","Station_Nam":"HERMIT LAKE SNOWPLOT","Latitude":"44.26130","Longitude":"-71.28330","Snowdepth":"46.000","Units":"in","Rept_Date":"2020-01-29 10"},"coordinates":[5937,5367]},{"type":"Point","properties":{"Station_ID":"WLFM5","Station_Nam":"WOLF RIDGE ENVIRON LEARNING CENTER","Latitude":"47.38240","Longitude":"-91.19730","Snowdepth":"42.000","Units":"in","Rept_Date":"2020-01-29 13"},"coordinates":[1383,7304]},{"type":"Point","properties":{"Station_ID":"QNCM4","Station_Nam":"QUINCY HILL","Latitude":"47.13640","Longitude":"-88.57950","Snowdepth":"38.000","Units":"in","Rept_Date":"2020-01-29 12"},"coordinates":[1982,7151]},{"type":"Point","properties":{"Station_ID":"MQT","Station_Nam":"MARQUETTE, MI","Latitude":"46.53140","Longitude":"-87.54920","Snowdepth":"37.000","Units":"in","Rept_Date":"2020-01-30 06"},"coordinates":[2217,6776]},{"type":"Point","properties":{"Station_ID":"IBLM5","Station_Nam":"ISABELLA 14W","Latitude":"47.59360","Longitude":"-91.65140","Snowdepth":"37.000","Units":"in","Rept_Date":"2020-01-29 15"},"coordinates":[1279,7435]},{"type":"Point","properties":{"Station_ID":"MI-KW-2","Station_Nam":"DELAWARE 5.2 SW, MI","Latitude":"47.36928","Longitude":"-88.17919","Snowdepth":"36.000","Units":"in","Rept_Date":"2020-01-29 09"},"coordinates":[2073,7295]},{"type":"Point","properties":{"Station_ID":"MI-BG-3","Station_Nam":"L'ANSE 17.8 SE, MI","Latitude":"46.55730","Longitude":"-88.20770","Snowdepth":"34.000","Units":"in","Rept_Date":"2020-01-29 13"},"coordinates":[2067,6792]},{"type":"Point","properties":{"Station_ID":"QGO","Station_Nam":"QGO","Latitude":"48.85500","Longitude":"-74.20640","Snowdepth":"32.716","Units":"in","Rept_Date":"2020-01-29 12"},"coordinates":[5268,8217]},{"type":"Point","properties":{"Station_ID":"WI-VL-10","Station_Nam":"LAND O LAKES 4.3 WNW, WI","Latitude":"46.17440","Longitude":"-89.30380","Snowdepth":"32.500","Units":"in","Rept_Date":"2020-01-29 13"},"coordinates":[1816,6554]},{"type":"Point","properties":{"Station_ID":"MLZ","Station_Nam":"MLZ","Latitude":"50.66170","Longitude":"-68.82360","Snowdepth":"32.323","Units":"in","Rept_Date":"2020-01-29 12"},"coordinates":[6499,9338]},{"type":"Point","properties":{"Station_ID":"IWOM4","Station_Nam":"IRONWOOD#2","Latitude":"46.46520","Longitude":"-90.13820","Snowdepth":"32.000","Units":"in","Rept_Date":"2020-01-29 13"},"coordinates":[1625,6734]},{"type":"Point","properties":{"Station_ID":"ILIM5","Station_Nam":"ISLAND LAKE","Latitude":"47.02400","Longitude":"-92.07000","Snowdepth":"32.000","Units":"in","Rept_Date":"2020-01-29 15"},"coordinates":[1183,7081]},{"type":"Point","properties":{"Station_ID":"HERM4","Station_Nam":"HERMAN,MI","Latitude":"46.65000","Longitude":"-88.33330","Snowdepth":"32.000","Units":"in","Rept_Date":"2020-01-29 13"},"coordinates":[2038,6849]},{"type":"Point","properties":{"Station_ID":"FLNW3","Station_Nam":"FLORENCE","Latitude":"45.93360","Longitude":"-88.25830","Snowdepth":"32.000","Units":"in","Rept_Date":"2020-01-29 13"},"coordinates":[2055,6405]},{"type":"Point","properties":{"Station_ID":"QOU","Station_Nam":"QOU","Latitude":"50.79250","Longitude":"-69.67470","Snowdepth":"31.929","Units":"in","Rept_Date":"2020-01-29 12"},"coordinates":[6305,9419]},{"type":"Point","properties":{"Station_ID":"WI-VL-9","Station_Nam":"LAND O' LAKES 11.7 W, WI","Latitude":"46.19023","Longitude":"-89.45790","Snowdepth":"31.000","Units":"in","Rept_Date":"2020-01-29 13"},"coordinates":[1781,6564]},{"type":"Point","properties":{"Station_ID":"HURW3","Station_Nam":"HURLEY","Latitude":"46.46250","Longitude":"-90.19550","Snowdepth":"31.000","Units":"in","Rept_Date":"2020-01-29 14"},"coordinates":[1612,6733]},{"type":"Point","properties":{"Station_ID":"ANTW3","Station_Nam":"ANTIGO,WI","Latitude":"45.13330","Longitude":"-89.15000","Snowdepth":"31.000","Units":"in","Rept_Date":"2020-01-29 14"},"coordinates":[1851,5908]},{"type":"Point","properties":{"Station_ID":"QCU","Station_Nam":"QCU","Latitude":"47.82750","Longitude":"-76.59830","Snowdepth":"30.276","Units":"in","Rept_Date":"2020-01-29 12"},"coordinates":[4721,7580]},{"type":"Point","properties":{"Station_ID":"STEM4","Station_Nam":"STEUBEN","Latitude":"46.18530","Longitude":"-86.46410","Snowdepth":"30.000","Units":"in","Rept_Date":"2020-01-29 14"},"coordinates":[2465,6561]},{"type":"Point","properties":{"Station_ID":"PDGM4","Station_Nam":"PAULDING","Latitude":"46.39760","Longitude":"-89.17940","Snowdepth":"30.000","Units":"in","Rept_Date":"2020-01-29 14"},"coordinates":[1844,6693]},{"type":"Point","properties":{"Station_ID":"MI-HG-6","Station_Nam":"CALUMET 5.8 ENE, MI","Latitude":"47.27200","Longitude":"-88.33400","Snowdepth":"30.000","Units":"in","Rept_Date":"2020-01-29 11"},"coordinates":[2038,7235]},{"type":"Point","properties":{"Station_ID":"BERM4","Station_Nam":"BERGLAND DAM","Latitude":"46.58690","Longitude":"-89.54750","Snowdepth":"30.000","Units":"in","Rept_Date":"2020-01-29 13"},"coordinates":[1760,6810]},{"type":"Point","properties":{"Station_ID":"BBEM4","Station_Nam":"BIG BAY 9SW","Latitude":"46.74620","Longitude":"-87.88160","Snowdepth":"30.000","Units":"in","Rept_Date":"2020-01-29 13"},"coordinates":[2141,6909]},{"type":"Point","properties":{"Station_ID":"QGD","Station_Nam":"QGD","Latitude":"51.11140","Longitude":"-67.13940","Snowdepth":"29.961","Units":"in","Rept_Date":"2020-01-29 12"},"coordinates":[6884,9617]},{"type":"Point","properties":{"Station_ID":"WI-IR-2","Station_Nam":"MERCER 2.0 SE, WI","Latitude":"46.14749","Longitude":"-90.03097","Snowdepth":"29.600","Units":"in","Rept_Date":"2020-01-29 13"},"coordinates":[1650,6537]},{"type":"Point","properties":{"Station_ID":"WNBM5","Station_Nam":"DAM","Latitude":"47.43060","Longitude":"-94.05000","Snowdepth":"29.000","Units":"in","Rept_Date":"2020-01-29 14"},"coordinates":[731,7333]},{"type":"Point","properties":{"Station_ID":"STGW3","Station_Nam":"ST GERMAIN","Latitude":"45.91550","Longitude":"-89.48940","Snowdepth":"29.000","Units":"in","Rept_Date":"2020-01-29 12"},"coordinates":[1774,6393]},{"type":"Point","properties":{"Station_ID":"GNLM4","Station_Nam":"GREENLAND 6N","Latitude":"46.87360","Longitude":"-89.10060","Snowdepth":"29.000","Units":"in","Rept_Date":"2020-01-29 13"},"coordinates":[1862,6988]},{"type":"Point","properties":{"Station_ID":"QWE","Station_Nam":"QWE","Latitude":"47.84610","Longitude":"-73.80670","Snowdepth":"28.937","Units":"in","Rept_Date":"2020-01-29 12"},"coordinates":[5360,7591]},{"type":"Point","properties":{"Station_ID":"WI-IR-3","Station_Nam":"PENCE 0.1 E, WI","Latitude":"46.41555","Longitude":"-90.27013","Snowdepth":"28.500","Units":"in","Rept_Date":"2020-01-29 13"},"coordinates":[1595,6704]},{"type":"Point","properties":{"Station_ID":"WRSM5","Station_Nam":"WRENSHALL","Latitude":"46.61550","Longitude":"-92.38380","Snowdepth":"28.000","Units":"in","Rept_Date":"2020-01-29 14"},"coordinates":[1112,6828]},{"type":"Point","properties":{"Station_ID":"SUAW3","Station_Nam":"SUAMICO","Latitude":"44.60190","Longitude":"-88.09780","Snowdepth":"28.000","Units":"in","Rept_Date":"2020-01-29 12"},"coordinates":[2092,5578]},{"type":"Point","properties":{"Station_ID":"NOHM5","Station_Nam":"NORTHOME","Latitude":"47.83590","Longitude":"-94.25550","Snowdepth":"28.000","Units":"in","Rept_Date":"2020-01-29 13"},"coordinates":[684,7585]},{"type":"Point","properties":{"Station_ID":"MNSM4","Station_Nam":"MUNISING","Latitude":"46.41210","Longitude":"-86.66250","Snowdepth":"28.000","Units":"in","Rept_Date":"2020-01-29 11"},"coordinates":[2420,6702]},{"type":"Point","properties":{"Station_ID":"MI-MQ-19","Station_Nam":"ISHPEMING 7.2 SW, MI","Latitude":"46.40550","Longitude":"-87.75670","Snowdepth":"28.000","Units":"in","Rept_Date":"2020-01-29 11"},"coordinates":[2170,6697]},{"type":"Point","properties":{"Station_ID":"COVM4","Station_Nam":"COVINGTON","Latitude":"46.55880","Longitude":"-88.54190","Snowdepth":"28.000","Units":"in","Rept_Date":"2020-01-29 13"},"coordinates":[1990,6793]},{"type":"Point","properties":{"Station_ID":"CAN-NL-82","Station_Nam":"GANDER 2.7 NW, CAN","Latitude":"48.97737","Longitude":"-54.63396","Snowdepth":"28.000","Units":"in","Rept_Date":"2020-01-29 10"},"coordinates":[9744,8293]},{"type":"Point","properties":{"Station_ID":"BABM5","Station_Nam":"BABBITT","Latitude":"47.71210","Longitude":"-91.95330","Snowdepth":"28.000","Units":"in","Rept_Date":"2020-01-29 13"},"coordinates":[1210,7508]},{"type":"Point","properties":{"Station_ID":"MN-CK-6","Station_Nam":"GRAND MARAIS 4.4 W, MN","Latitude":"47.74865","Longitude":"-90.43760","Snowdepth":"27.500","Units":"in","Rept_Date":"2020-01-29 13"},"coordinates":[1557,7531]},{"type":"Point","properties":{"Station_ID":"WTRM4","Station_Nam":"WATERSMEET 12WSW","Latitude":"46.22310","Longitude":"-89.40850","Snowdepth":"27.000","Units":"in","Rept_Date":"2020-01-29 12"},"coordinates":[1792,6584]},{"type":"Point","properties":{"Station_ID":"PKGM5","Station_Nam":"POKEGANA LK DAM","Latitude":"47.25080","Longitude":"-93.58610","Snowdepth":"27.000","Units":"in","Rept_Date":"2020-01-29 14"},"coordinates":[837,7222]},{"type":"Point","properties":{"Station_ID":"EVRW3","Station_Nam":"EAGLE RIVER-4 E","Latitude":"45.91890","Longitude":"-89.15280","Snowdepth":"27.000","Units":"in","Rept_Date":"2020-01-29 12"},"coordinates":[1851,6396]},{"type":"Point","properties":{"Station_ID":"PTLQ6","Station_Nam":"PORTAGE LAKE","Latitude":"49.06950","Longitude":"-86.65940","Snowdepth":"26.890","Units":"in","Rept_Date":"2020-01-30 06"},"coordinates":[2421,8350]},{"type":"Point","properties":{"Station_ID":"MN-SL-15","Station_Nam":"CHISHOLM 0.4 WSW, MN","Latitude":"47.48557","Longitude":"-92.88690","Snowdepth":"26.500","Units":"in","Rept_Date":"2020-01-29 13"},"coordinates":[997,7368]},{"type":"Point","properties":{"Station_ID":"WI-WB-2","Station_Nam":"STONE LAKE 2.0 NW, WI","Latitude":"45.85960","Longitude":"-91.57710","Snowdepth":"26.000","Units":"in","Rept_Date":"2020-01-29 13"},"coordinates":[1296,6359]},{"type":"Point","properties":{"Station_ID":"TOGM5","Station_Nam":"CELINA 2E","Latitude":"47.86630","Longitude":"-93.02660","Snowdepth":"26.000","Units":"in","Rept_Date":"2020-01-29 14"},"coordinates":[965,7604]},{"type":"Point","properties":{"Station_ID":"RHIW3","Station_Nam":"RHINELANDER","Latitude":"45.59860","Longitude":"-89.45080","Snowdepth":"26.000","Units":"in","Rept_Date":"2020-01-29 13"},"coordinates":[1782,6197]},{"type":"Point","properties":{"Station_ID":"IRMM4","Station_Nam":"WWTP","Latitude":"46.46670","Longitude":"-90.18330","Snowdepth":"26.000","Units":"in","Rept_Date":"2020-01-29 13"},"coordinates":[1615,6735]},{"type":"Point","properties":{"Station_ID":"DLHM5","Station_Nam":"DULUTH NWS","Latitude":"46.83680","Longitude":"-92.21080","Snowdepth":"26.000","Units":"in","Rept_Date":"2020-01-30 06"},"coordinates":[1151,6965]},{"type":"Point","properties":{"Station_ID":"DLH","Station_Nam":"DULUTH, MN","Latitude":"46.83690","Longitude":"-92.21030","Snowdepth":"26.000","Units":"in","Rept_Date":"2020-01-30 00"},"coordinates":[1151,6965]},{"type":"Point","properties":{"Station_ID":"CRVW3","Station_Nam":"CRIVITZ HIGH FALLS","Latitude":"45.35750","Longitude":"-88.19190","Snowdepth":"26.000","Units":"in","Rept_Date":"2020-01-29 13"},"coordinates":[2070,6047]},{"type":"Point","properties":{"Station_ID":"AROM4","Station_Nam":"ARNOLD,MI","Latitude":"46.06670","Longitude":"-87.48330","Snowdepth":"26.000","Units":"in","Rept_Date":"2020-01-29 13"},"coordinates":[2232,6487]},{"type":"Point","properties":{"Station_ID":"QTV","Station_Nam":"QTV","Latitude":"49.66000","Longitude":"-69.35690","Snowdepth":"25.079","Units":"in","Rept_Date":"2020-01-29 12"},"coordinates":[6377,8717]},{"type":"Point","properties":{"Station_ID":"QLB","Station_Nam":"QLB","Latitude":"50.72360","Longitude":"-75.10000","Snowdepth":"25.079","Units":"in","Rept_Date":"2020-01-29 12"},"coordinates":[5064,9377]},{"type":"Point","properties":{"Station_ID":"WI-BY-14","Station_Nam":"ASHLAND 9.8 W, WI","Latitude":"46.59742","Longitude":"-91.07856","Snowdepth":"25.000","Units":"in","Rept_Date":"2020-01-29 12"},"coordinates":[1410,6816]},{"type":"Point","properties":{"Station_ID":"MN-IT-23","Station_Nam":"BOVEY 13.4 N, MN","Latitude":"47.48855","Longitude":"-93.43497","Snowdepth":"25.000","Units":"in","Rept_Date":"2020-01-29 12"},"coordinates":[871,7369]},{"type":"Point","properties":{"Station_ID":"HRVM4","Station_Nam":"HARVEY","Latitude":"46.49080","Longitude":"-87.35470","Snowdepth":"25.000","Units":"in","Rept_Date":"2020-01-29 12"},"coordinates":[2262,6750]},{"type":"Point","properties":{"Station_ID":"GLDM4","Station_Nam":"GLADSTONE NO. 2","Latitude":"45.84330","Longitude":"-87.03910","Snowdepth":"25.000","Units":"in","Rept_Date":"2020-01-29 12"},"coordinates":[2334,6349]},{"type":"Point","properties":{"Station_ID":"EGRW3","Station_Nam":"EAGLE RIVER-SOUTH","Latitude":"45.91360","Longitude":"-89.24360","Snowdepth":"25.000","Units":"in","Rept_Date":"2020-01-29 13"},"coordinates":[1830,6392]},{"type":"Point","properties":{"Station_ID":"ME-AR-18","Station_Nam":"NEW SWEDEN 4.9 NNW, ME","Latitude":"47.01080","Longitude":"-68.14390","Snowdepth":"24.500","Units":"in","Rept_Date":"2020-01-29 12"},"coordinates":[6655,7073]},{"type":"Point","properties":{"Station_ID":"PRDM4","Station_Nam":"PARADISE","Latitude":"46.60380","Longitude":"-85.03960","Snowdepth":"24.000","Units":"in","Rept_Date":"2020-01-29 11"},"coordinates":[2791,6820]},{"type":"Point","properties":{"Station_ID":"MN-SL-108","Station_Nam":"IRON JUNCTION 3.4 NNW, MN","Latitude":"47.46150","Longitude":"-92.63130","Snowdepth":"24.000","Units":"in","Rept_Date":"2020-01-29 13"},"coordinates":[1055,7353]},{"type":"Point","properties":{"Station_ID":"MN-IT-1","Station_Nam":"GRAND RAPIDS 2.0 E, MN","Latitude":"47.22266","Longitude":"-93.49600","Snowdepth":"24.000","Units":"in","Rept_Date":"2020-01-29 12"},"coordinates":[857,7204]},{"type":"Point","properties":{"Station_ID":"MCLN8","Station_Nam":"MC LEOD,ND","Latitude":"46.40250","Longitude":"-97.23810","Snowdepth":"24.000","Units":"in","Rept_Date":"2020-01-29 15"},"coordinates":[2,6696]},{"type":"Point","properties":{"Station_ID":"KABM5","Station_Nam":"KABETOGAMA LAKE VISITOR CTR","Latitude":"48.40880","Longitude":"-93.04840","Snowdepth":"24.000","Units":"in","Rept_Date":"2020-01-29 13"},"coordinates":[960,7940]},{"type":"Point","properties":{"Station_ID":"GGRM4","Station_Nam":"GREEN GARDEN NO.2","Latitude":"46.45330","Longitude":"-87.30380","Snowdepth":"24.000","Units":"in","Rept_Date":"2020-01-29 11"},"coordinates":[2273,6727]},{"type":"Point","properties":{"Station_ID":"COKM5","Station_Nam":"COOK","Latitude":"47.85060","Longitude":"-92.69250","Snowdepth":"24.000","Units":"in","Rept_Date":"2020-01-29 12"},"coordinates":[1041,7594]},{"type":"Point","properties":{"Station_ID":"CMLM5","Station_Nam":"CAMPBELL 1N","Latitude":"46.11470","Longitude":"-96.41610","Snowdepth":"24.000","Units":"in","Rept_Date":"2020-01-29 23"},"coordinates":[190,6517]},{"type":"Point","properties":{"Station_ID":"BNDM5","Station_Nam":"ELY 25E","Latitude":"47.97190","Longitude":"-91.44860","Snowdepth":"24.000","Units":"in","Rept_Date":"2020-01-29 13"},"coordinates":[1326,7669]},{"type":"Point","properties":{"Station_ID":"AURW3","Station_Nam":"AURORA","Latitude":"45.77000","Longitude":"-88.11810","Snowdepth":"24.000","Units":"in","Rept_Date":"2020-01-29 13"},"coordinates":[2087,6303]},{"type":"Point","properties":{"Station_ID":"AMAM4","Station_Nam":"AMASA 1W","Latitude":"46.23470","Longitude":"-88.45440","Snowdepth":"24.000","Units":"in","Rept_Date":"2020-01-29 14"},"coordinates":[2010,6591]},{"type":"Point","properties":{"Station_ID":"QMA","Station_Nam":"QMA","Latitude":"50.10330","Longitude":"-70.47190","Snowdepth":"23.937","Units":"in","Rept_Date":"2020-01-29 12"},"coordinates":[6122,8992]},{"type":"Point","properties":{"Station_ID":"QGA","Station_Nam":"QGA","Latitude":"47.25640","Longitude":"-73.73810","Snowdepth":"23.346","Units":"in","Rept_Date":"2020-01-29 12"},"coordinates":[5376,7225]},{"type":"Point","properties":{"Station_ID":"WI-DG-20","Station_Nam":"SOLON SPRINGS 1.2 W, WI","Latitude":"46.35217","Longitude":"-91.84405","Snowdepth":"23.000","Units":"in","Rept_Date":"2020-01-29 13"},"coordinates":[1235,6664]},{"type":"Point","properties":{"Station_ID":"TOHM5","Station_Nam":"TWO HARBORS WWTP","Latitude":"47.01760","Longitude":"-91.66480","Snowdepth":"23.000","Units":"in","Rept_Date":"2020-01-29 13"},"coordinates":[1276,7077]},{"type":"Point","properties":{"Station_ID":"SULW3","Station_Nam":"SUMMIT LAKE","Latitude":"45.37880","Longitude":"-89.19410","Snowdepth":"23.000","Units":"in","Rept_Date":"2020-01-29 11"},"coordinates":[1841,6060]},{"type":"Point","properties":{"Station_ID":"STMM4","Station_Nam":"STAMBAUGH 2SSE","Latitude":"46.05550","Longitude":"-88.62780","Snowdepth":"23.000","Units":"in","Rept_Date":"2020-01-29 13"},"coordinates":[1971,6480]},{"type":"Point","properties":{"Station_ID":"RHLW3","Station_Nam":"RHINELANDER 4NE","Latitude":"45.65270","Longitude":"-89.30740","Snowdepth":"23.000","Units":"in","Rept_Date":"2020-01-29 12"},"coordinates":[1815,6230]},{"type":"Point","properties":{"Station_ID":"NYMM5","Station_Nam":"NEW YORK MILLS","Latitude":"46.50920","Longitude":"-95.37990","Snowdepth":"23.000","Units":"in","Rept_Date":"2020-01-29 13"},"coordinates":[427,6762]},{"type":"Point","properties":{"Station_ID":"CSLM5","Station_Nam":"CASS LAKE,MN","Latitude":"47.38470","Longitude":"-94.61470","Snowdepth":"23.000","Units":"in","Rept_Date":"2020-01-29 14"},"coordinates":[602,7305]},{"type":"Point","properties":{"Station_ID":"CRLM5","Station_Nam":"CROSS LAKE DAM","Latitude":"46.66930","Longitude":"-94.11060","Snowdepth":"23.000","Units":"in","Rept_Date":"2020-01-29 14"},"coordinates":[717,6861]},{"type":"Point","properties":{"Station_ID":"CAN-NS-39","Station_Nam":"ST. ANNS 2.8 NW, CA","Latitude":"46.25082","Longitude":"-60.64340","Snowdepth":"23.000","Units":"in","Rept_Date":"2020-01-29 11"},"coordinates":[8370,6601]},{"type":"Point","properties":{"Station_ID":"AVTW3","Station_Nam":"ARBOR VITAE-JOHNSON LAKE","Latitude":"45.89940","Longitude":"-89.72670","Snowdepth":"23.000","Units":"in","Rept_Date":"2020-01-29 12"},"coordinates":[1719,6383]},{"type":"Point","properties":{"Station_ID":"AGNW3","Station_Nam":"ARGONNE-1.5 NW","Latitude":"45.67360","Longitude":"-88.90380","Snowdepth":"23.000","Units":"in","Rept_Date":"2020-01-29 13"},"coordinates":[1907,6243]},{"type":"Point","properties":{"Station_ID":"QFT","Station_Nam":"QFT","Latitude":"50.83280","Longitude":"-74.40390","Snowdepth":"22.992","Units":"in","Rept_Date":"2020-01-29 12"},"coordinates":[5223,9444]},{"type":"Point","properties":{"Station_ID":"QCX","Station_Nam":"QCX","Latitude":"51.32830","Longitude":"-70.08060","Snowdepth":"22.953","Units":"in","Rept_Date":"2020-01-29 12"},"coordinates":[6212,9752]},{"type":"Point","properties":{"Station_ID":"SVBQ6","Station_Nam":"SAVANT BASE","Latitude":"50.28730","Longitude":"-90.65670","Snowdepth":"22.830","Units":"in","Rept_Date":"2020-01-30 06"},"coordinates":[1507,9106]},{"type":"Point","properties":{"Station_ID":"KABQ6","Station_Nam":"CAB LAKE","Latitude":"49.59950","Longitude":"-89.17990","Snowdepth":"22.440","Units":"in","Rept_Date":"2020-01-30 06"},"coordinates":[1844,8679]},{"type":"Point","properties":{"Station_ID":"QYR","Station_Nam":"QYR","Latitude":"48.87220","Longitude":"-75.61470","Snowdepth":"22.402","Units":"in","Rept_Date":"2020-01-29 12"},"coordinates":[4946,8228]},{"type":"Point","properties":{"Station_ID":"DVLQ6","Station_Nam":"DEVIOUS LAKE","Latitude":"49.19890","Longitude":"-87.76440","Snowdepth":"22.090","Units":"in","Rept_Date":"2020-01-30 06"},"coordinates":[2168,8431]},{"type":"Point","properties":{"Station_ID":"WTNM4","Station_Nam":"WATTON 2WSW","Latitude":"46.52660","Longitude":"-88.64240","Snowdepth":"22.000","Units":"in","Rept_Date":"2020-01-29 13"},"coordinates":[1967,6773]},{"type":"Point","properties":{"Station_ID":"WI-OC-1","Station_Nam":"MOUNTAIN 1.1 SW, WI","Latitude":"45.17239","Longitude":"-88.48990","Snowdepth":"22.000","Units":"in","Rept_Date":"2020-01-29 13"},"coordinates":[2002,5932]},{"type":"Point","properties":{"Station_ID":"WI-BY-2","Station_Nam":"MELLEN 18.6 SW, WI","Latitude":"46.16937","Longitude":"-90.98090","Snowdepth":"22.000","Units":"in","Rept_Date":"2020-01-29 13"},"coordinates":[1432,6551]},{"type":"Point","properties":{"Station_ID":"MTQM4","Station_Nam":"MANISTIQUE WWTP","Latitude":"45.95120","Longitude":"-86.25130","Snowdepth":"22.000","Units":"in","Rept_Date":"2020-01-29 12"},"coordinates":[2514,6416]},{"type":"Point","properties":{"Station_ID":"MOUW3","Station_Nam":"MOUNTAIN 1 SW","Latitude":"45.17220","Longitude":"-88.49390","Snowdepth":"22.000","Units":"in","Rept_Date":"2020-01-29 13"},"coordinates":[2001,5932]},{"type":"Point","properties":{"Station_ID":"MN-IT-17","Station_Nam":"GRAND RAPIDS 6.1 N, MN","Latitude":"47.31165","Longitude":"-93.55036","Snowdepth":"22.000","Units":"in","Rept_Date":"2020-01-29 13"},"coordinates":[845,7260]},{"type":"Point","properties":{"Station_ID":"MN-BK-6","Station_Nam":"LAKE PARK 6.0 S, MN","Latitude":"46.79850","Longitude":"-96.12180","Snowdepth":"22.000","Units":"in","Rept_Date":"2020-01-29 13"},"coordinates":[257,6941]},{"type":"Point","properties":{"Station_ID":"MIEM4","Station_Nam":"MICHIGAMME 3WNW","Latitude":"46.54530","Longitude":"-88.18000","Snowdepth":"22.000","Units":"in","Rept_Date":"2020-01-29 13"},"coordinates":[2073,6784]},{"type":"Point","properties":{"Station_ID":"LEIM5","Station_Nam":"ORR 3E","Latitude":"48.05810","Longitude":"-92.75220","Snowdepth":"22.000","Units":"in","Rept_Date":"2020-01-29 12"},"coordinates":[1027,7723]},{"type":"Point","properties":{"Station_ID":"EMBM5","Station_Nam":"EMBARASS,MN","Latitude":"47.65810","Longitude":"-92.19580","Snowdepth":"22.000","Units":"in","Rept_Date":"2020-01-29 12"},"coordinates":[1155,7475]},{"type":"Point","properties":{"Station_ID":"ELYM5","Station_Nam":"ELY","Latitude":"47.90560","Longitude":"-91.82830","Snowdepth":"22.000","Units":"in","Rept_Date":"2020-01-29 16"},"coordinates":[1239,7628]},{"type":"Point","properties":{"Station_ID":"CMKW3","Station_Nam":"CLAM LAKE 4W","Latitude":"46.16940","Longitude":"-90.98080","Snowdepth":"22.000","Units":"in","Rept_Date":"2020-01-29 13"},"coordinates":[1433,6551]},{"type":"Point","properties":{"Station_ID":"CLKM4","Station_Nam":"CLARKSBURG","Latitude":"46.49910","Longitude":"-87.84500","Snowdepth":"22.000","Units":"in","Rept_Date":"2020-01-29 12"},"coordinates":[2150,6755]},{"type":"Point","properties":{"Station_ID":"ISPM4","Station_Nam":"WWTP","Latitude":"46.50000","Longitude":"-87.68330","Snowdepth":"21.000","Units":"in","Rept_Date":"2020-01-29 13"},"coordinates":[2187,6756]},{"type":"Point","properties":{"Station_ID":"INL","Station_Nam":"FALLS INTERNATIONAL ARPT","Latitude":"48.56640","Longitude":"-93.40310","Snowdepth":"21.000","Units":"in","Rept_Date":"2020-01-30 00"},"coordinates":[879,8038]},{"type":"Point","properties":{"Station_ID":"IFSM5","Station_Nam":"INTERNATIONAL FALLS SNOW","Latitude":"48.57780","Longitude":"-93.39640","Snowdepth":"21.000","Units":"in","Rept_Date":"2020-01-29 12"},"coordinates":[880,8045]},{"type":"Point","properties":{"Station_ID":"CAN-NL-14","Station_Nam":"WHITBOURNE 1.4 NE, CA","Latitude":"47.42741","Longitude":"-53.51950","Snowdepth":"20.900","Units":"in","Rept_Date":"2020-01-29 17"},"coordinates":[9999,7331]},{"type":"Point","properties":{"Station_ID":"TRIQ6","Station_Nam":"TRIO LAKE","Latitude":"49.22880","Longitude":"-87.22920","Snowdepth":"20.710","Units":"in","Rept_Date":"2020-01-30 06"},"coordinates":[2290,8449]},{"type":"Point","properties":{"Station_ID":"QLP","Station_Nam":"QLP","Latitude":"48.13920","Longitude":"-72.63830","Snowdepth":"20.669","Units":"in","Rept_Date":"2020-01-29 12"},"coordinates":[5627,7773]},{"type":"Point","properties":{"Station_ID":"MN-IT-7","Station_Nam":"GRAND RAPIDS 6.2 SSW, MN","Latitude":"47.13687","Longitude":"-93.56660","Snowdepth":"20.500","Units":"in","Rept_Date":"2020-01-29 12"},"coordinates":[841,7151]},{"type":"Point","properties":{"Station_ID":"MN-CW-22","Station_Nam":"FORT RIPLEY 0.8 N, MN","Latitude":"46.18089","Longitude":"-94.36510","Snowdepth":"20.500","Units":"in","Rept_Date":"2020-01-29 10"},"coordinates":[659,6558]},{"type":"Point","properties":{"Station_ID":"QTM","Station_Nam":"QTM","Latitude":"51.05780","Longitude":"-72.57190","Snowdepth":"20.394","Units":"in","Rept_Date":"2020-01-29 12"},"coordinates":[5642,9584]},{"type":"Point","properties":{"Station_ID":"QLM","Station_Nam":"QLM","Latitude":"48.92030","Longitude":"-70.25280","Snowdepth":"20.394","Units":"in","Rept_Date":"2020-01-29 12"},"coordinates":[6173,8258]},{"type":"Point","properties":{"Station_ID":"QMD","Station_Nam":"QMD","Latitude":"49.29060","Longitude":"-75.84500","Snowdepth":"20.354","Units":"in","Rept_Date":"2020-01-29 12"},"coordinates":[4894,8487]},{"type":"Point","properties":{"Station_ID":"CAN-QC-47","Station_Nam":"SAINTE-FOY 1.8 ENE, CAN","Latitude":"46.76934","Longitude":"-71.27124","Snowdepth":"20.300","Units":"in","Rept_Date":"2020-01-29 12"},"coordinates":[5940,6923]},{"type":"Point","properties":{"Station_ID":"WLKW3","Station_Nam":"WHITE LAKE 1 SE","Latitude":"45.14520","Longitude":"-88.74160","Snowdepth":"20.000","Units":"in","Rept_Date":"2020-01-29 14"},"coordinates":[1945,5915]},{"type":"Point","properties":{"Station_ID":"WI-AS-4","Station_Nam":"ASHLAND 0.5 WNW, WI","Latitude":"46.58240","Longitude":"-90.88390","Snowdepth":"20.000","Units":"in","Rept_Date":"2020-01-29 13"},"coordinates":[1455,6807]},{"type":"Point","properties":{"Station_ID":"RLWM5","Station_Nam":"CAMP NORRIS DNR","Latitude":"48.61000","Longitude":"-95.18170","Snowdepth":"20.000","Units":"in","Rept_Date":"2020-01-29 14"},"coordinates":[472,8065]},{"type":"Point","properties":{"Station_ID":"RHI","Station_Nam":"RHINELANDER-ONEIDA COUNTY AIRPORT","Latitude":"45.63080","Longitude":"-89.46530","Snowdepth":"20.000","Units":"in","Rept_Date":"2020-01-30 00"},"coordinates":[1779,6217]},{"type":"Point","properties":{"Station_ID":"KNDN8","Station_Nam":"SHEYENNE RIVER NEAR KINDRED","Latitude":"46.63160","Longitude":"-97.00030","Snowdepth":"20.000","Units":"in","Rept_Date":"2020-01-29 23"},"coordinates":[56,6838]},{"type":"Point","properties":{"Station_ID":"HLSM5","Station_Nam":"HALSTAD,MN","Latitude":"47.35360","Longitude":"-96.83310","Snowdepth":"20.000","Units":"in","Rept_Date":"2020-01-29 23"},"coordinates":[94,7286]},{"type":"Point","properties":{"Station_ID":"COTM5","Station_Nam":"COTTON","Latitude":"47.16870","Longitude":"-92.46290","Snowdepth":"20.000","Units":"in","Rept_Date":"2020-01-29 12"},"coordinates":[1094,7171]},{"type":"Point","properties":{"Station_ID":"BRAM5","Station_Nam":"BRAINERD","Latitude":"46.34320","Longitude":"-94.20900","Snowdepth":"20.000","Units":"in","Rept_Date":"2020-01-29 13"},"coordinates":[694,6659]},{"type":"Point","properties":{"Station_ID":"BAUM5","Station_Nam":"BAUDETTE,MN","Latitude":"48.71670","Longitude":"-94.61670","Snowdepth":"20.000","Units":"in","Rept_Date":"2020-01-29 21"},"coordinates":[601,8131]},{"type":"Point","properties":{"Station_ID":"AWXW3","Station_Nam":"ASHLAND","Latitude":"46.58240","Longitude":"-90.88390","Snowdepth":"20.000","Units":"in","Rept_Date":"2020-01-29 13"},"coordinates":[1455,6807]},{"type":"Point","properties":{"Station_ID":"ASTW3","Station_Nam":"ATHELSTANE","Latitude":"45.42500","Longitude":"-88.05750","Snowdepth":"20.000","Units":"in","Rept_Date":"2020-01-29 12"},"coordinates":[2101,6089]},{"type":"Point","properties":{"Station_ID":"SOCQ6","Station_Nam":"SOCKET LAKE","Latitude":"50.77870","Longitude":"-91.79300","Snowdepth":"19.570","Units":"in","Rept_Date":"2020-01-30 06"},"coordinates":[1247,9411]},{"type":"Point","properties":{"Station_ID":"QIQ","Station_Nam":"QIQ","Latitude":"49.82390","Longitude":"-68.54310","Snowdepth":"19.528","Units":"in","Rept_Date":"2020-01-29 12"},"coordinates":[6563,8818]},{"type":"Point","properties":{"Station_ID":"WI-SR-1","Station_Nam":"HAYWARD 9.2 NNE, WI","Latitude":"46.13255","Longitude":"-91.40500","Snowdepth":"19.500","Units":"in","Rept_Date":"2020-01-29 12"},"coordinates":[1336,6528]},{"type":"Point","properties":{"Station_ID":"WI-PR-2","Station_Nam":"BUTTERNUT 5.9 SW, WI","Latitude":"45.96501","Longitude":"-90.59750","Snowdepth":"19.500","Units":"in","Rept_Date":"2020-01-29 12"},"coordinates":[1520,6424]},{"type":"Point","properties":{"Station_ID":"WI-CK-3","Station_Nam":"COLBY 5.9 WSW, WI","Latitude":"44.87209","Longitude":"-90.42463","Snowdepth":"19.000","Units":"in","Rept_Date":"2020-01-30 01"},"coordinates":[1560,5746]},{"type":"Point","properties":{"Station_ID":"VT-OL-1","Station_Nam":"WESTFIELD 0.7 WNW, VT","Latitude":"44.89160","Longitude":"-72.44350","Snowdepth":"19.000","Units":"in","Rept_Date":"2020-01-29 12"},"coordinates":[5672,5758]},{"type":"Point","properties":{"Station_ID":"SWTW3","Station_Nam":"SUPERIOR WWTP","Latitude":"46.72700","Longitude":"-92.07200","Snowdepth":"19.000","Units":"in","Rept_Date":"2020-01-30 06"},"coordinates":[1183,6897]},{"type":"Point","properties":{"Station_ID":"SAUW3","Station_Nam":"WAUSAU WSAW TV","Latitude":"44.94630","Longitude":"-89.62220","Snowdepth":"19.000","Units":"in","Rept_Date":"2020-01-30 04"},"coordinates":[1743,5792]},{"type":"Point","properties":{"Station_ID":"RLKW3","Station_Nam":"REST LAKE","Latitude":"46.12220","Longitude":"-89.87720","Snowdepth":"19.000","Units":"in","Rept_Date":"2020-01-29 14"},"coordinates":[1685,6522]},{"type":"Point","properties":{"Station_ID":"RHSM5","Station_Nam":"ROTHSAY,MN","Latitude":"46.48330","Longitude":"-96.26670","Snowdepth":"19.000","Units":"in","Rept_Date":"2020-01-29 23"},"coordinates":[224,6746]},{"type":"Point","properties":{"Station_ID":"RHRW3","Station_Nam":"RHINELANDER WJFW TV-12","Latitude":"45.62220","Longitude":"-89.41000","Snowdepth":"19.000","Units":"in","Rept_Date":"2020-01-30 04"},"coordinates":[1792,6211]},{"type":"Point","properties":{"Station_ID":"PELM5","Station_Nam":"PELICAN RAPIDS,MN","Latitude":"46.58330","Longitude":"-96.08890","Snowdepth":"19.000","Units":"in","Rept_Date":"2020-01-29 23"},"coordinates":[264,6808]},{"type":"Point","properties":{"Station_ID":"NH-CS-10","Station_Nam":"RANDOLPH 1.4 NE, NH","Latitude":"44.38824","Longitude":"-71.26950","Snowdepth":"19.000","Units":"in","Rept_Date":"2020-01-29 12"},"coordinates":[5940,5446]},{"type":"Point","properties":{"Station_ID":"MQRW3","Station_Nam":"MINOCQUA","Latitude":"45.88630","Longitude":"-89.73220","Snowdepth":"19.000","Units":"in","Rept_Date":"2020-01-29 12"},"coordinates":[1718,6375]},{"type":"Point","properties":{"Station_ID":"INDM5","Station_Nam":"INDUS,MN","Latitude":"48.61670","Longitude":"-93.90000","Snowdepth":"19.000","Units":"in","Rept_Date":"2020-01-29 14"},"coordinates":[765,8069]},{"type":"Point","properties":{"Station_ID":"GLLM5","Station_Nam":"GULL LAKE DAM","Latitude":"46.41190","Longitude":"-94.35000","Snowdepth":"19.000","Units":"in","Rept_Date":"2020-01-29 14"},"coordinates":[662,6701]},{"type":"Point","properties":{"Station_ID":"FLDM5","Station_Nam":"FLOODWOOD,MN","Latitude":"47.00000","Longitude":"-92.91670","Snowdepth":"19.000","Units":"in","Rept_Date":"2020-01-29 14"},"coordinates":[990,7066]},{"type":"Point","properties":{"Station_ID":"FEDM5","Station_Nam":"LEECH LAKE DAM","Latitude":"47.24670","Longitude":"-94.22280","Snowdepth":"19.000","Units":"in","Rept_Date":"2020-01-29 14"},"coordinates":[691,7219]},{"type":"Point","properties":{"Station_ID":"CLGM5","Station_Nam":"COLLEGEVILLE ST JOHN","Latitude":"45.57940","Longitude":"-94.39200","Snowdepth":"19.000","Units":"in","Rept_Date":"2020-01-30 00"},"coordinates":[652,6185]},{"type":"Point","properties":{"Station_ID":"CAN-NL-65","Station_Nam":"KIPPENS 0.7 NE, CA","Latitude":"48.55436","Longitude":"-58.61850","Snowdepth":"19.000","Units":"in","Rept_Date":"2020-01-29 12"},"coordinates":[8833,8031]},{"type":"Point","properties":{"Station_ID":"BFHW3","Station_Nam":"BAYFIELD FISH HATCHERY","Latitude":"46.78670","Longitude":"-90.86420","Snowdepth":"19.000","Units":"in","Rept_Date":"2020-01-29 14"},"coordinates":[1459,6934]},{"type":"Point","properties":{"Station_ID":"AUW","Station_Nam":"WAUSAU MUNICIPAL AIRPORT","Latitude":"44.92580","Longitude":"-89.62560","Snowdepth":"19.000","Units":"in","Rept_Date":"2020-01-30 00"},"coordinates":[1742,5779]},{"type":"Point","properties":{"Station_ID":"ADAM5","Station_Nam":"ADA,MN","Latitude":"47.30000","Longitude":"-96.51670","Snowdepth":"19.000","Units":"in","Rept_Date":"2020-01-29 23"},"coordinates":[167,7252]},{"type":"Point","properties":{"Station_ID":"WI-PR-8","Station_Nam":"PHILLIPS 0.4 SSW, WI","Latitude":"45.69086","Longitude":"-90.40200","Snowdepth":"18.500","Units":"in","Rept_Date":"2020-01-29 13"},"coordinates":[1565,6254]},{"type":"Point","properties":{"Station_ID":"WI-LN-2","Station_Nam":"MERRILL 7.0 W, WI","Latitude":"45.17746","Longitude":"-89.84820","Snowdepth":"18.500","Units":"in","Rept_Date":"2020-01-29 12"},"coordinates":[1692,5936]},{"type":"Point","properties":{"Station_ID":"MN-BM-15","Station_Nam":"BEMIDJI 7.8 ENE, MN","Latitude":"47.52043","Longitude":"-94.72121","Snowdepth":"18.500","Units":"in","Rept_Date":"2020-01-29 13"},"coordinates":[577,7389]},{"type":"Point","properties":{"Station_ID":"CATQ6","Station_Nam":"CAT LAKE","Latitude":"51.72690","Longitude":"-91.82210","Snowdepth":"18.350","Units":"in","Rept_Date":"2020-01-30 06"},"coordinates":[1240,9999]},{"type":"Point","properties":{"Station_ID":"QCO","Station_Nam":"QCO","Latitude":"51.45280","Longitude":"-72.20110","Snowdepth":"18.110","Units":"in","Rept_Date":"2020-01-29 12"},"coordinates":[5727,9829]},{"type":"Point","properties":{"Station_ID":"ZNOM4","Station_Nam":"NORWAY","Latitude":"45.77810","Longitude":"-87.89560","Snowdepth":"18.000","Units":"in","Rept_Date":"2020-01-30 01"},"coordinates":[2138,6308]},{"type":"Point","properties":{"Station_ID":"WI-RS-1","Station_Nam":"LADYSMITH 2.8 WNW, WI","Latitude":"45.48180","Longitude":"-91.14680","Snowdepth":"18.000","Units":"in","Rept_Date":"2020-01-29 13"},"coordinates":[1395,6124]},{"type":"Point","properties":{"Station_ID":"VANM1","Station_Nam":"VAN BUREN","Latitude":"47.16600","Longitude":"-67.93900","Snowdepth":"18.000","Units":"in","Rept_Date":"2020-01-29 12"},"coordinates":[6702,7169]},{"type":"Point","properties":{"Station_ID":"TWNM5","Station_Nam":"TWIN VALLEY,MN","Latitude":"47.23330","Longitude":"-96.28330","Snowdepth":"18.000","Units":"in","Rept_Date":"2020-01-29 23"},"coordinates":[220,7211]},{"type":"Point","properties":{"Station_ID":"SUTV1","Station_Nam":"SUTTON","Latitude":"44.61220","Longitude":"-72.04810","Snowdepth":"18.000","Units":"in","Rept_Date":"2020-01-29 13"},"coordinates":[5762,5585]},{"type":"Point","properties":{"Station_ID":"SBNM5","Station_Nam":"SABIN","Latitude":"46.77690","Longitude":"-96.65610","Snowdepth":"18.000","Units":"in","Rept_Date":"2020-01-29 14"},"coordinates":[135,6928]},{"type":"Point","properties":{"Station_ID":"OTTM5","Station_Nam":"OTTERTAIL,MN","Latitude":"46.41670","Longitude":"-95.56670","Snowdepth":"18.000","Units":"in","Rept_Date":"2020-01-29 11"},"coordinates":[384,6704]},{"type":"Point","properties":{"Station_ID":"MLLW3","Station_Nam":"MERRILL 8W","Latitude":"45.17810","Longitude":"-89.84810","Snowdepth":"18.000","Units":"in","Rept_Date":"2020-01-29 12"},"coordinates":[1692,5936]},{"type":"Point","properties":{"Station_ID":"LTMW3","Station_Nam":"LAKE TOMAHAWK 2 SE","Latitude":"45.80750","Longitude":"-89.55830","Snowdepth":"18.000","Units":"in","Rept_Date":"2020-01-29 12"},"coordinates":[1758,6326]},{"type":"Point","properties":{"Station_ID":"JCBM4","Station_Nam":"JACOBSVILLE","Latitude":"47.00830","Longitude":"-88.43180","Snowdepth":"18.000","Units":"in","Rept_Date":"2020-01-29 12"},"coordinates":[2015,7071]},{"type":"Point","properties":{"Station_ID":"EPTW3","Station_Nam":"EAU PLEINE TENDER","Latitude":"44.77220","Longitude":"-89.76720","Snowdepth":"18.000","Units":"in","Rept_Date":"2020-01-29 13"},"coordinates":[1710,5684]},{"type":"Point","properties":{"Station_ID":"CAN-NB-11","Station_Nam":"MIRAMICHI 3.3 S, CAN","Latitude":"46.99343","Longitude":"-65.50690","Snowdepth":"18.000","Units":"in","Rept_Date":"2020-01-29 11"},"coordinates":[7258,7062]},{"type":"Point","properties":{"Station_ID":"BAGM4","Station_Nam":"BARAGA 7NW","Latitude":"46.82100","Longitude":"-88.60590","Snowdepth":"18.000","Units":"in","Rept_Date":"2020-01-29 13"},"coordinates":[1976,6955]},{"type":"Point","properties":{"Station_ID":"WI-SR-5","Station_Nam":"HAYWARD 9.7 NE, WI","Latitude":"46.12030","Longitude":"-91.35370","Snowdepth":"17.500","Units":"in","Rept_Date":"2020-01-29 14"},"coordinates":[1347,6520]},{"type":"Point","properties":{"Station_ID":"QLI","Station_Nam":"QLI","Latitude":"50.27080","Longitude":"-73.92280","Snowdepth":"17.047","Units":"in","Rept_Date":"2020-01-29 12"},"coordinates":[5333,9096]},{"type":"Point","properties":{"Station_ID":"WI-PR-6","Station_Nam":"PHILLIPS 1.3 S, WI","Latitude":"45.67677","Longitude":"-90.39543","Snowdepth":"17.000","Units":"in","Rept_Date":"2020-01-29 12"},"coordinates":[1566,6245]},{"type":"Point","properties":{"Station_ID":"WI-BT-14","Station_Nam":"OAKLAND 9.0 ENE, WI","Latitude":"45.95184","Longitude":"-92.21653","Snowdepth":"17.000","Units":"in","Rept_Date":"2020-01-29 13"},"coordinates":[1150,6416]},{"type":"Point","properties":{"Station_ID":"VT-OL-12","Station_Nam":"GREENSBORO 3.9 NNE, VT","Latitude":"44.63100","Longitude":"-72.28000","Snowdepth":"17.000","Units":"in","Rept_Date":"2020-01-29 12"},"coordinates":[5709,5596]},{"type":"Point","properties":{"Station_ID":"TAKW3","Station_Nam":"RICE RESERVOIR NO. 2","Latitude":"45.53770","Longitude":"-89.73220","Snowdepth":"17.000","Units":"in","Rept_Date":"2020-01-29 13"},"coordinates":[1718,6159]},{"type":"Point","properties":{"Station_ID":"STRW3","Station_Nam":"STRATFORD 1NW","Latitude":"44.81750","Longitude":"-90.08990","Snowdepth":"17.000","Units":"in","Rept_Date":"2020-01-29 13"},"coordinates":[1636,5712]},{"type":"Point","properties":{"Station_ID":"RRVM4","Station_Nam":"RAPID RIVER 9S","Latitude":"45.78750","Longitude":"-86.93920","Snowdepth":"17.000","Units":"in","Rept_Date":"2020-01-29 15"},"coordinates":[2357,6314]},{"type":"Point","properties":{"Station_ID":"PKFW3","Station_Nam":"PARK FALLS,WI","Latitude":"45.93360","Longitude":"-90.45060","Snowdepth":"17.000","Units":"in","Rept_Date":"2020-01-29 14"},"coordinates":[1554,6405]},{"type":"Point","properties":{"Station_ID":"MN-BK-10","Station_Nam":"DETROIT LAKES 5.7 N, MN","Latitude":"46.88666","Longitude":"-95.84444","Snowdepth":"17.000","Units":"in","Rept_Date":"2020-01-29 10"},"coordinates":[320,6996]},{"type":"Point","properties":{"Station_ID":"KGFK","Station_Nam":"GRAND FORKS INTERNATIONAL","Latitude":"47.95000","Longitude":"-97.18333","Snowdepth":"17.000","Units":"in","Rept_Date":"2020-01-30 06"},"coordinates":[14,7656]},{"type":"Point","properties":{"Station_ID":"HOLW3","Station_Nam":"HOLCOMBE","Latitude":"45.22370","Longitude":"-91.12700","Snowdepth":"17.000","Units":"in","Rept_Date":"2020-01-29 13"},"coordinates":[1399,5964]},{"type":"Point","properties":{"Station_ID":"GFK","Station_Nam":"GRAND FORKS INTERNATIONAL AIRPORT","Latitude":"47.94920","Longitude":"-97.17610","Snowdepth":"17.000","Units":"in","Rept_Date":"2020-01-30 00"},"coordinates":[16,7655]},{"type":"Point","properties":{"Station_ID":"CANM5","Station_Nam":"CANBY","Latitude":"44.71840","Longitude":"-96.26960","Snowdepth":"17.000","Units":"in","Rept_Date":"2020-01-29 14"},"coordinates":[223,5651]},{"type":"Point","properties":{"Station_ID":"BRVM5","Station_Nam":"BROWNS VALLEY,MN","Latitude":"45.61670","Longitude":"-96.83330","Snowdepth":"17.000","Units":"in","Rept_Date":"2020-01-29 13"},"coordinates":[94,6208]},{"type":"Point","properties":{"Station_ID":"VT-CL-40","Station_Nam":"LYNDONVILLE 4.2 NNW, VT","Latitude":"44.59440","Longitude":"-72.02389","Snowdepth":"16.500","Units":"in","Rept_Date":"2020-01-29 12"},"coordinates":[5768,5574]},{"type":"Point","properties":{"Station_ID":"QWG","Station_Nam":"QWG","Latitude":"48.48890","Longitude":"-73.45940","Snowdepth":"16.181","Units":"in","Rept_Date":"2020-01-29 12"},"coordinates":[5439,7990]},{"type":"Point","properties":{"Station_ID":"MRL","Station_Nam":"MRL","Latitude":"51.28330","Longitude":"-68.84060","Snowdepth":"16.102","Units":"in","Rept_Date":"2020-01-29 12"},"coordinates":[6495,9724]},{"type":"Point","properties":{"Station_ID":"WRTS2","Station_Nam":"WATERTOWN,SD","Latitude":"44.90280","Longitude":"-97.11360","Snowdepth":"16.000","Units":"in","Rept_Date":"2020-01-29 18"},"coordinates":[30,5765]},{"type":"Point","properties":{"Station_ID":"WI-DN-1","Station_Nam":"BOYCEVILLE 3.3 N, WI","Latitude":"45.08913","Longitude":"-92.02760","Snowdepth":"16.000","Units":"in","Rept_Date":"2020-01-29 13"},"coordinates":[1193,5881]},{"type":"Point","properties":{"Station_ID":"WI-BR-2","Station_Nam":"CHETEK 2.0 SE, WI","Latitude":"45.29427","Longitude":"-91.62470","Snowdepth":"16.000","Units":"in","Rept_Date":"2020-01-29 13"},"coordinates":[1285,6008]},{"type":"Point","properties":{"Station_ID":"RSTW3","Station_Nam":"ROSHOLT","Latitude":"44.62710","Longitude":"-89.30600","Snowdepth":"16.000","Units":"in","Rept_Date":"2020-01-29 13"},"coordinates":[1816,5594]},{"type":"Point","properties":{"Station_ID":"MN-CW-29","Station_Nam":"BRAINERD 7.7 SSE, MN","Latitude":"46.24996","Longitude":"-94.14576","Snowdepth":"16.000","Units":"in","Rept_Date":"2020-01-29 13"},"coordinates":[709,6601]},{"type":"Point","properties":{"Station_ID":"MI-OT-17","Station_Nam":"GAYLORD 4.1 S, MI","Latitude":"44.96388","Longitude":"-84.68467","Snowdepth":"16.000","Units":"in","Rept_Date":"2020-01-29 12"},"coordinates":[2872,5803]},{"type":"Point","properties":{"Station_ID":"MI-AT-6","Station_Nam":"MANCELONA 0.5 ESE, MI","Latitude":"44.89981","Longitude":"-85.05100","Snowdepth":"16.000","Units":"in","Rept_Date":"2020-01-29 13"},"coordinates":[2789,5763]},{"type":"Point","properties":{"Station_ID":"LUCW3","Station_Nam":"LUCK","Latitude":"45.57330","Longitude":"-92.48520","Snowdepth":"16.000","Units":"in","Rept_Date":"2020-01-29 22"},"coordinates":[1089,6181]},{"type":"Point","properties":{"Station_ID":"LNGM5","Station_Nam":"LONG PRAIRIE","Latitude":"45.96460","Longitude":"-94.88920","Snowdepth":"16.000","Units":"in","Rept_Date":"2020-01-29 12"},"coordinates":[539,6424]},{"type":"Point","properties":{"Station_ID":"GLWM5","Station_Nam":"GLENWOOD 1N","Latitude":"45.66580","Longitude":"-95.38690","Snowdepth":"16.000","Units":"in","Rept_Date":"2020-01-29 13"},"coordinates":[425,6238]},{"type":"Point","properties":{"Station_ID":"FISM1","Station_Nam":"FORT KENT COOP","Latitude":"47.23850","Longitude":"-68.61240","Snowdepth":"16.000","Units":"in","Rept_Date":"2020-01-29 12"},"coordinates":[6548,7214]},{"type":"Point","properties":{"Station_ID":"COUW3","Station_Nam":"COUDERAY,WI","Latitude":"45.86670","Longitude":"-91.45000","Snowdepth":"16.000","Units":"in","Rept_Date":"2020-01-29 22"},"coordinates":[1325,6363]},{"type":"Point","properties":{"Station_ID":"CARM1","Station_Nam":"CARIBOU WFO","Latitude":"46.86810","Longitude":"-68.01250","Snowdepth":"16.000","Units":"in","Rept_Date":"2020-01-30 05"},"coordinates":[6685,6984]},{"type":"Point","properties":{"Station_ID":"CAR","Station_Nam":"CARIBOU, ME","Latitude":"46.86830","Longitude":"-68.01360","Snowdepth":"16.000","Units":"in","Rept_Date":"2020-01-29 12"},"coordinates":[6685,6985]},{"type":"Point","properties":{"Station_ID":"BRDM1","Station_Nam":"BRIDGEWATER","Latitude":"46.42870","Longitude":"-67.84370","Snowdepth":"16.000","Units":"in","Rept_Date":"2020-01-29 23"},"coordinates":[6723,6712]},{"type":"Point","properties":{"Station_ID":"ATY","Station_Nam":"WATERTOWN MUNICIPAL AIRPORT","Latitude":"44.91420","Longitude":"-97.15440","Snowdepth":"16.000","Units":"in","Rept_Date":"2020-01-30 00"},"coordinates":[21,5772]},{"type":"Point","properties":{"Station_ID":"ALXM5","Station_Nam":"ALEXANDRIA","Latitude":"45.87820","Longitude":"-95.38270","Snowdepth":"16.000","Units":"in","Rept_Date":"2020-01-29 22"},"coordinates":[426,6370]},{"type":"Point","properties":{"Station_ID":"CAN-NB-13","Station_Nam":"BATHURST 3.8 NW, CAN","Latitude":"47.64212","Longitude":"-65.68756","Snowdepth":"15.500","Units":"in","Rept_Date":"2020-01-29 11"},"coordinates":[7216,7465]},{"type":"Point","properties":{"Station_ID":"MFU","Station_Nam":"MFU","Latitude":"51.52170","Longitude":"-66.91110","Snowdepth":"15.472","Units":"in","Rept_Date":"2020-01-29 12"},"coordinates":[6937,9872]},{"type":"Point","properties":{"Station_ID":"WUNW3","Station_Nam":"WAUSAU-NORTHEAST","Latitude":"44.97310","Longitude":"-89.61690","Snowdepth":"15.000","Units":"in","Rept_Date":"2020-01-29 11"},"coordinates":[1744,5809]},{"type":"Point","properties":{"Station_ID":"WI-MT-14","Station_Nam":"MOSINEE 2.7 WSW, WI","Latitude":"44.77240","Longitude":"-89.73441","Snowdepth":"15.000","Units":"in","Rept_Date":"2020-01-29 13"},"coordinates":[1718,5684]},{"type":"Point","properties":{"Station_ID":"WI-CH-7","Station_Nam":"CHIPPEWA FALLS 1.2 E, WI","Latitude":"44.92920","Longitude":"-91.36730","Snowdepth":"15.000","Units":"in","Rept_Date":"2020-01-29 13"},"coordinates":[1344,5781]},{"type":"Point","properties":{"Station_ID":"WI-CH-3","Station_Nam":"CORNELL 4.1 W, WI","Latitude":"45.17024","Longitude":"-91.23610","Snowdepth":"15.000","Units":"in","Rept_Date":"2020-01-29 14"},"coordinates":[1374,5931]},{"type":"Point","properties":{"Station_ID":"RRLW3","Station_Nam":"MERRILL,WI","Latitude":"45.17860","Longitude":"-89.66170","Snowdepth":"15.000","Units":"in","Rept_Date":"2020-01-29 14"},"coordinates":[1734,5936]},{"type":"Point","properties":{"Station_ID":"PRNW3","Station_Nam":"PRENTICE,WI","Latitude":"45.54780","Longitude":"-90.30000","Snowdepth":"15.000","Units":"in","Rept_Date":"2020-01-29 14"},"coordinates":[1588,6165]},{"type":"Point","properties":{"Station_ID":"MN7M8EBJ","Station_Nam":"LUTSEN 15.7 NNW","Latitude":"47.85324","Longitude":"-89.92908","Snowdepth":"15.000","Units":"in","Rept_Date":"2020-01-29 14"},"coordinates":[1673,7596]},{"type":"Point","properties":{"Station_ID":"MI-DL-1","Station_Nam":"GARDEN CORNERS 0.8 NW, MI","Latitude":"45.89815","Longitude":"-86.54850","Snowdepth":"15.000","Units":"in","Rept_Date":"2020-01-29 13"},"coordinates":[2446,6383]},{"type":"Point","properties":{"Station_ID":"LILM1","Station_Nam":"LILLE","Latitude":"47.27770","Longitude":"-68.10520","Snowdepth":"15.000","Units":"in","Rept_Date":"2020-01-29 12"},"coordinates":[6664,7239]},{"type":"Point","properties":{"Station_ID":"LGRN8","Station_Nam":"LIDGERWOOD,ND","Latitude":"46.06670","Longitude":"-97.16670","Snowdepth":"15.000","Units":"in","Rept_Date":"2020-01-29 23"},"coordinates":[18,6487]},{"type":"Point","properties":{"Station_ID":"GDCM4","Station_Nam":"GARDEN CORNERS","Latitude":"45.89830","Longitude":"-86.54850","Snowdepth":"15.000","Units":"in","Rept_Date":"2020-01-29 13"},"coordinates":[2446,6383]},{"type":"Point","properties":{"Station_ID":"FDRN8","Station_Nam":"FARGO 3S","Latitude":"46.82930","Longitude":"-96.79620","Snowdepth":"15.000","Units":"in","Rept_Date":"2020-01-30 06"},"coordinates":[103,6960]},{"type":"Point","properties":{"Station_ID":"FAR","Station_Nam":"HECTOR INTERNATIONAL ARPT","Latitude":"46.91560","Longitude":"-96.81440","Snowdepth":"15.000","Units":"in","Rept_Date":"2020-01-30 00"},"coordinates":[99,7014]},{"type":"Point","properties":{"Station_ID":"CBLW3","Station_Nam":"CUMBERLAND","Latitude":"45.53310","Longitude":"-92.02260","Snowdepth":"15.000","Units":"in","Rept_Date":"2020-01-29 13"},"coordinates":[1194,6156]},{"type":"Point","properties":{"Station_ID":"WI-EC-23","Station_Nam":"EAU CLAIRE 3.7 S, WI","Latitude":"44.76858","Longitude":"-91.49898","Snowdepth":"14.500","Units":"in","Rept_Date":"2020-01-29 14"},"coordinates":[1314,5682]},{"type":"Point","properties":{"Station_ID":"VT-WS-7","Station_Nam":"MIDDLESEX 3.1 ENE, VT","Latitude":"44.31799","Longitude":"-72.62650","Snowdepth":"14.500","Units":"in","Rept_Date":"2020-01-29 12"},"coordinates":[5630,5402]},{"type":"Point","properties":{"Station_ID":"MN-MR-13","Station_Nam":"LITTLE FALLS 8.0 NE, MN","Latitude":"46.06785","Longitude":"-94.24789","Snowdepth":"14.500","Units":"in","Rept_Date":"2020-01-29 13"},"coordinates":[685,6488]},{"type":"Point","properties":{"Station_ID":"CAN-MB-32","Station_Nam":"PINAWA 1.0 SW, CA","Latitude":"50.14747","Longitude":"-95.89020","Snowdepth":"14.500","Units":"in","Rept_Date":"2020-01-29 13"},"coordinates":[310,9019]},{"type":"Point","properties":{"Station_ID":"WLKM5","Station_Nam":"AH-GWAH-CHING","Latitude":"47.15000","Longitude":"-94.65000","Snowdepth":"14.000","Units":"in","Rept_Date":"2020-01-29 12"},"coordinates":[593,7159]},{"type":"Point","properties":{"Station_ID":"WLDM5","Station_Nam":"WILD RIVER STATE PARK","Latitude":"45.52310","Longitude":"-92.74890","Snowdepth":"14.000","Units":"in","Rept_Date":"2020-01-29 14"},"coordinates":[1028,6150]},{"type":"Point","properties":{"Station_ID":"WILW3","Station_Nam":"RESERVOIR","Latitude":"45.70000","Longitude":"-89.83330","Snowdepth":"14.000","Units":"in","Rept_Date":"2020-01-29 12"},"coordinates":[1695,6260]},{"type":"Point","properties":{"Station_ID":"VT-ES-1","Station_Nam":"GRANBY 1.4 NW, VT","Latitude":"44.58330","Longitude":"-71.77870","Snowdepth":"14.000","Units":"in","Rept_Date":"2020-01-29 14"},"coordinates":[5824,5567]},{"type":"Point","properties":{"Station_ID":"TETM5","Station_Nam":"TETTEGOUCHE STATE PARK","Latitude":"47.33900","Longitude":"-91.19590","Snowdepth":"14.000","Units":"in","Rept_Date":"2020-01-29 14"},"coordinates":[1383,7277]},{"type":"Point","properties":{"Station_ID":"SSMM4","Station_Nam":"SAULT STE MARIE","Latitude":"46.48660","Longitude":"-84.40250","Snowdepth":"14.000","Units":"in","Rept_Date":"2020-01-29 13"},"coordinates":[2937,6748]},{"type":"Point","properties":{"Station_ID":"RKWI4","Station_Nam":"ROCKWELL CITY,IA","Latitude":"42.40000","Longitude":"-94.61670","Snowdepth":"14.000","Units":"in","Rept_Date":"2020-01-29 13"},"coordinates":[601,4212]},{"type":"Point","properties":{"Station_ID":"NH-CS-4","Station_Nam":"PITTSBURG 6.1 NE, NH","Latitude":"45.11060","Longitude":"-71.29760","Snowdepth":"14.000","Units":"in","Rept_Date":"2020-01-29 12"},"coordinates":[5934,5894]},{"type":"Point","properties":{"Station_ID":"MN-PK-15","Station_Nam":"MENTOR 2.5 SSW, MN","Latitude":"47.66625","Longitude":"-96.17328","Snowdepth":"14.000","Units":"in","Rept_Date":"2020-01-29 13"},"coordinates":[245,7480]},{"type":"Point","properties":{"Station_ID":"MEDW3","Station_Nam":"MEDFORD","Latitude":"45.13080","Longitude":"-90.34390","Snowdepth":"14.000","Units":"in","Rept_Date":"2020-01-29 14"},"coordinates":[1578,5907]},{"type":"Point","properties":{"Station_ID":"GRFN8","Station_Nam":"UNIVERSITY","Latitude":"47.93330","Longitude":"-97.08330","Snowdepth":"14.000","Units":"in","Rept_Date":"2020-01-30 06"},"coordinates":[37,7645]},{"type":"Point","properties":{"Station_ID":"EAHV1","Station_Nam":"EAST HAVEN","Latitude":"44.64250","Longitude":"-71.89120","Snowdepth":"14.000","Units":"in","Rept_Date":"2020-01-29 12"},"coordinates":[5798,5604]},{"type":"Point","properties":{"Station_ID":"CORV1","Station_Nam":"CORINTH","Latitude":"44.00690","Longitude":"-72.31940","Snowdepth":"14.000","Units":"in","Rept_Date":"2020-01-29 12"},"coordinates":[5700,5209]},{"type":"Point","properties":{"Station_ID":"CAN-NS-94","Station_Nam":"MARGAREE FORKS 2.6 SSE CBN, CAN","Latitude":"46.30937","Longitude":"-61.07603","Snowdepth":"14.000","Units":"in","Rept_Date":"2020-01-29 13"},"coordinates":[8271,6638]},{"type":"Point","properties":{"Station_ID":"BREW3","Station_Nam":"SURING","Latitude":"44.99580","Longitude":"-88.37860","Snowdepth":"14.000","Units":"in","Rept_Date":"2020-01-29 13"},"coordinates":[2028,5823]},{"type":"Point","properties":{"Station_ID":"BKEM5","Station_Nam":"BRECKENRIDGE 4NE","Latitude":"46.30470","Longitude":"-96.52170","Snowdepth":"14.000","Units":"in","Rept_Date":"2020-01-29 13"},"coordinates":[165,6635]},{"type":"Point","properties":{"Station_ID":"AVLV1","Station_Nam":"AVERILL","Latitude":"45.00570","Longitude":"-71.69030","Snowdepth":"14.000","Units":"in","Rept_Date":"2020-01-29 13"},"coordinates":[5844,5829]},{"type":"Point","properties":{"Station_ID":"ARTM5","Station_Nam":"ARTICHOKE LAKE 1 E","Latitude":"45.38560","Longitude":"-96.12570","Snowdepth":"14.000","Units":"in","Rept_Date":"2020-01-30 00"},"coordinates":[256,6065]},{"type":"Point","properties":{"Station_ID":"ANJM4","Station_Nam":"SNOW PAID OBSERVER FOR KANJ","Latitude":"46.48670","Longitude":"-84.40260","Snowdepth":"14.000","Units":"in","Rept_Date":"2020-01-29 18"},"coordinates":[2937,6748]},{"type":"Point","properties":{"Station_ID":"ANJ","Station_Nam":"SAULT STE MARIE","Latitude":"46.46670","Longitude":"-84.36670","Snowdepth":"14.000","Units":"in","Rept_Date":"2020-01-30 00"},"coordinates":[2945,6735]},{"type":"Point","properties":{"Station_ID":"FTHQ6","Station_Nam":"FORT HOPE","Latitude":"51.55820","Longitude":"-87.90510","Snowdepth":"13.820","Units":"in","Rept_Date":"2020-01-30 06"},"coordinates":[2136,9894]},{"type":"Point","properties":{"Station_ID":"SD-CD-30","Station_Nam":"WATERTOWN 2.3 E, SD","Latitude":"44.91604","Longitude":"-97.11925","Snowdepth":"13.500","Units":"in","Rept_Date":"2020-01-29 14"},"coordinates":[29,5773]},{"type":"Point","properties":{"Station_ID":"MI-OT-16","Station_Nam":"GAYLORD 2.2 SSE, MI","Latitude":"44.99441","Longitude":"-84.65820","Snowdepth":"13.500","Units":"in","Rept_Date":"2020-01-29 13"},"coordinates":[2878,5822]},{"type":"Point","properties":{"Station_ID":"ME-PN-45","Station_Nam":"MILLINOCKET 2.7 ESE, ME","Latitude":"45.65002","Longitude":"-68.64472","Snowdepth":"13.500","Units":"in","Rept_Date":"2020-01-29 12"},"coordinates":[6540,6229]},{"type":"Point","properties":{"Station_ID":"CAN-PE-7","Station_Nam":"MORELL 1.4 NNW, CA","Latitude":"46.42741","Longitude":"-62.70870","Snowdepth":"13.200","Units":"in","Rept_Date":"2020-01-29 12"},"coordinates":[7898,6711]},{"type":"Point","properties":{"Station_ID":"WSKW3","Station_Nam":"WAUSAUKEE","Latitude":"45.38020","Longitude":"-87.95660","Snowdepth":"13.000","Units":"in","Rept_Date":"2020-01-29 14"},"coordinates":[2124,6061]},{"type":"Point","properties":{"Station_ID":"VT-OL-9","Station_Nam":"GREENSBORO 2.1 NNW, VT","Latitude":"44.60528","Longitude":"-72.30940","Snowdepth":"13.000","Units":"in","Rept_Date":"2020-01-29 12"},"coordinates":[5702,5580]},{"type":"Point","properties":{"Station_ID":"SIWS2","Station_Nam":"SISSETON 3W","Latitude":"45.65870","Longitude":"-97.12450","Snowdepth":"13.000","Units":"in","Rept_Date":"2020-01-29 13"},"coordinates":[28,6234]},{"type":"Point","properties":{"Station_ID":"SHIW3","Station_Nam":"SHIOCTON","Latitude":"44.43890","Longitude":"-88.58390","Snowdepth":"13.000","Units":"in","Rept_Date":"2020-01-29 13"},"coordinates":[1981,5477]},{"type":"Point","properties":{"Station_ID":"SD-RB-1","Station_Nam":"SISSETON 3.8 W, SD","Latitude":"45.65865","Longitude":"-97.12370","Snowdepth":"13.000","Units":"in","Rept_Date":"2020-01-29 13"},"coordinates":[28,6234]},{"type":"Point","properties":{"Station_ID":"RCEM5","Station_Nam":"RICE","Latitude":"45.75760","Longitude":"-94.20720","Snowdepth":"13.000","Units":"in","Rept_Date":"2020-01-29 13"},"coordinates":[695,6295]},{"type":"Point","properties":{"Station_ID":"PBAN8","Station_Nam":"SITE 1-3MI.N","Latitude":"48.97420","Longitude":"-97.23860","Snowdepth":"13.000","Units":"in","Rept_Date":"2020-01-29 13"},"coordinates":[2,8291]},{"type":"Point","properties":{"Station_ID":"NY-FK-7","Station_Nam":"SARANAC LAKE 6.2 N, NY","Latitude":"44.41359","Longitude":"-74.15211","Snowdepth":"13.000","Units":"in","Rept_Date":"2020-01-29 12"},"coordinates":[5281,5462]},{"type":"Point","properties":{"Station_ID":"MN-MR-4","Station_Nam":"LITTLE FALLS 1.2 SW, MN","Latitude":"45.96886","Longitude":"-94.37720","Snowdepth":"13.000","Units":"in","Rept_Date":"2020-01-29 13"},"coordinates":[656,6427]},{"type":"Point","properties":{"Station_ID":"MFDW3","Station_Nam":"MARSHFIELD EXP FARM","Latitude":"44.64110","Longitude":"-90.13330","Snowdepth":"13.000","Units":"in","Rept_Date":"2020-01-29 13"},"coordinates":[1626,5603]},{"type":"Point","properties":{"Station_ID":"LBRM5","Station_Nam":"LAKE BRONSON DAM","Latitude":"48.72410","Longitude":"-96.62180","Snowdepth":"13.000","Units":"in","Rept_Date":"2020-01-29 14"},"coordinates":[143,8136]},{"type":"Point","properties":{"Station_ID":"LADW3","Station_Nam":"LADYSMITH WTP","Latitude":"45.44290","Longitude":"-91.08970","Snowdepth":"13.000","Units":"in","Rept_Date":"2020-01-29 13"},"coordinates":[1408,6100]},{"type":"Point","properties":{"Station_ID":"GRBM5","Station_Nam":"GRAND RAPIDS 12N","Latitude":"47.39800","Longitude":"-93.51330","Snowdepth":"13.000","Units":"in","Rept_Date":"2020-01-29 13"},"coordinates":[853,7313]},{"type":"Point","properties":{"Station_ID":"ETTW3","Station_Nam":"ETTRICK 4WNW","Latitude":"44.19000","Longitude":"-91.34240","Snowdepth":"13.000","Units":"in","Rept_Date":"2020-01-29 13"},"coordinates":[1350,5323]},{"type":"Point","properties":{"Station_ID":"ENGM4","Station_Nam":"ENGADINE MDOT","Latitude":"46.12800","Longitude":"-85.56960","Snowdepth":"13.000","Units":"in","Rept_Date":"2020-01-29 12"},"coordinates":[2670,6525]},{"type":"Point","properties":{"Station_ID":"EJNM4","Station_Nam":"EAST JORDAN 2NW","Latitude":"45.18630","Longitude":"-85.14770","Snowdepth":"13.000","Units":"in","Rept_Date":"2020-01-29 13"},"coordinates":[2766,5941]},{"type":"Point","properties":{"Station_ID":"CAN-NB-96","Station_Nam":"SAINT-IGNACE 2.6 NE, CAN","Latitude":"46.71424","Longitude":"-65.05609","Snowdepth":"13.000","Units":"in","Rept_Date":"2020-01-29 11"},"coordinates":[7361,6889]},{"type":"Point","properties":{"Station_ID":"BROS2","Station_Nam":"BROOKINGS,SD","Latitude":"44.31670","Longitude":"-96.76670","Snowdepth":"13.000","Units":"in","Rept_Date":"2020-01-29 14"},"coordinates":[109,5401]},{"type":"Point","properties":{"Station_ID":"BALW3","Station_Nam":"BALDWIN","Latitude":"44.96330","Longitude":"-92.39050","Snowdepth":"13.000","Units":"in","Rept_Date":"2020-01-29 13"},"coordinates":[1110,5803]},{"type":"Point","properties":{"Station_ID":"ABGW3","Station_Nam":"AMBERG 9 E","Latitude":"45.48250","Longitude":"-87.81190","Snowdepth":"13.000","Units":"in","Rept_Date":"2020-01-29 12"},"coordinates":[2157,6125]},{"type":"Point","properties":{"Station_ID":"CAN-PE-19","Station_Nam":"CHARLOTTETOWN 6.5 NNW, CAN","Latitude":"46.29235","Longitude":"-63.17271","Snowdepth":"12.600","Units":"in","Rept_Date":"2020-01-29 12"},"coordinates":[7792,6627]},{"type":"Point","properties":{"Station_ID":"WI-PT-8","Station_Nam":"RUDOLPH 2.1 NNE, WI","Latitude":"44.52553","Longitude":"-89.78677","Snowdepth":"12.500","Units":"in","Rept_Date":"2020-01-29 11"},"coordinates":[1706,5531]},{"type":"Point","properties":{"Station_ID":"VT-CL-18","Station_Nam":"WHEELOCK 1.6 S, VT","Latitude":"44.56491","Longitude":"-72.08830","Snowdepth":"12.500","Units":"in","Rept_Date":"2020-01-29 12"},"coordinates":[5753,5555]},{"type":"Point","properties":{"Station_ID":"MI-CX-7","Station_Nam":"EAST JORDAN 2.1 NNW, MI","Latitude":"45.18639","Longitude":"-85.14750","Snowdepth":"12.500","Units":"in","Rept_Date":"2020-01-29 13"},"coordinates":[2766,5941]},{"type":"Point","properties":{"Station_ID":"MN-DK-49","Station_Nam":"LAKEVILLE 2.1 SW, MN","Latitude":"44.65694","Longitude":"-93.28390","Snowdepth":"12.300","Units":"in","Rept_Date":"2020-01-29 14"},"coordinates":[906,5613]},{"type":"Point","properties":{"Station_ID":"WSFW3","Station_Nam":"TOWN OF WESTFORD","Latitude":"43.47190","Longitude":"-88.88250","Snowdepth":"12.000","Units":"in","Rept_Date":"2020-01-29 13"},"coordinates":[1912,4877]},{"type":"Point","properties":{"Station_ID":"WI-DD-16","Station_Nam":"BEAVER DAM 2.4 WNW, WI","Latitude":"43.47210","Longitude":"-88.88280","Snowdepth":"12.000","Units":"in","Rept_Date":"2020-01-29 13"},"coordinates":[1912,4877]},{"type":"Point","properties":{"Station_ID":"WHFN6","Station_Nam":"WILMINGTON 2W","Latitude":"44.39310","Longitude":"-73.85890","Snowdepth":"12.000","Units":"in","Rept_Date":"2020-01-29 13"},"coordinates":[5348,5449]},{"type":"Point","properties":{"Station_ID":"VT-CL-14","Station_Nam":"LYNDONVILLE 1.1 W, VT","Latitude":"44.53582","Longitude":"-72.02867","Snowdepth":"12.000","Units":"in","Rept_Date":"2020-01-29 12"},"coordinates":[5766,5537]},{"type":"Point","properties":{"Station_ID":"THLM5","Station_Nam":"THEILMAN 1SSW","Latitude":"44.28130","Longitude":"-92.19430","Snowdepth":"12.000","Units":"in","Rept_Date":"2020-01-29 13"},"coordinates":[1155,5379]},{"type":"Point","properties":{"Station_ID":"SIBI4","Station_Nam":"SIBLEY","Latitude":"43.40470","Longitude":"-95.74830","Snowdepth":"12.000","Units":"in","Rept_Date":"2020-01-29 13"},"coordinates":[342,4836]},{"type":"Point","properties":{"Station_ID":"SCRW3","Station_Nam":"ST CROIX FALLS","Latitude":"45.41170","Longitude":"-92.64660","Snowdepth":"12.000","Units":"in","Rept_Date":"2020-01-29 13"},"coordinates":[1052,6081]},{"type":"Point","properties":{"Station_ID":"PULW3","Station_Nam":"PULASKI WWTP","Latitude":"44.67830","Longitude":"-88.22750","Snowdepth":"12.000","Units":"in","Rept_Date":"2020-01-29 12"},"coordinates":[2062,5626]},{"type":"Point","properties":{"Station_ID":"NSNM1","Station_Nam":"NEW SHARON","Latitude":"44.63330","Longitude":"-70.00000","Snowdepth":"12.000","Units":"in","Rept_Date":"2020-01-29 12"},"coordinates":[6230,5598]},{"type":"Point","properties":{"Station_ID":"MRAM5","Station_Nam":"MORA","Latitude":"45.87760","Longitude":"-93.31470","Snowdepth":"12.000","Units":"in","Rept_Date":"2020-01-29 13"},"coordinates":[899,6370]},{"type":"Point","properties":{"Station_ID":"MRAM4","Station_Nam":"MORAN","Latitude":"45.99030","Longitude":"-84.83610","Snowdepth":"12.000","Units":"in","Rept_Date":"2020-01-29 13"},"coordinates":[2838,6440]},{"type":"Point","properties":{"Station_ID":"MN-SR-29","Station_Nam":"ALBANY 3.8 S, MN","Latitude":"45.57441","Longitude":"-94.55543","Snowdepth":"12.000","Units":"in","Rept_Date":"2020-01-29 13"},"coordinates":[615,6182]},{"type":"Point","properties":{"Station_ID":"MN-SH-10","Station_Nam":"BIG LAKE 5.6 NNE, MN","Latitude":"45.41409","Longitude":"-93.69190","Snowdepth":"12.000","Units":"in","Rept_Date":"2020-01-29 13"},"coordinates":[813,6082]},{"type":"Point","properties":{"Station_ID":"MLBS2","Station_Nam":"MILBANK","Latitude":"45.22040","Longitude":"-96.62530","Snowdepth":"12.000","Units":"in","Rept_Date":"2020-01-29 13"},"coordinates":[142,5962]},{"type":"Point","properties":{"Station_ID":"MI-OT-4","Station_Nam":"GAYLORD 1.7 WNW, MI","Latitude":"45.03280","Longitude":"-84.71090","Snowdepth":"12.000","Units":"in","Rept_Date":"2020-01-29 13"},"coordinates":[2866,5846]},{"type":"Point","properties":{"Station_ID":"LPLN6","Station_Nam":"LAKE PLACID 2 S","Latitude":"44.30420","Longitude":"-73.98390","Snowdepth":"12.000","Units":"in","Rept_Date":"2020-01-29 12"},"coordinates":[5319,5394]},{"type":"Point","properties":{"Station_ID":"LMLI4","Station_Nam":"LAKE MILLS,IA","Latitude":"43.40000","Longitude":"-93.53330","Snowdepth":"12.000","Units":"in","Rept_Date":"2020-01-29 13"},"coordinates":[849,4833]},{"type":"Point","properties":{"Station_ID":"LBKV1","Station_Nam":"LYE BROOK","Latitude":"43.05000","Longitude":"-73.03330","Snowdepth":"12.000","Units":"in","Rept_Date":"2020-01-30 06"},"coordinates":[5537,4616]},{"type":"Point","properties":{"Station_ID":"KSEM4","Station_Nam":"KALKASKA 11SE","Latitude":"44.58970","Longitude":"-85.04860","Snowdepth":"12.000","Units":"in","Rept_Date":"2020-01-29 13"},"coordinates":[2789,5571]},{"type":"Point","properties":{"Station_ID":"JEFN3","Station_Nam":"JEFFERSON","Latitude":"44.41690","Longitude":"-71.50080","Snowdepth":"12.000","Units":"in","Rept_Date":"2020-01-29 12"},"coordinates":[5887,5464]},{"type":"Point","properties":{"Station_ID":"ISLV1","Station_Nam":"ISLAND POND","Latitude":"44.81280","Longitude":"-71.89020","Snowdepth":"12.000","Units":"in","Rept_Date":"2020-01-29 16"},"coordinates":[5798,5709]},{"type":"Point","properties":{"Station_ID":"GAYM4","Station_Nam":"GAYLORD","Latitude":"45.03320","Longitude":"-84.71130","Snowdepth":"12.000","Units":"in","Rept_Date":"2020-01-29 13"},"coordinates":[2866,5846]},{"type":"Point","properties":{"Station_ID":"FORM5","Station_Nam":"FOREST LAKE 5NE","Latitude":"45.33170","Longitude":"-92.89820","Snowdepth":"12.000","Units":"in","Rept_Date":"2020-01-29 13"},"coordinates":[994,6031]},{"type":"Point","properties":{"Station_ID":"ESAM4","Station_Nam":"ESCANABA","Latitude":"45.74380","Longitude":"-87.04060","Snowdepth":"12.000","Units":"in","Rept_Date":"2020-01-29 12"},"coordinates":[2334,6287]},{"type":"Point","properties":{"Station_ID":"EAU","Station_Nam":"CHIPPEWA VALLEY REGIONAL AIRPORT","Latitude":"44.86650","Longitude":"-91.48790","Snowdepth":"12.000","Units":"in","Rept_Date":"2020-01-29 12"},"coordinates":[1317,5743]},{"type":"Point","properties":{"Station_ID":"CHRM4","Station_Nam":"CHARLEVOIX","Latitude":"45.31720","Longitude":"-85.26720","Snowdepth":"12.000","Units":"in","Rept_Date":"2020-01-29 13"},"coordinates":[2739,6022]},{"type":"Point","properties":{"Station_ID":"CHRI4","Station_Nam":"CHARITON,IA","Latitude":"41.00000","Longitude":"-93.31670","Snowdepth":"12.000","Units":"in","Rept_Date":"2020-01-29 13"},"coordinates":[898,3344]},{"type":"Point","properties":{"Station_ID":"CAN-NB-18","Station_Nam":"MCLEOD HILL 1.1 ENE, CA","Latitude":"46.02725","Longitude":"-66.67460","Snowdepth":"12.000","Units":"in","Rept_Date":"2020-01-29 12"},"coordinates":[6991,6463]},{"type":"Point","properties":{"Station_ID":"BENN6","Station_Nam":"BENNETTS BRIDGE","Latitude":"43.53180","Longitude":"-75.95260","Snowdepth":"12.000","Units":"in","Rept_Date":"2020-01-29 12"},"coordinates":[4869,4914]},{"type":"Point","properties":{"Station_ID":"APXM4","Station_Nam":"GAYLORD 9SSW","Latitude":"44.90720","Longitude":"-84.71880","Snowdepth":"12.000","Units":"in","Rept_Date":"2020-01-30 05"},"coordinates":[2864,5768]},{"type":"Point","properties":{"Station_ID":"VT-WS-15","Station_Nam":"EAST CALAIS 1.5 SW, VT","Latitude":"44.35523","Longitude":"-72.45540","Snowdepth":"11.500","Units":"in","Rept_Date":"2020-01-29 12"},"coordinates":[5669,5425]},{"type":"Point","properties":{"Station_ID":"NY-FK-9","Station_Nam":"GABRIELS 1.3 SE, NY","Latitude":"44.41934","Longitude":"-74.16194","Snowdepth":"11.500","Units":"in","Rept_Date":"2020-01-29 12"},"coordinates":[5279,5465]},{"type":"Point","properties":{"Station_ID":"NY-ES-6","Station_Nam":"OLMSTEDVILLE 4.6 NNE, NY","Latitude":"43.83350","Longitude":"-73.89780","Snowdepth":"11.500","Units":"in","Rept_Date":"2020-01-29 13"},"coordinates":[5339,5102]},{"type":"Point","properties":{"Station_ID":"MN-SH-985","Station_Nam":"PRINCETON 3.3 WSW, MN","Latitude":"45.55211","Longitude":"-93.64481","Snowdepth":"11.500","Units":"in","Rept_Date":"2020-01-29 10"},"coordinates":[823,6168]},{"type":"Point","properties":{"Station_ID":"CAN-ON-757","Station_Nam":"SAULT STE. MARIE 2.8 ESE - GLFC, CAN","Latitude":"46.50300","Longitude":"-84.30300","Snowdepth":"11.400","Units":"in","Rept_Date":"2020-01-29 13"},"coordinates":[2960,6758]},{"type":"Point","properties":{"Station_ID":"WMRM5","Station_Nam":"WILLMAR 5N","Latitude":"45.19010","Longitude":"-95.05860","Snowdepth":"11.000","Units":"in","Rept_Date":"2020-01-29 12"},"coordinates":[500,5943]},{"type":"Point","properties":{"Station_ID":"WABM5","Station_Nam":"WABASHA","Latitude":"44.38500","Longitude":"-92.04860","Snowdepth":"11.000","Units":"in","Rept_Date":"2020-01-29 13"},"coordinates":[1188,5444]},{"type":"Point","properties":{"Station_ID":"STPW3","Station_Nam":"STEVENS POINT","Latitude":"44.51130","Longitude":"-89.58550","Snowdepth":"11.000","Units":"in","Rept_Date":"2020-01-29 13"},"coordinates":[1752,5522]},{"type":"Point","properties":{"Station_ID":"SD-RB-4","Station_Nam":"SISSETON 10.4 ENE, SD","Latitude":"45.69480","Longitude":"-96.83480","Snowdepth":"11.000","Units":"in","Rept_Date":"2020-01-29 13"},"coordinates":[94,6256]},{"type":"Point","properties":{"Station_ID":"SD-BK-7","Station_Nam":"BROOKINGS 0.2 SSW, SD","Latitude":"44.30389","Longitude":"-96.78780","Snowdepth":"11.000","Units":"in","Rept_Date":"2020-01-29 13"},"coordinates":[105,5394]},{"type":"Point","properties":{"Station_ID":"PTBN3","Station_Nam":"PITTSBURG RESERVOIR","Latitude":"45.04690","Longitude":"-71.38300","Snowdepth":"11.000","Units":"in","Rept_Date":"2020-01-29 12"},"coordinates":[5914,5854]},{"type":"Point","properties":{"Station_ID":"PELW3","Station_Nam":"PELLA 3SE","Latitude":"44.73580","Longitude":"-88.73780","Snowdepth":"11.000","Units":"in","Rept_Date":"2020-01-29 11"},"coordinates":[1945,5661]},{"type":"Point","properties":{"Station_ID":"OWEW3","Station_Nam":"OWEN 1E","Latitude":"44.94610","Longitude":"-90.55170","Snowdepth":"11.000","Units":"in","Rept_Date":"2020-01-29 13"},"coordinates":[1531,5792]},{"type":"Point","properties":{"Station_ID":"NUMN3","Station_Nam":"NORTHUMBERLAND","Latitude":"44.52830","Longitude":"-71.50440","Snowdepth":"11.000","Units":"in","Rept_Date":"2020-01-29 13"},"coordinates":[5886,5533]},{"type":"Point","properties":{"Station_ID":"NGLW3","Station_Nam":"NEW GLARUS","Latitude":"42.83500","Longitude":"-89.62080","Snowdepth":"11.000","Units":"in","Rept_Date":"2020-01-29 13"},"coordinates":[1744,4482]},{"type":"Point","properties":{"Station_ID":"NCBN6","Station_Nam":"NEWCOMB","Latitude":"43.97070","Longitude":"-74.22200","Snowdepth":"11.000","Units":"in","Rept_Date":"2020-01-29 12"},"coordinates":[5265,5187]},{"type":"Point","properties":{"Station_ID":"MNOW3","Station_Nam":"CEDAR FALLS HYDRO PLANT","Latitude":"44.93550","Longitude":"-91.88850","Snowdepth":"11.000","Units":"in","Rept_Date":"2020-01-29 13"},"coordinates":[1225,5785]},{"type":"Point","properties":{"Station_ID":"MNG0GYSN","Station_Nam":"LONSDALE 1.1 SSW","Latitude":"44.46445","Longitude":"-93.43293","Snowdepth":"11.000","Units":"in","Rept_Date":"2020-01-29 12"},"coordinates":[872,5493]},{"type":"Point","properties":{"Station_ID":"MLRM5","Station_Nam":"MELROSE","Latitude":"45.67710","Longitude":"-94.80200","Snowdepth":"11.000","Units":"in","Rept_Date":"2020-01-29 13"},"coordinates":[559,6245]},{"type":"Point","properties":{"Station_ID":"MLCM5","Station_Nam":"MILACA","Latitude":"45.75320","Longitude":"-93.66170","Snowdepth":"11.000","Units":"in","Rept_Date":"2020-01-29 13"},"coordinates":[819,6293]},{"type":"Point","properties":{"Station_ID":"ME-FR-4","Station_Nam":"NEW SHARON 2.0 NW, ME","Latitude":"44.66582","Longitude":"-70.02720","Snowdepth":"11.000","Units":"in","Rept_Date":"2020-01-29 12"},"coordinates":[6224,5618]},{"type":"Point","properties":{"Station_ID":"KLKM4","Station_Nam":"KALKASKA","Latitude":"44.72800","Longitude":"-85.17270","Snowdepth":"11.000","Units":"in","Rept_Date":"2020-01-29 13"},"coordinates":[2761,5657]},{"type":"Point","properties":{"Station_ID":"ISEM5","Station_Nam":"ISLE 12N","Latitude":"46.31970","Longitude":"-93.50140","Snowdepth":"11.000","Units":"in","Rept_Date":"2020-01-29 14"},"coordinates":[856,6644]},{"type":"Point","properties":{"Station_ID":"GHMN3","Station_Nam":"PINKHAM NOTCH","Latitude":"44.25800","Longitude":"-71.25250","Snowdepth":"11.000","Units":"in","Rept_Date":"2020-01-29 10"},"coordinates":[5944,5365]},{"type":"Point","properties":{"Station_ID":"GEOM5","Station_Nam":"GEORGETOWN,MN","Latitude":"47.08330","Longitude":"-96.73330","Snowdepth":"11.000","Units":"in","Rept_Date":"2020-01-30 00"},"coordinates":[117,7118]},{"type":"Point","properties":{"Station_ID":"DFXM1","Station_Nam":"DOVER-FOXCROFT","Latitude":"45.18720","Longitude":"-69.18350","Snowdepth":"11.000","Units":"in","Rept_Date":"2020-01-29 12"},"coordinates":[6417,5942]},{"type":"Point","properties":{"Station_ID":"CAN-ON-245","Station_Nam":"PHELPSTON 3.1 ESE, CAN","Latitude":"44.50564","Longitude":"-79.81035","Snowdepth":"11.000","Units":"in","Rept_Date":"2020-01-29 13"},"coordinates":[3987,5519]},{"type":"Point","properties":{"Station_ID":"BFSW3","Station_Nam":"BIG FALLS-5 NW","Latitude":"44.63980","Longitude":"-89.11330","Snowdepth":"11.000","Units":"in","Rept_Date":"2020-01-29 13"},"coordinates":[1860,5602]},{"type":"Point","properties":{"Station_ID":"ASXW3","Station_Nam":"ASHLAND,WI","Latitude":"46.55220","Longitude":"-90.91610","Snowdepth":"11.000","Units":"in","Rept_Date":"2020-01-29 14"},"coordinates":[1447,6788]},{"type":"Point","properties":{"Station_ID":"APLW3","Station_Nam":"APPLETON WHBY RADIO","Latitude":"44.25110","Longitude":"-88.36440","Snowdepth":"11.000","Units":"in","Rept_Date":"2020-01-29 14"},"coordinates":[2031,5361]},{"type":"Point","properties":{"Station_ID":"VT-BN-12","Station_Nam":"STAMFORD 5.0 NNE, VT","Latitude":"42.82000","Longitude":"-73.02000","Snowdepth":"10.500","Units":"in","Rept_Date":"2020-01-29 21"},"coordinates":[5540,4473]},{"type":"Point","properties":{"Station_ID":"SD-MH-41","Station_Nam":"SIOUX FALLS 3.9 SW, SD","Latitude":"43.50475","Longitude":"-96.78660","Snowdepth":"10.500","Units":"in","Rept_Date":"2020-01-29 13"},"coordinates":[105,4898]},{"type":"Point","properties":{"Station_ID":"NH-CR-15","Station_Nam":"JACKSON 3.7 NW, NH","Latitude":"44.19069","Longitude":"-71.22598","Snowdepth":"10.500","Units":"in","Rept_Date":"2020-01-29 12"},"coordinates":[5950,5323]},{"type":"Point","properties":{"Station_ID":"CAN-NB-2","Station_Nam":"GRAFTON 2.7 NNE, CA","Latitude":"46.17062","Longitude":"-67.55330","Snowdepth":"10.500","Units":"in","Rept_Date":"2020-01-29 10"},"coordinates":[6790,6552]},{"type":"Point","properties":{"Station_ID":"CAN-NB-64","Station_Nam":"KESWICK RIDGE 4.0 SE, CAN","Latitude":"45.97014","Longitude":"-66.85538","Snowdepth":"10.400","Units":"in","Rept_Date":"2020-01-29 13"},"coordinates":[6949,6427]},{"type":"Point","properties":{"Station_ID":"QGT","Station_Nam":"QGT","Latitude":"49.64720","Longitude":"-67.62640","Snowdepth":"10.039","Units":"in","Rept_Date":"2020-01-29 12"},"coordinates":[6773,8709]},{"type":"Point","properties":{"Station_ID":"WTBW3","Station_Nam":"WEST BEND PUBLIC WORKS","Latitude":"43.41110","Longitude":"-88.19380","Snowdepth":"10.000","Units":"in","Rept_Date":"2020-01-29 14"},"coordinates":[2070,4840]},{"type":"Point","properties":{"Station_ID":"WORV1","Station_Nam":"WORCESTER 2 W","Latitude":"44.37470","Longitude":"-72.58220","Snowdepth":"10.000","Units":"in","Rept_Date":"2020-01-29 12"},"coordinates":[5640,5437]},{"type":"Point","properties":{"Station_ID":"WNNM5","Station_Nam":"WINNEBAGO","Latitude":"43.76920","Longitude":"-94.18730","Snowdepth":"10.000","Units":"in","Rept_Date":"2020-01-29 14"},"coordinates":[699,5062]},{"type":"Point","properties":{"Station_ID":"WIPW3","Station_Nam":"WISCONSIN RAPIDS-SOUTHEAST","Latitude":"44.38190","Longitude":"-89.80470","Snowdepth":"10.000","Units":"in","Rept_Date":"2020-01-29 12"},"coordinates":[1701,5442]},{"type":"Point","properties":{"Station_ID":"WI-WD-2","Station_Nam":"WISCONSIN RAPIDS 4.6 SSE, WI","Latitude":"44.33823","Longitude":"-89.78200","Snowdepth":"10.000","Units":"in","Rept_Date":"2020-01-29 14"},"coordinates":[1707,5415]},{"type":"Point","properties":{"Station_ID":"WI-VR-1","Station_Nam":"HILLSBORO 0.5 WSW, WI","Latitude":"43.65138","Longitude":"-90.34753","Snowdepth":"10.000","Units":"in","Rept_Date":"2020-01-29 13"},"coordinates":[1577,4989]},{"type":"Point","properties":{"Station_ID":"WDOM5","Station_Nam":"WINDOM","Latitude":"43.87700","Longitude":"-95.11590","Snowdepth":"10.000","Units":"in","Rept_Date":"2020-01-29 14"},"coordinates":[487,5129]},{"type":"Point","properties":{"Station_ID":"VT-WS-30","Station_Nam":"WOODBURY 3.4 NNW, VT","Latitude":"44.48825","Longitude":"-72.43258","Snowdepth":"10.000","Units":"in","Rept_Date":"2020-01-29 12"},"coordinates":[5674,5508]},{"type":"Point","properties":{"Station_ID":"VT-OL-2","Station_Nam":"BARTON 3.0 ENE, VT","Latitude":"44.75863","Longitude":"-72.11680","Snowdepth":"10.000","Units":"in","Rept_Date":"2020-01-29 12"},"coordinates":[5746,5676]},{"type":"Point","properties":{"Station_ID":"VT-OG-11","Station_Nam":"VERSHIRE 1.5 ESE, VT","Latitude":"43.96138","Longitude":"-72.29777","Snowdepth":"10.000","Units":"in","Rept_Date":"2020-01-29 13"},"coordinates":[5705,5181]},{"type":"Point","properties":{"Station_ID":"TAHW3","Station_Nam":"TAYCHEEDAH","Latitude":"43.83390","Longitude":"-88.34690","Snowdepth":"10.000","Units":"in","Rept_Date":"2020-01-29 13"},"coordinates":[2035,5102]},{"type":"Point","properties":{"Station_ID":"STC","Station_Nam":"ST. CLOUD REGIONAL AIRPORT","Latitude":"45.54330","Longitude":"-94.05140","Snowdepth":"10.000","Units":"in","Rept_Date":"2020-01-29 12"},"coordinates":[730,6162]},{"type":"Point","properties":{"Station_ID":"SHHW3","Station_Nam":"SHAWANO 2SSW","Latitude":"44.76310","Longitude":"-88.61830","Snowdepth":"10.000","Units":"in","Rept_Date":"2020-01-29 14"},"coordinates":[1973,5678]},{"type":"Point","properties":{"Station_ID":"SCSM5","Station_Nam":"ST CLOUD STATE","Latitude":"45.55100","Longitude":"-94.14950","Snowdepth":"10.000","Units":"in","Rept_Date":"2020-01-29 12"},"coordinates":[708,6167]},{"type":"Point","properties":{"Station_ID":"SANI4","Station_Nam":"ST ANSGAR","Latitude":"43.38170","Longitude":"-92.92320","Snowdepth":"10.000","Units":"in","Rept_Date":"2020-01-29 12"},"coordinates":[988,4821]},{"type":"Point","properties":{"Station_ID":"RGNM1","Station_Nam":"RANGELEY 2NW","Latitude":"44.98940","Longitude":"-70.67220","Snowdepth":"10.000","Units":"in","Rept_Date":"2020-01-29 11"},"coordinates":[6077,5819]},{"type":"Point","properties":{"Station_ID":"RANM1","Station_Nam":"RANGELEY","Latitude":"44.98910","Longitude":"-70.67190","Snowdepth":"10.000","Units":"in","Rept_Date":"2020-01-29 11"},"coordinates":[6077,5819]},{"type":"Point","properties":{"Station_ID":"OSAI4","Station_Nam":"OSAGE","Latitude":"43.27940","Longitude":"-92.81060","Snowdepth":"10.000","Units":"in","Rept_Date":"2020-01-29 13"},"coordinates":[1014,4758]},{"type":"Point","properties":{"Station_ID":"NONW3","Station_Nam":"NEW LONDON","Latitude":"44.35890","Longitude":"-88.71890","Snowdepth":"10.000","Units":"in","Rept_Date":"2020-01-29 12"},"coordinates":[1950,5428]},{"type":"Point","properties":{"Station_ID":"NH-CR-11","Station_Nam":"NORTH CONWAY 1.4 SSW, NH","Latitude":"44.03556","Longitude":"-71.14010","Snowdepth":"10.000","Units":"in","Rept_Date":"2020-01-29 12"},"coordinates":[5970,5227]},{"type":"Point","properties":{"Station_ID":"MRRM5","Station_Nam":"MORRIS WC EXP STA","Latitude":"45.59010","Longitude":"-95.87450","Snowdepth":"10.000","Units":"in","Rept_Date":"2020-01-29 14"},"coordinates":[313,6192]},{"type":"Point","properties":{"Station_ID":"MONW3","Station_Nam":"MONROE,WI","Latitude":"42.60000","Longitude":"-89.66670","Snowdepth":"10.000","Units":"in","Rept_Date":"2020-01-29 13"},"coordinates":[1733,4336]},{"type":"Point","properties":{"Station_ID":"MN228YHJ","Station_Nam":"RICE 2.8 ESE","Latitude":"45.73609","Longitude":"-94.17230","Snowdepth":"10.000","Units":"in","Rept_Date":"2020-01-29 13"},"coordinates":[703,6282]},{"type":"Point","properties":{"Station_ID":"MN0HS8BP","Station_Nam":"GLOSTER 1.0 NW","Latitude":"45.01321","Longitude":"-93.05527","Snowdepth":"10.000","Units":"in","Rept_Date":"2020-01-29 13"},"coordinates":[958,5834]},{"type":"Point","properties":{"Station_ID":"MN-RC-1","Station_Nam":"MONTGOMERY 3.2 ENE, MN","Latitude":"44.46400","Longitude":"-93.51980","Snowdepth":"10.000","Units":"in","Rept_Date":"2020-01-29 11"},"coordinates":[852,5493]},{"type":"Point","properties":{"Station_ID":"MIAM5","Station_Nam":"MILAN 1NW","Latitude":"45.12190","Longitude":"-95.92690","Snowdepth":"10.000","Units":"in","Rept_Date":"2020-01-30 00"},"coordinates":[301,5901]},{"type":"Point","properties":{"Station_ID":"MAPM4","Station_Nam":"MAPLE CITY 1E","Latitude":"44.85500","Longitude":"-85.83520","Snowdepth":"10.000","Units":"in","Rept_Date":"2020-01-29 23"},"coordinates":[2609,5735]},{"type":"Point","properties":{"Station_ID":"KIMM5","Station_Nam":"KIMBALL 3N","Latitude":"45.35330","Longitude":"-94.30560","Snowdepth":"10.000","Units":"in","Rept_Date":"2020-01-29 12"},"coordinates":[672,6045]},{"type":"Point","properties":{"Station_ID":"INDN6","Station_Nam":"INDIAN LAKE","Latitude":"43.75500","Longitude":"-74.27560","Snowdepth":"10.000","Units":"in","Rept_Date":"2020-01-29 13"},"coordinates":[5253,5053]},{"type":"Point","properties":{"Station_ID":"IA-KS-4","Station_Nam":"ALGONA 0.7 SE, IA","Latitude":"43.06627","Longitude":"-94.22214","Snowdepth":"10.000","Units":"in","Rept_Date":"2020-01-29 13"},"coordinates":[691,4626]},{"type":"Point","properties":{"Station_ID":"HYTS2","Station_Nam":"HAYTI 1W","Latitude":"44.66330","Longitude":"-97.22670","Snowdepth":"10.000","Units":"in","Rept_Date":"2020-01-29 14"},"coordinates":[4,5616]},{"type":"Point","properties":{"Station_ID":"HGHN6","Station_Nam":"HIGHMARKET","Latitude":"43.57520","Longitude":"-75.52070","Snowdepth":"10.000","Units":"in","Rept_Date":"2020-01-29 10"},"coordinates":[4968,4941]},{"type":"Point","properties":{"Station_ID":"FYTI4","Station_Nam":"FAYETTE","Latitude":"42.88300","Longitude":"-91.83020","Snowdepth":"10.000","Units":"in","Rept_Date":"2020-01-29 13"},"coordinates":[1238,4512]},{"type":"Point","properties":{"Station_ID":"EVYI4","Station_Nam":"EVERLY,IA","Latitude":"43.18330","Longitude":"-95.36670","Snowdepth":"10.000","Units":"in","Rept_Date":"2020-01-29 13"},"coordinates":[430,4698]},{"type":"Point","properties":{"Station_ID":"ELWW3","Station_Nam":"ELLSWORTH 1E","Latitude":"44.73030","Longitude":"-92.45860","Snowdepth":"10.000","Units":"in","Rept_Date":"2020-01-29 13"},"coordinates":[1095,5658]},{"type":"Point","properties":{"Station_ID":"EGNM5","Station_Nam":"ELGIN 2SSW","Latitude":"44.09700","Longitude":"-92.27010","Snowdepth":"10.000","Units":"in","Rept_Date":"2020-01-29 13"},"coordinates":[1138,5265]},{"type":"Point","properties":{"Station_ID":"DTVM4","Station_Nam":"DETOUR VILLAGE","Latitude":"45.99830","Longitude":"-83.90130","Snowdepth":"10.000","Units":"in","Rept_Date":"2020-01-29 13"},"coordinates":[3051,6445]},{"type":"Point","properties":{"Station_ID":"CVZW3","Station_Nam":"WISCONSIN PUBLIC SERVICE","Latitude":"45.23530","Longitude":"-88.01360","Snowdepth":"10.000","Units":"in","Rept_Date":"2020-01-29 12"},"coordinates":[2111,5971]},{"type":"Point","properties":{"Station_ID":"CNTW3","Station_Nam":"CLINTONVILLE","Latitude":"44.62270","Longitude":"-88.74830","Snowdepth":"10.000","Units":"in","Rept_Date":"2020-01-29 13"},"coordinates":[1943,5591]},{"type":"Point","properties":{"Station_ID":"CAN-NS-103","Station_Nam":"TRAFALGAR 4.9 WSW, CAN","Latitude":"45.26217","Longitude":"-62.72285","Snowdepth":"10.000","Units":"in","Rept_Date":"2020-01-29 12"},"coordinates":[7894,5988]},{"type":"Point","properties":{"Station_ID":"BRLN3","Station_Nam":"BERLIN","Latitude":"44.45350","Longitude":"-71.18540","Snowdepth":"10.000","Units":"in","Rept_Date":"2020-01-29 12"},"coordinates":[5959,5486]},{"type":"Point","properties":{"Station_ID":"BMRW3","Station_Nam":"BLOOMER","Latitude":"45.09070","Longitude":"-91.48640","Snowdepth":"10.000","Units":"in","Rept_Date":"2020-01-29 14"},"coordinates":[1317,5882]},{"type":"Point","properties":{"Station_ID":"BDMW3","Station_Nam":"BEAVER DAM 1 N","Latitude":"43.46860","Longitude":"-88.83970","Snowdepth":"10.000","Units":"in","Rept_Date":"2020-01-29 13"},"coordinates":[1922,4875]},{"type":"Point","properties":{"Station_ID":"ATW","Station_Nam":"OUTAGAMIE COUNTY AIRPORT","Latitude":"44.25750","Longitude":"-88.51940","Snowdepth":"10.000","Units":"in","Rept_Date":"2020-01-30 00"},"coordinates":[1995,5365]},{"type":"Point","properties":{"Station_ID":"APPW3","Station_Nam":"APPLETON","Latitude":"44.27690","Longitude":"-88.43770","Snowdepth":"10.000","Units":"in","Rept_Date":"2020-01-29 12"},"coordinates":[2014,5377]},{"type":"Point","properties":{"Station_ID":"AMHW3","Station_Nam":"AMHERST-3 SE","Latitude":"44.41280","Longitude":"-89.26390","Snowdepth":"10.000","Units":"in","Rept_Date":"2020-01-29 13"},"coordinates":[1825,5461]},{"type":"Point","properties":{"Station_ID":"ALGI4","Station_Nam":"ALGONA,IA","Latitude":"43.06670","Longitude":"-94.30610","Snowdepth":"10.000","Units":"in","Rept_Date":"2020-01-29 13"},"coordinates":[672,4626]},{"type":"Point","properties":{"Station_ID":"CAN-QC-51","Station_Nam":"BELOEIL 0.7 NW, CAN","Latitude":"45.58049","Longitude":"-73.21218","Snowdepth":"9.800","Units":"in","Rept_Date":"2020-01-29 12"},"coordinates":[5496,6186]},{"type":"Point","properties":{"Station_ID":"WI-WH-7","Station_Nam":"WILD ROSE 0.5 E, WI","Latitude":"44.17764","Longitude":"-89.23812","Snowdepth":"9.500","Units":"in","Rept_Date":"2020-01-29 13"},"coordinates":[1831,5315]},{"type":"Point","properties":{"Station_ID":"VT-WS-10","Station_Nam":"NORTHFIELD 1.5 N, VT","Latitude":"44.16986","Longitude":"-72.65200","Snowdepth":"9.500","Units":"in","Rept_Date":"2020-01-29 12"},"coordinates":[5624,5310]},{"type":"Point","properties":{"Station_ID":"NH-GR-49","Station_Nam":"PLYMOUTH 3.7 N, NH","Latitude":"43.79048","Longitude":"-71.68413","Snowdepth":"9.500","Units":"in","Rept_Date":"2020-01-29 12"},"coordinates":[5845,5075]},{"type":"Point","properties":{"Station_ID":"MN-DK-53","Station_Nam":"LAKEVILLE 3.8 ENE, MN","Latitude":"44.70423","Longitude":"-93.18460","Snowdepth":"9.500","Units":"in","Rept_Date":"2020-01-29 13"},"coordinates":[929,5642]},{"type":"Point","properties":{"Station_ID":"CAN-NB-97","Station_Nam":"NEW MARYLAND 0.6 NW, CAN","Latitude":"45.90112","Longitude":"-66.68739","Snowdepth":"9.400","Units":"in","Rept_Date":"2020-01-29 11"},"coordinates":[6988,6384]},{"type":"Point","properties":{"Station_ID":"WWWW3","Station_Nam":"WAUPACA","Latitude":"44.35470","Longitude":"-89.05920","Snowdepth":"9.000","Units":"in","Rept_Date":"2020-01-29 14"},"coordinates":[1872,5425]},{"type":"Point","properties":{"Station_ID":"WMTI4","Station_Nam":"FORT DODGE,IA","Latitude":"42.50610","Longitude":"-94.20110","Snowdepth":"9.000","Units":"in","Rept_Date":"2020-01-29 14"},"coordinates":[696,4278]},{"type":"Point","properties":{"Station_ID":"WI-WN-9","Station_Nam":"NEENAH 1.1 ENE, WI","Latitude":"44.17370","Longitude":"-88.45130","Snowdepth":"9.000","Units":"in","Rept_Date":"2020-01-29 13"},"coordinates":[2011,5313]},{"type":"Point","properties":{"Station_ID":"WI-WK-61","Station_Nam":"HARTLAND 5.0 NNE, WI","Latitude":"43.16351","Longitude":"-88.30400","Snowdepth":"9.000","Units":"in","Rept_Date":"2020-01-29 13"},"coordinates":[2045,4686]},{"type":"Point","properties":{"Station_ID":"WI-PC-5","Station_Nam":"RIVER FALLS 1.2 SSW, WI","Latitude":"44.84032","Longitude":"-92.63500","Snowdepth":"9.000","Units":"in","Rept_Date":"2020-01-29 13"},"coordinates":[1054,5726]},{"type":"Point","properties":{"Station_ID":"WI-IW-3","Station_Nam":"MINERAL POINT 7.3 ENE, WI","Latitude":"42.91400","Longitude":"-90.05700","Snowdepth":"9.000","Units":"in","Rept_Date":"2020-01-29 13"},"coordinates":[1644,4531]},{"type":"Point","properties":{"Station_ID":"WI-DA-35","Station_Nam":"MADISON 5.5 N, WI","Latitude":"43.15858","Longitude":"-89.37280","Snowdepth":"9.000","Units":"in","Rept_Date":"2020-01-29 14"},"coordinates":[1800,4683]},{"type":"Point","properties":{"Station_ID":"WI-DA-33","Station_Nam":"OREGON 0.4 SSW, WI","Latitude":"42.92080","Longitude":"-89.38540","Snowdepth":"9.000","Units":"in","Rept_Date":"2020-01-29 13"},"coordinates":[1797,4535]},{"type":"Point","properties":{"Station_ID":"WHTM5","Station_Nam":"WHEATON,MN","Latitude":"45.80000","Longitude":"-96.48330","Snowdepth":"9.000","Units":"in","Rept_Date":"2020-01-29 14"},"coordinates":[174,6322]},{"type":"Point","properties":{"Station_ID":"WASW3","Station_Nam":"WASHINGTON IS","Latitude":"45.35800","Longitude":"-86.89110","Snowdepth":"9.000","Units":"in","Rept_Date":"2020-01-29 13"},"coordinates":[2368,6048]},{"type":"Point","properties":{"Station_ID":"VT-CH-11","Station_Nam":"UNDERHILL 5.1 NNE, VT","Latitude":"44.59811","Longitude":"-72.91880","Snowdepth":"9.000","Units":"in","Rept_Date":"2020-01-29 14"},"coordinates":[5563,5576]},{"type":"Point","properties":{"Station_ID":"SHDI4","Station_Nam":"SHELDON,IA","Latitude":"43.18080","Longitude":"-95.85280","Snowdepth":"9.000","Units":"in","Rept_Date":"2020-01-29 13"},"coordinates":[318,4697]},{"type":"Point","properties":{"Station_ID":"NY-OD-2","Station_Nam":"POINT ROCK 0.6 SE, NY","Latitude":"43.37335","Longitude":"-75.53840","Snowdepth":"9.000","Units":"in","Rept_Date":"2020-01-29 13"},"coordinates":[4964,4816]},{"type":"Point","properties":{"Station_ID":"NY-HR-18","Station_Nam":"SALISBURY CENTER 1.8 NW, NY","Latitude":"43.16260","Longitude":"-74.80880","Snowdepth":"9.000","Units":"in","Rept_Date":"2020-01-29 11"},"coordinates":[5131,4685]},{"type":"Point","properties":{"Station_ID":"NUNV1","Station_Nam":"NORTH UNDERHILL","Latitude":"44.58760","Longitude":"-72.92150","Snowdepth":"9.000","Units":"in","Rept_Date":"2020-01-29 12"},"coordinates":[5562,5570]},{"type":"Point","properties":{"Station_ID":"NUMM5","Station_Nam":"NEW ULM 3SE","Latitude":"44.29450","Longitude":"-94.40840","Snowdepth":"9.000","Units":"in","Rept_Date":"2020-01-29 11"},"coordinates":[649,5388]},{"type":"Point","properties":{"Station_ID":"NH-CR-26","Station_Nam":"CENTER SANDWICH 4.9 E, NH","Latitude":"43.80976","Longitude":"-71.34150","Snowdepth":"9.000","Units":"in","Rept_Date":"2020-01-29 12"},"coordinates":[5924,5087]},{"type":"Point","properties":{"Station_ID":"MTLT1","Station_Nam":"GATLINBURG,TN","Latitude":"35.65500","Longitude":"-83.44110","Snowdepth":"9.000","Units":"in","Rept_Date":"2020-01-29 13"},"coordinates":[3157,27]},{"type":"Point","properties":{"Station_ID":"MTAI4","Station_Nam":"MOUNT AYR,IA","Latitude":"40.68280","Longitude":"-94.29440","Snowdepth":"9.000","Units":"in","Rept_Date":"2020-01-29 15"},"coordinates":[675,3147]},{"type":"Point","properties":{"Station_ID":"MN0HS1SL","Station_Nam":"NORTH SAINT PAUL 1.6 NW","Latitude":"45.02800","Longitude":"-93.01506","Snowdepth":"9.000","Units":"in","Rept_Date":"2020-01-29 13"},"coordinates":[967,5843]},{"type":"Point","properties":{"Station_ID":"MN-RM-2","Station_Nam":"NORTH SAINT PAUL 1.0 NNW, MN","Latitude":"45.02629","Longitude":"-93.00790","Snowdepth":"9.000","Units":"in","Rept_Date":"2020-01-29 12"},"coordinates":[969,5842]},{"type":"Point","properties":{"Station_ID":"MN-HN-78","Station_Nam":"RICHFIELD 1.9 WNW, MN","Latitude":"44.89129","Longitude":"-93.31410","Snowdepth":"9.000","Units":"in","Rept_Date":"2020-01-29 11"},"coordinates":[899,5758]},{"type":"Point","properties":{"Station_ID":"MN-DK-73","Station_Nam":"LAKEVILLE 2.6 NNE, MN","Latitude":"44.71250","Longitude":"-93.23043","Snowdepth":"9.000","Units":"in","Rept_Date":"2020-01-29 13"},"coordinates":[918,5647]},{"type":"Point","properties":{"Station_ID":"MN-DK-70","Station_Nam":"EAGAN 2.0 NNW, MN","Latitude":"44.84322","Longitude":"-93.17899","Snowdepth":"9.000","Units":"in","Rept_Date":"2020-01-29 15"},"coordinates":[930,5728]},{"type":"Point","properties":{"Station_ID":"MN-CG-16","Station_Nam":"NORTH BRANCH 1.3 NNW, MN","Latitude":"45.53121","Longitude":"-92.97110","Snowdepth":"9.000","Units":"in","Rept_Date":"2020-01-29 12"},"coordinates":[977,6155]},{"type":"Point","properties":{"Station_ID":"MI-GT-21","Station_Nam":"KINGSLEY 2.7 ENE, MI","Latitude":"44.59871","Longitude":"-85.48426","Snowdepth":"9.000","Units":"in","Rept_Date":"2020-01-29 14"},"coordinates":[2689,5576]},{"type":"Point","properties":{"Station_ID":"ME-YK-3","Station_Nam":"HOLLIS CENTER 5.4 NW, ME","Latitude":"43.64750","Longitude":"-70.67510","Snowdepth":"9.000","Units":"in","Rept_Date":"2020-01-29 12"},"coordinates":[6076,4986]},{"type":"Point","properties":{"Station_ID":"MAUW3","Station_Nam":"MAUSTON 1SE","Latitude":"43.78990","Longitude":"-90.05970","Snowdepth":"9.000","Units":"in","Rept_Date":"2020-01-29 14"},"coordinates":[1643,5075]},{"type":"Point","properties":{"Station_ID":"MALN6","Station_Nam":"MALONE","Latitude":"44.84180","Longitude":"-74.30600","Snowdepth":"9.000","Units":"in","Rept_Date":"2020-01-29 12"},"coordinates":[5246,5727]},{"type":"Point","properties":{"Station_ID":"LDSW3","Station_Nam":"LADYSMITH 3W","Latitude":"45.46510","Longitude":"-91.12360","Snowdepth":"9.000","Units":"in","Rept_Date":"2020-01-29 11"},"coordinates":[1400,6114]},{"type":"Point","properties":{"Station_ID":"HOLM1","Station_Nam":"HOLLIS","Latitude":"43.64750","Longitude":"-70.67490","Snowdepth":"9.000","Units":"in","Rept_Date":"2020-01-29 11"},"coordinates":[6076,4986]},{"type":"Point","properties":{"Station_ID":"FLAM4","Station_Nam":"FIFE LAKE 2WNW","Latitude":"44.58480","Longitude":"-85.36530","Snowdepth":"9.000","Units":"in","Rept_Date":"2020-01-29 12"},"coordinates":[2717,5568]},{"type":"Point","properties":{"Station_ID":"ESGM1","Station_Nam":"EAST SANGERVILLE","Latitude":"45.13690","Longitude":"-69.28060","Snowdepth":"9.000","Units":"in","Rept_Date":"2020-01-29 12"},"coordinates":[6395,5910]},{"type":"Point","properties":{"Station_ID":"ESDN3","Station_Nam":"EAST SANDWICH","Latitude":"43.80990","Longitude":"-71.34250","Snowdepth":"9.000","Units":"in","Rept_Date":"2020-01-29 11"},"coordinates":[5923,5087]},{"type":"Point","properties":{"Station_ID":"DWSM5","Station_Nam":"DAWSON","Latitude":"44.93180","Longitude":"-96.04500","Snowdepth":"9.000","Units":"in","Rept_Date":"2020-01-29 13"},"coordinates":[274,5783]},{"type":"Point","properties":{"Station_ID":"DLDI4","Station_Nam":"MISSISSIPPI RIVER","Latitude":"42.51670","Longitude":"-90.65000","Snowdepth":"9.000","Units":"in","Rept_Date":"2020-01-29 12"},"coordinates":[1508,4285]},{"type":"Point","properties":{"Station_ID":"DGVW3","Station_Nam":"DODGEVILLE","Latitude":"42.96670","Longitude":"-90.11670","Snowdepth":"9.000","Units":"in","Rept_Date":"2020-01-29 13"},"coordinates":[1630,4564]},{"type":"Point","properties":{"Station_ID":"CRCI4","Station_Nam":"CRESCO 1NE","Latitude":"43.38940","Longitude":"-92.09380","Snowdepth":"9.000","Units":"in","Rept_Date":"2020-01-29 13"},"coordinates":[1178,4826]},{"type":"Point","properties":{"Station_ID":"CHES2","Station_Nam":"CHESTER 2N","Latitude":"43.92830","Longitude":"-96.93160","Snowdepth":"9.000","Units":"in","Rept_Date":"2020-01-29 13"},"coordinates":[72,5160]},{"type":"Point","properties":{"Station_ID":"BTLN3","Station_Nam":"BARTLETT","Latitude":"44.08380","Longitude":"-71.29340","Snowdepth":"9.000","Units":"in","Rept_Date":"2020-01-29 12"},"coordinates":[5935,5257]},{"type":"Point","properties":{"Station_ID":"BEAW3","Station_Nam":"BEAVER DAM,WI","Latitude":"43.45000","Longitude":"-88.85000","Snowdepth":"9.000","Units":"in","Rept_Date":"2020-01-29 13"},"coordinates":[1920,4864]},{"type":"Point","properties":{"Station_ID":"8D3","Station_Nam":"SISSETON MUNICIPAL AP","Latitude":"45.67080","Longitude":"-96.99610","Snowdepth":"9.000","Units":"in","Rept_Date":"2020-01-30 00"},"coordinates":[57,6242]},{"type":"Point","properties":{"Station_ID":"WI-GL-4","Station_Nam":"GREEN LAKE 0.8 E, WI","Latitude":"43.84369","Longitude":"-88.94066","Snowdepth":"8.500","Units":"in","Rept_Date":"2020-01-29 13"},"coordinates":[1899,5108]},{"type":"Point","properties":{"Station_ID":"WI-DN-15","Station_Nam":"MENOMONIE 0.9 NW, WI","Latitude":"44.89832","Longitude":"-91.92398","Snowdepth":"8.500","Units":"in","Rept_Date":"2020-01-29 13"},"coordinates":[1217,5762]},{"type":"Point","properties":{"Station_ID":"VT-WR-2","Station_Nam":"POMFRET 2.6 N, VT","Latitude":"43.74230","Longitude":"-72.52550","Snowdepth":"8.500","Units":"in","Rept_Date":"2020-01-29 12"},"coordinates":[5653,5045]},{"type":"Point","properties":{"Station_ID":"VT-CH-4","Station_Nam":"UNDERHILL 4.4 NNE, VT","Latitude":"44.58774","Longitude":"-72.92250","Snowdepth":"8.500","Units":"in","Rept_Date":"2020-01-29 12"},"coordinates":[5562,5570]},{"type":"Point","properties":{"Station_ID":"SD-MH-8","Station_Nam":"HARTFORD 6.4 S, SD","Latitude":"43.53128","Longitude":"-96.95020","Snowdepth":"8.500","Units":"in","Rept_Date":"2020-01-29 14"},"coordinates":[67,4914]},{"type":"Point","properties":{"Station_ID":"NY-ER-166","Station_Nam":"BOSTON 2.5 NE, NY","Latitude":"42.65480","Longitude":"-78.70300","Snowdepth":"8.500","Units":"in","Rept_Date":"2020-01-29 12"},"coordinates":[4240,4370]},{"type":"Point","properties":{"Station_ID":"MN-WG-33","Station_Nam":"COTTAGE GROVE 1.6 NNW, MN","Latitude":"44.83821","Longitude":"-92.93590","Snowdepth":"8.500","Units":"in","Rept_Date":"2020-01-29 13"},"coordinates":[985,5725]},{"type":"Point","properties":{"Station_ID":"MN-MC-16","Station_Nam":"HUTCHINSON 0.1 ENE, MN","Latitude":"44.88633","Longitude":"-94.37503","Snowdepth":"8.500","Units":"in","Rept_Date":"2020-01-29 13"},"coordinates":[656,5755]},{"type":"Point","properties":{"Station_ID":"MN-GH-28","Station_Nam":"CANNON FALLS 0.5 SE, MN","Latitude":"44.50866","Longitude":"-92.89526","Snowdepth":"8.500","Units":"in","Rept_Date":"2020-01-29 14"},"coordinates":[995,5521]},{"type":"Point","properties":{"Station_ID":"MI-GT-25","Station_Nam":"TRAVERSE CITY 4.7 ESE, MI","Latitude":"44.73370","Longitude":"-85.51189","Snowdepth":"8.500","Units":"in","Rept_Date":"2020-01-29 12"},"coordinates":[2683,5660]},{"type":"Point","properties":{"Station_ID":"MI-BZ-1","Station_Nam":"BENZONIA 5.3 S, MI","Latitude":"44.53976","Longitude":"-86.10650","Snowdepth":"8.500","Units":"in","Rept_Date":"2020-01-29 14"},"coordinates":[2547,5540]},{"type":"Point","properties":{"Station_ID":"ME-FR-22","Station_Nam":"FARMINGTON 4.8 NNW, ME","Latitude":"44.73396","Longitude":"-70.18007","Snowdepth":"8.500","Units":"in","Rept_Date":"2020-01-29 14"},"coordinates":[6189,5660]},{"type":"Point","properties":{"Station_ID":"CAN-PE-3","Station_Nam":"WELLINGTON 1.6 NE, CA","Latitude":"46.46672","Longitude":"-63.98920","Snowdepth":"8.500","Units":"in","Rept_Date":"2020-01-29 11"},"coordinates":[7605,6735]},{"type":"Point","properties":{"Station_ID":"WRSN6","Station_Nam":"WARSAW 6SW","Latitude":"42.68550","Longitude":"-78.22020","Snowdepth":"8.000","Units":"in","Rept_Date":"2020-01-29 12"},"coordinates":[4351,4389]},{"type":"Point","properties":{"Station_ID":"WLBI4","Station_Nam":"WILLIAMSBURG 3 SE","Latitude":"41.64020","Longitude":"-91.97840","Snowdepth":"8.000","Units":"in","Rept_Date":"2020-01-29 13"},"coordinates":[1204,3741]},{"type":"Point","properties":{"Station_ID":"WI-OZ-17","Station_Nam":"WEST BEND 7.3 E, WI","Latitude":"43.42860","Longitude":"-88.03870","Snowdepth":"8.000","Units":"in","Rept_Date":"2020-01-29 13"},"coordinates":[2105,4850]},