{"type":"Topology","objects":{"snowdepth_geo":{"type":"GeometryCollection","geometries":[{"type":"Point","coordinates":[-86.62,46.4258],"properties":{"Station_ID":"PRKM4","Station_Nam":"MUNISING EAST","Latitude":"46.42580","Longitude":"-86.62000","Snowdepth":"76.500","Units":"in","Rept_Date":"2025-03-17 06"}},{"type":"Point","coordinates":[-71.2779,44.2663],"properties":{"Station_ID":"HVCN3","Station_Nam":"HARVARD CABIN SNOWPLOT","Latitude":"44.26630","Longitude":"-71.27790","Snowdepth":"47.000","Units":"in","Rept_Date":"2025-03-16 09"}},{"type":"Point","coordinates":[-71.2833,44.2613],"properties":{"Station_ID":"HTLN3","Station_Nam":"HERMIT LAKE SNOWPLOT","Latitude":"44.26130","Longitude":"-71.28330","Snowdepth":"41.000","Units":"in","Rept_Date":"2025-03-16 09"}},{"type":"Point","coordinates":[-69.6747,50.7925],"properties":{"Station_ID":"CQOU","Station_Nam":"CQOU","Latitude":"50.79250","Longitude":"-69.67470","Snowdepth":"39.803","Units":"in","Rept_Date":"2025-03-16 12"}},{"type":"Point","coordinates":[-68.8236,50.6617],"properties":{"Station_ID":"CMLZ","Station_Nam":"CMLZ","Latitude":"50.66170","Longitude":"-68.82360","Snowdepth":"37.716","Units":"in","Rept_Date":"2025-03-16 12"}},{"type":"Point","coordinates":[-86.6625,46.4121],"properties":{"Station_ID":"MNSM4","Station_Nam":"MUNISING","Latitude":"46.41210","Longitude":"-86.66250","Snowdepth":"34.000","Units":"in","Rept_Date":"2025-03-16 11"}},{"type":"Point","coordinates":[-74.2064,48.855],"properties":{"Station_ID":"CQGO","Station_Nam":"CQGO","Latitude":"48.85500","Longitude":"-74.20640","Snowdepth":"32.165","Units":"in","Rept_Date":"2025-03-16 12"}},{"type":"Point","coordinates":[-67.1394,51.1114],"properties":{"Station_ID":"CQGD","Station_Nam":"CQGD","Latitude":"51.11140","Longitude":"-67.13940","Snowdepth":"32.008","Units":"in","Rept_Date":"2025-03-16 12"}},{"type":"Point","coordinates":[-88.6717,47.0416],"properties":{"Station_ID":"PDLM4","Station_Nam":"PAINESDALE","Latitude":"47.04160","Longitude":"-88.67170","Snowdepth":"32.000","Units":"in","Rept_Date":"2025-03-16 12"}},{"type":"Point","coordinates":[-71.1955,44.2594],"properties":{"Station_ID":"CRNN3","Station_Nam":"CARTER NOTCH","Latitude":"44.25940","Longitude":"-71.19550","Snowdepth":"32.000","Units":"in","Rept_Date":"2025-03-16 11"}},{"type":"Point","coordinates":[-70.0806,51.3283],"properties":{"Station_ID":"CQCX","Station_Nam":"CQCX","Latitude":"51.32830","Longitude":"-70.08060","Snowdepth":"30.512","Units":"in","Rept_Date":"2025-03-16 12"}},{"type":"Point","coordinates":[-75.1,50.7236],"properties":{"Station_ID":"CQLB","Station_Nam":"CQLB","Latitude":"50.72360","Longitude":"-75.10000","Snowdepth":"30.354","Units":"in","Rept_Date":"2025-03-16 12"}},{"type":"Point","coordinates":[-71.7031,44.1382],"properties":{"Station_ID":"LLHN3","Station_Nam":"LONESOME LAKE HUT","Latitude":"44.13820","Longitude":"-71.70310","Snowdepth":"30.000","Units":"in","Rept_Date":"2025-03-16 11"}},{"type":"Point","coordinates":[-74.4039,50.8328],"properties":{"Station_ID":"CQFT","Station_Nam":"CQFT","Latitude":"50.83280","Longitude":"-74.40390","Snowdepth":"29.016","Units":"in","Rept_Date":"2025-03-16 12"}},{"type":"Point","coordinates":[-75.5543,43.6051],"properties":{"Station_ID":"HGHN6","Station_Nam":"HIGHMARKET","Latitude":"43.60510","Longitude":"-75.55430","Snowdepth":"29.000","Units":"in","Rept_Date":"2025-03-16 11"}},{"type":"Point","coordinates":[-69.3569,49.66],"properties":{"Station_ID":"CQTV","Station_Nam":"CQTV","Latitude":"49.66000","Longitude":"-69.35690","Snowdepth":"28.504","Units":"in","Rept_Date":"2025-03-16 12"}},{"type":"Point","coordinates":[-71.4944,44.1959],"properties":{"Station_ID":"ZFHN3","Station_Nam":"ZEALAND FALLS HUT","Latitude":"44.19590","Longitude":"-71.49440","Snowdepth":"28.000","Units":"in","Rept_Date":"2025-03-16 11"}},{"type":"Point","coordinates":[-74.8088,43.1626],"properties":{"Station_ID":"NY-HR-18","Station_Nam":"SALISBURY CENTER 1.8 NW, NY","Latitude":"43.16260","Longitude":"-74.80880","Snowdepth":"26.500","Units":"in","Rept_Date":"2025-03-16 11"}},{"type":"Point","coordinates":[-91.793,50.7787],"properties":{"Station_ID":"SOCQ6","Station_Nam":"SOCKET LAKE","Latitude":"50.77870","Longitude":"-91.79300","Snowdepth":"26.140","Units":"in","Rept_Date":"2025-03-17 06"}},{"type":"Point","coordinates":[-72.5719,51.0578],"properties":{"Station_ID":"CQTM","Station_Nam":"CQTM","Latitude":"51.05780","Longitude":"-72.57190","Snowdepth":"25.276","Units":"in","Rept_Date":"2025-03-16 12"}},{"type":"Point","coordinates":[-67.6264,49.6472],"properties":{"Station_ID":"CQGT","Station_Nam":"CQGT","Latitude":"49.64720","Longitude":"-67.62640","Snowdepth":"24.606","Units":"in","Rept_Date":"2025-03-16 12"}},{"type":"Point","coordinates":[-70.4719,50.1033],"properties":{"Station_ID":"CQMA","Station_Nam":"CQMA","Latitude":"50.10330","Longitude":"-70.47190","Snowdepth":"24.449","Units":"in","Rept_Date":"2025-03-16 12"}},{"type":"Point","coordinates":[-71.3093,44.3326],"properties":{"Station_ID":"GKBN3","Station_Nam":"GRAY KNOB","Latitude":"44.33260","Longitude":"-71.30930","Snowdepth":"24.000","Units":"in","Rept_Date":"2025-03-16 11"}},{"type":"Point","coordinates":[-86.6594,49.0695],"properties":{"Station_ID":"PTLQ6","Station_Nam":"PORTAGE LAKE","Latitude":"49.06950","Longitude":"-86.65940","Snowdepth":"23.900","Units":"in","Rept_Date":"2025-03-17 06"}},{"type":"Point","coordinates":[-70.2528,48.9203],"properties":{"Station_ID":"CQLM","Station_Nam":"CQLM","Latitude":"48.92030","Longitude":"-70.25280","Snowdepth":"23.740","Units":"in","Rept_Date":"2025-03-16 12"}},{"type":"Point","coordinates":[-87.2292,49.2288],"properties":{"Station_ID":"TRIQ6","Station_Nam":"TRIO LAKE","Latitude":"49.22880","Longitude":"-87.22920","Snowdepth":"23.540","Units":"in","Rept_Date":"2025-03-17 06"}},{"type":"Point","coordinates":[-66.13279,47.90803],"properties":{"Station_ID":"CAN-NB-50","Station_Nam":"DOYLEVILLE 2.4 WNW, CAN","Latitude":"47.90803","Longitude":"-66.13279","Snowdepth":"23.400","Units":"in","Rept_Date":"2025-03-16 12"}},{"type":"Point","coordinates":[-88.5795,47.1364],"properties":{"Station_ID":"QNCM4","Station_Nam":"QUINCY HILL","Latitude":"47.13640","Longitude":"-88.57950","Snowdepth":"23.000","Units":"in","Rept_Date":"2025-03-16 12"}},{"type":"Point","coordinates":[-82.5757,48.526],"properties":{"Station_ID":"AUDQ6","Station_Nam":"AUDEN","Latitude":"48.52600","Longitude":"-82.57570","Snowdepth":"22.990","Units":"in","Rept_Date":"2025-03-17 06"}},{"type":"Point","coordinates":[-73.8067,47.8461],"properties":{"Station_ID":"CQWE","Station_Nam":"CQWE","Latitude":"47.84610","Longitude":"-73.80670","Snowdepth":"22.362","Units":"in","Rept_Date":"2025-03-16 12"}},{"type":"Point","coordinates":[-75.7124,43.4992],"properties":{"Station_ID":"OCON6","Station_Nam":"OSCEOLA","Latitude":"43.49920","Longitude":"-75.71240","Snowdepth":"22.000","Units":"in","Rept_Date":"2025-03-16 11"}},{"type":"Point","coordinates":[-88.2077,46.5573],"properties":{"Station_ID":"MI-BG-3","Station_Nam":"THREE LAKES, MI","Latitude":"46.55730","Longitude":"-88.20770","Snowdepth":"22.000","Units":"in","Rept_Date":"2025-03-16 12"}},{"type":"Point","coordinates":[-72.2011,51.4528],"properties":{"Station_ID":"CQCO","Station_Nam":"CQCO","Latitude":"51.45280","Longitude":"-72.20110","Snowdepth":"21.890","Units":"in","Rept_Date":"2025-03-16 12"}},{"type":"Point","coordinates":[-76.5983,47.8275],"properties":{"Station_ID":"CQCU","Station_Nam":"CQCU","Latitude":"47.82750","Longitude":"-76.59830","Snowdepth":"21.457","Units":"in","Rept_Date":"2025-03-16 12"}},{"type":"Point","coordinates":[-87.8582,50.7668],"properties":{"Station_ID":"OGIQ6","Station_Nam":"OGOKI CAMP","Latitude":"50.76680","Longitude":"-87.85820","Snowdepth":"21.300","Units":"in","Rept_Date":"2025-03-17 06"}},{"type":"Point","coordinates":[-91.8221,51.7269],"properties":{"Station_ID":"CATQ6","Station_Nam":"CAT LAKE","Latitude":"51.72690","Longitude":"-91.82210","Snowdepth":"21.140","Units":"in","Rept_Date":"2025-03-17 06"}},{"type":"Point","coordinates":[-69.8119,45.6602],"properties":{"Station_ID":"BRAM1","Station_Nam":"BRASSUA DAM","Latitude":"45.66020","Longitude":"-69.81190","Snowdepth":"21.000","Units":"in","Rept_Date":"2025-03-16 11"}},{"type":"Point","coordinates":[-87.7644,49.1989],"properties":{"Station_ID":"DVLQ6","Station_Nam":"DEVIOUS LAKE","Latitude":"49.19890","Longitude":"-87.76440","Snowdepth":"20.630","Units":"in","Rept_Date":"2025-03-17 06"}},{"type":"Point","coordinates":[-90.6567,50.2873],"properties":{"Station_ID":"SVBQ6","Station_Nam":"SAVANT BASE","Latitude":"50.28730","Longitude":"-90.65670","Snowdepth":"20.430","Units":"in","Rept_Date":"2025-03-17 06"}},{"type":"Point","coordinates":[-88.3333,46.65],"properties":{"Station_ID":"HERM4","Station_Nam":"HERMAN,MI","Latitude":"46.65000","Longitude":"-88.33330","Snowdepth":"20.000","Units":"in","Rept_Date":"2025-03-16 12"}},{"type":"Point","coordinates":[-72.28,44.631],"properties":{"Station_ID":"VT-OL-12","Station_Nam":"GREENSBORO 3.9 NNE, VT","Latitude":"44.63100","Longitude":"-72.28000","Snowdepth":"19.500","Units":"in","Rept_Date":"2025-03-16 12"}},{"type":"Point","coordinates":[-71.27124,46.76934],"properties":{"Station_ID":"CAN-QC-47","Station_Nam":"SAINTE-FOY 1.8 ENE, CAN","Latitude":"46.76934","Longitude":"-71.27124","Snowdepth":"19.300","Units":"in","Rept_Date":"2025-03-16 11"}},{"type":"Point","coordinates":[-68.8406,51.2833],"properties":{"Station_ID":"CMRL","Station_Nam":"CMRL","Latitude":"51.28330","Longitude":"-68.84060","Snowdepth":"19.291","Units":"in","Rept_Date":"2025-03-16 12"}},{"type":"Point","coordinates":[-88.6926,47.13156],"properties":{"Station_ID":"MI-HG-21","Station_Nam":"ATLANTIC MINE 3.9 NW, MI","Latitude":"47.13156","Longitude":"-88.69260","Snowdepth":"19.000","Units":"in","Rept_Date":"2025-03-16 11"}},{"type":"Point","coordinates":[-70.1564,44.6893],"properties":{"Station_ID":"FARM1","Station_Nam":"FARMINGTON","Latitude":"44.68930","Longitude":"-70.15640","Snowdepth":"19.000","Units":"in","Rept_Date":"2025-03-16 11"}},{"type":"Point","coordinates":[-94.2577,52.1145],"properties":{"Station_ID":"POPQ6","Station_Nam":"POPLAR HILL","Latitude":"52.11450","Longitude":"-94.25770","Snowdepth":"18.350","Units":"in","Rept_Date":"2025-03-17 06"}},{"type":"Point","coordinates":[-84.28515,46.50299],"properties":{"Station_ID":"CAN-ON-915","Station_Nam":"SAULT STE. MARIE 3.9 ESE, CAN","Latitude":"46.50299","Longitude":"-84.28515","Snowdepth":"18.100","Units":"in","Rept_Date":"2025-03-16 12"}},{"type":"Point","coordinates":[-72.4435,44.8916],"properties":{"Station_ID":"VT-OL-1","Station_Nam":"WESTFIELD 0.7 WNW, VT","Latitude":"44.89160","Longitude":"-72.44350","Snowdepth":"18.000","Units":"in","Rept_Date":"2025-03-16 11"}},{"type":"Point","coordinates":[-69.7167,45.5833],"properties":{"Station_ID":"RKWM1","Station_Nam":"MOOSEHEAD LAKE","Latitude":"45.58330","Longitude":"-69.71670","Snowdepth":"18.000","Units":"in","Rept_Date":"2025-03-16 11"}},{"type":"Point","coordinates":[-73.9228,50.2708],"properties":{"Station_ID":"CQLI","Station_Nam":"CQLI","Latitude":"50.27080","Longitude":"-73.92280","Snowdepth":"17.598","Units":"in","Rept_Date":"2025-03-16 12"}},{"type":"Point","coordinates":[-84.4025,46.4866],"properties":{"Station_ID":"SSMM4","Station_Nam":"SAULT STE MARIE","Latitude":"46.48660","Longitude":"-84.40250","Snowdepth":"17.000","Units":"in","Rept_Date":"2025-03-16 11"}},{"type":"Point","coordinates":[-84.31971,46.48933],"properties":{"Station_ID":"MI-CP-14","Station_Nam":"SAULT STE. MARIE 2.2 E, MI","Latitude":"46.48933","Longitude":"-84.31971","Snowdepth":"17.000","Units":"in","Rept_Date":"2025-03-16 11"}},{"type":"Point","coordinates":[-86.95857,46.5029],"properties":{"Station_ID":"MI-AG-8","Station_Nam":"AU TRAIN 7.8 NW, MI","Latitude":"46.50290","Longitude":"-86.95857","Snowdepth":"17.000","Units":"in","Rept_Date":"2025-03-16 13"}},{"type":"Point","coordinates":[-71.4127,44.2196],"properties":{"Station_ID":"CAWN3","Station_Nam":"CRAWFORD NOTCH","Latitude":"44.21960","Longitude":"-71.41270","Snowdepth":"17.000","Units":"in","Rept_Date":"2025-03-16 11"}},{"type":"Point","coordinates":[-58.6185,48.55436],"properties":{"Station_ID":"CAN-NL-65","Station_Nam":"KIPPENS 0.7 NE, CA","Latitude":"48.55436","Longitude":"-58.61850","Snowdepth":"17.000","Units":"in","Rept_Date":"2025-03-16 11"}},{"type":"Point","coordinates":[-84.4026,46.4867],"properties":{"Station_ID":"ANJM4","Station_Nam":"SNOW PAID OBSERVER FOR KANJ","Latitude":"46.48670","Longitude":"-84.40260","Snowdepth":"17.000","Units":"in","Rept_Date":"2025-03-17 00"}},{"type":"Point","coordinates":[-88.5983,47.13273],"properties":{"Station_ID":"54021_MADIS","Station_Nam":"HANCOCK 0.1 ENE, MI","Latitude":"47.13273","Longitude":"-88.59830","Snowdepth":"17.000","Units":"in","Rept_Date":"2025-03-16 13"}},{"type":"Point","coordinates":[-67.32532,46.98305],"properties":{"Station_ID":"CAN-NB-105","Station_Nam":"SISSON BROOK 3.8 E, CAN","Latitude":"46.98305","Longitude":"-67.32532","Snowdepth":"16.900","Units":"in","Rept_Date":"2025-03-16 11"}},{"type":"Point","coordinates":[-75.845,49.2906],"properties":{"Station_ID":"CQMD","Station_Nam":"CQMD","Latitude":"49.29060","Longitude":"-75.84500","Snowdepth":"16.181","Units":"in","Rept_Date":"2025-03-16 12"}},{"type":"Point","coordinates":[-73.0333,43.05],"properties":{"Station_ID":"LBKV1","Station_Nam":"LYE BROOK","Latitude":"43.05000","Longitude":"-73.03330","Snowdepth":"16.000","Units":"in","Rept_Date":"2025-03-17 06"}},{"type":"Point","coordinates":[-68.5431,49.8239],"properties":{"Station_ID":"CQIQ","Station_Nam":"CQIQ","Latitude":"49.82390","Longitude":"-68.54310","Snowdepth":"15.591","Units":"in","Rept_Date":"2025-03-16 12"}},{"type":"Point","coordinates":[-72.6383,48.1392],"properties":{"Station_ID":"CQLP","Station_Nam":"CQLP","Latitude":"48.13920","Longitude":"-72.63830","Snowdepth":"15.394","Units":"in","Rept_Date":"2025-03-16 12"}},{"type":"Point","coordinates":[-66.9111,51.5217],"properties":{"Station_ID":"CMFU","Station_Nam":"CMFU","Latitude":"51.52170","Longitude":"-66.91110","Snowdepth":"15.315","Units":"in","Rept_Date":"2025-03-16 12"}},{"type":"Point","coordinates":[-73.7381,47.2564],"properties":{"Station_ID":"CQGA","Station_Nam":"CQGA","Latitude":"47.25640","Longitude":"-73.73810","Snowdepth":"15.039","Units":"in","Rept_Date":"2025-03-16 12"}},{"type":"Point","coordinates":[-72.9,43.2667],"properties":{"Station_ID":"PERV1","Station_Nam":"PERU","Latitude":"43.26670","Longitude":"-72.90000","Snowdepth":"15.000","Units":"in","Rept_Date":"2025-03-16 11"}},{"type":"Point","coordinates":[-71.3415,43.80976],"properties":{"Station_ID":"NH-CR-26","Station_Nam":"CENTER SANDWICH 4.9 E, NH","Latitude":"43.80976","Longitude":"-71.34150","Snowdepth":"15.000","Units":"in","Rept_Date":"2025-03-16 11"}},{"type":"Point","coordinates":[-72.8333,44.5333],"properties":{"Station_ID":"MMSV1","Station_Nam":"MOUNT MANSFIELD","Latitude":"44.53330","Longitude":"-72.83330","Snowdepth":"15.000","Units":"in","Rept_Date":"2025-03-17 06"}},{"type":"Point","coordinates":[-88.5294,47.10774],"properties":{"Station_ID":"MI-HG-1","Station_Nam":"HOUGHTON 1.6 ESE, MI","Latitude":"47.10774","Longitude":"-88.52940","Snowdepth":"15.000","Units":"in","Rept_Date":"2025-03-16 12"}},{"type":"Point","coordinates":[-71.3425,43.8099],"properties":{"Station_ID":"ESDN3","Station_Nam":"EAST SANDWICH","Latitude":"43.80990","Longitude":"-71.34250","Snowdepth":"15.000","Units":"in","Rept_Date":"2025-03-16 10"}},{"type":"Point","coordinates":[-75.3697,43.4361],"properties":{"Station_ID":"BOON6","Station_Nam":"BOONVILLE 4 SSW","Latitude":"43.43610","Longitude":"-75.36970","Snowdepth":"15.000","Units":"in","Rept_Date":"2025-03-16 11"}},{"type":"Point","coordinates":[-86.75747,46.27805],"properties":{"Station_ID":"MI-AG-6","Station_Nam":"MUNISING 11.1 SSW, MI","Latitude":"46.27805","Longitude":"-86.75747","Snowdepth":"14.500","Units":"in","Rept_Date":"2025-03-16 11"}},{"type":"Point","coordinates":[-79.81035,44.50564],"properties":{"Station_ID":"CAN-ON-245","Station_Nam":"PHELPSTON 3.1 ESE, CAN","Latitude":"44.50564","Longitude":"-79.81035","Snowdepth":"14.500","Units":"in","Rept_Date":"2025-03-16 11"}},{"type":"Point","coordinates":[-74.45287,43.4549],"properties":{"Station_ID":"NY-HM-10","Station_Nam":"LAKE PLEASANT 2.3 WSW, NY","Latitude":"43.45490","Longitude":"-74.45287","Snowdepth":"14.000","Units":"in","Rept_Date":"2025-03-16 11"}},{"type":"Point","coordinates":[-68.1439,47.0108],"properties":{"Station_ID":"ME-AR-18","Station_Nam":"NEW SWEDEN 4.9 NNW, ME","Latitude":"47.01080","Longitude":"-68.14390","Snowdepth":"14.000","Units":"in","Rept_Date":"2025-03-16 11"}},{"type":"Point","coordinates":[-74.2756,43.755],"properties":{"Station_ID":"INDN6","Station_Nam":"INDIAN LAKE","Latitude":"43.75500","Longitude":"-74.27560","Snowdepth":"14.000","Units":"in","Rept_Date":"2025-03-16 12"}},{"type":"Point","coordinates":[-89.5475,46.5869],"properties":{"Station_ID":"BERM4","Station_Nam":"BERGLAND DAM","Latitude":"46.58690","Longitude":"-89.54750","Snowdepth":"14.000","Units":"in","Rept_Date":"2025-03-16 12"}},{"type":"Point","coordinates":[-88.854,46.8944],"properties":{"Station_ID":"57011_MADIS","Station_Nam":"TWIN LAKES 0.2 SW, MI","Latitude":"46.89440","Longitude":"-88.85400","Snowdepth":"14.000","Units":"in","Rept_Date":"2025-03-16 12"}},{"type":"Point","coordinates":[-68.21736,46.70273],"properties":{"Station_ID":"ME-AR-41","Station_Nam":"CASTLE HILL 1.0 S, ME","Latitude":"46.70273","Longitude":"-68.21736","Snowdepth":"13.500","Units":"in","Rept_Date":"2025-03-16 11"}},{"type":"Point","coordinates":[-68.0127,46.6796],"properties":{"Station_ID":"ME-AR-15","Station_Nam":"PRESQUE ISLE 1.3 WSW, ME","Latitude":"46.67960","Longitude":"-68.01270","Snowdepth":"13.000","Units":"in","Rept_Date":"2025-03-16 11"}},{"type":"Point","coordinates":[-88.417,47.2752],"properties":{"Station_ID":"KSGM4","Station_Nam":"KEARSARGE","Latitude":"47.27520","Longitude":"-88.41700","Snowdepth":"13.000","Units":"in","Rept_Date":"2025-03-16 12"}},{"type":"Point","coordinates":[-68.6119,47.2386],"properties":{"Station_ID":"FISM1","Station_Nam":"FORT KENT COOP","Latitude":"47.23860","Longitude":"-68.61190","Snowdepth":"13.000","Units":"in","Rept_Date":"2025-03-16 11"}},{"type":"Point","coordinates":[-87.8816,46.7462],"properties":{"Station_ID":"BBEM4","Station_Nam":"BIG BAY 9SW","Latitude":"46.74620","Longitude":"-87.88160","Snowdepth":"13.000","Units":"in","Rept_Date":"2025-03-16 12"}},{"type":"Point","coordinates":[-90.30508,47.8062],"properties":{"Station_ID":"MN-CK-29","Station_Nam":"GRAND MARAIS 3.8 NNE, MN","Latitude":"47.80620","Longitude":"-90.30508","Snowdepth":"12.500","Units":"in","Rept_Date":"2025-03-16 12"}},{"type":"Point","coordinates":[-84.303,46.503],"properties":{"Station_ID":"CAN-ON-757","Station_Nam":"SAULT STE. MARIE 2.8 ESE - GLFC, CAN","Latitude":"46.50300","Longitude":"-84.30300","Snowdepth":"12.200","Units":"in","Rept_Date":"2025-03-16 12"}},{"type":"Point","coordinates":[-71.2661,43.8639],"properties":{"Station_ID":"TMWN3","Station_Nam":"TAMWORTH 4","Latitude":"43.86390","Longitude":"-71.26610","Snowdepth":"12.000","Units":"in","Rept_Date":"2025-03-16 11"}},{"type":"Point","coordinates":[-72.0481,44.6122],"properties":{"Station_ID":"SUTV1","Station_Nam":"SUTTON","Latitude":"44.61220","Longitude":"-72.04810","Snowdepth":"12.000","Units":"in","Rept_Date":"2025-03-16 11"}},{"type":"Point","coordinates":[-76.2657,43.4383],"properties":{"Station_ID":"NY-OS-38","Station_Nam":"MEXICO COOP, NY","Latitude":"43.43830","Longitude":"-76.26570","Snowdepth":"12.000","Units":"in","Rept_Date":"2025-03-16 11"}},{"type":"Point","coordinates":[-71.9767,43.4189],"properties":{"Station_ID":"NLNN3","Station_Nam":"NEW LONDON","Latitude":"43.41890","Longitude":"-71.97670","Snowdepth":"12.000","Units":"in","Rept_Date":"2025-03-16 11"}},{"type":"Point","coordinates":[-71.2661,43.86449],"properties":{"Station_ID":"NH-CR-27","Station_Nam":"TAMWORTH 0.4 NNW, NH","Latitude":"43.86449","Longitude":"-71.26610","Snowdepth":"12.000","Units":"in","Rept_Date":"2025-03-16 11"}},{"type":"Point","coordinates":[-76.2656,43.4383],"properties":{"Station_ID":"MXON6","Station_Nam":"MEXICO","Latitude":"43.43830","Longitude":"-76.26560","Snowdepth":"12.000","Units":"in","Rept_Date":"2025-03-16 11"}},{"type":"Point","coordinates":[-71.2525,44.258],"properties":{"Station_ID":"GHMN3","Station_Nam":"PINKHAM NOTCH","Latitude":"44.25800","Longitude":"-71.25250","Snowdepth":"12.000","Units":"in","Rept_Date":"2025-03-16 09"}},{"type":"Point","coordinates":[-74.091,44.40915],"properties":{"Station_ID":"58111_MADIS","Station_Nam":"BLOOMINGDALE 0.2 NW, NY","Latitude":"44.40915","Longitude":"-74.09100","Snowdepth":"12.000","Units":"in","Rept_Date":"2025-03-16 12"}},{"type":"Point","coordinates":[-75.48952,45.27286],"properties":{"Station_ID":"CAN-ON-791","Station_Nam":"METCALFE 4.4 NNW, CAN","Latitude":"45.27286","Longitude":"-75.48952","Snowdepth":"11.800","Units":"in","Rept_Date":"2025-03-16 12"}},{"type":"Point","coordinates":[-87.9051,51.5582],"properties":{"Station_ID":"FTHQ6","Station_Nam":"FORT HOPE","Latitude":"51.55820","Longitude":"-87.90510","Snowdepth":"11.650","Units":"in","Rept_Date":"2025-03-17 06"}},{"type":"Point","coordinates":[-70.18007,44.73396],"properties":{"Station_ID":"ME-FR-22","Station_Nam":"FARMINGTON 4.8 NNW, ME","Latitude":"44.73396","Longitude":"-70.18007","Snowdepth":"11.500","Units":"in","Rept_Date":"2025-03-16 13"}},{"type":"Point","coordinates":[-88.7038,49.19],"properties":{"Station_ID":"NONQ6","Station_Nam":"NONWATIN","Latitude":"49.19000","Longitude":"-88.70380","Snowdepth":"11.260","Units":"in","Rept_Date":"2025-03-17 06"}},{"type":"Point","coordinates":[-70.0272,44.66582],"properties":{"Station_ID":"ME-FR-4","Station_Nam":"NEW SHARON 2.0 NW, ME","Latitude":"44.66582","Longitude":"-70.02720","Snowdepth":"11.000","Units":"in","Rept_Date":"2025-03-16 11"}},{"type":"Point","coordinates":[-71.7167,43.9333],"properties":{"Station_ID":"HUBN3","Station_Nam":"HUBBARD BROOK","Latitude":"43.93330","Longitude":"-71.71670","Snowdepth":"11.000","Units":"in","Rept_Date":"2025-03-17 06"}},{"type":"Point","coordinates":[-70.2642,44.68329],"properties":{"Station_ID":"ME-FR-2","Station_Nam":"TEMPLE 1.8 W, ME","Latitude":"44.68329","Longitude":"-70.26420","Snowdepth":"10.500","Units":"in","Rept_Date":"2025-03-16 11"}},{"type":"Point","coordinates":[-87.4503,46.28397],"properties":{"Station_ID":"61591_MADIS","Station_Nam":"GWINN 0.7 SW, MI","Latitude":"46.28397","Longitude":"-87.45030","Snowdepth":"10.500","Units":"in","Rept_Date":"2025-03-16 13"}},{"type":"Point","coordinates":[-89.1799,49.5995],"properties":{"Station_ID":"KABQ6","Station_Nam":"CAB LAKE","Latitude":"49.59950","Longitude":"-89.17990","Snowdepth":"10.350","Units":"in","Rept_Date":"2025-03-17 06"}},{"type":"Point","coordinates":[-72.43258,44.48825],"properties":{"Station_ID":"VT-WS-30","Station_Nam":"WOODBURY 3.4 NNW, VT","Latitude":"44.48825","Longitude":"-72.43258","Snowdepth":"10.000","Units":"in","Rept_Date":"2025-03-16 11"}},{"type":"Point","coordinates":[-72.7483,43.9357],"properties":{"Station_ID":"VT-OG-10","Station_Nam":"BRAINTREE 2.8 SW, VT","Latitude":"43.93570","Longitude":"-72.74830","Snowdepth":"10.000","Units":"in","Rept_Date":"2025-03-16 12"}},{"type":"Point","coordinates":[-72.6907,44.46399],"properties":{"Station_ID":"VT-LM-1","Station_Nam":"STOWE 0.2 SW, VT","Latitude":"44.46399","Longitude":"-72.69070","Snowdepth":"10.000","Units":"in","Rept_Date":"2025-03-16 11"}},{"type":"Point","coordinates":[-74.15211,44.41359],"properties":{"Station_ID":"NY-FK-7","Station_Nam":"SARANAC LAKE 6.2 N, NY","Latitude":"44.41359","Longitude":"-74.15211","Snowdepth":"10.000","Units":"in","Rept_Date":"2025-03-16 11"}},{"type":"Point","coordinates":[-73.8978,43.8335],"properties":{"Station_ID":"NY-ES-6","Station_Nam":"OLMSTEDVILLE 4.6 NNE, NY","Latitude":"43.83350","Longitude":"-73.89780","Snowdepth":"10.000","Units":"in","Rept_Date":"2025-03-16 12"}},{"type":"Point","coordinates":[-72.787,44.5843],"properties":{"Station_ID":"JEFV1","Station_Nam":"JEFFERSONVILLE","Latitude":"44.58430","Longitude":"-72.78700","Snowdepth":"10.000","Units":"in","Rept_Date":"2025-03-16 11"}},{"type":"Point","coordinates":[-72.3194,44.0069],"properties":{"Station_ID":"CORV1","Station_Nam":"CORINTH","Latitude":"44.00690","Longitude":"-72.31940","Snowdepth":"10.000","Units":"in","Rept_Date":"2025-03-16 11"}},{"type":"Point","coordinates":[-72.56234,44.87663],"properties":{"Station_ID":"VT-FR-30","Station_Nam":"MONTGOMERY 4.1 ESE, VT","Latitude":"44.87663","Longitude":"-72.56234","Snowdepth":"9.500","Units":"in","Rept_Date":"2025-03-16 11"}},{"type":"Point","coordinates":[-91.86862,47.88254],"properties":{"Station_ID":"MN-SL-328","Station_Nam":"ELY 1.8 SSW, MN","Latitude":"47.88254","Longitude":"-91.86862","Snowdepth":"9.500","Units":"in","Rept_Date":"2025-03-16 13"}},{"type":"Point","coordinates":[-79.58289,43.95645],"properties":{"Station_ID":"CAN-ON-883","Station_Nam":"KING CITY 5.4 NW, CAN","Latitude":"43.95645","Longitude":"-79.58289","Snowdepth":"9.400","Units":"in","Rept_Date":"2025-03-16 12"}},{"type":"Point","coordinates":[-73.02,42.82],"properties":{"Station_ID":"VT-BN-12","Station_Nam":"STAMFORD 5.0 NNE, VT","Latitude":"42.82000","Longitude":"-73.02000","Snowdepth":"9.000","Units":"in","Rept_Date":"2025-03-16 20"}},{"type":"Point","coordinates":[-74.4236,43.115],"properties":{"Station_ID":"PEKN6","Station_Nam":"PECK LAKE","Latitude":"43.11500","Longitude":"-74.42360","Snowdepth":"9.000","Units":"in","Rept_Date":"2025-03-16 11"}},{"type":"Point","coordinates":[-71.46461,44.33765],"properties":{"Station_ID":"NH-CS-19","Station_Nam":"CARROLL 4.6 NE, NH","Latitude":"44.33765","Longitude":"-71.46461","Snowdepth":"9.000","Units":"in","Rept_Date":"2025-03-16 11"}},{"type":"Point","coordinates":[-71.3,44.2667],"properties":{"Station_ID":"MWN","Station_Nam":"MOUNT WASHINGTON","Latitude":"44.26670","Longitude":"-71.30000","Snowdepth":"9.000","Units":"in","Rept_Date":"2025-03-16 12"}},{"type":"Point","coordinates":[-94.10155,47.82442],"properties":{"Station_ID":"MN-IT-80","Station_Nam":"NORTHOME 8.4 ESE, MN","Latitude":"47.82442","Longitude":"-94.10155","Snowdepth":"9.000","Units":"in","Rept_Date":"2025-03-16 13"}},{"type":"Point","coordinates":[-87.845,46.4991],"properties":{"Station_ID":"CLKM4","Station_Nam":"CLARKSBURG","Latitude":"46.49910","Longitude":"-87.84500","Snowdepth":"9.000","Units":"in","Rept_Date":"2025-03-16 11"}},{"type":"Point","coordinates":[-68.0125,46.8681],"properties":{"Station_ID":"CARM1","Station_Nam":"CARIBOU WFO","Latitude":"46.86810","Longitude":"-68.01250","Snowdepth":"9.000","Units":"in","Rept_Date":"2025-03-17 04"}},{"type":"Point","coordinates":[-68.0136,46.8683],"properties":{"Station_ID":"CAR","Station_Nam":"CARIBOU, ME","Latitude":"46.86830","Longitude":"-68.01360","Snowdepth":"9.000","Units":"in","Rept_Date":"2025-03-16 12"}},{"type":"Point","coordinates":[-65.5069,46.99343],"properties":{"Station_ID":"CAN-NB-11","Station_Nam":"MIRAMICHI 3.3 S, CAN","Latitude":"46.99343","Longitude":"-65.50690","Snowdepth":"9.000","Units":"in","Rept_Date":"2025-03-16 12"}},{"type":"Point","coordinates":[-73.4594,48.4889],"properties":{"Station_ID":"CQWG","Station_Nam":"CQWG","Latitude":"48.48890","Longitude":"-73.45940","Snowdepth":"8.976","Units":"in","Rept_Date":"2025-03-16 12"}},{"type":"Point","coordinates":[-91.4716,48.7067],"properties":{"Station_ID":"ATIQ6","Station_Nam":"ATIKOKAN","Latitude":"48.70670","Longitude":"-91.47160","Snowdepth":"8.740","Units":"in","Rept_Date":"2025-03-17 06"}},{"type":"Point","coordinates":[-72.66,42.73639],"properties":{"Station_ID":"VT-WH-40","Station_Nam":"GUILFORD 7.0 SW, VT","Latitude":"42.73639","Longitude":"-72.66000","Snowdepth":"8.500","Units":"in","Rept_Date":"2025-03-16 11"}},{"type":"Point","coordinates":[-71.1401,44.03556],"properties":{"Station_ID":"NH-CR-11","Station_Nam":"NORTH CONWAY 1.4 SSW, NH","Latitude":"44.03556","Longitude":"-71.14010","Snowdepth":"8.500","Units":"in","Rept_Date":"2025-03-16 11"}},{"type":"Point","coordinates":[-75.6147,48.8722],"properties":{"Station_ID":"CQYR","Station_Nam":"CQYR","Latitude":"48.87220","Longitude":"-75.61470","Snowdepth":"8.189","Units":"in","Rept_Date":"2025-03-16 12"}},{"type":"Point","coordinates":[-72.8077,44.3606],"properties":{"Station_ID":"VT-WS-19","Station_Nam":"WATERBURY 3.0 NW, VT","Latitude":"44.36060","Longitude":"-72.80770","Snowdepth":"8.000","Units":"in","Rept_Date":"2025-03-16 10"}},{"type":"Point","coordinates":[-87.5492,46.5314],"properties":{"Station_ID":"MQT","Station_Nam":"MARQUETTE, MI","Latitude":"46.53140","Longitude":"-87.54920","Snowdepth":"8.000","Units":"in","Rept_Date":"2025-03-17 06"}},{"type":"Point","coordinates":[-90.87444,48.14388],"properties":{"Station_ID":"MN-CK-56","Station_Nam":"GRAND MARAIS 36.2 NW, MN","Latitude":"48.14388","Longitude":"-90.87444","Snowdepth":"8.000","Units":"in","Rept_Date":"2025-03-16 12"}},{"type":"Point","coordinates":[-77.71646,44.08567],"properties":{"Station_ID":"CAN-ON-548","Station_Nam":"BRIGHTON 5.3 NNE - LTC, CAN","Latitude":"44.08567","Longitude":"-77.71646","Snowdepth":"7.400","Units":"in","Rept_Date":"2025-03-16 11"}},{"type":"Point","coordinates":[-72.2657,44.39807],"properties":{"Station_ID":"VT-WS-23","Station_Nam":"CABOT 2.3 E, VT","Latitude":"44.39807","Longitude":"-72.26570","Snowdepth":"7.000","Units":"in","Rept_Date":"2025-03-16 11"}},{"type":"Point","coordinates":[-76.2693,43.3314],"properties":{"Station_ID":"PLMN6","Station_Nam":"PALERMO 2SSE","Latitude":"43.33140","Longitude":"-76.26930","Snowdepth":"7.000","Units":"in","Rept_Date":"2025-03-16 10"}},{"type":"Point","coordinates":[-84.3239,46.1864],"properties":{"Station_ID":"PICM4","Station_Nam":"PICKFORD 3NE","Latitude":"46.18640","Longitude":"-84.32390","Snowdepth":"7.000","Units":"in","Rept_Date":"2025-03-16 22"}},{"type":"Point","coordinates":[-76.27,43.331],"properties":{"Station_ID":"NY-OS-16","Station_Nam":"PHOENIX 7.0 NNE, NY","Latitude":"43.33100","Longitude":"-76.27000","Snowdepth":"7.000","Units":"in","Rept_Date":"2025-03-16 10"}},{"type":"Point","coordinates":[-71.5373,43.43945],"properties":{"Station_ID":"NH-MR-45","Station_Nam":"NORTHFIELD 2.8 E, NH","Latitude":"43.43945","Longitude":"-71.53730","Snowdepth":"7.000","Units":"in","Rept_Date":"2025-03-16 11"}},{"type":"Point","coordinates":[-93.216,48.59631],"properties":{"Station_ID":"MN-KC-20","Station_Nam":"INTERNATIONAL FALLS 8.8 E, MN","Latitude":"48.59631","Longitude":"-93.21600","Snowdepth":"7.000","Units":"in","Rept_Date":"2025-03-16 12"}},{"type":"Point","coordinates":[-79.48559,43.97005],"properties":{"Station_ID":"CAN-ON-552","Station_Nam":"AURORA 3.3 SSW, CAN","Latitude":"43.97005","Longitude":"-79.48559","Snowdepth":"6.700","Units":"in","Rept_Date":"2025-03-16 12"}},{"type":"Point","coordinates":[-72.8326,43.29092],"properties":{"Station_ID":"VT-BN-3","Station_Nam":"LANDGROVE 1.1 NNE, VT","Latitude":"43.29092","Longitude":"-72.83260","Snowdepth":"6.500","Units":"in","Rept_Date":"2025-03-16 11"}},{"type":"Point","coordinates":[-66.68739,45.90112],"properties":{"Station_ID":"CAN-NB-97","Station_Nam":"NEW MARYLAND 0.6 NW, CAN","Latitude":"45.90112","Longitude":"-66.68739","Snowdepth":"6.300","Units":"in","Rept_Date":"2025-03-16 13"}},{"type":"Point","coordinates":[-66.85538,45.97014],"properties":{"Station_ID":"CAN-NB-64","Station_Nam":"KESWICK RIDGE 4.0 SE, CAN","Latitude":"45.97014","Longitude":"-66.85538","Snowdepth":"6.300","Units":"in","Rept_Date":"2025-03-16 11"}},{"type":"Point","coordinates":[-88.6424,46.5266],"properties":{"Station_ID":"WTNM4","Station_Nam":"WATTON 2WSW","Latitude":"46.52660","Longitude":"-88.64240","Snowdepth":"6.000","Units":"in","Rept_Date":"2025-03-16 12"}},{"type":"Point","coordinates":[-87.99051,42.94815],"properties":{"Station_ID":"WI-MW-74","Station_Nam":"GREENDALE 1.0 NNE, WI","Latitude":"42.94815","Longitude":"-87.99051","Snowdepth":"6.000","Units":"in","Rept_Date":"2025-03-16 18"}},{"type":"Point","coordinates":[-72.652,44.16986],"properties":{"Station_ID":"VT-WS-10","Station_Nam":"NORTHFIELD 1.5 N, VT","Latitude":"44.16986","Longitude":"-72.65200","Snowdepth":"6.000","Units":"in","Rept_Date":"2025-03-16 11"}},{"type":"Point","coordinates":[-72.35555,43.83333],"properties":{"Station_ID":"VT-OG-16","Station_Nam":"STRAFFORD 2.4 SSE, VT","Latitude":"43.83333","Longitude":"-72.35555","Snowdepth":"6.000","Units":"in","Rept_Date":"2025-03-16 11"}},{"type":"Point","coordinates":[-71.70446,44.49324],"properties":{"Station_ID":"VT-ES-3","Station_Nam":"LUNENBURG 2.3 NNW, VT","Latitude":"44.49324","Longitude":"-71.70446","Snowdepth":"6.000","Units":"in","Rept_Date":"2025-03-16 10"}},{"type":"Point","coordinates":[-72.0883,44.56491],"properties":{"Station_ID":"VT-CL-18","Station_Nam":"WHEELOCK 1.6 S, VT","Latitude":"44.56491","Longitude":"-72.08830","Snowdepth":"6.000","Units":"in","Rept_Date":"2025-03-16 11"}},{"type":"Point","coordinates":[-67.9396,47.1664],"properties":{"Station_ID":"VANM1","Station_Nam":"VAN BUREN","Latitude":"47.16640","Longitude":"-67.93960","Snowdepth":"6.000","Units":"in","Rept_Date":"2025-03-16 11"}},{"type":"Point","coordinates":[-73.73848,44.6398],"properties":{"Station_ID":"NY-CL-12","Station_Nam":"SARANAC 0.8 SSE, NY","Latitude":"44.63980","Longitude":"-73.73848","Snowdepth":"6.000","Units":"in","Rept_Date":"2025-03-16 11"}},{"type":"Point","coordinates":[-71.819,43.52],"properties":{"Station_ID":"NH-MR-6","Station_Nam":"DANBURY 2.2 ESE, NH","Latitude":"43.52000","Longitude":"-71.81900","Snowdepth":"6.000","Units":"in","Rept_Date":"2025-03-16 12"}},{"type":"Point","coordinates":[-71.5565,43.14994],"properties":{"Station_ID":"NH-MR-4","Station_Nam":"BOW 1.6 NW, NH","Latitude":"43.14994","Longitude":"-71.55650","Snowdepth":"6.000","Units":"in","Rept_Date":"2025-03-16 11"}},{"type":"Point","coordinates":[-70.3476,44.39318],"properties":{"Station_ID":"ME-OX-2","Station_Nam":"HARTFORD 1.4 N, ME","Latitude":"44.39318","Longitude":"-70.34760","Snowdepth":"6.000","Units":"in","Rept_Date":"2025-03-16 12"}},{"type":"Point","coordinates":[-71.7046,44.4933],"properties":{"Station_ID":"LUNV1","Station_Nam":"LUNENBURG 2 NNW","Latitude":"44.49330","Longitude":"-71.70460","Snowdepth":"6.000","Units":"in","Rept_Date":"2025-03-16 10"}},{"type":"Point","coordinates":[-87.3779,46.3341],"properties":{"Station_ID":"KISM4","Station_Nam":"K.I. SAWYER WWTP","Latitude":"46.33410","Longitude":"-87.37790","Snowdepth":"6.000","Units":"in","Rept_Date":"2025-03-16 12"}},{"type":"Point","coordinates":[-70.1753,44.9595],"properties":{"Station_ID":"KINM1","Station_Nam":"KINGFIELD","Latitude":"44.95950","Longitude":"-70.17530","Snowdepth":"6.000","Units":"in","Rept_Date":"2025-03-16 12"}},{"type":"Point","coordinates":[-93.9,48.6167],"properties":{"Station_ID":"INDM5","Station_Nam":"INDUS,MN","Latitude":"48.61670","Longitude":"-93.90000","Snowdepth":"6.000","Units":"in","Rept_Date":"2025-03-16 14"}},{"type":"Point","coordinates":[-74.6457,45.48987],"properties":{"Station_ID":"CAN-ON-42","Station_Nam":"VANKLEEK HILL 3.4 S, CA","Latitude":"45.48987","Longitude":"-74.64570","Snowdepth":"6.000","Units":"in","Rept_Date":"2025-03-16 11"}},{"type":"Point","coordinates":[-95.11951,46.45092],"properties":{"Station_ID":"MN-WD-12","Station_Nam":"WADENA 1.0 NE, MN","Latitude":"46.45092","Longitude":"-95.11951","Snowdepth":"5.500","Units":"in","Rept_Date":"2025-03-16 13"}},{"type":"Point","coordinates":[-74.4382,44.2307],"properties":{"Station_ID":"TOPN6","Station_Nam":"TUPPER LAKE SUNMOUNT","Latitude":"44.23070","Longitude":"-74.43820","Snowdepth":"5.000","Units":"in","Rept_Date":"2025-03-16 11"}},{"type":"Point","coordinates":[-89.0752,46.0663],"properties":{"Station_ID":"PHEW3","Station_Nam":"PHELPS","Latitude":"46.06630","Longitude":"-89.07520","Snowdepth":"5.000","Units":"in","Rept_Date":"2025-03-16 12"}},{"type":"Point","coordinates":[-75.306,43.751],"properties":{"Station_ID":"NY-LW-12","Station_Nam":"CHASES LAKE COOP, NY","Latitude":"43.75100","Longitude":"-75.30600","Snowdepth":"5.000","Units":"in","Rept_Date":"2025-03-16 10"}},{"type":"Point","coordinates":[-71.5044,44.5283],"properties":{"Station_ID":"NUMN3","Station_Nam":"NORTHUMBERLAND","Latitude":"44.52830","Longitude":"-71.50440","Snowdepth":"5.000","Units":"in","Rept_Date":"2025-03-16 11"}},{"type":"Point","coordinates":[-71.18942,43.57323],"properties":{"Station_ID":"NH-CR-50","Station_Nam":"WOLFEBORO 1.5 SE, NH","Latitude":"43.57323","Longitude":"-71.18942","Snowdepth":"5.000","Units":"in","Rept_Date":"2025-03-16 11"}},{"type":"Point","coordinates":[-71.1297,44.0562],"properties":{"Station_ID":"NCON3","Station_Nam":"NORTH CONWAY","Latitude":"44.05620","Longitude":"-71.12970","Snowdepth":"5.000","Units":"in","Rept_Date":"2025-03-16 12"}},{"type":"Point","coordinates":[-91.87967,47.8151],"properties":{"Station_ID":"MN-SL-198","Station_Nam":"ELY 6.4 SSW, MN","Latitude":"47.81510","Longitude":"-91.87967","Snowdepth":"5.000","Units":"in","Rept_Date":"2025-03-16 13"}},{"type":"Point","coordinates":[-95.0522,46.9286],"properties":{"Station_ID":"MN-HB-40","Station_Nam":"PARK RAPIDS 1.0 NNE, MN","Latitude":"46.92860","Longitude":"-95.05220","Snowdepth":"5.000","Units":"in","Rept_Date":"2025-03-16 12"}},{"type":"Point","coordinates":[-94.21266,46.91588],"properties":{"Station_ID":"MN-CS-81","Station_Nam":"LONGVILLE 4.9 S, MN","Latitude":"46.91588","Longitude":"-94.21266","Snowdepth":"5.000","Units":"in","Rept_Date":"2025-03-16 12"}},{"type":"Point","coordinates":[-84.68467,44.96388],"properties":{"Station_ID":"MI-OT-17","Station_Nam":"GAYLORD 4.1 S, MI","Latitude":"44.96388","Longitude":"-84.68467","Snowdepth":"5.000","Units":"in","Rept_Date":"2025-03-16 11"}},{"type":"Point","coordinates":[-70.3134,43.8464],"properties":{"Station_ID":"ME-CM-125","Station_Nam":"GRAY 2.9 SSE, ME","Latitude":"43.84640","Longitude":"-70.31340","Snowdepth":"5.000","Units":"in","Rept_Date":"2025-03-16 11"}},{"type":"Point","coordinates":[-72.9454,42.49272],"properties":{"Station_ID":"MA-HS-7","Station_Nam":"PLAINFIELD 2.2 SW, MA","Latitude":"42.49272","Longitude":"-72.94540","Snowdepth":"5.000","Units":"in","Rept_Date":"2025-03-16 11"}},{"type":"Point","coordinates":[-72.74829,42.50424],"properties":{"Station_ID":"MA-FR-41","Station_Nam":"CONWAY 3.4 WSW, MA","Latitude":"42.50424","Longitude":"-72.74829","Snowdepth":"5.000","Units":"in","Rept_Date":"2025-03-16 11"}},{"type":"Point","coordinates":[-94.8892,45.9646],"properties":{"Station_ID":"LNGM5","Station_Nam":"LONG PRAIRIE","Latitude":"45.96460","Longitude":"-94.88920","Snowdepth":"5.000","Units":"in","Rept_Date":"2025-03-16 11"}},{"type":"Point","coordinates":[-88.6124,42.42453],"properties":{"Station_ID":"IL-MCH-116","Station_Nam":"HARVARD 0.3 NNE, IL","Latitude":"42.42453","Longitude":"-88.61240","Snowdepth":"5.000","Units":"in","Rept_Date":"2025-03-16 14"}},{"type":"Point","coordinates":[-91.4526,40.44225],"properties":{"Station_ID":"IA-LE-16","Station_Nam":"KEOKUK 3.4 NW, IA","Latitude":"40.44225","Longitude":"-91.45260","Snowdepth":"5.000","Units":"in","Rept_Date":"2025-03-16 11"}},{"type":"Point","coordinates":[-75.2998,43.7592],"properties":{"Station_ID":"GFDN6","Station_Nam":"CHASES LAKE","Latitude":"43.75920","Longitude":"-75.29980","Snowdepth":"5.000","Units":"in","Rept_Date":"2025-03-16 10"}},{"type":"Point","coordinates":[-72.8679,42.5741],"properties":{"Station_ID":"EHYM3","Station_Nam":"EAST HAWLEY","Latitude":"42.57410","Longitude":"-72.86790","Snowdepth":"5.000","Units":"in","Rept_Date":"2025-03-16 12"}},{"type":"Point","coordinates":[-91.4486,47.9719],"properties":{"Station_ID":"BNDM5","Station_Nam":"ELY 25E","Latitude":"47.97190","Longitude":"-91.44860","Snowdepth":"5.000","Units":"in","Rept_Date":"2025-03-16 12"}},{"type":"Point","coordinates":[-72.70871,45.06024],"properties":{"Station_ID":"CAN-QC-69","Station_Nam":"FRELIGHSBURG 10.3 E - MOUNT PINNACLE LAND TRUST, CAN","Latitude":"45.06024","Longitude":"-72.70871","Snowdepth":"4.700","Units":"in","Rept_Date":"2025-03-16 13"}},{"type":"Point","coordinates":[-72.23051,43.92138],"properties":{"Station_ID":"VT-OG-13","Station_Nam":"WEST FAIRLEE 1.8 ENE, VT","Latitude":"43.92138","Longitude":"-72.23051","Snowdepth":"4.500","Units":"in","Rept_Date":"2025-03-16 11"}},{"type":"Point","coordinates":[-72.00019,43.07635],"properties":{"Station_ID":"NH-HL-108","Station_Nam":"ANTRIM 4.1 NW, NH","Latitude":"43.07635","Longitude":"-72.00019","Snowdepth":"4.500","Units":"in","Rept_Date":"2025-03-16 11"}},{"type":"Point","coordinates":[-91.4293,40.91415],"properties":{"Station_ID":"IA-HY-1","Station_Nam":"NEW LONDON 1.5 SW, IA","Latitude":"40.91415","Longitude":"-91.42930","Snowdepth":"4.500","Units":"in","Rept_Date":"2025-03-16 12"}},{"type":"Point","coordinates":[-63.50039,46.25244],"properties":{"Station_ID":"CAN-PE-79","Station_Nam":"CRAPAUD 1.3 N, CAN","Latitude":"46.25244","Longitude":"-63.50039","Snowdepth":"4.500","Units":"in","Rept_Date":"2025-03-16 10"}},{"type":"Point","coordinates":[-90.27013,46.41555],"properties":{"Station_ID":"WI-IR-3","Station_Nam":"PENCE 0.1 E, WI","Latitude":"46.41555","Longitude":"-90.27013","Snowdepth":"4.000","Units":"in","Rept_Date":"2025-03-16 12"}},{"type":"Point","coordinates":[-72.88238,43.50806],"properties":{"Station_ID":"VT-RT-28","Station_Nam":"SHREWSBURY 0.8 W, VT","Latitude":"43.50806","Longitude":"-72.88238","Snowdepth":"4.000","Units":"in","Rept_Date":"2025-03-16 12"}},{"type":"Point","coordinates":[-72.3094,44.60528],"properties":{"Station_ID":"VT-OL-9","Station_Nam":"GREENSBORO 2.1 NNW, VT","Latitude":"44.60528","Longitude":"-72.30940","Snowdepth":"4.000","Units":"in","Rept_Date":"2025-03-16 11"}},{"type":"Point","coordinates":[-72.7969,44.9447],"properties":{"Station_ID":"VT-FR-26","Station_Nam":"ENOSBURG FALLS 2.5 N, VT","Latitude":"44.94470","Longitude":"-72.79690","Snowdepth":"4.000","Units":"in","Rept_Date":"2025-03-16 11"}},{"type":"Point","coordinates":[-91.8875,39.9701],"properties":{"Station_ID":"SFFM7","Station_Nam":"STEFFENVILLE","Latitude":"39.97010","Longitude":"-91.88750","Snowdepth":"4.000","Units":"in","Rept_Date":"2025-03-16 12"}},{"type":"Point","coordinates":[-95.081,46.9415],"properties":{"Station_ID":"PRPM5","Station_Nam":"PARK RAPIDS 2NW","Latitude":"46.94150","Longitude":"-95.08100","Snowdepth":"4.000","Units":"in","Rept_Date":"2025-03-16 12"}},{"type":"Point","coordinates":[-73.81069,43.51784],"properties":{"Station_ID":"NY-WR-10","Station_Nam":"WARRENSBURG 2.1 WNW, NY","Latitude":"43.51784","Longitude":"-73.81069","Snowdepth":"4.000","Units":"in","Rept_Date":"2025-03-16 12"}},{"type":"Point","coordinates":[-95.3799,46.5092],"properties":{"Station_ID":"NYMM5","Station_Nam":"NEW YORK MILLS","Latitude":"46.50920","Longitude":"-95.37990","Snowdepth":"4.000","Units":"in","Rept_Date":"2025-03-16 12"}},{"type":"Point","coordinates":[-74.4188,43.9907],"properties":{"Station_ID":"NY-HM-8","Station_Nam":"LONG LAKE 1.2 N, NY","Latitude":"43.99070","Longitude":"-74.41880","Snowdepth":"4.000","Units":"in","Rept_Date":"2025-03-16 11"}},{"type":"Point","coordinates":[-74.1629,43.22767],"properties":{"Station_ID":"NY-FL-12","Station_Nam":"NORTHVILLE 0.6 NE, NY","Latitude":"43.22767","Longitude":"-74.16290","Snowdepth":"4.000","Units":"in","Rept_Date":"2025-03-16 11"}},{"type":"Point","coordinates":[-72.0333,43.7833],"properties":{"Station_ID":"MSRN3","Station_Nam":"MASCOMA RIVER","Latitude":"43.78330","Longitude":"-72.03330","Snowdepth":"4.000","Units":"in","Rept_Date":"2025-03-17 06"}},{"type":"Point","coordinates":[-91.955,47.875],"properties":{"Station_ID":"MN-SL-323","Station_Nam":"ELY 5.2 WSW, MN","Latitude":"47.87500","Longitude":"-91.95500","Snowdepth":"4.000","Units":"in","Rept_Date":"2025-03-16 12"}},{"type":"Point","coordinates":[-95.08179,46.94214],"properties":{"Station_ID":"MN-HB-16","Station_Nam":"PARK RAPIDS 2.0 NNW, MN","Latitude":"46.94214","Longitude":"-95.08179","Snowdepth":"4.000","Units":"in","Rept_Date":"2025-03-16 12"}},{"type":"Point","coordinates":[-94.72121,47.52043],"properties":{"Station_ID":"MN-BM-15","Station_Nam":"BEMIDJI 7.8 ENE, MN","Latitude":"47.52043","Longitude":"-94.72121","Snowdepth":"4.000","Units":"in","Rept_Date":"2025-03-16 12"}},{"type":"Point","coordinates":[-87.7567,46.4055],"properties":{"Station_ID":"MI-MQ-19","Station_Nam":"ISHPEMING 7.2 SW, MI","Latitude":"46.40550","Longitude":"-87.75670","Snowdepth":"4.000","Units":"in","Rept_Date":"2025-03-16 10"}},{"type":"Point","coordinates":[-70.59612,44.09787],"properties":{"Station_ID":"ME-OX-26","Station_Nam":"OXFORD 5.3 SW, ME","Latitude":"44.09787","Longitude":"-70.59612","Snowdepth":"4.000","Units":"in","Rept_Date":"2025-03-16 12"}},{"type":"Point","coordinates":[-85.56666,44.73333],"properties":{"Station_ID":"KTVC","Station_Nam":"CHERRY CAPITAL AIRPORT","Latitude":"44.73333","Longitude":"-85.56666","Snowdepth":"4.000","Units":"in","Rept_Date":"2025-03-17 00"}},{"type":"Point","coordinates":[-71.3,44.26666],"properties":{"Station_ID":"KMWN","Station_Nam":"MOUNT WASHINGTON","Latitude":"44.26666","Longitude":"-71.30000","Snowdepth":"4.000","Units":"in","Rept_Date":"2025-03-17 06"}},{"type":"Point","coordinates":[-71.8902,44.8128],"properties":{"Station_ID":"ISLV1","Station_Nam":"ISLAND POND","Latitude":"44.81280","Longitude":"-71.89020","Snowdepth":"4.000","Units":"in","Rept_Date":"2025-03-16 12"}},{"type":"Point","coordinates":[-89.1287,42.16623],"properties":{"Station_ID":"IL-WN-10","Station_Nam":"NEW MILLFORD 3.3 W, IL","Latitude":"42.16623","Longitude":"-89.12870","Snowdepth":"4.000","Units":"in","Rept_Date":"2025-03-16 12"}},{"type":"Point","coordinates":[-91.7848,40.63279],"properties":{"Station_ID":"IA-VB-8","Station_Nam":"FARMINGTON 2.4 W, IA","Latitude":"40.63279","Longitude":"-91.78480","Snowdepth":"4.000","Units":"in","Rept_Date":"2025-03-16 12"}},{"type":"Point","coordinates":[-91.80514,40.6308],"properties":{"Station_ID":"IA-VB-3","Station_Nam":"FARMINGTON 3.5 W, IA","Latitude":"40.63080","Longitude":"-91.80514","Snowdepth":"4.000","Units":"in","Rept_Date":"2025-03-16 12"}},{"type":"Point","coordinates":[-70.3162,44.3744],"properties":{"Station_ID":"HRTM1","Station_Nam":"HARTFORD","Latitude":"44.37440","Longitude":"-70.31620","Snowdepth":"4.000","Units":"in","Rept_Date":"2025-03-16 11"}},{"type":"Point","coordinates":[-70.4078,44.5187],"properties":{"Station_ID":"DIFM1","Station_Nam":"DIXIFIELD","Latitude":"44.51870","Longitude":"-70.40780","Snowdepth":"4.000","Units":"in","Rept_Date":"2025-03-16 11"}},{"type":"Point","coordinates":[-92.6925,47.8506],"properties":{"Station_ID":"COKM5","Station_Nam":"COOK","Latitude":"47.85060","Longitude":"-92.69250","Snowdepth":"4.000","Units":"in","Rept_Date":"2025-03-16 11"}},{"type":"Point","coordinates":[-70.7568,44.32],"properties":{"Station_ID":"BETM1","Station_Nam":"BETHEL 6 SSE","Latitude":"44.32000","Longitude":"-70.75680","Snowdepth":"4.000","Units":"in","Rept_Date":"2025-03-16 11"}},{"type":"Point","coordinates":[-91.275,40.7472],"properties":{"Station_ID":"AGSI4","Station_Nam":"AUGUSTA","Latitude":"40.74720","Longitude":"-91.27500","Snowdepth":"4.000","Units":"in","Rept_Date":"2025-03-16 18"}},{"type":"Point","coordinates":[-95.0611,46.9284],"properties":{"Station_ID":"MN-HB-38","Station_Nam":"PARK RAPIDS 0.8 N, MN","Latitude":"46.92840","Longitude":"-95.06110","Snowdepth":"3.500","Units":"in","Rept_Date":"2025-03-16 13"}},{"type":"Point","coordinates":[-85.1475,45.18639],"properties":{"Station_ID":"MI-CX-7","Station_Nam":"EAST JORDAN 2.1 NNW, MI","Latitude":"45.18639","Longitude":"-85.14750","Snowdepth":"3.500","Units":"in","Rept_Date":"2025-03-16 20"}},{"type":"Point","coordinates":[-90.2935,40.91356],"properties":{"Station_ID":"IL-KX-9","Station_Nam":"KNOXVILLE 0.7 NW, IL","Latitude":"40.91356","Longitude":"-90.29350","Snowdepth":"3.500","Units":"in","Rept_Date":"2025-03-16 12"}},{"type":"Point","coordinates":[-52.71336,47.56404],"properties":{"Station_ID":"CAN-NL-2","Station_Nam":"ST. JOHN'S 0.4 N, CAN","Latitude":"47.56404","Longitude":"-52.71336","Snowdepth":"3.500","Units":"in","Rept_Date":"2025-03-16 11"}},{"type":"Point","coordinates":[-72.5814,42.8448],"properties":{"Station_ID":"61661_MADIS","Station_Nam":"BRATTLEBORO 1.3 WSW, VT","Latitude":"42.84480","Longitude":"-72.58140","Snowdepth":"3.500","Units":"in","Rept_Date":"2025-03-16 11"}},{"type":"Point","coordinates":[-70.462,43.85787],"properties":{"Station_ID":"ME-CM-54","Station_Nam":"WINDHAM 3.9 NW, ME","Latitude":"43.85787","Longitude":"-70.46200","Snowdepth":"3.400","Units":"in","Rept_Date":"2025-03-16 11"}},{"type":"Point","coordinates":[-70.4663,43.8567],"properties":{"Station_ID":"WNDM1","Station_Nam":"WINDHAM 2NW","Latitude":"43.85670","Longitude":"-70.46630","Snowdepth":"3.000","Units":"in","Rept_Date":"2025-03-16 11"}},{"type":"Point","coordinates":[-88.56306,42.54156],"properties":{"Station_ID":"WI-WW-38","Station_Nam":"FONTANA 0.3 SSE, WI","Latitude":"42.54156","Longitude":"-88.56306","Snowdepth":"3.000","Units":"in","Rept_Date":"2025-03-16 12"}},{"type":"Point","coordinates":[-89.4579,46.19023],"properties":{"Station_ID":"WI-VL-9","Station_Nam":"LAND O' LAKES 11.7 W, WI","Latitude":"46.19023","Longitude":"-89.45790","Snowdepth":"3.000","Units":"in","Rept_Date":"2025-03-16 12"}},{"type":"Point","coordinates":[-72.76992,43.89418],"properties":{"Station_ID":"VT-WR-17","Station_Nam":"ROCHESTER 2.3 NE, VT","Latitude":"43.89418","Longitude":"-72.76992","Snowdepth":"3.000","Units":"in","Rept_Date":"2025-03-16 11"}},{"type":"Point","coordinates":[-72.1417,45.00454],"properties":{"Station_ID":"VT-OL-24","Station_Nam":"DERBY LINE 1.9 W, VT","Latitude":"45.00454","Longitude":"-72.14170","Snowdepth":"3.000","Units":"in","Rept_Date":"2025-03-16 11"}},{"type":"Point","coordinates":[-72.415,44.2761],"properties":{"Station_ID":"PLFV1","Station_Nam":"PLAINFIELD","Latitude":"44.27610","Longitude":"-72.41500","Snowdepth":"3.000","Units":"in","Rept_Date":"2025-03-16 11"}},{"type":"Point","coordinates":[-76.4796,43.39771],"properties":{"Station_ID":"NY-OS-15","Station_Nam":"MINETTO 0.1 SE, NY","Latitude":"43.39771","Longitude":"-76.47960","Snowdepth":"3.000","Units":"in","Rept_Date":"2025-03-16 12"}},{"type":"Point","coordinates":[-71.1351,43.31175],"properties":{"Station_ID":"NH-ST-31","Station_Nam":"STRAFFORD 2.9 N, NH","Latitude":"43.31175","Longitude":"-71.13510","Snowdepth":"3.000","Units":"in","Rept_Date":"2025-03-16 12"}},{"type":"Point","coordinates":[-71.91086,44.31847],"properties":{"Station_ID":"NH-GR-47","Station_Nam":"LITTLETON 7.3 W, NH","Latitude":"44.31847","Longitude":"-71.91086","Snowdepth":"3.000","Units":"in","Rept_Date":"2025-03-16 12"}},{"type":"Point","coordinates":[-71.55,43.48],"properties":{"Station_ID":"NH-BK-1","Station_Nam":"TILTON NORTHFIELD 3.3 NE, NH","Latitude":"43.48000","Longitude":"-71.55000","Snowdepth":"3.000","Units":"in","Rept_Date":"2025-03-16 11"}},{"type":"Point","coordinates":[-73.8969,43.6611],"properties":{"Station_ID":"NCKN6","Station_Nam":"NORTH CREEK 5 SE","Latitude":"43.66110","Longitude":"-73.89690","Snowdepth":"3.000","Units":"in","Rept_Date":"2025-03-16 11"}},{"type":"Point","coordinates":[-92.5738,40.21789],"properties":{"Station_ID":"MO-AD-6","Station_Nam":"KIRKSVILLE 1.6 N, MO","Latitude":"40.21789","Longitude":"-92.57380","Snowdepth":"3.000","Units":"in","Rept_Date":"2025-03-16 13"}},{"type":"Point","coordinates":[-94.84649,46.00588],"properties":{"Station_ID":"MN-TD-12","Station_Nam":"LONG PRAIRIE 2.1 NNE, MN","Latitude":"46.00588","Longitude":"-94.84649","Snowdepth":"3.000","Units":"in","Rept_Date":"2025-03-16 13"}},{"type":"Point","coordinates":[-93.66835,47.1337],"properties":{"Station_ID":"MN-IT-57","Station_Nam":"COHASSET 7.4 S, MN","Latitude":"47.13370","Longitude":"-93.66835","Snowdepth":"3.000","Units":"in","Rept_Date":"2025-03-16 16"}},{"type":"Point","coordinates":[-95.84444,46.88666],"properties":{"Station_ID":"MN-BK-10","Station_Nam":"DETROIT LAKES 5.7 N, MN","Latitude":"46.88666","Longitude":"-95.84444","Snowdepth":"3.000","Units":"in","Rept_Date":"2025-03-16 12"}},{"type":"Point","coordinates":[-86.28266,45.99042],"properties":{"Station_ID":"MI-SH-1","Station_Nam":"MANISTIQUE 2.7 NW, MI","Latitude":"45.99042","Longitude":"-86.28266","Snowdepth":"3.000","Units":"in","Rept_Date":"2025-03-16 10"}},{"type":"Point","coordinates":[-89.28143,46.85396],"properties":{"Station_ID":"MI-ON-4","Station_Nam":"ONTONAGON 1.8 ESE, MI","Latitude":"46.85396","Longitude":"-89.28143","Snowdepth":"3.000","Units":"in","Rept_Date":"2025-03-16 12"}},{"type":"Point","coordinates":[-87.21344,46.33748],"properties":{"Station_ID":"MI-MQ-34","Station_Nam":"SKANDIA 3.0 SSE, MI","Latitude":"46.33748","Longitude":"-87.21344","Snowdepth":"3.000","Units":"in","Rept_Date":"2025-03-16 11"}},{"type":"Point","coordinates":[-89.457,46.19],"properties":{"Station_ID":"LNOW3","Station_Nam":"LAND O LAKES","Latitude":"46.19000","Longitude":"-89.45700","Snowdepth":"3.000","Units":"in","Rept_Date":"2025-03-16 12"}},{"type":"Point","coordinates":[-92.5748,40.2057],"properties":{"Station_ID":"KRKM7","Station_Nam":"KIRKSVILLE","Latitude":"40.20570","Longitude":"-92.57480","Snowdepth":"3.000","Units":"in","Rept_Date":"2025-03-16 11"}},{"type":"Point","coordinates":[-87.9,42.95],"properties":{"Station_ID":"KMKE","Station_Nam":"GEN MITCHELL INTERNATIONAL  AIRPORT","Latitude":"42.95000","Longitude":"-87.90000","Snowdepth":"3.000","Units":"in","Rept_Date":"2025-03-17 06"}},{"type":"Point","coordinates":[-89.16014,41.93484],"properties":{"Station_ID":"IL-OG-16","Station_Nam":"ROCHELLE 5.1 WNW, IL","Latitude":"41.93484","Longitude":"-89.16014","Snowdepth":"3.000","Units":"in","Rept_Date":"2025-03-16 14"}},{"type":"Point","coordinates":[-88.88282,42.32071],"properties":{"Station_ID":"IL-BN-19","Station_Nam":"BELVIDERE 5.0 NNW, IL","Latitude":"42.32071","Longitude":"-88.88282","Snowdepth":"3.000","Units":"in","Rept_Date":"2025-03-16 12"}},{"type":"Point","coordinates":[-93.3964,48.5778],"properties":{"Station_ID":"IFSM5","Station_Nam":"INTL FALLS SNOW","Latitude":"48.57780","Longitude":"-93.39640","Snowdepth":"3.000","Units":"in","Rept_Date":"2025-03-16 12"}},{"type":"Point","coordinates":[-91.74205,40.64364],"properties":{"Station_ID":"IA-VB-9","Station_Nam":"FARMINGTON 0.4 NNW, IA","Latitude":"40.64364","Longitude":"-91.74205","Snowdepth":"3.000","Units":"in","Rept_Date":"2025-03-16 12"}},{"type":"Point","coordinates":[-91.7409,40.6394],"properties":{"Station_ID":"IA-VB-7","Station_Nam":"FARMINGTON 0.3 NW, IA","Latitude":"40.63940","Longitude":"-91.74090","Snowdepth":"3.000","Units":"in","Rept_Date":"2025-03-16 12"}},{"type":"Point","coordinates":[-70.255,43.8925],"properties":{"Station_ID":"GYX","Station_Nam":"PORTLAND, ME","Latitude":"43.89250","Longitude":"-70.25500","Snowdepth":"3.000","Units":"in","Rept_Date":"2025-03-16 12"}},{"type":"Point","coordinates":[-85.1477,45.1863],"properties":{"Station_ID":"EJNM4","Station_Nam":"EAST JORDAN 2NW","Latitude":"45.18630","Longitude":"-85.14770","Snowdepth":"3.000","Units":"in","Rept_Date":"2025-03-16 20"}},{"type":"Point","coordinates":[-71.5392,44.861],"properties":{"Station_ID":"COLN3","Station_Nam":"COLEBROOK 3SW","Latitude":"44.86100","Longitude":"-71.53920","Snowdepth":"3.000","Units":"in","Rept_Date":"2025-03-16 11"}},{"type":"Point","coordinates":[-80.92735,44.71013],"properties":{"Station_ID":"CAN-ON-804","Station_Nam":"KEMBLE 1.6 S - GSCA, CAN","Latitude":"44.71013","Longitude":"-80.92735","Snowdepth":"3.000","Units":"in","Rept_Date":"2025-03-16 12"}},{"type":"Point","coordinates":[-94.209,46.3432],"properties":{"Station_ID":"BRAM5","Station_Nam":"BRAINERD","Latitude":"46.34320","Longitude":"-94.20900","Snowdepth":"3.000","Units":"in","Rept_Date":"2025-03-16 12"}},{"type":"Point","coordinates":[-90.4329,41.5769],"properties":{"Station_ID":"55191_MADIS","Station_Nam":"BETTENDORF 2.4 ENE, IA","Latitude":"41.57690","Longitude":"-90.43290","Snowdepth":"3.000","Units":"in","Rept_Date":"2025-03-16 11"}},{"type":"Point","coordinates":[-93.6936,47.60215],"properties":{"Station_ID":"MN-IT-47","Station_Nam":"MARCELL 0.7 NNW, MN","Latitude":"47.60215","Longitude":"-93.69360","Snowdepth":"2.500","Units":"in","Rept_Date":"2025-03-16 13"}},{"type":"Point","coordinates":[-88.7424,42.39998],"properties":{"Station_ID":"IL-BN-14","Station_Nam":"CAPRON 0.1 N, IL","Latitude":"42.39998","Longitude":"-88.74240","Snowdepth":"2.500","Units":"in","Rept_Date":"2025-03-16 12"}},{"type":"Point","coordinates":[-55.65333,48.93123],"properties":{"Station_ID":"CAN-NL-81","Station_Nam":"GRAND FALLS-WINDSOR 1.2 S, CAN","Latitude":"48.93123","Longitude":"-55.65333","Snowdepth":"2.400","Units":"in","Rept_Date":"2025-03-16 09"}},{"type":"Point","coordinates":[-67.08163,45.17149],"properties":{"Station_ID":"CAN-NB-7","Station_Nam":"CHAMCOOK 6.1 NNW, CAN","Latitude":"45.17149","Longitude":"-67.08163","Snowdepth":"2.400","Units":"in","Rept_Date":"2025-03-16 10"}},{"type":"Point","coordinates":[-94.9922,44.2612],"properties":{"Station_ID":"MN-BW-1","Station_Nam":"SPRINGFIELD 1.7 NNW, MN","Latitude":"44.26120","Longitude":"-94.99220","Snowdepth":"2.300","Units":"in","Rept_Date":"2025-03-16 12"}},{"type":"Point","coordinates":[-88.29927,43.02058],"properties":{"Station_ID":"WI-WK-144","Station_Nam":"WAUKESHA 3.1 W, WI","Latitude":"43.02058","Longitude":"-88.29927","Snowdepth":"2.000","Units":"in","Rept_Date":"2025-03-16 21"}},{"type":"Point","coordinates":[-89.6247,46.1284],"properties":{"Station_ID":"WI-VL-14","Station_Nam":"BOULDER JUNCTION 1.4 NE, WI","Latitude":"46.12840","Longitude":"-89.62470","Snowdepth":"2.000","Units":"in","Rept_Date":"2025-03-16 12"}},{"type":"Point","coordinates":[-88.00234,43.22291],"properties":{"Station_ID":"WI-OZ-30","Station_Nam":"MEQUON 1.1 SW, WI","Latitude":"43.22291","Longitude":"-88.00234","Snowdepth":"2.000","Units":"in","Rept_Date":"2025-03-16 13"}},{"type":"Point","coordinates":[-87.893,43.0978],"properties":{"Station_ID":"WI-MW-1","Station_Nam":"SHOREWOOD 0.6 NW, WI","Latitude":"43.09780","Longitude":"-87.89300","Snowdepth":"2.000","Units":"in","Rept_Date":"2025-03-17 01"}},{"type":"Point","coordinates":[-72.48222,43.20388],"properties":{"Station_ID":"VT-WH-17","Station_Nam":"ROCKINGHAM 1.1 NNE, VT","Latitude":"43.20388","Longitude":"-72.48222","Snowdepth":"2.000","Units":"in","Rept_Date":"2025-03-16 11"}},{"type":"Point","coordinates":[-72.14756,44.02268],"properties":{"Station_ID":"VT-OG-14","Station_Nam":"BRADFORD 2.2 NNW, VT","Latitude":"44.02268","Longitude":"-72.14756","Snowdepth":"2.000","Units":"in","Rept_Date":"2025-03-16 12"}},{"type":"Point","coordinates":[-67.7213,45.4353],"properties":{"Station_ID":"TOPM1","Station_Nam":"TOPSFIELD","Latitude":"45.43530","Longitude":"-67.72130","Snowdepth":"2.000","Units":"in","Rept_Date":"2025-03-16 11"}},{"type":"Point","coordinates":[-70.6719,44.9891],"properties":{"Station_ID":"RANM1","Station_Nam":"RANGELEY","Latitude":"44.98910","Longitude":"-70.67190","Snowdepth":"2.000","Units":"in","Rept_Date":"2025-03-16 12"}},{"type":"Point","coordinates":[-70.6388,43.2241],"properties":{"Station_ID":"NEDM1","Station_Nam":"CAPE NEDDICK","Latitude":"43.22410","Longitude":"-70.63880","Snowdepth":"2.000","Units":"in","Rept_Date":"2025-03-16 11"}},{"type":"Point","coordinates":[-91.86887,47.91158],"properties":{"Station_ID":"MN-SL-276","Station_Nam":"ELY 0.9 WNW, MN","Latitude":"47.91158","Longitude":"-91.86887","Snowdepth":"2.000","Units":"in","Rept_Date":"2025-03-16 14"}},{"type":"Point","coordinates":[-95.60246,45.9678],"properties":{"Station_ID":"MN-DS-50","Station_Nam":"BRANDON 0.4 WNW, MN","Latitude":"45.96780","Longitude":"-95.60246","Snowdepth":"2.000","Units":"in","Rept_Date":"2025-03-16 12"}},{"type":"Point","coordinates":[-94.29969,46.63421],"properties":{"Station_ID":"MN-CW-77","Station_Nam":"PEQUOT LAKES 3.2 N, MN","Latitude":"46.63421","Longitude":"-94.29969","Snowdepth":"2.000","Units":"in","Rept_Date":"2025-03-16 12"}},{"type":"Point","coordinates":[-90.4376,47.74865],"properties":{"Station_ID":"MN-CK-6","Station_Nam":"GRAND MARAIS 4.4 W, MN","Latitude":"47.74865","Longitude":"-90.43760","Snowdepth":"2.000","Units":"in","Rept_Date":"2025-03-16 12"}},{"type":"Point","coordinates":[-90.43796,47.74462],"properties":{"Station_ID":"MN-CK-18","Station_Nam":"GRAND MARAIS 4.4 WSW, MN","Latitude":"47.74462","Longitude":"-90.43796","Snowdepth":"2.000","Units":"in","Rept_Date":"2025-03-16 12"}},{"type":"Point","coordinates":[-88.18,46.5453],"properties":{"Station_ID":"MIEM4","Station_Nam":"MICHIGAMME 3WNW","Latitude":"46.54530","Longitude":"-88.18000","Snowdepth":"2.000","Units":"in","Rept_Date":"2025-03-16 12"}},{"type":"Point","coordinates":[-70.4199,44.1123],"properties":{"Station_ID":"MEFM1","Station_Nam":"MECHANIC FALLS","Latitude":"44.11230","Longitude":"-70.41990","Snowdepth":"2.000","Units":"in","Rept_Date":"2025-03-16 11"}},{"type":"Point","coordinates":[-85.8352,44.855],"properties":{"Station_ID":"MAPM4","Station_Nam":"MAPLE CITY 1E","Latitude":"44.85500","Longitude":"-85.83520","Snowdepth":"2.000","Units":"in","Rept_Date":"2025-03-16 22"}},{"type":"Point","coordinates":[-71.4645,43.5491],"properties":{"Station_ID":"LKPN3","Station_Nam":"LAKEPORT 2","Latitude":"43.54910","Longitude":"-71.46450","Snowdepth":"2.000","Units":"in","Rept_Date":"2025-03-16 11"}},{"type":"Point","coordinates":[-90.9686,40.5838],"properties":{"Station_ID":"LAHI2","Station_Nam":"LA HARPE","Latitude":"40.58380","Longitude":"-90.96860","Snowdepth":"2.000","Units":"in","Rept_Date":"2025-03-16 13"}},{"type":"Point","coordinates":[-90.2893,40.9034],"properties":{"Station_ID":"KNXI2","Station_Nam":"KNOXVILLE","Latitude":"40.90340","Longitude":"-90.28930","Snowdepth":"2.000","Units":"in","Rept_Date":"2025-03-16 13"}},{"type":"Point","coordinates":[-89.8997,41.2429],"properties":{"Station_ID":"KEWI2","Station_Nam":"KEWANEE 1 E","Latitude":"41.24290","Longitude":"-89.89970","Snowdepth":"2.000","Units":"in","Rept_Date":"2025-03-16 12"}},{"type":"Point","coordinates":[-72.6786,44.658],"properties":{"Station_ID":"JOHV1","Station_Nam":"JOHNSON 2 N","Latitude":"44.65800","Longitude":"-72.67860","Snowdepth":"2.000","Units":"in","Rept_Date":"2025-03-16 11"}},{"type":"Point","coordinates":[-71.5008,44.4169],"properties":{"Station_ID":"JEFN3","Station_Nam":"JEFFERSON","Latitude":"44.41690","Longitude":"-71.50080","Snowdepth":"2.000","Units":"in","Rept_Date":"2025-03-16 11"}},{"type":"Point","coordinates":[-90.33139,41.46817],"properties":{"Station_ID":"IL-HY-30","Station_Nam":"COLONA 0.5 ESE, IL","Latitude":"41.46817","Longitude":"-90.33139","Snowdepth":"2.000","Units":"in","Rept_Date":"2025-03-16 13"}},{"type":"Point","coordinates":[-84.6773,44.3447],"properties":{"Station_ID":"HTLM4","Station_Nam":"SNOW PAID OBSERVER FOR KHTL","Latitude":"44.34470","Longitude":"-84.67730","Snowdepth":"2.000","Units":"in","Rept_Date":"2025-03-17 00"}},{"type":"Point","coordinates":[-86.21,44.648],"properties":{"Station_ID":"FRKM4","Station_Nam":"FRANKFORT 2NE","Latitude":"44.64800","Longitude":"-86.21000","Snowdepth":"2.000","Units":"in","Rept_Date":"2025-03-16 22"}},{"type":"Point","coordinates":[-70.0963,43.9996],"properties":{"Station_ID":"DURM1","Station_Nam":"DURHAM","Latitude":"43.99960","Longitude":"-70.09630","Snowdepth":"2.000","Units":"in","Rept_Date":"2025-03-16 11"}},{"type":"Point","coordinates":[-65.05609,46.71424],"properties":{"Station_ID":"CAN-NB-96","Station_Nam":"SAINT-IGNACE 2.6 NE, CAN","Latitude":"46.71424","Longitude":"-65.05609","Snowdepth":"2.000","Units":"in","Rept_Date":"2025-03-16 10"}},{"type":"Point","coordinates":[-91.8624,47.2472],"properties":{"Station_ID":"BRMM5","Station_Nam":"BRIMSON 2S","Latitude":"47.24720","Longitude":"-91.86240","Snowdepth":"2.000","Units":"in","Rept_Date":"2025-03-16 12"}},{"type":"Point","coordinates":[-88.208,42.8802],"properties":{"Station_ID":"BBDW3","Station_Nam":"BIG BEND","Latitude":"42.88020","Longitude":"-88.20800","Snowdepth":"2.000","Units":"in","Rept_Date":"2025-03-16 12"}},{"type":"Point","coordinates":[-90.4354,41.23131],"properties":{"Station_ID":"IL-HY-6","Station_Nam":"NEW WINDSOR 2.0 N, IL","Latitude":"41.23131","Longitude":"-90.43540","Snowdepth":"1.800","Units":"in","Rept_Date":"2025-03-16 13"}},{"type":"Point","coordinates":[-88.17156,43.43764],"properties":{"Station_ID":"WI-WS-48","Station_Nam":"WEST BEND 1.2 NNE, WI","Latitude":"43.43764","Longitude":"-88.17156","Snowdepth":"1.700","Units":"in","Rept_Date":"2025-03-16 14"}},{"type":"Point","coordinates":[-88.10323,43.15672],"properties":{"Station_ID":"WI-WK-146","Station_Nam":"MENOMONEE FALLS 1.3 ENE, WI","Latitude":"43.15672","Longitude":"-88.10323","Snowdepth":"1.600","Units":"in","Rept_Date":"2025-03-16 22"}},{"type":"Point","coordinates":[-88.31068,42.7162],"properties":{"Station_ID":"WI-WW-37","Station_Nam":"BURLINGTON 3.1 NNW, WI","Latitude":"42.71620","Longitude":"-88.31068","Snowdepth":"1.500","Units":"in","Rept_Date":"2025-03-16 12"}},{"type":"Point","coordinates":[-88.95607,42.51771],"properties":{"Station_ID":"WI-RK-27","Station_Nam":"BELOIT 3.3 E, WI","Latitude":"42.51771","Longitude":"-88.95607","Snowdepth":"1.500","Units":"in","Rept_Date":"2025-03-16 12"}},{"type":"Point","coordinates":[-90.1696,46.388],"properties":{"Station_ID":"WI-IR-6","Station_Nam":"HURLEY 4.1 SSE, WI","Latitude":"46.38800","Longitude":"-90.16960","Snowdepth":"1.500","Units":"in","Rept_Date":"2025-03-16 12"}},{"type":"Point","coordinates":[-72.79521,43.89771],"properties":{"Station_ID":"VT-WR-37","Station_Nam":"ROCHESTER 1.7 NNE, VT","Latitude":"43.89771","Longitude":"-72.79521","Snowdepth":"1.500","Units":"in","Rept_Date":"2025-03-16 09"}},{"type":"Point","coordinates":[-71.5351,43.62245],"properties":{"Station_ID":"NH-BK-9","Station_Nam":"MEREDITH 2.9 SSW, NH","Latitude":"43.62245","Longitude":"-71.53510","Snowdepth":"1.500","Units":"in","Rept_Date":"2025-03-16 11"}},{"type":"Point","coordinates":[-91.54611,39.74861],"properties":{"Station_ID":"MO-MA-11","Station_Nam":"HANNIBAL 9.1 WNW, MO","Latitude":"39.74861","Longitude":"-91.54611","Snowdepth":"1.500","Units":"in","Rept_Date":"2025-03-16 14"}},{"type":"Point","coordinates":[-93.97293,46.47772],"properties":{"Station_ID":"MN-CW-44","Station_Nam":"CROSBY 1.1 SW, MN","Latitude":"46.47772","Longitude":"-93.97293","Snowdepth":"1.500","Units":"in","Rept_Date":"2025-03-16 14"}},{"type":"Point","coordinates":[-90.761,47.62394],"properties":{"Station_ID":"MN-CK-3","Station_Nam":"TOFTE 4.9 NE, MN","Latitude":"47.62394","Longitude":"-90.76100","Snowdepth":"1.500","Units":"in","Rept_Date":"2025-03-16 12"}},{"type":"Point","coordinates":[-96.1109,46.7415],"properties":{"Station_ID":"MN-BK-15","Station_Nam":"LAKE PARK 9.9 S, MN","Latitude":"46.74150","Longitude":"-96.11090","Snowdepth":"1.500","Units":"in","Rept_Date":"2025-03-16 12"}},{"type":"Point","coordinates":[-87.433,46.56288],"properties":{"Station_ID":"MI-MQ-33","Station_Nam":"MARQUETTE 2.0 WNW, MI","Latitude":"46.56288","Longitude":"-87.43300","Snowdepth":"1.500","Units":"in","Rept_Date":"2025-03-16 13"}},{"type":"Point","coordinates":[-86.1065,44.53976],"properties":{"Station_ID":"MI-BZ-1","Station_Nam":"BENZONIA 5.3 S, MI","Latitude":"44.53976","Longitude":"-86.10650","Snowdepth":"1.500","Units":"in","Rept_Date":"2025-03-16 13"}},{"type":"Point","coordinates":[-91.38016,39.97185],"properties":{"Station_ID":"IL-AD-21","Station_Nam":"QUINCY 2.7 N, IL","Latitude":"39.97185","Longitude":"-91.38016","Snowdepth":"1.500","Units":"in","Rept_Date":"2025-03-16 12"}},{"type":"Point","coordinates":[-76.7767,38.86236],"properties":{"Station_ID":"009MD_MADIS","Station_Nam":"UPPER MARLBORO 3 NNW","Latitude":"38.86236","Longitude":"-76.77670","Snowdepth":"1.500","Units":"in","Rept_Date":"2025-03-17 06"}},{"type":"Point","coordinates":[-87.879,43.3861],"properties":{"Station_ID":"WI-OZ-12","Station_Nam":"PORT WASHINGTON 0.5 S, WI","Latitude":"43.38610","Longitude":"-87.87900","Snowdepth":"1.400","Units":"in","Rept_Date":"2025-03-16 16"}},{"type":"Point","coordinates":[-90.9571,40.5849],"properties":{"Station_ID":"IL-HN-7","Station_Nam":"LA HARPE 0.7 E, IL","Latitude":"40.58490","Longitude":"-90.95710","Snowdepth":"1.400","Units":"in","Rept_Date":"2025-03-16 14"}},{"type":"Point","coordinates":[-76.8431,38.59709],"properties":{"Station_ID":"010MD_MADIS","Station_Nam":"WALDORF 4 ESE","Latitude":"38.59709","Longitude":"-76.84310","Snowdepth":"1.260","Units":"in","Rept_Date":"2025-03-17 06"}},{"type":"Point","coordinates":[-71.57893,43.30277],"properties":{"Station_ID":"NH-MR-55","Station_Nam":"CANTERBURY 2.5 SSW, NH","Latitude":"43.30277","Longitude":"-71.57893","Snowdepth":"1.200","Units":"in","Rept_Date":"2025-03-16 12"}},{"type":"Point","coordinates":[-93.9572,46.38556],"properties":{"Station_ID":"MN-CW-8","Station_Nam":"BRAINERD 11.5 E, MN","Latitude":"46.38556","Longitude":"-93.95720","Snowdepth":"1.200","Units":"in","Rept_Date":"2025-03-16 12"}},{"type":"Point","coordinates":[-77.9385,39.69766],"properties":{"Station_ID":"015MD_MADIS","Station_Nam":"CLEAR SPRING 3 N","Latitude":"39.69766","Longitude":"-77.93850","Snowdepth":"1.140","Units":"in","Rept_Date":"2025-03-17 06"}},{"type":"Point","coordinates":[-88.58172,42.47917],"properties":{"Station_ID":"IL-MCH-103","Station_Nam":"HARVARD 4.4 NNE, IL","Latitude":"42.47917","Longitude":"-88.58172","Snowdepth":"1.100","Units":"in","Rept_Date":"2025-03-16 12"}},{"type":"Point","coordinates":[-76.9258,39.26249],"properties":{"Station_ID":"001MD_MADIS","Station_Nam":"CLARKSVILLE 4 NNE","Latitude":"39.26249","Longitude":"-76.92580","Snowdepth":"1.020","Units":"in","Rept_Date":"2025-03-17 06"}},{"type":"Point","coordinates":[-88.194,43.4107],"properties":{"Station_ID":"WTBW3","Station_Nam":"WEST BEND PUBLIC WORKS","Latitude":"43.41070","Longitude":"-88.19400","Snowdepth":"1.000","Units":"in","Rept_Date":"2025-03-16 12"}},{"type":"Point","coordinates":[-72.5558,42.8403],"properties":{"Station_ID":"VT-WH-29","Station_Nam":"BRATTLEBORO 0.7 S, VT","Latitude":"42.84030","Longitude":"-72.55580","Snowdepth":"1.000","Units":"in","Rept_Date":"2025-03-16 11"}},{"type":"Point","coordinates":[-92.8398,38.4326],"properties":{"Station_ID":"VERM7","Station_Nam":"VERSAILLES CCOOP","Latitude":"38.43260","Longitude":"-92.83980","Snowdepth":"1.000","Units":"in","Rept_Date":"2025-03-16 12"}},{"type":"Point","coordinates":[-89.0238,41.8109],"properties":{"Station_ID":"STWI2","Station_Nam":"STEWARD 3S","Latitude":"41.81090","Longitude":"-89.02380","Snowdepth":"1.000","Units":"in","Rept_Date":"2025-03-16 12"}},{"type":"Point","coordinates":[-91.6221,40.8355],"properties":{"Station_ID":"SLHI4","Station_Nam":"SALEM 1 S","Latitude":"40.83550","Longitude":"-91.62210","Snowdepth":"1.000","Units":"in","Rept_Date":"2025-03-16 12"}},{"type":"Point","coordinates":[-92.0462,39.6828],"properties":{"Station_ID":"SLBM7","Station_Nam":"SHELBINA","Latitude":"39.68280","Longitude":"-92.04620","Snowdepth":"1.000","Units":"in","Rept_Date":"2025-03-16 12"}},{"type":"Point","coordinates":[-90.548,41.3999],"properties":{"Station_ID":"QCAI2","Station_Nam":"MOLINE SNOW","Latitude":"41.39990","Longitude":"-90.54800","Snowdepth":"1.000","Units":"in","Rept_Date":"2025-03-16 12"}},{"type":"Point","coordinates":[-89.6203,40.7493],"properties":{"Station_ID":"PRWI2","Station_Nam":"PEORIA 5NW","Latitude":"40.74930","Longitude":"-89.62030","Snowdepth":"1.000","Units":"in","Rept_Date":"2025-03-16 14"}},{"type":"Point","coordinates":[-97.2386,48.9742],"properties":{"Station_ID":"PBAN8","Station_Nam":"SITE 1-3MI.N","Latitude":"48.97420","Longitude":"-97.23860","Snowdepth":"1.000","Units":"in","Rept_Date":"2025-03-16 11"}},{"type":"Point","coordinates":[-70.0002,44.6352],"properties":{"Station_ID":"NWSM1","Station_Nam":"NEW SHARON","Latitude":"44.63520","Longitude":"-70.00020","Snowdepth":"1.000","Units":"in","Rept_Date":"2025-03-16 11"}},{"type":"Point","coordinates":[-71.10256,43.09778],"properties":{"Station_ID":"NH-RC-79","Station_Nam":"NOTTINGHAM 1.2 S, NH","Latitude":"43.09778","Longitude":"-71.10256","Snowdepth":"1.000","Units":"in","Rept_Date":"2025-03-16 12"}},{"type":"Point","coordinates":[-91.0463,41.4713],"properties":{"Station_ID":"MSTI4","Station_Nam":"MUSCATINE 2N","Latitude":"41.47130","Longitude":"-91.04630","Snowdepth":"1.000","Units":"in","Rept_Date":"2025-03-16 12"}},{"type":"Point","coordinates":[-86.2745,43.197],"properties":{"Station_ID":"MSNM4","Station_Nam":"MUSKEGON SNOW PAID","Latitude":"43.19700","Longitude":"-86.27450","Snowdepth":"1.000","Units":"in","Rept_Date":"2025-03-17 01"}},{"type":"Point","coordinates":[-92.4504,39.41698],"properties":{"Station_ID":"MO-RN-4","Station_Nam":"MOBERLY 0.8 WSW, MO","Latitude":"39.41698","Longitude":"-92.45040","Snowdepth":"1.000","Units":"in","Rept_Date":"2025-03-16 12"}},{"type":"Point","coordinates":[-94.31104,39.03945],"properties":{"Station_ID":"MO-JC-44","Station_Nam":"BLUE SPRINGS 2.3 WNW, MO","Latitude":"39.03945","Longitude":"-94.31104","Snowdepth":"1.000","Units":"in","Rept_Date":"2025-03-16 12"}},{"type":"Point","coordinates":[-95.13102,46.44368],"properties":{"Station_ID":"MN-WD-18","Station_Nam":"WADENA 0.3 ENE, MN","Latitude":"46.44368","Longitude":"-95.13102","Snowdepth":"1.000","Units":"in","Rept_Date":"2025-03-16 13"}},{"type":"Point","coordinates":[-94.7312,45.3517],"properties":{"Station_ID":"MN-SR-24","Station_Nam":"PAYNESVILLE 1.9 SSW, MN","Latitude":"45.35170","Longitude":"-94.73120","Snowdepth":"1.000","Units":"in","Rept_Date":"2025-03-16 12"}},{"type":"Point","coordinates":[-94.3772,45.96886],"properties":{"Station_ID":"MN-MR-4","Station_Nam":"LITTLE FALLS 1.2 SW, MN","Latitude":"45.96886","Longitude":"-94.37720","Snowdepth":"1.000","Units":"in","Rept_Date":"2025-03-16 12"}},{"type":"Point","coordinates":[-94.24789,46.06785],"properties":{"Station_ID":"MN-MR-13","Station_Nam":"LITTLE FALLS 8.0 NE, MN","Latitude":"46.06785","Longitude":"-94.24789","Snowdepth":"1.000","Units":"in","Rept_Date":"2025-03-16 12"}},{"type":"Point","coordinates":[-93.4294,47.28842],"properties":{"Station_ID":"MN-IT-38","Station_Nam":"COLERAINE 0.7 S, MN","Latitude":"47.28842","Longitude":"-93.42940","Snowdepth":"1.000","Units":"in","Rept_Date":"2025-03-16 12"}},{"type":"Point","coordinates":[-93.43497,47.48855],"properties":{"Station_ID":"MN-IT-23","Station_Nam":"BOVEY 13.4 N, MN","Latitude":"47.48855","Longitude":"-93.43497","Snowdepth":"1.000","Units":"in","Rept_Date":"2025-03-16 12"}},{"type":"Point","coordinates":[-94.14576,46.24996],"properties":{"Station_ID":"MN-CW-29","Station_Nam":"BRAINERD 7.7 SSE, MN","Latitude":"46.24996","Longitude":"-94.14576","Snowdepth":"1.000","Units":"in","Rept_Date":"2025-03-16 12"}},{"type":"Point","coordinates":[-94.3651,46.18089],"properties":{"Station_ID":"MN-CW-22","Station_Nam":"FORT RIPLEY 0.8 N, MN","Latitude":"46.18089","Longitude":"-94.36510","Snowdepth":"1.000","Units":"in","Rept_Date":"2025-03-16 12"}},{"type":"Point","coordinates":[-96.1218,46.7985],"properties":{"Station_ID":"MN-BK-6","Station_Nam":"LAKE PARK 6.0 S, MN","Latitude":"46.79850","Longitude":"-96.12180","Snowdepth":"1.000","Units":"in","Rept_Date":"2025-03-16 12"}},{"type":"Point","coordinates":[-95.8,44.4706],"properties":{"Station_ID":"MMLM5","Station_Nam":"DIVERSION","Latitude":"44.47060","Longitude":"-95.80000","Snowdepth":"1.000","Units":"in","Rept_Date":"2025-03-16 13"}},{"type":"Point","coordinates":[-84.73582,45.86422],"properties":{"Station_ID":"MI-MC-5","Station_Nam":"ST. IGNACE 0.6 WSW, MI","Latitude":"45.86422","Longitude":"-84.73582","Snowdepth":"1.000","Units":"in","Rept_Date":"2025-03-16 11"}},{"type":"Point","coordinates":[-85.70346,44.64622],"properties":{"Station_ID":"MI-GT-28","Station_Nam":"GRAWN 1.3 SSW, MI","Latitude":"44.64622","Longitude":"-85.70346","Snowdepth":"1.000","Units":"in","Rept_Date":"2025-03-16 11"}},{"type":"Point","coordinates":[-85.051,44.89981],"properties":{"Station_ID":"MI-AT-6","Station_Nam":"MANCELONA 0.5 ESE, MI","Latitude":"44.89981","Longitude":"-85.05100","Snowdepth":"1.000","Units":"in","Rept_Date":"2025-03-16 12"}},{"type":"Point","coordinates":[-95.9269,45.1219],"properties":{"Station_ID":"MIAM5","Station_Nam":"MILAN 1NW","Latitude":"45.12190","Longitude":"-95.92690","Snowdepth":"1.000","Units":"in","Rept_Date":"2025-03-16 23"}},{"type":"Point","coordinates":[-68.98525,44.47292],"properties":{"Station_ID":"ME-WL-32","Station_Nam":"BELFAST 3.9 NNE, ME","Latitude":"44.47292","Longitude":"-68.98525","Snowdepth":"1.000","Units":"in","Rept_Date":"2025-03-16 11"}},{"type":"Point","coordinates":[-92.7522,48.0581],"properties":{"Station_ID":"LEIM5","Station_Nam":"ORR 3E","Latitude":"48.05810","Longitude":"-92.75220","Snowdepth":"1.000","Units":"in","Rept_Date":"2025-03-16 11"}},{"type":"Point","coordinates":[-96.6218,48.7241],"properties":{"Station_ID":"LBRM5","Station_Nam":"LAKE BRONSON DAM","Latitude":"48.72410","Longitude":"-96.62180","Snowdepth":"1.000","Units":"in","Rept_Date":"2025-03-16 13"}},{"type":"Point","coordinates":[-89.1,42.2],"properties":{"Station_ID":"KRFD","Station_Nam":"GREATER ROCKFORD AIRPORT","Latitude":"42.20000","Longitude":"-89.10000","Snowdepth":"1.000","Units":"in","Rept_Date":"2025-03-17 00"}},{"type":"Point","coordinates":[-72.0053,42.8088],"properties":{"Station_ID":"JAPN3","Station_Nam":"JAFFREY SILVER RANCH AIRPARK","Latitude":"42.80880","Longitude":"-72.00530","Snowdepth":"1.000","Units":"in","Rept_Date":"2025-03-16 11"}},{"type":"Point","coordinates":[-90.4841,41.49455],"properties":{"Station_ID":"IL-RI-13","Station_Nam":"MOLINE 0.7 NNE, IL","Latitude":"41.49455","Longitude":"-90.48410","Snowdepth":"1.000","Units":"in","Rept_Date":"2025-03-16 12"}},{"type":"Point","coordinates":[-90.7452,40.46236],"properties":{"Station_ID":"IL-MCD-7","Station_Nam":"COLCHESTER 3.5 NE, IL","Latitude":"40.46236","Longitude":"-90.74520","Snowdepth":"1.000","Units":"in","Rept_Date":"2025-03-16 12"}},{"type":"Point","coordinates":[-88.76072,41.92269],"properties":{"Station_ID":"IL-DK-28","Station_Nam":"DE KALB 0.7 SW, IL","Latitude":"41.92269","Longitude":"-88.76072","Snowdepth":"1.000","Units":"in","Rept_Date":"2025-03-16 12"}},{"type":"Point","coordinates":[-90.50779,41.57275],"properties":{"Station_ID":"IA-ST-65","Station_Nam":"DAVENPORT 4.3 NE, IA","Latitude":"41.57275","Longitude":"-90.50779","Snowdepth":"1.000","Units":"in","Rept_Date":"2025-03-16 12"}},{"type":"Point","coordinates":[-91.35269,41.01086],"properties":{"Station_ID":"IA-DM-15","Station_Nam":"YARMOUTH 1.9 SW, IA","Latitude":"41.01086","Longitude":"-91.35269","Snowdepth":"1.000","Units":"in","Rept_Date":"2025-03-16 12"}},{"type":"Point","coordinates":[-88.0581,41.8269],"properties":{"Station_ID":"GLEI2","Station_Nam":"GLEN ELLYN 4S","Latitude":"41.82690","Longitude":"-88.05810","Snowdepth":"1.000","Units":"in","Rept_Date":"2025-03-16 17"}},{"type":"Point","coordinates":[-91.0333,40.8833],"properties":{"Station_ID":"GLDI2","Station_Nam":"MISSISSIPPI RIVER","Latitude":"40.88330","Longitude":"-91.03330","Snowdepth":"1.000","Units":"in","Rept_Date":"2025-03-16 10"}},{"type":"Point","coordinates":[-92.8671,46.9195],"properties":{"Station_ID":"FLDM5","Station_Nam":"FLOODWOOD","Latitude":"46.91950","Longitude":"-92.86710","Snowdepth":"1.000","Units":"in","Rept_Date":"2025-03-16 12"}},{"type":"Point","coordinates":[-88.7747,41.9339],"properties":{"Station_ID":"DKAI2","Station_Nam":"DE KALB","Latitude":"41.93390","Longitude":"-88.77470","Snowdepth":"1.000","Units":"in","Rept_Date":"2025-03-16 12"}},{"type":"Point","coordinates":[-96.5877,43.3112],"properties":{"Station_ID":"CNNS2","Station_Nam":"CANTON","Latitude":"43.31120","Longitude":"-96.58770","Snowdepth":"1.000","Units":"in","Rept_Date":"2025-03-16 12"}},{"type":"Point","coordinates":[-88.8754,42.549],"properties":{"Station_ID":"CLTW3","Station_Nam":"CLINTON WWTP","Latitude":"42.54900","Longitude":"-88.87540","Snowdepth":"1.000","Units":"in","Rept_Date":"2025-03-16 14"}},{"type":"Point","coordinates":[-91.5159,40.1439],"properties":{"Station_ID":"CANM7","Station_Nam":"CANTON L AND D 20","Latitude":"40.14390","Longitude":"-91.51590","Snowdepth":"1.000","Units":"in","Rept_Date":"2025-03-16 11"}},{"type":"Point","coordinates":[-91.1124,40.3444],"properties":{"Station_ID":"BTYI2","Station_Nam":"BENTLEY","Latitude":"40.34440","Longitude":"-91.11240","Snowdepth":"1.000","Units":"in","Rept_Date":"2025-03-16 13"}},{"type":"Point","coordinates":[-71.1854,44.4535],"properties":{"Station_ID":"BRLN3","Station_Nam":"BERLIN","Latitude":"44.45350","Longitude":"-71.18540","Snowdepth":"1.000","Units":"in","Rept_Date":"2025-03-16 12"}},{"type":"Point","coordinates":[-88.2543,42.6508],"properties":{"Station_ID":"BGTW3","Station_Nam":"BURLINGTON WWTP","Latitude":"42.65080","Longitude":"-88.25430","Snowdepth":"1.000","Units":"in","Rept_Date":"2025-03-16 11"}},{"type":"Point","coordinates":[-90.4447,40.6632],"properties":{"Station_ID":"AVOI2","Station_Nam":"AVON","Latitude":"40.66320","Longitude":"-90.44470","Snowdepth":"1.000","Units":"in","Rept_Date":"2025-03-16 12"}},{"type":"Point","coordinates":[-90.9471,40.2333],"properties":{"Station_ID":"AUGI2","Station_Nam":"AUGUSTA","Latitude":"40.23330","Longitude":"-90.94710","Snowdepth":"1.000","Units":"in","Rept_Date":"2025-03-16 11"}},{"type":"Point","coordinates":[-87.4833,46.0667],"properties":{"Station_ID":"AROM4","Station_Nam":"ARNOLD,MI","Latitude":"46.06670","Longitude":"-87.48330","Snowdepth":"1.000","Units":"in","Rept_Date":"2025-03-16 12"}},{"type":"Point","coordinates":[-83.5597,45.0311],"properties":{"Station_ID":"ALPM4","Station_Nam":"SNOW PAID OBSERVER FOR KAPN","Latitude":"45.03110","Longitude":"-83.55970","Snowdepth":"1.000","Units":"in","Rept_Date":"2025-03-17 00"}},{"type":"Point","coordinates":[-90.7477,41.1962],"properties":{"Station_ID":"ALEI2","Station_Nam":"ALEDO","Latitude":"41.19620","Longitude":"-90.74770","Snowdepth":"1.000","Units":"in","Rept_Date":"2025-03-16 11"}},{"type":"Point","coordinates":[-95.9601,46.2691],"properties":{"Station_ID":"70571_MADIS","Station_Nam":"FERGUS FALLS 5.7 E, MN","Latitude":"46.26910","Longitude":"-95.96010","Snowdepth":"1.000","Units":"in","Rept_Date":"2025-03-16 13"}},{"type":"Point","coordinates":[-76.0556,43.30216],"properties":{"Station_ID":"51941_MADIS","Station_Nam":"WEST MONROE 1.6 NNE, NY","Latitude":"43.30216","Longitude":"-76.05560","Snowdepth":"1.000","Units":"in","Rept_Date":"2025-03-16 11"}}]}},"arcs":[],"bbox":[-97.2386,38.4326,-52.71336,52.1145]}
