{"type":"Topology","objects":{"snowdepth_geo":{"type":"GeometryCollection","name":"snowdepth","crs":{"type":"name","properties":{"name":"urn:ogc:def:crs:OGC:1.3:CRS84"}},"geometries":[{"type":"Point","properties":{"Station_ID":"PRKM4","Station_Nam":"MUNISING EAST","Latitude":"46.42580","Longitude":"-86.62000","Snowdepth":"76.500","Units":"in","Rept_Date":"2020-11-19 06"},"coordinates":[3344,6022]},{"type":"Point","properties":{"Station_ID":"QOU","Station_Nam":"QOU","Latitude":"50.79250","Longitude":"-69.67470","Snowdepth":"8.031","Units":"in","Rept_Date":"2020-11-18 12"},"coordinates":[9066,9298]},{"type":"Point","properties":{"Station_ID":"MMNV1","Station_Nam":"MT. MANSFIELD","Latitude":"44.52480","Longitude":"-72.81540","Snowdepth":"8.000","Units":"in","Rept_Date":"2020-11-18 21"},"coordinates":[8005,4596]},{"type":"Point","properties":{"Station_ID":"41.8717_080.0850","Station_Nam":"EDINBORO 2E  SNOW SPOTTER (X4190801)","Latitude":"41.87170","Longitude":"-80.08500","Snowdepth":"8.000","Units":"in","Rept_Date":"2020-11-18 12"},"coordinates":[5551,2605]},{"type":"Point","properties":{"Station_ID":"TRIQ6","Station_Nam":"TRIO LAKE","Latitude":"49.22880","Longitude":"-87.22920","Snowdepth":"7.560","Units":"in","Rept_Date":"2020-11-19 06"},"coordinates":[3138,8125]},{"type":"Point","properties":{"Station_ID":"FLDM5","Station_Nam":"FLOODWOOD,MN","Latitude":"47.00000","Longitude":"-92.91670","Snowdepth":"7.000","Units":"in","Rept_Date":"2020-11-18 14"},"coordinates":[1218,6453]},{"type":"Point","properties":{"Station_ID":"MFU","Station_Nam":"MFU","Latitude":"51.52170","Longitude":"-66.91110","Snowdepth":"6.575","Units":"in","Rept_Date":"2020-11-18 12"},"coordinates":[9999,9845]},{"type":"Point","properties":{"Station_ID":"MN-CN-36","Station_Nam":"CLOQUET 3.4 ENE, MN","Latitude":"46.74146","Longitude":"-92.42698","Snowdepth":"6.500","Units":"in","Rept_Date":"2020-11-18 13"},"coordinates":[1383,6259]},{"type":"Point","properties":{"Station_ID":"MLZ","Station_Nam":"MLZ","Latitude":"50.66170","Longitude":"-68.82360","Snowdepth":"6.417","Units":"in","Rept_Date":"2020-11-18 12"},"coordinates":[9353,9200]},{"type":"Point","properties":{"Station_ID":"WLFM5","Station_Nam":"WOLF RIDGE ENVIRON LEARNING CENTER","Latitude":"47.38240","Longitude":"-91.19730","Snowdepth":"6.000","Units":"in","Rept_Date":"2020-11-18 13"},"coordinates":[1798,6740]},{"type":"Point","properties":{"Station_ID":"BBEM4","Station_Nam":"BIG BAY 9SW","Latitude":"46.74620","Longitude":"-87.88160","Snowdepth":"6.000","Units":"in","Rept_Date":"2020-11-18 13"},"coordinates":[2918,6262]},{"type":"Point","properties":{"Station_ID":"BABM5","Station_Nam":"BABBITT","Latitude":"47.71210","Longitude":"-91.95330","Snowdepth":"6.000","Units":"in","Rept_Date":"2020-11-18 13"},"coordinates":[1543,6987]},{"type":"Point","properties":{"Station_ID":"41.9034_079.6523","Station_Nam":"CORRY (CLE0230)","Latitude":"41.90340","Longitude":"-79.65230","Snowdepth":"6.000","Units":"in","Rept_Date":"2020-11-18 12"},"coordinates":[5697,2629]},{"type":"Point","properties":{"Station_ID":"QGT","Station_Nam":"QGT","Latitude":"49.64720","Longitude":"-67.62640","Snowdepth":"5.827","Units":"in","Rept_Date":"2020-11-18 12"},"coordinates":[9757,8439]},{"type":"Point","properties":{"Station_ID":"QLB","Station_Nam":"QLB","Latitude":"50.72360","Longitude":"-75.10000","Snowdepth":"5.669","Units":"in","Rept_Date":"2020-11-18 12"},"coordinates":[7234,9246]},{"type":"Point","properties":{"Station_ID":"WI-WB-2","Station_Nam":"STONE LAKE 2.0 NW, WI","Latitude":"45.85960","Longitude":"-91.57710","Snowdepth":"5.500","Units":"in","Rept_Date":"2020-11-18 13"},"coordinates":[1670,5597]},{"type":"Point","properties":{"Station_ID":"NY-CQ-39","Station_Nam":"GERRY 0.8 N, NY","Latitude":"42.20500","Longitude":"-79.24700","Snowdepth":"5.500","Units":"in","Rept_Date":"2020-11-18 13"},"coordinates":[5834,2855]},{"type":"Point","properties":{"Station_ID":"DVLQ6","Station_Nam":"DEVIOUS LAKE","Latitude":"49.19890","Longitude":"-87.76440","Snowdepth":"5.160","Units":"in","Rept_Date":"2020-11-19 06"},"coordinates":[2957,8102]},{"type":"Point","properties":{"Station_ID":"WI-IR-3","Station_Nam":"PENCE 0.1 E, WI","Latitude":"46.41555","Longitude":"-90.27013","Snowdepth":"5.000","Units":"in","Rept_Date":"2020-11-18 13"},"coordinates":[2111,6014]},{"type":"Point","properties":{"Station_ID":"NY-OD-2","Station_Nam":"POINT ROCK 0.6 SE, NY","Latitude":"43.37335","Longitude":"-75.53840","Snowdepth":"5.000","Units":"in","Rept_Date":"2020-11-18 12"},"coordinates":[7086,3732]},{"type":"Point","properties":{"Station_ID":"NY-CT-2","Station_Nam":"RANDOLPH 1.1 ENE, NY","Latitude":"42.17056","Longitude":"-78.96120","Snowdepth":"5.000","Units":"in","Rept_Date":"2020-11-18 12"},"coordinates":[5930,2830]},{"type":"Point","properties":{"Station_ID":"KMWN","Station_Nam":"MOUNT WASHINGTON","Latitude":"44.26666","Longitude":"-71.30000","Snowdepth":"5.000","Units":"in","Rept_Date":"2020-11-19 06"},"coordinates":[8517,4402]},{"type":"Point","properties":{"Station_ID":"BKBW2","Station_Nam":"DAVIS.","Latitude":"39.09830","Longitude":"-79.43190","Snowdepth":"5.000","Units":"in","Rept_Date":"2020-11-18 12"},"coordinates":[5771,525]},{"type":"Point","properties":{"Station_ID":"41.8966_080.1567","Station_Nam":"2 NW EDINBORO  SNOW SPOTTER (CLE0251)","Latitude":"41.89660","Longitude":"-80.15670","Snowdepth":"5.000","Units":"in","Rept_Date":"2020-11-18 12"},"coordinates":[5526,2624]},{"type":"Point","properties":{"Station_ID":"QCX","Station_Nam":"QCX","Latitude":"51.32830","Longitude":"-70.08060","Snowdepth":"4.055","Units":"in","Rept_Date":"2020-11-18 12"},"coordinates":[8929,9700]},{"type":"Point","properties":{"Station_ID":"WRSM5","Station_Nam":"WRENSHALL","Latitude":"46.61550","Longitude":"-92.38380","Snowdepth":"4.000","Units":"in","Rept_Date":"2020-11-18 14"},"coordinates":[1398,6164]},{"type":"Point","properties":{"Station_ID":"WI-SR-1","Station_Nam":"HAYWARD 9.2 NNE, WI","Latitude":"46.13255","Longitude":"-91.40500","Snowdepth":"4.000","Units":"in","Rept_Date":"2020-11-18 12"},"coordinates":[1728,5802]},{"type":"Point","properties":{"Station_ID":"STEM4","Station_Nam":"STEUBEN","Latitude":"46.18530","Longitude":"-86.46410","Snowdepth":"4.000","Units":"in","Rept_Date":"2020-11-18 14"},"coordinates":[3397,5842]},{"type":"Point","properties":{"Station_ID":"RHAN6","Station_Nam":"ALLEGANY STATE PARK","Latitude":"42.10030","Longitude":"-78.74970","Snowdepth":"4.000","Units":"in","Rept_Date":"2020-11-18 12"},"coordinates":[6001,2777]},{"type":"Point","properties":{"Station_ID":"OCON6","Station_Nam":"OSCEOLA","Latitude":"43.50370","Longitude":"-75.72170","Snowdepth":"4.000","Units":"in","Rept_Date":"2020-11-18 13"},"coordinates":[7024,3830]},{"type":"Point","properties":{"Station_ID":"NY-TG-15","Station_Nam":"BERKSHIRE 1.9 ENE, NY","Latitude":"42.31910","Longitude":"-76.21940","Snowdepth":"4.000","Units":"in","Rept_Date":"2020-11-18 13"},"coordinates":[6856,2941]},{"type":"Point","properties":{"Station_ID":"NY-OD-43","Station_Nam":"HOLLAND PATENT 1.1 WNW, NY","Latitude":"43.24707","Longitude":"-75.27750","Snowdepth":"4.000","Units":"in","Rept_Date":"2020-11-18 12"},"coordinates":[7174,3637]},{"type":"Point","properties":{"Station_ID":"NY-ER-65","Station_Nam":"BOSTON 1.5 NE, NY","Latitude":"42.65470","Longitude":"-78.72010","Snowdepth":"4.000","Units":"in","Rept_Date":"2020-11-18 12"},"coordinates":[6011,3193]},{"type":"Point","properties":{"Station_ID":"NY-ER-166","Station_Nam":"BOSTON 2.5 NE, NY","Latitude":"42.65480","Longitude":"-78.70300","Snowdepth":"4.000","Units":"in","Rept_Date":"2020-11-18 12"},"coordinates":[6017,3193]},{"type":"Point","properties":{"Station_ID":"NY-CT-32","Station_Nam":"SALAMANCA 1.5 E, NY","Latitude":"42.16730","Longitude":"-78.69277","Snowdepth":"4.000","Units":"in","Rept_Date":"2020-11-18 12"},"coordinates":[6021,2827]},{"type":"Point","properties":{"Station_ID":"NALN6","Station_Nam":"CATTARAUGUS","Latitude":"42.32450","Longitude":"-78.86700","Snowdepth":"4.000","Units":"in","Rept_Date":"2020-11-18 13"},"coordinates":[5962,2945]},{"type":"Point","properties":{"Station_ID":"MWN","Station_Nam":"MOUNT WASHINGTON","Latitude":"44.26670","Longitude":"-71.30000","Snowdepth":"4.000","Units":"in","Rept_Date":"2020-11-18 12"},"coordinates":[8517,4402]},{"type":"Point","properties":{"Station_ID":"MN-KB-17","Station_Nam":"MORA 2.5 S, MN","Latitude":"45.84100","Longitude":"-93.29700","Snowdepth":"4.000","Units":"in","Rept_Date":"2020-11-18 13"},"coordinates":[1089,5583]},{"type":"Point","properties":{"Station_ID":"IWOM4","Station_Nam":"IRONWOOD#2","Latitude":"46.46520","Longitude":"-90.13820","Snowdepth":"4.000","Units":"in","Rept_Date":"2020-11-18 13"},"coordinates":[2156,6052]},{"type":"Point","properties":{"Station_ID":"HURW3","Station_Nam":"HURLEY","Latitude":"46.46250","Longitude":"-90.19550","Snowdepth":"4.000","Units":"in","Rept_Date":"2020-11-18 14"},"coordinates":[2137,6049]},{"type":"Point","properties":{"Station_ID":"HGHN6","Station_Nam":"HIGHMARKET","Latitude":"43.60510","Longitude":"-75.55430","Snowdepth":"4.000","Units":"in","Rept_Date":"2020-11-18 11"},"coordinates":[7080,3906]},{"type":"Point","properties":{"Station_ID":"DLHM5","Station_Nam":"DULUTH NWS","Latitude":"46.83680","Longitude":"-92.21080","Snowdepth":"4.000","Units":"in","Rept_Date":"2020-11-19 06"},"coordinates":[1456,6330]},{"type":"Point","properties":{"Station_ID":"DLH","Station_Nam":"DULUTH, MN","Latitude":"46.83690","Longitude":"-92.21030","Snowdepth":"4.000","Units":"in","Rept_Date":"2020-11-19 00"},"coordinates":[1456,6330]},{"type":"Point","properties":{"Station_ID":"BRMM5","Station_Nam":"BRIMSON 2S","Latitude":"47.24720","Longitude":"-91.86240","Snowdepth":"4.000","Units":"in","Rept_Date":"2020-11-19 01"},"coordinates":[1574,6638]},{"type":"Point","properties":{"Station_ID":"BNDM5","Station_Nam":"ELY 25E","Latitude":"47.97190","Longitude":"-91.44860","Snowdepth":"4.000","Units":"in","Rept_Date":"2020-11-18 13"},"coordinates":[1713,7182]},{"type":"Point","properties":{"Station_ID":"BMON6","Station_Nam":"BIG MOOSE 3SE","Latitude":"43.80000","Longitude":"-74.86670","Snowdepth":"4.000","Units":"in","Rept_Date":"2020-11-18 13"},"coordinates":[7313,4052]},{"type":"Point","properties":{"Station_ID":"BERM4","Station_Nam":"BERGLAND DAM","Latitude":"46.58690","Longitude":"-89.54750","Snowdepth":"4.000","Units":"in","Rept_Date":"2020-11-18 13"},"coordinates":[2355,6143]},{"type":"Point","properties":{"Station_ID":"PTLQ6","Station_Nam":"PORTAGE LAKE","Latitude":"49.06950","Longitude":"-86.65940","Snowdepth":"3.980","Units":"in","Rept_Date":"2020-11-19 06"},"coordinates":[3331,8005]},{"type":"Point","properties":{"Station_ID":"AUDQ6","Station_Nam":"AUDEN","Latitude":"48.52600","Longitude":"-82.57570","Snowdepth":"3.820","Units":"in","Rept_Date":"2020-11-19 06"},"coordinates":[4710,7598]},{"type":"Point","properties":{"Station_ID":"WI-BY-14","Station_Nam":"ASHLAND 9.8 W, WI","Latitude":"46.59742","Longitude":"-91.07856","Snowdepth":"3.500","Units":"in","Rept_Date":"2020-11-18 12"},"coordinates":[1838,6151]},{"type":"Point","properties":{"Station_ID":"WI-BT-14","Station_Nam":"OAKLAND 9.0 ENE, WI","Latitude":"45.95184","Longitude":"-92.21653","Snowdepth":"3.500","Units":"in","Rept_Date":"2020-11-18 13"},"coordinates":[1454,5666]},{"type":"Point","properties":{"Station_ID":"NY-CQ-34","Station_Nam":"KENNEDY 2.6 SE, NY","Latitude":"42.12567","Longitude":"-79.07235","Snowdepth":"3.500","Units":"in","Rept_Date":"2020-11-18 13"},"coordinates":[5892,2796]},{"type":"Point","properties":{"Station_ID":"CAN-ON-452","Station_Nam":"CHATSWORTH 1.8 ENE - GSCA, CAN","Latitude":"44.46118","Longitude":"-80.87506","Snowdepth":"3.500","Units":"in","Rept_Date":"2020-11-18 12"},"coordinates":[5284,4548]},{"type":"Point","properties":{"Station_ID":"CAN-ON-451","Station_Nam":"OWEN SOUND 1.2 N - GSCA, CAN","Latitude":"44.58092","Longitude":"-80.93025","Snowdepth":"3.500","Units":"in","Rept_Date":"2020-11-18 13"},"coordinates":[5265,4638]},{"type":"Point","properties":{"Station_ID":"CAN-ON-245","Station_Nam":"PHELPSTON 3.1 ESE, CAN","Latitude":"44.50564","Longitude":"-79.81035","Snowdepth":"3.500","Units":"in","Rept_Date":"2020-11-18 12"},"coordinates":[5643,4581]},{"type":"Point","properties":{"Station_ID":"QTM","Station_Nam":"QTM","Latitude":"51.05780","Longitude":"-72.57190","Snowdepth":"3.346","Units":"in","Rept_Date":"2020-11-18 12"},"coordinates":[8088,9497]},{"type":"Point","properties":{"Station_ID":"CAN-ON-491","Station_Nam":"MILVERTON 1.1 ESE- CANWARN, CAN","Latitude":"43.56074","Longitude":"-80.90887","Snowdepth":"3.300","Units":"in","Rept_Date":"2020-11-18 11"},"coordinates":[5272,3873]},{"type":"Point","properties":{"Station_ID":"WRSN6","Station_Nam":"WARSAW 6SW","Latitude":"42.68550","Longitude":"-78.22020","Snowdepth":"3.000","Units":"in","Rept_Date":"2020-11-18 12"},"coordinates":[6180,3216]},{"type":"Point","properties":{"Station_ID":"WRIM5","Station_Nam":"WRIGHT 3E","Latitude":"46.68040","Longitude":"-92.95420","Snowdepth":"3.000","Units":"in","Rept_Date":"2020-11-18 12"},"coordinates":[1205,6213]},{"type":"Point","properties":{"Station_ID":"WORV1","Station_Nam":"WORCESTER 2 W","Latitude":"44.37470","Longitude":"-72.58220","Snowdepth":"3.000","Units":"in","Rept_Date":"2020-11-18 12"},"coordinates":[8084,4483]},{"type":"Point","properties":{"Station_ID":"WALN6","Station_Nam":"WALTON 2","Latitude":"42.18470","Longitude":"-75.14550","Snowdepth":"3.000","Units":"in","Rept_Date":"2020-11-18 10"},"coordinates":[7218,2840]},{"type":"Point","properties":{"Station_ID":"VT-WS-7","Station_Nam":"MIDDLESEX 3.1 ENE, VT","Latitude":"44.31799","Longitude":"-72.62650","Snowdepth":"3.000","Units":"in","Rept_Date":"2020-11-18 13"},"coordinates":[8069,4441]},{"type":"Point","properties":{"Station_ID":"VT-OL-12","Station_Nam":"GREENSBORO 3.9 NNE, VT","Latitude":"44.63100","Longitude":"-72.28000","Snowdepth":"3.000","Units":"in","Rept_Date":"2020-11-18 13"},"coordinates":[8186,4675]},{"type":"Point","properties":{"Station_ID":"VT-OL-1","Station_Nam":"WESTFIELD 0.7 WNW, VT","Latitude":"44.89160","Longitude":"-72.44350","Snowdepth":"3.000","Units":"in","Rept_Date":"2020-11-18 12"},"coordinates":[8131,4871]},{"type":"Point","properties":{"Station_ID":"UPSW3","Station_Nam":"UPSON,WI","Latitude":"46.36780","Longitude":"-90.41220","Snowdepth":"3.000","Units":"in","Rept_Date":"2020-11-19 00"},"coordinates":[2063,5978]},{"type":"Point","properties":{"Station_ID":"TSVP1","Station_Nam":"TITUSVILLE,PA","Latitude":"41.63330","Longitude":"-79.70000","Snowdepth":"3.000","Units":"in","Rept_Date":"2020-11-18 12"},"coordinates":[5681,2426]},{"type":"Point","properties":{"Station_ID":"STRN6","Station_Nam":"STILLWATER RESERVOIR","Latitude":"43.89140","Longitude":"-75.03610","Snowdepth":"3.000","Units":"in","Rept_Date":"2020-11-18 13"},"coordinates":[7255,4121]},{"type":"Point","properties":{"Station_ID":"SSMM4","Station_Nam":"SAULT STE MARIE","Latitude":"46.48660","Longitude":"-84.40250","Snowdepth":"3.000","Units":"in","Rept_Date":"2020-11-18 13"},"coordinates":[4093,6068]},{"type":"Point","properties":{"Station_ID":"SLNV1","Station_Nam":"SOUTH LINCOLN","Latitude":"44.07460","Longitude":"-72.97180","Snowdepth":"3.000","Units":"in","Rept_Date":"2020-11-18 12"},"coordinates":[7952,4258]},{"type":"Point","properties":{"Station_ID":"SGVN6","Station_Nam":"SPRINGVILLE","Latitude":"42.54970","Longitude":"-78.57670","Snowdepth":"3.000","Units":"in","Rept_Date":"2020-11-19 00"},"coordinates":[6060,3114]},{"type":"Point","properties":{"Station_ID":"RDFN6","Station_Nam":"REDFIELD 8N","Latitude":"43.64130","Longitude":"-75.88400","Snowdepth":"3.000","Units":"in","Rept_Date":"2020-11-18 12"},"coordinates":[6969,3933]},{"type":"Point","properties":{"Station_ID":"PDLM4","Station_Nam":"PAINESDALE","Latitude":"47.04160","Longitude":"-88.67170","Snowdepth":"3.000","Units":"in","Rept_Date":"2020-11-18 13"},"coordinates":[2651,6484]},{"type":"Point","properties":{"Station_ID":"PDGM4","Station_Nam":"PAULDING","Latitude":"46.39760","Longitude":"-89.17940","Snowdepth":"3.000","Units":"in","Rept_Date":"2020-11-18 14"},"coordinates":[2480,6001]},{"type":"Point","properties":{"Station_ID":"NY-TM-36","Station_Nam":"ITHACA 2.0 ESE, NY","Latitude":"42.42932","Longitude":"-76.46871","Snowdepth":"3.000","Units":"in","Rept_Date":"2020-11-18 13"},"coordinates":[6772,3024]},{"type":"Point","properties":{"Station_ID":"MRRN6","Station_Nam":"MORRISVILLE 6 SW","Latitude":"42.84160","Longitude":"-75.72630","Snowdepth":"3.000","Units":"in","Rept_Date":"2020-11-18 12"},"coordinates":[7022,3333]},{"type":"Point","properties":{"Station_ID":"MRAM5","Station_Nam":"MORA","Latitude":"45.87760","Longitude":"-93.31470","Snowdepth":"3.000","Units":"in","Rept_Date":"2020-11-18 13"},"coordinates":[1083,5611]},{"type":"Point","properties":{"Station_ID":"MNSM4","Station_Nam":"MUNISING","Latitude":"46.41210","Longitude":"-86.66250","Snowdepth":"3.000","Units":"in","Rept_Date":"2020-11-18 11"},"coordinates":[3330,6012]},{"type":"Point","properties":{"Station_ID":"MN-SL-15","Station_Nam":"CHISHOLM 0.4 WSW, MN","Latitude":"47.48557","Longitude":"-92.88690","Snowdepth":"3.000","Units":"in","Rept_Date":"2020-11-18 13"},"coordinates":[1228,6817]},{"type":"Point","properties":{"Station_ID":"LTVN6","Station_Nam":"LITTLE VALLEY","Latitude":"42.24730","Longitude":"-78.81250","Snowdepth":"3.000","Units":"in","Rept_Date":"2020-11-18 12"},"coordinates":[5980,2887]},{"type":"Point","properties":{"Station_ID":"LNGM5","Station_Nam":"LONG PRAIRIE","Latitude":"45.96460","Longitude":"-94.88920","Snowdepth":"3.000","Units":"in","Rept_Date":"2020-11-18 12"},"coordinates":[552,5676]},{"type":"Point","properties":{"Station_ID":"ISEM5","Station_Nam":"ISLE 12N","Latitude":"46.31970","Longitude":"-93.50140","Snowdepth":"3.000","Units":"in","Rept_Date":"2020-11-18 14"},"coordinates":[1020,5942]},{"type":"Point","properties":{"Station_ID":"IRMM4","Station_Nam":"WWTP","Latitude":"46.46670","Longitude":"-90.18330","Snowdepth":"3.000","Units":"in","Rept_Date":"2020-11-18 13"},"coordinates":[2141,6053]},{"type":"Point","properties":{"Station_ID":"HERM4","Station_Nam":"HERMAN,MI","Latitude":"46.65000","Longitude":"-88.33330","Snowdepth":"3.000","Units":"in","Rept_Date":"2020-11-18 13"},"coordinates":[2765,6190]},{"type":"Point","properties":{"Station_ID":"FISM1","Station_Nam":"FORT KENT COOP","Latitude":"47.23850","Longitude":"-68.61240","Snowdepth":"3.000","Units":"in","Rept_Date":"2020-11-18 12"},"coordinates":[9425,6632]},{"type":"Point","properties":{"Station_ID":"ELYM5","Station_Nam":"ELY","Latitude":"47.90560","Longitude":"-91.82830","Snowdepth":"3.000","Units":"in","Rept_Date":"2020-11-18 14"},"coordinates":[1585,7132]},{"type":"Point","properties":{"Station_ID":"COKM5","Station_Nam":"COOK","Latitude":"47.85060","Longitude":"-92.69250","Snowdepth":"3.000","Units":"in","Rept_Date":"2020-11-18 12"},"coordinates":[1293,7091]},{"type":"Point","properties":{"Station_ID":"CODN6","Station_Nam":"COLDEN","Latitude":"42.64720","Longitude":"-78.71110","Snowdepth":"3.000","Units":"in","Rept_Date":"2020-11-18 12"},"coordinates":[6014,3187]},{"type":"Point","properties":{"Station_ID":"CAN-ON-5","Station_Nam":"OWEN SOUND 1.5 NW - GSCA, CAN","Latitude":"44.57837","Longitude":"-80.95461","Snowdepth":"3.000","Units":"in","Rept_Date":"2020-11-18 13"},"coordinates":[5257,4636]},{"type":"Point","properties":{"Station_ID":"CAN-ON-118","Station_Nam":"DURHAM 1.4 S, CAN","Latitude":"44.16525","Longitude":"-80.82064","Snowdepth":"3.000","Units":"in","Rept_Date":"2020-11-18 12"},"coordinates":[5302,4326]},{"type":"Point","properties":{"Station_ID":"CAAW2","Station_Nam":"CANAAN VALLEY","Latitude":"39.05890","Longitude":"-79.44030","Snowdepth":"3.000","Units":"in","Rept_Date":"2020-11-18 14"},"coordinates":[5768,495]},{"type":"Point","properties":{"Station_ID":"BUTW3","Station_Nam":"BUTTERNUT 3SW","Latitude":"45.98080","Longitude":"-90.54170","Snowdepth":"3.000","Units":"in","Rept_Date":"2020-11-18 12"},"coordinates":[2020,5688]},{"type":"Point","properties":{"Station_ID":"BRAM5","Station_Nam":"BRAINERD","Latitude":"46.34320","Longitude":"-94.20900","Snowdepth":"3.000","Units":"in","Rept_Date":"2020-11-18 13"},"coordinates":[781,5960]},{"type":"Point","properties":{"Station_ID":"ANJM4","Station_Nam":"SNOW PAID OBSERVER FOR KANJ","Latitude":"46.48670","Longitude":"-84.40260","Snowdepth":"3.000","Units":"in","Rept_Date":"2020-11-19 06"},"coordinates":[4093,6068]},{"type":"Point","properties":{"Station_ID":"ANJ","Station_Nam":"SAULT STE MARIE","Latitude":"46.46670","Longitude":"-84.36670","Snowdepth":"3.000","Units":"in","Rept_Date":"2020-11-19 00"},"coordinates":[4105,6053]},{"type":"Point","properties":{"Station_ID":"41.6333_079.7000","Station_Nam":"TITUSVILLE  CO-OP OBSERVER (TSVP1)","Latitude":"41.63330","Longitude":"-79.70000","Snowdepth":"3.000","Units":"in","Rept_Date":"2020-11-18 12"},"coordinates":[5681,2426]},{"type":"Point","properties":{"Station_ID":"41.5800_081.1800","Station_Nam":"CHARDON (CLE1310)","Latitude":"41.58000","Longitude":"-81.18000","Snowdepth":"3.000","Units":"in","Rept_Date":"2020-11-18 12"},"coordinates":[5181,2386]},{"type":"Point","properties":{"Station_ID":"QTV","Station_Nam":"QTV","Latitude":"49.66000","Longitude":"-69.35690","Snowdepth":"2.913","Units":"in","Rept_Date":"2020-11-18 12"},"coordinates":[9173,8448]},{"type":"Point","properties":{"Station_ID":"FTHQ6","Station_Nam":"FORT HOPE","Latitude":"51.55820","Longitude":"-87.90510","Snowdepth":"2.870","Units":"in","Rept_Date":"2020-11-19 06"},"coordinates":[2910,9872]},{"type":"Point","properties":{"Station_ID":"KABQ6","Station_Nam":"CAB LAKE","Latitude":"49.59950","Longitude":"-89.17990","Snowdepth":"2.830","Units":"in","Rept_Date":"2020-11-19 06"},"coordinates":[2479,8403]},{"type":"Point","properties":{"Station_ID":"NY-HR-18","Station_Nam":"SALISBURY CENTER 1.8 NW, NY","Latitude":"43.16260","Longitude":"-74.80880","Snowdepth":"2.800","Units":"in","Rept_Date":"2020-11-18 11"},"coordinates":[7332,3574]},{"type":"Point","properties":{"Station_ID":"NY-CR-5","Station_Nam":"MARATHON 1.0 NW, NY","Latitude":"42.45161","Longitude":"-76.04370","Snowdepth":"2.800","Units":"in","Rept_Date":"2020-11-18 12"},"coordinates":[6915,3040]},{"type":"Point","properties":{"Station_ID":"CAN-ON-741","Station_Nam":"KIMBERLEY 2.7 WSW, CAN","Latitude":"44.37820","Longitude":"-80.56956","Snowdepth":"2.800","Units":"in","Rept_Date":"2020-11-18 14"},"coordinates":[5387,4486]},{"type":"Point","properties":{"Station_ID":"QLM","Station_Nam":"QLM","Latitude":"48.92030","Longitude":"-70.25280","Snowdepth":"2.756","Units":"in","Rept_Date":"2020-11-18 12"},"coordinates":[8871,7893]},{"type":"Point","properties":{"Station_ID":"MN-SL-108","Station_Nam":"IRON JUNCTION 3.4 NNW, MN","Latitude":"47.46150","Longitude":"-92.63130","Snowdepth":"2.700","Units":"in","Rept_Date":"2020-11-18 13"},"coordinates":[1314,6799]},{"type":"Point","properties":{"Station_ID":"41.8495_080.3016","Station_Nam":"4 WNW Crossingville  Trained Spotter (X4180803)","Latitude":"41.84946","Longitude":"-80.30159","Snowdepth":"2.700","Units":"in","Rept_Date":"2020-11-18 15"},"coordinates":[5477,2589]},{"type":"Point","properties":{"Station_ID":"QGO","Station_Nam":"QGO","Latitude":"48.85500","Longitude":"-74.20640","Snowdepth":"2.598","Units":"in","Rept_Date":"2020-11-18 12"},"coordinates":[7536,7844]},{"type":"Point","properties":{"Station_ID":"VT-WS-30","Station_Nam":"WOODBURY 3.4 NNW, VT","Latitude":"44.48825","Longitude":"-72.43258","Snowdepth":"2.500","Units":"in","Rept_Date":"2020-11-18 12"},"coordinates":[8135,4568]},{"type":"Point","properties":{"Station_ID":"VT-CH-11","Station_Nam":"UNDERHILL 5.1 NNE, VT","Latitude":"44.59811","Longitude":"-72.91880","Snowdepth":"2.500","Units":"in","Rept_Date":"2020-11-18 13"},"coordinates":[7970,4651]},{"type":"Point","properties":{"Station_ID":"PA-PT-2","Station_Nam":"ROULETTE 1.8 NNE, PA","Latitude":"41.80759","Longitude":"-78.14140","Snowdepth":"2.500","Units":"in","Rept_Date":"2020-11-18 12"},"coordinates":[6207,2557]},{"type":"Point","properties":{"Station_ID":"NY-TM-42","Station_Nam":"ITHACA 6.4 E, NY","Latitude":"42.43350","Longitude":"-76.37860","Snowdepth":"2.500","Units":"in","Rept_Date":"2020-11-18 12"},"coordinates":[6802,3027]},{"type":"Point","properties":{"Station_ID":"NY-TM-38","Station_Nam":"TRUMANSBURG 0.4 WNW, NY","Latitude":"42.54205","Longitude":"-76.66870","Snowdepth":"2.500","Units":"in","Rept_Date":"2020-11-18 12"},"coordinates":[6704,3108]},{"type":"Point","properties":{"Station_ID":"NY-TG-20","Station_Nam":"CANDOR 1.8 N, NY","Latitude":"42.25308","Longitude":"-76.33780","Snowdepth":"2.500","Units":"in","Rept_Date":"2020-11-18 12"},"coordinates":[6816,2891]},{"type":"Point","properties":{"Station_ID":"NY-LV-5","Station_Nam":"DANSVILLE 1.0 ENE, NY","Latitude":"42.56802","Longitude":"-77.67900","Snowdepth":"2.500","Units":"in","Rept_Date":"2020-11-18 12"},"coordinates":[6363,3128]},{"type":"Point","properties":{"Station_ID":"NY-AB-54","Station_Nam":"ALTAMONT 2.9 SW, NY","Latitude":"42.68182","Longitude":"-74.08326","Snowdepth":"2.500","Units":"in","Rept_Date":"2020-11-18 12"},"coordinates":[7577,3213]},{"type":"Point","properties":{"Station_ID":"NH-CS-4","Station_Nam":"PITTSBURG 6.1 NE, NH","Latitude":"45.11060","Longitude":"-71.29760","Snowdepth":"2.500","Units":"in","Rept_Date":"2020-11-18 12"},"coordinates":[8518,5035]},{"type":"Point","properties":{"Station_ID":"MN-SL-115","Station_Nam":"COTTON 5.7 ESE, MN","Latitude":"47.15142","Longitude":"-92.35772","Snowdepth":"2.500","Units":"in","Rept_Date":"2020-11-18 14"},"coordinates":[1406,6566]},{"type":"Point","properties":{"Station_ID":"MN-CW-22","Station_Nam":"FORT RIPLEY 0.8 N, MN","Latitude":"46.18089","Longitude":"-94.36510","Snowdepth":"2.500","Units":"in","Rept_Date":"2020-11-18 13"},"coordinates":[729,5838]},{"type":"Point","properties":{"Station_ID":"MN-BK-10","Station_Nam":"DETROIT LAKES 5.7 N, MN","Latitude":"46.88666","Longitude":"-95.84444","Snowdepth":"2.500","Units":"in","Rept_Date":"2020-11-18 10"},"coordinates":[229,6368]},{"type":"Point","properties":{"Station_ID":"MI-SH-1","Station_Nam":"MANISTIQUE 2.7 NW, MI","Latitude":"45.99042","Longitude":"-86.28266","Snowdepth":"2.500","Units":"in","Rept_Date":"2020-11-18 11"},"coordinates":[3458,5695]},{"type":"Point","properties":{"Station_ID":"MI-BG-3","Station_Nam":"THREE LAKES, MI","Latitude":"46.55730","Longitude":"-88.20770","Snowdepth":"2.500","Units":"in","Rept_Date":"2020-11-18 13"},"coordinates":[2808,6121]},{"type":"Point","properties":{"Station_ID":"ME-AR-18","Station_Nam":"NEW SWEDEN 4.9 NNW, ME","Latitude":"47.01080","Longitude":"-68.14390","Snowdepth":"2.500","Units":"in","Rept_Date":"2020-11-18 12"},"coordinates":[9583,6461]},{"type":"Point","properties":{"Station_ID":"QCO","Station_Nam":"QCO","Latitude":"51.45280","Longitude":"-72.20110","Snowdepth":"2.441","Units":"in","Rept_Date":"2020-11-18 12"},"coordinates":[8213,9793]},{"type":"Point","properties":{"Station_ID":"OGIQ6","Station_Nam":"OGOKI CAMP","Latitude":"50.76680","Longitude":"-87.85820","Snowdepth":"2.440","Units":"in","Rept_Date":"2020-11-19 06"},"coordinates":[2926,9279]},{"type":"Point","properties":{"Station_ID":"MI-SH-2","Station_Nam":"MANISTIQUE 2.3 E, MI","Latitude":"45.96440","Longitude":"-86.20200","Snowdepth":"2.400","Units":"in","Rept_Date":"2020-11-18 12"},"coordinates":[3485,5676]},{"type":"Point","properties":{"Station_ID":"QGD","Station_Nam":"QGD","Latitude":"51.11140","Longitude":"-67.13940","Snowdepth":"2.283","Units":"in","Rept_Date":"2020-11-18 12"},"coordinates":[9922,9537]},{"type":"Point","properties":{"Station_ID":"QMA","Station_Nam":"QMA","Latitude":"50.10330","Longitude":"-70.47190","Snowdepth":"2.205","Units":"in","Rept_Date":"2020-11-18 12"},"coordinates":[8797,8781]},{"type":"Point","properties":{"Station_ID":"NY-CQ-41","Station_Nam":"MAYVILLE 0.2 ESE, NY","Latitude":"42.25194","Longitude":"-79.49809","Snowdepth":"2.200","Units":"in","Rept_Date":"2020-11-18 12"},"coordinates":[5749,2891]},{"type":"Point","properties":{"Station_ID":"CAN-ON-757","Station_Nam":"SAULT STE. MARIE 2.8 ESE - GLFC, CAN","Latitude":"46.50300","Longitude":"-84.30300","Snowdepth":"2.200","Units":"in","Rept_Date":"2020-11-18 13"},"coordinates":[4126,6080]},{"type":"Point","properties":{"Station_ID":"WTNM4","Station_Nam":"WATTON 2WSW","Latitude":"46.52660","Longitude":"-88.64240","Snowdepth":"2.000","Units":"in","Rept_Date":"2020-11-18 13"},"coordinates":[2661,6098]},{"type":"Point","properties":{"Station_ID":"WSWN6","Station_Nam":"WARSAW","Latitude":"42.74220","Longitude":"-78.20850","Snowdepth":"2.000","Units":"in","Rept_Date":"2020-11-18 11"},"coordinates":[6184,3258]},{"type":"Point","properties":{"Station_ID":"WNDP1","Station_Nam":"WINDBER COUNTY CLUB","Latitude":"40.28780","Longitude":"-78.77530","Snowdepth":"2.000","Units":"in","Rept_Date":"2020-11-18 12"},"coordinates":[5993,1417]},{"type":"Point","properties":{"Station_ID":"WLDM5","Station_Nam":"WILD RIVER STATE PARK","Latitude":"45.52310","Longitude":"-92.74890","Snowdepth":"2.000","Units":"in","Rept_Date":"2020-11-18 14"},"coordinates":[1274,5345]},{"type":"Point","properties":{"Station_ID":"WI-WB-16","Station_Nam":"SARONA 4.5 NNE, WI","Latitude":"45.77030","Longitude":"-91.76890","Snowdepth":"2.000","Units":"in","Rept_Date":"2020-11-18 13"},"coordinates":[1605,5530]},{"type":"Point","properties":{"Station_ID":"WI-BY-6","Station_Nam":"BARNES 2.2 S, WI","Latitude":"46.30264","Longitude":"-91.50320","Snowdepth":"2.000","Units":"in","Rept_Date":"2020-11-18 13"},"coordinates":[1695,5930]},{"type":"Point","properties":{"Station_ID":"WI-BY-2","Station_Nam":"MELLEN 18.6 SW, WI","Latitude":"46.16937","Longitude":"-90.98090","Snowdepth":"2.000","Units":"in","Rept_Date":"2020-11-18 13"},"coordinates":[1871,5830]},{"type":"Point","properties":{"Station_ID":"VT-WS-19","Station_Nam":"WATERBURY 3.0 NW, VT","Latitude":"44.36060","Longitude":"-72.80770","Snowdepth":"2.000","Units":"in","Rept_Date":"2020-11-18 11"},"coordinates":[8008,4473]},{"type":"Point","properties":{"Station_ID":"VT-OL-2","Station_Nam":"BARTON 3.0 ENE, VT","Latitude":"44.75863","Longitude":"-72.11680","Snowdepth":"2.000","Units":"in","Rept_Date":"2020-11-18 12"},"coordinates":[8241,4771]},{"type":"Point","properties":{"Station_ID":"VT-CH-7","Station_Nam":"HUNTINGTON 1.1 E, VT","Latitude":"44.32488","Longitude":"-72.96570","Snowdepth":"2.000","Units":"in","Rept_Date":"2020-11-18 12"},"coordinates":[7955,4446]},{"type":"Point","properties":{"Station_ID":"VT-CH-4","Station_Nam":"UNDERHILL 4.4 NNE, VT","Latitude":"44.58774","Longitude":"-72.92250","Snowdepth":"2.000","Units":"in","Rept_Date":"2020-11-18 12"},"coordinates":[7969,4643]},{"type":"Point","properties":{"Station_ID":"VT-CH-13","Station_Nam":"RICHMOND 3.4 SSE, VT","Latitude":"44.36084","Longitude":"-72.96400","Snowdepth":"2.000","Units":"in","Rept_Date":"2020-11-18 12"},"coordinates":[7955,4473]},{"type":"Point","properties":{"Station_ID":"SUTV1","Station_Nam":"SUTTON","Latitude":"44.61220","Longitude":"-72.04810","Snowdepth":"2.000","Units":"in","Rept_Date":"2020-11-18 13"},"coordinates":[8264,4661]},{"type":"Point","properties":{"Station_ID":"SUAW3","Station_Nam":"SUAMICO","Latitude":"44.60190","Longitude":"-88.09780","Snowdepth":"2.000","Units":"in","Rept_Date":"2020-11-18 12"},"coordinates":[2845,4654]},{"type":"Point","properties":{"Station_ID":"SNOW2","Station_Nam":"SNOWSHOE","Latitude":"38.39900","Longitude":"-79.99490","Snowdepth":"2.000","Units":"in","Rept_Date":"2020-11-18 11"},"coordinates":[5581,0]},{"type":"Point","properties":{"Station_ID":"RCEM5","Station_Nam":"RICE","Latitude":"45.75760","Longitude":"-94.20720","Snowdepth":"2.000","Units":"in","Rept_Date":"2020-11-18 13"},"coordinates":[782,5521]},{"type":"Point","properties":{"Station_ID":"OLMN6","Station_Nam":"OLD FORGE - MOOSE","Latitude":"43.71270","Longitude":"-74.96930","Snowdepth":"2.000","Units":"in","Rept_Date":"2020-11-18 13"},"coordinates":[7278,3987]},{"type":"Point","properties":{"Station_ID":"OKLM2","Station_Nam":"DEEP CREEK LAKE","Latitude":"39.52420","Longitude":"-79.41170","Snowdepth":"2.000","Units":"in","Rept_Date":"2020-11-18 12"},"coordinates":[5778,844]},{"type":"Point","properties":{"Station_ID":"NY-TM-18","Station_Nam":"EAST ITHACA 4.7 E, NY","Latitude":"42.41910","Longitude":"-76.37330","Snowdepth":"2.000","Units":"in","Rept_Date":"2020-11-18 12"},"coordinates":[6804,3016]},{"type":"Point","properties":{"Station_ID":"NY-TG-26","Station_Nam":"CANDOR 0.7 NW, NY","Latitude":"42.23428","Longitude":"-76.34758","Snowdepth":"2.000","Units":"in","Rept_Date":"2020-11-18 12"},"coordinates":[6813,2877]},{"type":"Point","properties":{"Station_ID":"NY-SY-1","Station_Nam":"SMITH VALLEY 1.9 SE, NY","Latitude":"42.39072","Longitude":"-76.71760","Snowdepth":"2.000","Units":"in","Rept_Date":"2020-11-18 12"},"coordinates":[6688,2995]},{"type":"Point","properties":{"Station_ID":"NY-ST-35","Station_Nam":"BATH 6.8 SW, NY","Latitude":"42.26736","Longitude":"-77.41329","Snowdepth":"2.000","Units":"in","Rept_Date":"2020-11-18 12"},"coordinates":[6453,2902]},{"type":"Point","properties":{"Station_ID":"NY-OS-38","Station_Nam":"MEXICO COOP, NY","Latitude":"43.43830","Longitude":"-76.26570","Snowdepth":"2.000","Units":"in","Rept_Date":"2020-11-18 12"},"coordinates":[6840,3781]},{"type":"Point","properties":{"Station_ID":"NY-OD-23","Station_Nam":"DURHAMVILLE 3.5 NNW, NY","Latitude":"43.17115","Longitude":"-75.68280","Snowdepth":"2.000","Units":"in","Rept_Date":"2020-11-18 12"},"coordinates":[7037,3580]},{"type":"Point","properties":{"Station_ID":"NY-MD-10","Station_Nam":"CAZENOVIA 2.9 SE, NY","Latitude":"42.90003","Longitude":"-75.81140","Snowdepth":"2.000","Units":"in","Rept_Date":"2020-11-18 12"},"coordinates":[6994,3377]},{"type":"Point","properties":{"Station_ID":"NY-GN-6","Station_Nam":"STAFFORD 1.8 NE, NY","Latitude":"42.99890","Longitude":"-78.04830","Snowdepth":"2.000","Units":"in","Rept_Date":"2020-11-18 12"},"coordinates":[6238,3451]},{"type":"Point","properties":{"Station_ID":"NY-DL-32","Station_Nam":"DELHI 6.6 WNW, NY","Latitude":"42.32118","Longitude":"-75.02991","Snowdepth":"2.000","Units":"in","Rept_Date":"2020-11-18 12"},"coordinates":[7258,2943]},{"type":"Point","properties":{"Station_ID":"NY-CN-9","Station_Nam":"NORWICH 5.4 W, NY","Latitude":"42.53356","Longitude":"-75.63060","Snowdepth":"2.000","Units":"in","Rept_Date":"2020-11-18 12"},"coordinates":[7055,3102]},{"type":"Point","properties":{"Station_ID":"NY-AB-1","Station_Nam":"ALTAMONT 2.7 SSW, NY","Latitude":"42.66696","Longitude":"-74.05090","Snowdepth":"2.000","Units":"in","Rept_Date":"2020-11-18 12"},"coordinates":[7588,3202]},{"type":"Point","properties":{"Station_ID":"NVLV1","Station_Nam":"NASHVILLE","Latitude":"44.44970","Longitude":"-72.92640","Snowdepth":"2.000","Units":"in","Rept_Date":"2020-11-18 12"},"coordinates":[7968,4539]},{"type":"Point","properties":{"Station_ID":"NUNV1","Station_Nam":"NORTH UNDERHILL","Latitude":"44.58760","Longitude":"-72.92150","Snowdepth":"2.000","Units":"in","Rept_Date":"2020-11-18 12"},"coordinates":[7969,4643]},{"type":"Point","properties":{"Station_ID":"MXON6","Station_Nam":"MEXICO","Latitude":"43.43830","Longitude":"-76.26560","Snowdepth":"2.000","Units":"in","Rept_Date":"2020-11-18 12"},"coordinates":[6840,3781]},{"type":"Point","properties":{"Station_ID":"MTQM4","Station_Nam":"MANISTIQUE WWTP","Latitude":"45.95120","Longitude":"-86.25130","Snowdepth":"2.000","Units":"in","Rept_Date":"2020-11-18 12"},"coordinates":[3468,5666]},{"type":"Point","properties":{"Station_ID":"MN-MR-4","Station_Nam":"LITTLE FALLS 1.2 SW, MN","Latitude":"45.96886","Longitude":"-94.37720","Snowdepth":"2.000","Units":"in","Rept_Date":"2020-11-18 13"},"coordinates":[724,5679]},{"type":"Point","properties":{"Station_ID":"MN-MR-13","Station_Nam":"LITTLE FALLS 8.0 NE, MN","Latitude":"46.06785","Longitude":"-94.24789","Snowdepth":"2.000","Units":"in","Rept_Date":"2020-11-18 13"},"coordinates":[768,5753]},{"type":"Point","properties":{"Station_ID":"MN-CW-44","Station_Nam":"CROSBY 1.1 SW, MN","Latitude":"46.47772","Longitude":"-93.97293","Snowdepth":"2.000","Units":"in","Rept_Date":"2020-11-18 13"},"coordinates":[861,6061]},{"type":"Point","properties":{"Station_ID":"MLCM5","Station_Nam":"MILACA","Latitude":"45.75320","Longitude":"-93.66170","Snowdepth":"2.000","Units":"in","Rept_Date":"2020-11-18 13"},"coordinates":[966,5517]},{"type":"Point","properties":{"Station_ID":"MIEM4","Station_Nam":"MICHIGAMME 3WNW","Latitude":"46.54530","Longitude":"-88.18000","Snowdepth":"2.000","Units":"in","Rept_Date":"2020-11-18 13"},"coordinates":[2817,6112]},{"type":"Point","properties":{"Station_ID":"MI-OT-4","Station_Nam":"GAYLORD 1.7 WNW, MI","Latitude":"45.03280","Longitude":"-84.71090","Snowdepth":"2.000","Units":"in","Rept_Date":"2020-11-18 13"},"coordinates":[3989,4977]},{"type":"Point","properties":{"Station_ID":"MI-OT-17","Station_Nam":"GAYLORD 4.1 S, MI","Latitude":"44.96388","Longitude":"-84.68467","Snowdepth":"2.000","Units":"in","Rept_Date":"2020-11-18 12"},"coordinates":[3997,4925]},{"type":"Point","properties":{"Station_ID":"MI-OT-16","Station_Nam":"GAYLORD 2.2 SSE, MI","Latitude":"44.99441","Longitude":"-84.65820","Snowdepth":"2.000","Units":"in","Rept_Date":"2020-11-18 12"},"coordinates":[4006,4948]},{"type":"Point","properties":{"Station_ID":"MI-CF-9","Station_Nam":"GRAYLING 15.8 NE, MI","Latitude":"44.80464","Longitude":"-84.46313","Snowdepth":"2.000","Units":"in","Rept_Date":"2020-11-18 11"},"coordinates":[4072,4806]},{"type":"Point","properties":{"Station_ID":"LILM1","Station_Nam":"LILLE","Latitude":"47.27770","Longitude":"-68.10520","Snowdepth":"2.000","Units":"in","Rept_Date":"2020-11-18 12"},"coordinates":[9596,6661]},{"type":"Point","properties":{"Station_ID":"KANP1","Station_Nam":"KANE,PA","Latitude":"41.68330","Longitude":"-78.80000","Snowdepth":"2.000","Units":"in","Rept_Date":"2020-11-18 12"},"coordinates":[5984,2464]},{"type":"Point","properties":{"Station_ID":"JEFV1","Station_Nam":"JEFFERSONVILLE","Latitude":"44.58430","Longitude":"-72.78700","Snowdepth":"2.000","Units":"in","Rept_Date":"2020-11-18 12"},"coordinates":[8015,4640]},{"type":"Point","properties":{"Station_ID":"HOKN6","Station_Nam":"HOOKER 12 NNW","Latitude":"43.85240","Longitude":"-75.71580","Snowdepth":"2.000","Units":"in","Rept_Date":"2020-11-18 11"},"coordinates":[7026,4091]},{"type":"Point","properties":{"Station_ID":"GAYM4","Station_Nam":"GAYLORD","Latitude":"45.03320","Longitude":"-84.71130","Snowdepth":"2.000","Units":"in","Rept_Date":"2020-11-18 13"},"coordinates":[3988,4977]},{"type":"Point","properties":{"Station_ID":"CRLM5","Station_Nam":"CROSS LAKE DAM","Latitude":"46.66930","Longitude":"-94.11060","Snowdepth":"2.000","Units":"in","Rept_Date":"2020-11-18 14"},"coordinates":[815,6205]},{"type":"Point","properties":{"Station_ID":"CMKW3","Station_Nam":"CLAM LAKE 4W","Latitude":"46.16940","Longitude":"-90.98080","Snowdepth":"2.000","Units":"in","Rept_Date":"2020-11-18 13"},"coordinates":[1871,5830]},{"type":"Point","properties":{"Station_ID":"CLKM4","Station_Nam":"CLARKSBURG","Latitude":"46.49910","Longitude":"-87.84500","Snowdepth":"2.000","Units":"in","Rept_Date":"2020-11-18 12"},"coordinates":[2930,6077]},{"type":"Point","properties":{"Station_ID":"CAN-ON-342","Station_Nam":"LURGAN BEACH 1.4 NNE - LHCC, CAN","Latitude":"44.09777","Longitude":"-81.72765","Snowdepth":"2.000","Units":"in","Rept_Date":"2020-11-18 12"},"coordinates":[4996,4275]},{"type":"Point","properties":{"Station_ID":"BOON6","Station_Nam":"BOONVILLE 4 SSW","Latitude":"43.43610","Longitude":"-75.36970","Snowdepth":"2.000","Units":"in","Rept_Date":"2020-11-18 12"},"coordinates":[7143,3779]},{"type":"Point","properties":{"Station_ID":"BDFP1","Station_Nam":"BRADFORD,PA","Latitude":"41.95000","Longitude":"-78.73330","Snowdepth":"2.000","Units":"in","Rept_Date":"2020-11-18 13"},"coordinates":[6007,2664]},{"type":"Point","properties":{"Station_ID":"38.3990_079.9949","Station_Nam":"SNOWSHOE  CO-OP OBSERVER (X3840800)","Latitude":"38.39900","Longitude":"-79.99490","Snowdepth":"2.000","Units":"in","Rept_Date":"2020-11-18 11"},"coordinates":[5581,0]},{"type":"Point","properties":{"Station_ID":"QMD","Station_Nam":"QMD","Latitude":"49.29060","Longitude":"-75.84500","Snowdepth":"1.811","Units":"in","Rept_Date":"2020-11-18 12"},"coordinates":[6982,8171]},{"type":"Point","properties":{"Station_ID":"VT-LM-17","Station_Nam":"STOWE 3.0 NW, VT","Latitude":"44.49100","Longitude":"-72.73570","Snowdepth":"1.800","Units":"in","Rept_Date":"2020-11-18 18"},"coordinates":[8032,4570]},{"type":"Point","properties":{"Station_ID":"NY-ST-41","Station_Nam":"PAINTED POST 0.7 SSE, NY","Latitude":"42.15370","Longitude":"-77.08690","Snowdepth":"1.800","Units":"in","Rept_Date":"2020-11-18 13"},"coordinates":[6563,2817]},{"type":"Point","properties":{"Station_ID":"QGA","Station_Nam":"QGA","Latitude":"47.25640","Longitude":"-73.73810","Snowdepth":"1.732","Units":"in","Rept_Date":"2020-11-18 12"},"coordinates":[7694,6645]},{"type":"Point","properties":{"Station_ID":"SOCQ6","Station_Nam":"SOCKET LAKE","Latitude":"50.77870","Longitude":"-91.79300","Snowdepth":"1.730","Units":"in","Rept_Date":"2020-11-19 06"},"coordinates":[1597,9288]},{"type":"Point","properties":{"Station_ID":"WV-PR-10","Station_Nam":"TERRA ALTA 4.9 NNE, WV","Latitude":"39.51024","Longitude":"-79.51024","Snowdepth":"1.600","Units":"in","Rept_Date":"2020-11-18 12"},"coordinates":[5745,834]},{"type":"Point","properties":{"Station_ID":"CAN-ON-620","Station_Nam":"GOODERHAM 3.4 SSW, CAN","Latitude":"44.87690","Longitude":"-78.39265","Snowdepth":"1.600","Units":"in","Rept_Date":"2020-11-18 12"},"coordinates":[6122,4860]},{"type":"Point","properties":{"Station_ID":"QIQ","Station_Nam":"QIQ","Latitude":"49.82390","Longitude":"-68.54310","Snowdepth":"1.575","Units":"in","Rept_Date":"2020-11-18 12"},"coordinates":[9448,8571]},{"type":"Point","properties":{"Station_ID":"WI-WB-17","Station_Nam":"SARONA 4.9 E, WI","Latitude":"45.71720","Longitude":"-91.70610","Snowdepth":"1.500","Units":"in","Rept_Date":"2020-11-18 13"},"coordinates":[1626,5490]},{"type":"Point","properties":{"Station_ID":"WI-PR-6","Station_Nam":"PHILLIPS 1.3 S, WI","Latitude":"45.67677","Longitude":"-90.39543","Snowdepth":"1.500","Units":"in","Rept_Date":"2020-11-18 12"},"coordinates":[2069,5460]},{"type":"Point","properties":{"Station_ID":"WI-BY-1","Station_Nam":"BAYFIELD 8.8 N, WI","Latitude":"46.93855","Longitude":"-90.83490","Snowdepth":"1.500","Units":"in","Rept_Date":"2020-11-18 13"},"coordinates":[1921,6407]},{"type":"Point","properties":{"Station_ID":"VT-WS-33","Station_Nam":"WAITSFIELD 3.5 WNW, VT","Latitude":"44.20052","Longitude":"-72.89421","Snowdepth":"1.500","Units":"in","Rept_Date":"2020-11-18 13"},"coordinates":[7979,4352]},{"type":"Point","properties":{"Station_ID":"VT-OG-14","Station_Nam":"BRADFORD 2.2 NNW, VT","Latitude":"44.02268","Longitude":"-72.14756","Snowdepth":"1.500","Units":"in","Rept_Date":"2020-11-18 13"},"coordinates":[8231,4219]},{"type":"Point","properties":{"Station_ID":"VT-CL-18","Station_Nam":"WHEELOCK 1.6 S, VT","Latitude":"44.56491","Longitude":"-72.08830","Snowdepth":"1.500","Units":"in","Rept_Date":"2020-11-18 12"},"coordinates":[8251,4626]},{"type":"Point","properties":{"Station_ID":"PA-ER-2","Station_Nam":"ERIE 5.6 SW, PA","Latitude":"42.06086","Longitude":"-80.15260","Snowdepth":"1.500","Units":"in","Rept_Date":"2020-11-18 12"},"coordinates":[5528,2747]},{"type":"Point","properties":{"Station_ID":"NY-TM-3","Station_Nam":"ITHACA 1.1 SE, NY","Latitude":"42.43173","Longitude":"-76.48860","Snowdepth":"1.500","Units":"in","Rept_Date":"2020-11-18 12"},"coordinates":[6765,3025]},{"type":"Point","properties":{"Station_ID":"NY-ST-45","Station_Nam":"CORNING 2.9 N, NY","Latitude":"42.18841","Longitude":"-77.06478","Snowdepth":"1.500","Units":"in","Rept_Date":"2020-11-18 12"},"coordinates":[6570,2843]},{"type":"Point","properties":{"Station_ID":"NY-ST-33","Station_Nam":"BATH 4.2 E, NY","Latitude":"42.33968","Longitude":"-77.23666","Snowdepth":"1.500","Units":"in","Rept_Date":"2020-11-18 12"},"coordinates":[6512,2956]},{"type":"Point","properties":{"Station_ID":"NY-OT-11","Station_Nam":"HARTWICK, NY","Latitude":"42.65990","Longitude":"-75.05000","Snowdepth":"1.500","Units":"in","Rept_Date":"2020-11-18 14"},"coordinates":[7251,3197]},{"type":"Point","properties":{"Station_ID":"NY-OG-61","Station_Nam":"SKANEATELES 0.8 NNW, NY","Latitude":"42.95538","Longitude":"-76.43362","Snowdepth":"1.500","Units":"in","Rept_Date":"2020-11-18 12"},"coordinates":[6784,3418]},{"type":"Point","properties":{"Station_ID":"NY-OD-19","Station_Nam":"NEW HARTFORD 0.8 S, NY","Latitude":"43.06182","Longitude":"-75.28990","Snowdepth":"1.500","Units":"in","Rept_Date":"2020-11-18 12"},"coordinates":[7170,3498]},{"type":"Point","properties":{"Station_ID":"NY-CY-31","Station_Nam":"SCIPIO CENTER 3.0 S, NY","Latitude":"42.74002","Longitude":"-76.55682","Snowdepth":"1.500","Units":"in","Rept_Date":"2020-11-18 10"},"coordinates":[6742,3257]},{"type":"Point","properties":{"Station_ID":"NY-CR-1","Station_Nam":"FREETOWN 1.0 NE, NY","Latitude":"42.53299","Longitude":"-76.02111","Snowdepth":"1.500","Units":"in","Rept_Date":"2020-11-18 12"},"coordinates":[6923,3101]},{"type":"Point","properties":{"Station_ID":"NY-BM-51","Station_Nam":"ENDICOTT 2.8 NNE, NY","Latitude":"42.13560","Longitude":"-76.04380","Snowdepth":"1.500","Units":"in","Rept_Date":"2020-11-18 12"},"coordinates":[6915,2803]},{"type":"Point","properties":{"Station_ID":"MN-TD-12","Station_Nam":"LONG PRAIRIE 2.1 NNE, MN","Latitude":"46.00588","Longitude":"-94.84649","Snowdepth":"1.500","Units":"in","Rept_Date":"2020-11-18 14"},"coordinates":[566,5707]},{"type":"Point","properties":{"Station_ID":"MN-SH-985","Station_Nam":"PRINCETON 3.3 WSW, MN","Latitude":"45.55211","Longitude":"-93.64481","Snowdepth":"1.500","Units":"in","Rept_Date":"2020-11-18 10"},"coordinates":[972,5366]},{"type":"Point","properties":{"Station_ID":"MN-CW-54","Station_Nam":"AITKIN 9.6 W, MN","Latitude":"46.53711","Longitude":"-93.90688","Snowdepth":"1.500","Units":"in","Rept_Date":"2020-11-18 14"},"coordinates":[883,6105]},{"type":"Point","properties":{"Station_ID":"MN-CK-6","Station_Nam":"GRAND MARAIS 4.4 W, MN","Latitude":"47.74865","Longitude":"-90.43760","Snowdepth":"1.500","Units":"in","Rept_Date":"2020-11-18 13"},"coordinates":[2055,7014]},{"type":"Point","properties":{"Station_ID":"MI-CX-7","Station_Nam":"EAST JORDAN 2.1 NNW, MI","Latitude":"45.18639","Longitude":"-85.14750","Snowdepth":"1.500","Units":"in","Rept_Date":"2020-11-18 13"},"coordinates":[3841,5092]},{"type":"Point","properties":{"Station_ID":"52Z_MADIS","Station_Nam":"AITKIN 9.6 W, MN","Latitude":"46.53711","Longitude":"-93.90690","Snowdepth":"1.500","Units":"in","Rept_Date":"2020-11-18 14"},"coordinates":[883,6105]},{"type":"Point","properties":{"Station_ID":"42.0609_080.1526","Station_Nam":"6 SW Erie  CoCoRaHS (PA-ER-2)","Latitude":"42.06090","Longitude":"-80.15260","Snowdepth":"1.500","Units":"in","Rept_Date":"2020-11-18 11"},"coordinates":[5528,2747]},{"type":"Point","properties":{"Station_ID":"MN-BK-15","Station_Nam":"LAKE PARK 9.9 S, MN","Latitude":"46.74150","Longitude":"-96.11090","Snowdepth":"1.400","Units":"in","Rept_Date":"2020-11-18 14"},"coordinates":[139,6259]},{"type":"Point","properties":{"Station_ID":"QLI","Station_Nam":"QLI","Latitude":"50.27080","Longitude":"-73.92280","Snowdepth":"1.378","Units":"in","Rept_Date":"2020-11-18 12"},"coordinates":[7631,8907]},{"type":"Point","properties":{"Station_ID":"SVBQ6","Station_Nam":"SAVANT BASE","Latitude":"50.28730","Longitude":"-90.65670","Snowdepth":"1.300","Units":"in","Rept_Date":"2020-11-19 06"},"coordinates":[1981,8919]},{"type":"Point","properties":{"Station_ID":"NY-BM-14","Station_Nam":"WHITNEY POINT 1.7 SSE, NY","Latitude":"42.30837","Longitude":"-75.95690","Snowdepth":"1.300","Units":"in","Rept_Date":"2020-11-18 14"},"coordinates":[6944,2933]},{"type":"Point","properties":{"Station_ID":"NY-MG-3","Station_Nam":"HESSVILLE 1.8 WSW, NY","Latitude":"42.86430","Longitude":"-74.72140","Snowdepth":"1.200","Units":"in","Rept_Date":"2020-11-18 13"},"coordinates":[7362,3350]},{"type":"Point","properties":{"Station_ID":"CAN-QC-59","Station_Nam":"NOTRE-DAME-DES-BOIS 0.2 SW, CAN","Latitude":"45.39408","Longitude":"-71.07568","Snowdepth":"1.200","Units":"in","Rept_Date":"2020-11-18 14"},"coordinates":[8593,5248]},{"type":"Point","properties":{"Station_ID":"41.8275_080.5321","Station_Nam":"MONROE TWP  SNOW SPOTTER (X4180805)","Latitude":"41.82750","Longitude":"-80.53210","Snowdepth":"1.200","Units":"in","Rept_Date":"2020-11-18 12"},"coordinates":[5400,2572]},{"type":"Point","properties":{"Station_ID":"CATQ6","Station_Nam":"CAT LAKE","Latitude":"51.72690","Longitude":"-91.82210","Snowdepth":"1.140","Units":"in","Rept_Date":"2020-11-19 06"},"coordinates":[1587,9999]},{"type":"Point","properties":{"Station_ID":"PA-FR-2","Station_Nam":"MARIENVILLE 5.3 W, PA","Latitude":"41.45710","Longitude":"-79.18150","Snowdepth":"1.100","Units":"in","Rept_Date":"2020-11-18 11"},"coordinates":[5856,2294]},{"type":"Point","properties":{"Station_ID":"YNG","Station_Nam":"YOUNGSTOWN-WARREN REG AIRPRT","Latitude":"41.25890","Longitude":"-80.67610","Snowdepth":"1.000","Units":"in","Rept_Date":"2020-11-19 00"},"coordinates":[5351,2146]},{"type":"Point","properties":{"Station_ID":"WVYN6","Station_Nam":"WAVERLY","Latitude":"41.98470","Longitude":"-76.50140","Snowdepth":"1.000","Units":"in","Rept_Date":"2020-11-18 12"},"coordinates":[6761,2690]},{"type":"Point","properties":{"Station_ID":"WUNW3","Station_Nam":"WAUSAU-NORTHEAST","Latitude":"44.97310","Longitude":"-89.61690","Snowdepth":"1.000","Units":"in","Rept_Date":"2020-11-18 12"},"coordinates":[2332,4932]},{"type":"Point","properties":{"Station_ID":"WTRM4","Station_Nam":"WATERSMEET 12WSW","Latitude":"46.22310","Longitude":"-89.40850","Snowdepth":"1.000","Units":"in","Rept_Date":"2020-11-18 12"},"coordinates":[2402,5870]},{"type":"Point","properties":{"Station_ID":"WSTN6","Station_Nam":"WESTMORELAND 4 N","Latitude":"43.15950","Longitude":"-75.46110","Snowdepth":"1.000","Units":"in","Rept_Date":"2020-11-18 12"},"coordinates":[7112,3571]},{"type":"Point","properties":{"Station_ID":"WRRP1","Station_Nam":"ALLEGHENY RIVER AT WARREN","Latitude":"41.84380","Longitude":"-79.15000","Snowdepth":"1.000","Units":"in","Rept_Date":"2020-11-18 12"},"coordinates":[5866,2584]},{"type":"Point","properties":{"Station_ID":"WORM3","Station_Nam":"WORTHINGTON","Latitude":"42.38690","Longitude":"-72.92100","Snowdepth":"1.000","Units":"in","Rept_Date":"2020-11-18 12"},"coordinates":[7970,2992]},{"type":"Point","properties":{"Station_ID":"WMRM5","Station_Nam":"WILLMAR 5N","Latitude":"45.19010","Longitude":"-95.05860","Snowdepth":"1.000","Units":"in","Rept_Date":"2020-11-18 12"},"coordinates":[494,5095]},{"type":"Point","properties":{"Station_ID":"WI-VL-9","Station_Nam":"LAND O' LAKES 11.7 W, WI","Latitude":"46.19023","Longitude":"-89.45790","Snowdepth":"1.000","Units":"in","Rept_Date":"2020-11-18 13"},"coordinates":[2386,5845]},{"type":"Point","properties":{"Station_ID":"WI-VL-14","Station_Nam":"BOULDER JUNCTION 1.4 NE, WI","Latitude":"46.12840","Longitude":"-89.62470","Snowdepth":"1.000","Units":"in","Rept_Date":"2020-11-18 13"},"coordinates":[2329,5799]},{"type":"Point","properties":{"Station_ID":"WI-RS-1","Station_Nam":"LADYSMITH 2.8 WNW, WI","Latitude":"45.48180","Longitude":"-91.14680","Snowdepth":"1.000","Units":"in","Rept_Date":"2020-11-18 13"},"coordinates":[1815,5314]},{"type":"Point","properties":{"Station_ID":"WI-BR-17","Station_Nam":"CLAYTON 2.9 ENE, WI","Latitude":"45.34073","Longitude":"-92.11158","Snowdepth":"1.000","Units":"in","Rept_Date":"2020-11-18 13"},"coordinates":[1490,5208]},{"type":"Point","properties":{"Station_ID":"WHFN6","Station_Nam":"WILMINGTON 2W","Latitude":"44.39310","Longitude":"-73.85890","Snowdepth":"1.000","Units":"in","Rept_Date":"2020-11-18 13"},"coordinates":[7653,4497]},{"type":"Point","properties":{"Station_ID":"WAIV1","Station_Nam":"WAITSFIELD","Latitude":"44.17560","Longitude":"-72.79610","Snowdepth":"1.000","Units":"in","Rept_Date":"2020-11-18 12"},"coordinates":[8012,4334]},{"type":"Point","properties":{"Station_ID":"VT-WS-11","Station_Nam":"WAITSFIELD 1.8 SE, VT","Latitude":"44.17551","Longitude":"-72.79540","Snowdepth":"1.000","Units":"in","Rept_Date":"2020-11-18 12"},"coordinates":[8012,4334]},{"type":"Point","properties":{"Station_ID":"VT-WR-17","Station_Nam":"ROCHESTER 2.3 NE, VT","Latitude":"43.89418","Longitude":"-72.76992","Snowdepth":"1.000","Units":"in","Rept_Date":"2020-11-18 12"},"coordinates":[8021,4123]},{"type":"Point","properties":{"Station_ID":"VT-OL-9","Station_Nam":"GREENSBORO 2.1 NNW, VT","Latitude":"44.60528","Longitude":"-72.30940","Snowdepth":"1.000","Units":"in","Rept_Date":"2020-11-18 12"},"coordinates":[8176,4656]},{"type":"Point","properties":{"Station_ID":"VT-LM-1","Station_Nam":"STOWE 0.2 SW, VT","Latitude":"44.46399","Longitude":"-72.69070","Snowdepth":"1.000","Units":"in","Rept_Date":"2020-11-18 12"},"coordinates":[8047,4550]},{"type":"Point","properties":{"Station_ID":"VT-CL-14","Station_Nam":"LYNDONVILLE 1.1 W, VT","Latitude":"44.53582","Longitude":"-72.02867","Snowdepth":"1.000","Units":"in","Rept_Date":"2020-11-18 13"},"coordinates":[8271,4604]},{"type":"Point","properties":{"Station_ID":"VT-BN-3","Station_Nam":"LANDGROVE 1.1 NNE, VT","Latitude":"43.29092","Longitude":"-72.83260","Snowdepth":"1.000","Units":"in","Rept_Date":"2020-11-18 12"},"coordinates":[7999,3670]},{"type":"Point","properties":{"Station_ID":"VANM1","Station_Nam":"VAN BUREN","Latitude":"47.16600","Longitude":"-67.93900","Snowdepth":"1.000","Units":"in","Rept_Date":"2020-11-18 12"},"coordinates":[9652,6577]},{"type":"Point","properties":{"Station_ID":"TOPN6","Station_Nam":"TUPPER LAKE SUNMOUNT","Latitude":"44.23070","Longitude":"-74.43820","Snowdepth":"1.000","Units":"in","Rept_Date":"2020-11-18 12"},"coordinates":[7457,4375]},{"type":"Point","properties":{"Station_ID":"STIM4","Station_Nam":"ST IGNACE","Latitude":"45.86080","Longitude":"-84.71960","Snowdepth":"1.000","Units":"in","Rept_Date":"2020-11-18 12"},"coordinates":[3986,5598]},{"type":"Point","properties":{"Station_ID":"SHHN6","Station_Nam":"SCHOHARIE VILLAGE","Latitude":"42.66500","Longitude":"-74.30360","Snowdepth":"1.000","Units":"in","Rept_Date":"2020-11-18 13"},"coordinates":[7503,3200]},{"type":"Point","properties":{"Station_ID":"SD-BK-2","Station_Nam":"ASTORIA 2.2 SSE, SD","Latitude":"44.53093","Longitude":"-96.52270","Snowdepth":"1.000","Units":"in","Rept_Date":"2020-11-18 13"},"coordinates":[0,4600]},{"type":"Point","properties":{"Station_ID":"SBOP1","Station_Nam":"SPRINGBORO","Latitude":"41.81660","Longitude":"-80.43330","Snowdepth":"1.000","Units":"in","Rept_Date":"2020-11-18 12"},"coordinates":[5433,2564]},{"type":"Point","properties":{"Station_ID":"RLWM5","Station_Nam":"CAMP NORRIS DNR","Latitude":"48.61000","Longitude":"-95.18170","Snowdepth":"1.000","Units":"in","Rept_Date":"2020-11-18 16"},"coordinates":[453,7661]},{"type":"Point","properties":{"Station_ID":"RHIW3","Station_Nam":"RHINELANDER","Latitude":"45.59860","Longitude":"-89.45080","Snowdepth":"1.000","Units":"in","Rept_Date":"2020-11-18 13"},"coordinates":[2388,5401]},{"type":"Point","properties":{"Station_ID":"PTBN3","Station_Nam":"PITTSBURG RESERVOIR","Latitude":"45.04690","Longitude":"-71.38300","Snowdepth":"1.000","Units":"in","Rept_Date":"2020-11-18 12"},"coordinates":[8489,4987]},{"type":"Point","properties":{"Station_ID":"PRNW3","Station_Nam":"PRENTICE,WI","Latitude":"45.54780","Longitude":"-90.30000","Snowdepth":"1.000","Units":"in","Rept_Date":"2020-11-18 14"},"coordinates":[2101,5363]},{"type":"Point","properties":{"Station_ID":"PRDM4","Station_Nam":"PARADISE","Latitude":"46.60380","Longitude":"-85.03960","Snowdepth":"1.000","Units":"in","Rept_Date":"2020-11-18 11"},"coordinates":[3878,6155]},{"type":"Point","properties":{"Station_ID":"PLFV1","Station_Nam":"PLAINFIELD","Latitude":"44.27610","Longitude":"-72.41500","Snowdepth":"1.000","Units":"in","Rept_Date":"2020-11-18 12"},"coordinates":[8140,4409]},{"type":"Point","properties":{"Station_ID":"PKFW3","Station_Nam":"PARK FALLS,WI","Latitude":"45.93360","Longitude":"-90.45060","Snowdepth":"1.000","Units":"in","Rept_Date":"2020-11-18 14"},"coordinates":[2050,5653]},{"type":"Point","properties":{"Station_ID":"PGVN6","Station_Nam":"PORTAGEVILLE","Latitude":"42.57580","Longitude":"-78.06720","Snowdepth":"1.000","Units":"in","Rept_Date":"2020-11-18 11"},"coordinates":[6232,3134]},{"type":"Point","properties":{"Station_ID":"PERV1","Station_Nam":"PERU","Latitude":"43.26670","Longitude":"-72.90000","Snowdepth":"1.000","Units":"in","Rept_Date":"2020-11-18 12"},"coordinates":[7977,3652]},{"type":"Point","properties":{"Station_ID":"PEKN6","Station_Nam":"PECK LAKE","Latitude":"43.11500","Longitude":"-74.42360","Snowdepth":"1.000","Units":"in","Rept_Date":"2020-11-18 12"},"coordinates":[7462,3538]},{"type":"Point","properties":{"Station_ID":"PA-VN-7","Station_Nam":"COOPERSTOWN 1.3 E, PA","Latitude":"41.50067","Longitude":"-79.84970","Snowdepth":"1.000","Units":"in","Rept_Date":"2020-11-18 12"},"coordinates":[5630,2327]},{"type":"Point","properties":{"Station_ID":"PA-EL-1","Station_Nam":"ST. MARYS 1.7 SE, PA","Latitude":"41.41069","Longitude":"-78.53480","Snowdepth":"1.000","Units":"in","Rept_Date":"2020-11-18 11"},"coordinates":[6074,2259]},{"type":"Point","properties":{"Station_ID":"PA-CW-8","Station_Nam":"SPRINGBORO 3.0 WNW, PA","Latitude":"41.81654","Longitude":"-80.42540","Snowdepth":"1.000","Units":"in","Rept_Date":"2020-11-18 12"},"coordinates":[5436,2564]},{"type":"Point","properties":{"Station_ID":"PA-BT-24","Station_Nam":"CABOT 0.3 N, PA","Latitude":"40.76870","Longitude":"-79.76690","Snowdepth":"1.000","Units":"in","Rept_Date":"2020-11-18 12"},"coordinates":[5658,1778]},{"type":"Point","properties":{"Station_ID":"OTTM5","Station_Nam":"OTTERTAIL,MN","Latitude":"46.41670","Longitude":"-95.56670","Snowdepth":"1.000","Units":"in","Rept_Date":"2020-11-18 11"},"coordinates":[323,6015]},{"type":"Point","properties":{"Station_ID":"OLNN6","Station_Nam":"OLEAN","Latitude":"42.07370","Longitude":"-78.45180","Snowdepth":"1.000","Units":"in","Rept_Date":"2020-11-18 12"},"coordinates":[6102,2757]},{"type":"Point","properties":{"Station_ID":"OH-PT-13","Station_Nam":"MANTUA 1.0 NNW, OH","Latitude":"41.29421","Longitude":"-81.23160","Snowdepth":"1.000","Units":"in","Rept_Date":"2020-11-18 12"},"coordinates":[5163,2172]},{"type":"Point","properties":{"Station_ID":"OH-GG-4","Station_Nam":"MONTVILLE 1.2 SSE, OH","Latitude":"41.59030","Longitude":"-81.04800","Snowdepth":"1.000","Units":"in","Rept_Date":"2020-11-18 11"},"coordinates":[5225,2394]},{"type":"Point","properties":{"Station_ID":"NYMM5","Station_Nam":"NEW YORK MILLS","Latitude":"46.50920","Longitude":"-95.37990","Snowdepth":"1.000","Units":"in","Rept_Date":"2020-11-18 13"},"coordinates":[386,6085]},{"type":"Point","properties":{"Station_ID":"NY-TM-5","Station_Nam":"FREEVILLE 1.5 NE, NY","Latitude":"42.52530","Longitude":"-76.32180","Snowdepth":"1.000","Units":"in","Rept_Date":"2020-11-18 12"},"coordinates":[6821,3096]},{"type":"Point","properties":{"Station_ID":"NY-TM-27","Station_Nam":"GROTON 3.2 SSW, NY","Latitude":"42.54725","Longitude":"-76.39960","Snowdepth":"1.000","Units":"in","Rept_Date":"2020-11-18 12"},"coordinates":[6795,3112]},{"type":"Point","properties":{"Station_ID":"NY-TG-5","Station_Nam":"BERKSHIRE 2.0 N, NY","Latitude":"42.33463","Longitude":"-76.18990","Snowdepth":"1.000","Units":"in","Rept_Date":"2020-11-18 12"},"coordinates":[6866,2953]},{"type":"Point","properties":{"Station_ID":"NY-ST-3","Station_Nam":"SOUTH CORNING 4.7 S, NY","Latitude":"42.05672","Longitude":"-77.04850","Snowdepth":"1.000","Units":"in","Rept_Date":"2020-11-18 14"},"coordinates":[6576,2744]},{"type":"Point","properties":{"Station_ID":"NY-OD-21","Station_Nam":"ROME 4.8 SSE, NY","Latitude":"43.16000","Longitude":"-75.46000","Snowdepth":"1.000","Units":"in","Rept_Date":"2020-11-18 12"},"coordinates":[7112,3572]},{"type":"Point","properties":{"Station_ID":"NY-NG-27","Station_Nam":"LOCKPORT 2.8 WNW, NY","Latitude":"43.18977","Longitude":"-78.74425","Snowdepth":"1.000","Units":"in","Rept_Date":"2020-11-18 13"},"coordinates":[6003,3594]},{"type":"Point","properties":{"Station_ID":"NY-MD-16","Station_Nam":"CHITTENANGO 2.1 ESE, NY","Latitude":"43.03297","Longitude":"-75.83480","Snowdepth":"1.000","Units":"in","Rept_Date":"2020-11-18 13"},"coordinates":[6986,3477]},{"type":"Point","properties":{"Station_ID":"NY-ER-63","Station_Nam":"GLENWOOD 1.5 SE, NY","Latitude":"42.60195","Longitude":"-78.63910","Snowdepth":"1.000","Units":"in","Rept_Date":"2020-11-18 13"},"coordinates":[6039,3153]},{"type":"Point","properties":{"Station_ID":"NY-DL-28","Station_Nam":"FLEISCHMANNS 5.7 N, NY","Latitude":"42.23779","Longitude":"-74.52335","Snowdepth":"1.000","Units":"in","Rept_Date":"2020-11-18 12"},"coordinates":[7429,2880]},{"type":"Point","properties":{"Station_ID":"NY-CQ-35","Station_Nam":"FALCONER 0.3 WSW, NY","Latitude":"42.11766","Longitude":"-79.20278","Snowdepth":"1.000","Units":"in","Rept_Date":"2020-11-18 12"},"coordinates":[5848,2790]},{"type":"Point","properties":{"Station_ID":"NY-BM-34","Station_Nam":"VESTAL 3.2 E, NY","Latitude":"42.08258","Longitude":"-75.99120","Snowdepth":"1.000","Units":"in","Rept_Date":"2020-11-18 12"},"coordinates":[6933,2764]},{"type":"Point","properties":{"Station_ID":"NH-CS-10","Station_Nam":"RANDOLPH 1.4 NE, NH","Latitude":"44.38824","Longitude":"-71.26950","Snowdepth":"1.000","Units":"in","Rept_Date":"2020-11-18 12"},"coordinates":[8527,4493]},{"type":"Point","properties":{"Station_ID":"MRAM4","Station_Nam":"MORAN","Latitude":"45.99030","Longitude":"-84.83610","Snowdepth":"1.000","Units":"in","Rept_Date":"2020-11-18 13"},"coordinates":[3946,5695]},{"type":"Point","properties":{"Station_ID":"MNPV1","Station_Nam":"MONTPELIER 2","Latitude":"44.25530","Longitude":"-72.60060","Snowdepth":"1.000","Units":"in","Rept_Date":"2020-11-18 12"},"coordinates":[8078,4394]},{"type":"Point","properties":{"Station_ID":"MN-SH-38","Station_Nam":"ELK RIVER 1.6 S, MN","Latitude":"45.30850","Longitude":"-93.56256","Snowdepth":"1.000","Units":"in","Rept_Date":"2020-11-18 13"},"coordinates":[1000,5184]},{"type":"Point","properties":{"Station_ID":"MN-SH-10","Station_Nam":"BIG LAKE 5.6 NNE, MN","Latitude":"45.41409","Longitude":"-93.69190","Snowdepth":"1.000","Units":"in","Rept_Date":"2020-11-18 13"},"coordinates":[956,5263]},{"type":"Point","properties":{"Station_ID":"MN-RM-15","Station_Nam":"ROSEVILLE 2.1 NW, MN","Latitude":"45.03502","Longitude":"-93.18620","Snowdepth":"1.000","Units":"in","Rept_Date":"2020-11-18 12"},"coordinates":[1127,4979]},{"type":"Point","properties":{"Station_ID":"MN-IT-7","Station_Nam":"GRAND RAPIDS 6.2 SSW, MN","Latitude":"47.13687","Longitude":"-93.56660","Snowdepth":"1.000","Units":"in","Rept_Date":"2020-11-18 12"},"coordinates":[998,6555]},{"type":"Point","properties":{"Station_ID":"MN-IT-17","Station_Nam":"GRAND RAPIDS 6.1 N, MN","Latitude":"47.31165","Longitude":"-93.55036","Snowdepth":"1.000","Units":"in","Rept_Date":"2020-11-18 13"},"coordinates":[1004,6687]},{"type":"Point","properties":{"Station_ID":"MN-IS-21","Station_Nam":"ISANTI 5.0 SW, MN","Latitude":"45.43360","Longitude":"-93.30200","Snowdepth":"1.000","Units":"in","Rept_Date":"2020-11-18 14"},"coordinates":[1088,5278]},{"type":"Point","properties":{"Station_ID":"MN-DS-9","Station_Nam":"ALEXANDRIA 0.5 W, MN","Latitude":"45.87828","Longitude":"-95.38273","Snowdepth":"1.000","Units":"in","Rept_Date":"2020-11-18 14"},"coordinates":[385,5611]},{"type":"Point","properties":{"Station_ID":"MN-CW-8","Station_Nam":"BRAINERD 11.5 E, MN","Latitude":"46.38556","Longitude":"-93.95720","Snowdepth":"1.000","Units":"in","Rept_Date":"2020-11-18 13"},"coordinates":[866,5992]},{"type":"Point","properties":{"Station_ID":"MN-CK-18","Station_Nam":"GRAND MARAIS 4.4 WSW, MN","Latitude":"47.74462","Longitude":"-90.43796","Snowdepth":"1.000","Units":"in","Rept_Date":"2020-11-18 13"},"coordinates":[2055,7011]},{"type":"Point","properties":{"Station_ID":"MN-CG-16","Station_Nam":"NORTH BRANCH 1.3 NNW, MN","Latitude":"45.53121","Longitude":"-92.97110","Snowdepth":"1.000","Units":"in","Rept_Date":"2020-11-18 12"},"coordinates":[1199,5351]},{"type":"Point","properties":{"Station_ID":"MN-BK-6","Station_Nam":"LAKE PARK 6.0 S, MN","Latitude":"46.79850","Longitude":"-96.12180","Snowdepth":"1.000","Units":"in","Rept_Date":"2020-11-18 13"},"coordinates":[135,6302]},{"type":"Point","properties":{"Station_ID":"MN-AT-5","Station_Nam":"TAMARACK 1.4 SW, MN","Latitude":"46.63760","Longitude":"-93.14554","Snowdepth":"1.000","Units":"in","Rept_Date":"2020-11-18 13"},"coordinates":[1140,6181]},{"type":"Point","properties":{"Station_ID":"MN-AA-76","Station_Nam":"NOWTHEN 2.9 SSE, MN","Latitude":"45.30360","Longitude":"-93.42620","Snowdepth":"1.000","Units":"in","Rept_Date":"2020-11-18 13"},"coordinates":[1046,5180]},{"type":"Point","properties":{"Station_ID":"MI-HG-20","Station_Nam":"CALUMET 1.1 SSW, MI","Latitude":"47.23165","Longitude":"-88.45823","Snowdepth":"1.000","Units":"in","Rept_Date":"2020-11-18 11"},"coordinates":[2723,6627]},{"type":"Point","properties":{"Station_ID":"MI-CX-4","Station_Nam":"CHARLEVOIX 4.3 SSE, MI","Latitude":"45.25720","Longitude":"-85.21650","Snowdepth":"1.000","Units":"in","Rept_Date":"2020-11-18 12"},"coordinates":[3818,5145]},{"type":"Point","properties":{"Station_ID":"MI-CP-14","Station_Nam":"SAULT STE. MARIE 2.2 E, MI","Latitude":"46.48933","Longitude":"-84.31971","Snowdepth":"1.000","Units":"in","Rept_Date":"2020-11-18 12"},"coordinates":[4121,6070]},{"type":"Point","properties":{"Station_ID":"MEDW3","Station_Nam":"MEDFORD","Latitude":"45.13080","Longitude":"-90.34390","Snowdepth":"1.000","Units":"in","Rept_Date":"2020-11-18 14"},"coordinates":[2086,5050]},{"type":"Point","properties":{"Station_ID":"MECN6","Station_Nam":"MECKLENBURG 4 SW","Latitude":"42.44220","Longitude":"-76.75740","Snowdepth":"1.000","Units":"in","Rept_Date":"2020-11-18 12"},"coordinates":[6674,3033]},{"type":"Point","properties":{"Station_ID":"MD-GR-4","Station_Nam":"MC HENRY 4.8 SSE, MD","Latitude":"39.48539","Longitude":"-79.31830","Snowdepth":"1.000","Units":"in","Rept_Date":"2020-11-18 13"},"coordinates":[5809,815]},{"type":"Point","properties":{"Station_ID":"MBGM7","Station_Nam":"MISSOURI BOTANICAL GARDENS","Latitude":"38.61280","Longitude":"-90.26080","Snowdepth":"1.000","Units":"in","Rept_Date":"2020-11-19 06"},"coordinates":[2114,160]},{"type":"Point","properties":{"Station_ID":"MA-HS-7","Station_Nam":"PLAINFIELD 2.2 SW, MA","Latitude":"42.49272","Longitude":"-72.94540","Snowdepth":"1.000","Units":"in","Rept_Date":"2020-11-18 13"},"coordinates":[7961,3071]},{"type":"Point","properties":{"Station_ID":"LPLN6","Station_Nam":"LAKE PLACID 2 S","Latitude":"44.30420","Longitude":"-73.98390","Snowdepth":"1.000","Units":"in","Rept_Date":"2020-11-18 13"},"coordinates":[7611,4430]},{"type":"Point","properties":{"Station_ID":"LNOW3","Station_Nam":"LAND O LAKES","Latitude":"46.19000","Longitude":"-89.45700","Snowdepth":"1.000","Units":"in","Rept_Date":"2020-11-18 13"},"coordinates":[2386,5845]},{"type":"Point","properties":{"Station_ID":"LERN6","Station_Nam":"LE ROY 1E","Latitude":"42.97360","Longitude":"-77.96710","Snowdepth":"1.000","Units":"in","Rept_Date":"2020-11-18 12"},"coordinates":[6266,3432]},{"type":"Point","properties":{"Station_ID":"LAUP1","Station_Nam":"1.5MI S OF RT 30 ON SMIT (LAUREL RIDGE)","Latitude":"40.05000","Longitude":"-79.22060","Snowdepth":"1.000","Units":"in","Rept_Date":"2020-11-18 12"},"coordinates":[5842,1239]},{"type":"Point","properties":{"Station_ID":"KYNG","Station_Nam":"YOUNGSTOWN-WARREN REG AIRPRT","Latitude":"41.25000","Longitude":"-80.66666","Snowdepth":"1.000","Units":"in","Rept_Date":"2020-11-18 12"},"coordinates":[5354,2139]},{"type":"Point","properties":{"Station_ID":"KSGM4","Station_Nam":"KEARSARGE","Latitude":"47.27520","Longitude":"-88.41700","Snowdepth":"1.000","Units":"in","Rept_Date":"2020-11-18 13"},"coordinates":[2737,6659]},{"type":"Point","properties":{"Station_ID":"KIMM5","Station_Nam":"KIMBALL 3N","Latitude":"45.35330","Longitude":"-94.30560","Snowdepth":"1.000","Units":"in","Rept_Date":"2020-11-18 12"},"coordinates":[749,5217]},{"type":"Point","properties":{"Station_ID":"JSTN6","Station_Nam":"JAMESTOWN 4 ENE","Latitude":"42.11000","Longitude":"-79.15910","Snowdepth":"1.000","Units":"in","Rept_Date":"2020-11-18 12"},"coordinates":[5863,2784]},{"type":"Point","properties":{"Station_ID":"JOHV1","Station_Nam":"JOHNSON 2 N","Latitude":"44.65790","Longitude":"-72.67850","Snowdepth":"1.000","Units":"in","Rept_Date":"2020-11-18 12"},"coordinates":[8052,4696]},{"type":"Point","properties":{"Station_ID":"ITHN6","Station_Nam":"ITHACA,NY","Latitude":"42.45000","Longitude":"-76.45000","Snowdepth":"1.000","Units":"in","Rept_Date":"2020-11-18 12"},"coordinates":[6778,3039]},{"type":"Point","properties":{"Station_ID":"HVJP1","Station_Nam":"HIDDEN VALLEY COOP","Latitude":"40.04200","Longitude":"-79.25660","Snowdepth":"1.000","Units":"in","Rept_Date":"2020-11-18 13"},"coordinates":[5830,1233]},{"type":"Point","properties":{"Station_ID":"HUBN3","Station_Nam":"HUBBARD BROOK","Latitude":"43.93330","Longitude":"-71.71670","Snowdepth":"1.000","Units":"in","Rept_Date":"2020-11-19 06"},"coordinates":[8376,4152]},{"type":"Point","properties":{"Station_ID":"HRLN6","Station_Nam":"HORNELL ALMOND DAM","Latitude":"42.34880","Longitude":"-77.70440","Snowdepth":"1.000","Units":"in","Rept_Date":"2020-11-18 11"},"coordinates":[6354,2963]},{"type":"Point","properties":{"Station_ID":"HOLW3","Station_Nam":"HOLCOMBE","Latitude":"45.22370","Longitude":"-91.12700","Snowdepth":"1.000","Units":"in","Rept_Date":"2020-11-18 13"},"coordinates":[1822,5120]},{"type":"Point","properties":{"Station_ID":"GRMP1","Station_Nam":"GRAMPIAN, PA","Latitude":"40.96660","Longitude":"-78.58710","Snowdepth":"1.000","Units":"in","Rept_Date":"2020-11-18 11"},"coordinates":[6056,1926]},{"type":"Point","properties":{"Station_ID":"GNEN6","Station_Nam":"GREENE","Latitude":"42.32440","Longitude":"-75.77170","Snowdepth":"1.000","Units":"in","Rept_Date":"2020-11-18 16"},"coordinates":[7007,2945]},{"type":"Point","properties":{"Station_ID":"GLWM5","Station_Nam":"GLENWOOD 1N","Latitude":"45.66580","Longitude":"-95.38690","Snowdepth":"1.000","Units":"in","Rept_Date":"2020-11-18 13"},"coordinates":[384,5452]},{"type":"Point","properties":{"Station_ID":"GHMN3","Station_Nam":"PINKHAM NOTCH","Latitude":"44.25800","Longitude":"-71.25250","Snowdepth":"1.000","Units":"in","Rept_Date":"2020-11-18 10"},"coordinates":[8533,4396]},{"type":"Point","properties":{"Station_ID":"FVLN6","Station_Nam":"FREEVILLE,NY","Latitude":"42.51670","Longitude":"-76.33330","Snowdepth":"1.000","Units":"in","Rept_Date":"2020-11-18 13"},"coordinates":[6817,3089]},{"type":"Point","properties":{"Station_ID":"FRKN6","Station_Nam":"FRANKLINVILLE","Latitude":"42.32960","Longitude":"-78.46330","Snowdepth":"1.000","Units":"in","Rept_Date":"2020-11-18 12"},"coordinates":[6098,2949]},{"type":"Point","properties":{"Station_ID":"FORM5","Station_Nam":"FOREST LAKE 5NE","Latitude":"45.33170","Longitude":"-92.89820","Snowdepth":"1.000","Units":"in","Rept_Date":"2020-11-18 13"},"coordinates":[1224,5201]},{"type":"Point","properties":{"Station_ID":"EMRN6","Station_Nam":"ELMIRA","Latitude":"42.09970","Longitude":"-76.83580","Snowdepth":"1.000","Units":"in","Rept_Date":"2020-11-18 12"},"coordinates":[6648,2776]},{"type":"Point","properties":{"Station_ID":"ELKM5","Station_Nam":"ELK RIVER","Latitude":"45.30470","Longitude":"-93.58420","Snowdepth":"1.000","Units":"in","Rept_Date":"2020-11-18 13"},"coordinates":[992,5181]},{"type":"Point","properties":{"Station_ID":"EJNM4","Station_Nam":"EAST JORDAN 2NW","Latitude":"45.18630","Longitude":"-85.14770","Snowdepth":"1.000","Units":"in","Rept_Date":"2020-11-18 13"},"coordinates":[3841,5092]},{"type":"Point","properties":{"Station_ID":"EHYM3","Station_Nam":"EAST HAWLEY","Latitude":"42.57410","Longitude":"-72.86790","Snowdepth":"1.000","Units":"in","Rept_Date":"2020-11-18 13"},"coordinates":[7988,3132]},{"type":"Point","properties":{"Station_ID":"EGRW3","Station_Nam":"EAGLE RIVER-SOUTH","Latitude":"45.91360","Longitude":"-89.24360","Snowdepth":"1.000","Units":"in","Rept_Date":"2020-11-18 13"},"coordinates":[2458,5638]},{"type":"Point","properties":{"Station_ID":"DLSN6","Station_Nam":"DELANSON 2NE","Latitude":"42.76720","Longitude":"-74.17110","Snowdepth":"1.000","Units":"in","Rept_Date":"2020-11-18 12"},"coordinates":[7548,3277]},{"type":"Point","properties":{"Station_ID":"CVWP1","Station_Nam":"CHANDLER VALLEY 1SE","Latitude":"41.93010","Longitude":"-79.29700","Snowdepth":"1.000","Units":"in","Rept_Date":"2020-11-18 12"},"coordinates":[5817,2649]},{"type":"Point","properties":{"Station_ID":"COVP1","Station_Nam":"COVINGTON 2WSW","Latitude":"41.73330","Longitude":"-77.11670","Snowdepth":"1.000","Units":"in","Rept_Date":"2020-11-18 12"},"coordinates":[6553,2501]},{"type":"Point","properties":{"Station_ID":"COUW3","Station_Nam":"COUDERAY,WI","Latitude":"45.86670","Longitude":"-91.45000","Snowdepth":"1.000","Units":"in","Rept_Date":"2020-11-18 22"},"coordinates":[1713,5603]},{"type":"Point","properties":{"Station_ID":"CORV1","Station_Nam":"CORINTH","Latitude":"44.00690","Longitude":"-72.31940","Snowdepth":"1.000","Units":"in","Rept_Date":"2020-11-18 12"},"coordinates":[8173,4207]},{"type":"Point","properties":{"Station_ID":"CORN6","Station_Nam":"CORNING","Latitude":"42.13410","Longitude":"-77.06910","Snowdepth":"1.000","Units":"in","Rept_Date":"2020-11-18 12"},"coordinates":[6569,2802]},{"type":"Point","properties":{"Station_ID":"CNTP1","Station_Nam":"CANTON","Latitude":"41.65160","Longitude":"-76.84630","Snowdepth":"1.000","Units":"in","Rept_Date":"2020-11-18 13"},"coordinates":[6644,2440]},{"type":"Point","properties":{"Station_ID":"CLGM5","Station_Nam":"COLLEGEVILLE ST JOHN","Latitude":"45.57940","Longitude":"-94.39200","Snowdepth":"1.000","Units":"in","Rept_Date":"2020-11-19 00"},"coordinates":[719,5387]},{"type":"Point","properties":{"Station_ID":"CJRP1","Station_Nam":"COUDERSPORT 7SE","Latitude":"41.73920","Longitude":"-77.97110","Snowdepth":"1.000","Units":"in","Rept_Date":"2020-11-18 12"},"coordinates":[6264,2506]},{"type":"Point","properties":{"Station_ID":"BSNM5","Station_Nam":"BENSON","Latitude":"45.31670","Longitude":"-95.61660","Snowdepth":"1.000","Units":"in","Rept_Date":"2020-11-18 14"},"coordinates":[306,5190]},{"type":"Point","properties":{"Station_ID":"BFHW3","Station_Nam":"BAYFIELD FISH HATCHERY","Latitude":"46.78670","Longitude":"-90.86420","Snowdepth":"1.000","Units":"in","Rept_Date":"2020-11-18 14"},"coordinates":[1911,6293]},{"type":"Point","properties":{"Station_ID":"BAYW2","Station_Nam":"BAYARD COOP","Latitude":"39.27280","Longitude":"-79.36830","Snowdepth":"1.000","Units":"in","Rept_Date":"2020-11-18 12"},"coordinates":[5793,656]},{"type":"Point","properties":{"Station_ID":"AVTW3","Station_Nam":"ARBOR VITAE-JOHNSON LAKE","Latitude":"45.89940","Longitude":"-89.72670","Snowdepth":"1.000","Units":"in","Rept_Date":"2020-11-18 12"},"coordinates":[2295,5627]},{"type":"Point","properties":{"Station_ID":"AUBN6","Station_Nam":"AUBURN","Latitude":"42.93270","Longitude":"-76.54470","Snowdepth":"1.000","Units":"in","Rept_Date":"2020-11-18 12"},"coordinates":[6746,3401]},{"type":"Point","properties":{"Station_ID":"APXM4","Station_Nam":"GAYLORD 9SSW","Latitude":"44.90720","Longitude":"-84.71880","Snowdepth":"1.000","Units":"in","Rept_Date":"2020-11-19 06"},"coordinates":[3986,4883]},{"type":"Point","properties":{"Station_ID":"ALXM5","Station_Nam":"ALEXANDRIA","Latitude":"45.87820","Longitude":"-95.38270","Snowdepth":"1.000","Units":"in","Rept_Date":"2020-11-18 12"},"coordinates":[385,5611]},{"type":"Point","properties":{"Station_ID":"9547Y_MADIS","Station_Nam":"NEWPORT 1.5 WSW, VT","Latitude":"44.93060","Longitude":"-72.23730","Snowdepth":"1.000","Units":"in","Rept_Date":"2020-11-18 12"},"coordinates":[8200,4900]},{"type":"Point","properties":{"Station_ID":"41.8166_080.4333","Station_Nam":"3 WNW Springboro  Co-Op Observer (SBOP1)","Latitude":"41.81660","Longitude":"-80.43330","Snowdepth":"1.000","Units":"in","Rept_Date":"2020-11-18 12"},"coordinates":[5433,2564]},{"type":"Point","properties":{"Station_ID":"41.8165_080.4254","Station_Nam":"3 WNW Springboro  CoCoRaHS (PA-CW-8)","Latitude":"41.81650","Longitude":"-80.42540","Snowdepth":"1.000","Units":"in","Rept_Date":"2020-11-18 12"},"coordinates":[5436,2564]},{"type":"Point","properties":{"Station_ID":"41.2942_081.2316","Station_Nam":"1 NNW Mantua  CoCoRaHS (OH-PT-13)","Latitude":"41.29420","Longitude":"-81.23160","Snowdepth":"1.000","Units":"in","Rept_Date":"2020-11-18 12"},"coordinates":[5163,2172]},{"type":"Point","properties":{"Station_ID":"41.2574_080.6670","Station_Nam":"Youngstown Regional Airport  Trained Spotter (CLE2302)","Latitude":"41.25735","Longitude":"-80.66700","Snowdepth":"1.000","Units":"in","Rept_Date":"2020-11-18 12"},"coordinates":[5354,2144]}]}},"arcs":[],"transform":{"scale":[0.0029614561456145615,0.0013329232923292326],"translate":[-96.5227,38.399]}}