{"type":"Topology","objects":{"snowdepth_geo":{"type":"GeometryCollection","name":"snowdepth","crs":{"type":"name","properties":{"name":"urn:ogc:def:crs:OGC:1.3:CRS84"}},"geometries":[{"type":"Point","properties":{"Station_ID":"HPN11_MADIS","Station_Nam":"SAINT BONIFACIUS","Latitude":"44.89792","Longitude":"-93.73460","Snowdepth":"88.000","Units":"in","Rept_Date":"2021-01-11 06"},"coordinates":[949,6726]},{"type":"Point","properties":{"Station_ID":"PRKM4","Station_Nam":"MUNISING EAST","Latitude":"46.42580","Longitude":"-86.62000","Snowdepth":"76.500","Units":"in","Rept_Date":"2021-01-11 06"},"coordinates":[2876,7459]},{"type":"Point","properties":{"Station_ID":"TRIQ6","Station_Nam":"TRIO LAKE","Latitude":"49.22880","Longitude":"-87.22920","Snowdepth":"19.650","Units":"in","Rept_Date":"2021-01-11 06"},"coordinates":[2711,8802]},{"type":"Point","properties":{"Station_ID":"PTLQ6","Station_Nam":"PORTAGE LAKE","Latitude":"49.06950","Longitude":"-86.65940","Snowdepth":"19.330","Units":"in","Rept_Date":"2021-01-11 06"},"coordinates":[2865,8726]},{"type":"Point","properties":{"Station_ID":"QGO","Station_Nam":"QGO","Latitude":"48.85500","Longitude":"-74.20640","Snowdepth":"19.291","Units":"in","Rept_Date":"2021-01-10 12"},"coordinates":[6237,8623]},{"type":"Point","properties":{"Station_ID":"QLB","Station_Nam":"QLB","Latitude":"50.72360","Longitude":"-75.10000","Snowdepth":"19.055","Units":"in","Rept_Date":"2021-01-10 12"},"coordinates":[5995,9518]},{"type":"Point","properties":{"Station_ID":"AUDQ6","Station_Nam":"AUDEN","Latitude":"48.52600","Longitude":"-82.57570","Snowdepth":"18.620","Units":"in","Rept_Date":"2021-01-11 06"},"coordinates":[3971,8465]},{"type":"Point","properties":{"Station_ID":"QCO","Station_Nam":"QCO","Latitude":"51.45280","Longitude":"-72.20110","Snowdepth":"18.583","Units":"in","Rept_Date":"2021-01-10 12"},"coordinates":[6780,9868]},{"type":"Point","properties":{"Station_ID":"QTM","Station_Nam":"QTM","Latitude":"51.05780","Longitude":"-72.57190","Snowdepth":"17.362","Units":"in","Rept_Date":"2021-01-10 12"},"coordinates":[6680,9678]},{"type":"Point","properties":{"Station_ID":"DVLQ6","Station_Nam":"DEVIOUS LAKE","Latitude":"49.19890","Longitude":"-87.76440","Snowdepth":"17.170","Units":"in","Rept_Date":"2021-01-11 06"},"coordinates":[2566,8788]},{"type":"Point","properties":{"Station_ID":"PDLM4","Station_Nam":"PAINESDALE","Latitude":"47.04160","Longitude":"-88.67170","Snowdepth":"17.000","Units":"in","Rept_Date":"2021-01-10 13"},"coordinates":[2320,7754]},{"type":"Point","properties":{"Station_ID":"IWOM4","Station_Nam":"IRONWOOD#2","Latitude":"46.46520","Longitude":"-90.13820","Snowdepth":"16.000","Units":"in","Rept_Date":"2021-01-10 13"},"coordinates":[1923,7477]},{"type":"Point","properties":{"Station_ID":"CAN-ON-245","Station_Nam":"PHELPSTON 3.1 ESE, CAN","Latitude":"44.50564","Longitude":"-79.81035","Snowdepth":"16.000","Units":"in","Rept_Date":"2021-01-10 13"},"coordinates":[4720,6538]},{"type":"Point","properties":{"Station_ID":"QFT","Station_Nam":"QFT","Latitude":"50.83280","Longitude":"-74.40390","Snowdepth":"15.276","Units":"in","Rept_Date":"2021-01-10 12"},"coordinates":[6184,9571]},{"type":"Point","properties":{"Station_ID":"MMNV1","Station_Nam":"MT. MANSFIELD","Latitude":"44.52480","Longitude":"-72.81540","Snowdepth":"15.000","Units":"in","Rept_Date":"2021-01-10 21"},"coordinates":[6614,6548]},{"type":"Point","properties":{"Station_ID":"HURW3","Station_Nam":"HURLEY","Latitude":"46.46250","Longitude":"-90.19550","Snowdepth":"15.000","Units":"in","Rept_Date":"2021-01-10 14"},"coordinates":[1907,7476]},{"type":"Point","properties":{"Station_ID":"HTLN3","Station_Nam":"HERMIT LAKE SNOWPLOT","Latitude":"44.26130","Longitude":"-71.28330","Snowdepth":"15.000","Units":"in","Rept_Date":"2021-01-10 10"},"coordinates":[7029,6421]},{"type":"Point","properties":{"Station_ID":"WLFM5","Station_Nam":"WOLF RIDGE ENVIRON LEARNING CENTER","Latitude":"47.38240","Longitude":"-91.19730","Snowdepth":"13.000","Units":"in","Rept_Date":"2021-01-10 13"},"coordinates":[1636,7917]},{"type":"Point","properties":{"Station_ID":"SWTW3","Station_Nam":"SUPERIOR WWTP","Latitude":"46.72700","Longitude":"-92.07200","Snowdepth":"13.000","Units":"in","Rept_Date":"2021-01-11 06"},"coordinates":[1399,7603]},{"type":"Point","properties":{"Station_ID":"KSGM4","Station_Nam":"KEARSARGE","Latitude":"47.27520","Longitude":"-88.41700","Snowdepth":"13.000","Units":"in","Rept_Date":"2021-01-10 13"},"coordinates":[2389,7866]},{"type":"Point","properties":{"Station_ID":"HERM4","Station_Nam":"HERMAN,MI","Latitude":"46.65000","Longitude":"-88.33330","Snowdepth":"13.000","Units":"in","Rept_Date":"2021-01-10 13"},"coordinates":[2412,7566]},{"type":"Point","properties":{"Station_ID":"QOU","Station_Nam":"QOU","Latitude":"50.79250","Longitude":"-69.67470","Snowdepth":"12.835","Units":"in","Rept_Date":"2021-01-10 12"},"coordinates":[7464,9551]},{"type":"Point","properties":{"Station_ID":"OGIQ6","Station_Nam":"OGOKI CAMP","Latitude":"50.76680","Longitude":"-87.85820","Snowdepth":"12.830","Units":"in","Rept_Date":"2021-01-11 06"},"coordinates":[2540,9539]},{"type":"Point","properties":{"Station_ID":"QNCM4","Station_Nam":"QUINCY HILL","Latitude":"47.13640","Longitude":"-88.57950","Snowdepth":"12.000","Units":"in","Rept_Date":"2021-01-10 13"},"coordinates":[2345,7799]},{"type":"Point","properties":{"Station_ID":"MN-IS-18","Station_Nam":"BRAHAM 0.7 SW, MN","Latitude":"45.71379","Longitude":"-93.18095","Snowdepth":"12.000","Units":"in","Rept_Date":"2021-01-10 14"},"coordinates":[1099,7117]},{"type":"Point","properties":{"Station_ID":"LNCM1","Station_Nam":"LINCOLN WATER DISTRICT","Latitude":"45.32410","Longitude":"-68.58300","Snowdepth":"12.000","Units":"in","Rept_Date":"2021-01-10 12"},"coordinates":[7760,6931]},{"type":"Point","properties":{"Station_ID":"KABM5","Station_Nam":"KABETOGAMA LAKE VISITOR CTR","Latitude":"48.40880","Longitude":"-93.04840","Snowdepth":"12.000","Units":"in","Rept_Date":"2021-01-10 13"},"coordinates":[1135,8409]},{"type":"Point","properties":{"Station_ID":"KABQ6","Station_Nam":"CAB LAKE","Latitude":"49.59950","Longitude":"-89.17990","Snowdepth":"11.890","Units":"in","Rept_Date":"2021-01-11 06"},"coordinates":[2182,8980]},{"type":"Point","properties":{"Station_ID":"HLSN3","Station_Nam":"HERMIT LAKE SNOTEL","Latitude":"44.26130","Longitude":"-71.28320","Snowdepth":"11.570","Units":"in","Rept_Date":"2021-01-11 06"},"coordinates":[7029,6421]},{"type":"Point","properties":{"Station_ID":"MLZ","Station_Nam":"MLZ","Latitude":"50.66170","Longitude":"-68.82360","Snowdepth":"11.181","Units":"in","Rept_Date":"2021-01-10 12"},"coordinates":[7695,9489]},{"type":"Point","properties":{"Station_ID":"SVBQ6","Station_Nam":"SAVANT BASE","Latitude":"50.28730","Longitude":"-90.65670","Snowdepth":"11.060","Units":"in","Rept_Date":"2021-01-11 06"},"coordinates":[1782,9309]},{"type":"Point","properties":{"Station_ID":"QMD","Station_Nam":"QMD","Latitude":"49.29060","Longitude":"-75.84500","Snowdepth":"11.024","Units":"in","Rept_Date":"2021-01-10 12"},"coordinates":[5793,8831]},{"type":"Point","properties":{"Station_ID":"WRSM5","Station_Nam":"WRENSHALL","Latitude":"46.61550","Longitude":"-92.38380","Snowdepth":"11.000","Units":"in","Rept_Date":"2021-01-10 14"},"coordinates":[1315,7550]},{"type":"Point","properties":{"Station_ID":"MN-SL-15","Station_Nam":"CHISHOLM 0.4 WSW, MN","Latitude":"47.48557","Longitude":"-92.88690","Snowdepth":"11.000","Units":"in","Rept_Date":"2021-01-10 13"},"coordinates":[1178,7966]},{"type":"Point","properties":{"Station_ID":"HGHN6","Station_Nam":"HIGHMARKET","Latitude":"43.60510","Longitude":"-75.55430","Snowdepth":"11.000","Units":"in","Rept_Date":"2021-01-10 11"},"coordinates":[5872,6107]},{"type":"Point","properties":{"Station_ID":"BNDM5","Station_Nam":"ELY 25E","Latitude":"47.97190","Longitude":"-91.44860","Snowdepth":"11.000","Units":"in","Rept_Date":"2021-01-10 13"},"coordinates":[1568,8200]},{"type":"Point","properties":{"Station_ID":"SOCQ6","Station_Nam":"SOCKET LAKE","Latitude":"50.77870","Longitude":"-91.79300","Snowdepth":"10.910","Units":"in","Rept_Date":"2021-01-11 06"},"coordinates":[1475,9545]},{"type":"Point","properties":{"Station_ID":"QLI","Station_Nam":"QLI","Latitude":"50.27080","Longitude":"-73.92280","Snowdepth":"10.827","Units":"in","Rept_Date":"2021-01-10 12"},"coordinates":[6314,9301]},{"type":"Point","properties":{"Station_ID":"MI-HG-20","Station_Nam":"CALUMET 1.1 SSW, MI","Latitude":"47.23165","Longitude":"-88.45823","Snowdepth":"10.500","Units":"in","Rept_Date":"2021-01-10 11"},"coordinates":[2378,7845]},{"type":"Point","properties":{"Station_ID":"MI-BG-3","Station_Nam":"THREE LAKES, MI","Latitude":"46.55730","Longitude":"-88.20770","Snowdepth":"10.500","Units":"in","Rept_Date":"2021-01-10 13"},"coordinates":[2446,7522]},{"type":"Point","properties":{"Station_ID":"WI-IR-3","Station_Nam":"PENCE 0.1 E, WI","Latitude":"46.41555","Longitude":"-90.27013","Snowdepth":"10.000","Units":"in","Rept_Date":"2021-01-10 13"},"coordinates":[1887,7454]},{"type":"Point","properties":{"Station_ID":"NOHM5","Station_Nam":"NORTHOME","Latitude":"47.83590","Longitude":"-94.25550","Snowdepth":"10.000","Units":"in","Rept_Date":"2021-01-10 13"},"coordinates":[808,8134]},{"type":"Point","properties":{"Station_ID":"MN-CK-18","Station_Nam":"GRAND MARAIS 4.4 WSW, MN","Latitude":"47.74462","Longitude":"-90.43796","Snowdepth":"10.000","Units":"in","Rept_Date":"2021-01-10 13"},"coordinates":[1842,8091]},{"type":"Point","properties":{"Station_ID":"MI-OG-6","Station_Nam":"WEST BRANCH 2.1 SSW, MI","Latitude":"44.24814","Longitude":"-84.25089","Snowdepth":"10.000","Units":"in","Rept_Date":"2021-01-10 12"},"coordinates":[3517,6415]},{"type":"Point","properties":{"Station_ID":"LEIM5","Station_Nam":"ORR 3E","Latitude":"48.05810","Longitude":"-92.75220","Snowdepth":"10.000","Units":"in","Rept_Date":"2021-01-10 12"},"coordinates":[1215,8241]},{"type":"Point","properties":{"Station_ID":"GNLM4","Station_Nam":"GREENLAND 6N","Latitude":"46.87360","Longitude":"-89.10060","Snowdepth":"10.000","Units":"in","Rept_Date":"2021-01-10 13"},"coordinates":[2204,7673]},{"type":"Point","properties":{"Station_ID":"COTM5","Station_Nam":"COTTON","Latitude":"47.16870","Longitude":"-92.46290","Snowdepth":"10.000","Units":"in","Rept_Date":"2021-01-10 13"},"coordinates":[1293,7815]},{"type":"Point","properties":{"Station_ID":"QWE","Station_Nam":"QWE","Latitude":"47.84610","Longitude":"-73.80670","Snowdepth":"9.803","Units":"in","Rept_Date":"2021-01-10 12"},"coordinates":[6345,8139]},{"type":"Point","properties":{"Station_ID":"WI-WB-2","Station_Nam":"STONE LAKE 2.0 NW, WI","Latitude":"45.85960","Longitude":"-91.57710","Snowdepth":"9.500","Units":"in","Rept_Date":"2021-01-10 13"},"coordinates":[1533,7187]},{"type":"Point","properties":{"Station_ID":"CAN-ON-5","Station_Nam":"OWEN SOUND 1.5 NW - GSCA, CAN","Latitude":"44.57837","Longitude":"-80.95461","Snowdepth":"9.500","Units":"in","Rept_Date":"2021-01-10 13"},"coordinates":[4410,6573]},{"type":"Point","properties":{"Station_ID":"WLDM5","Station_Nam":"WILD RIVER STATE PARK","Latitude":"45.52310","Longitude":"-92.74890","Snowdepth":"9.000","Units":"in","Rept_Date":"2021-01-10 14"},"coordinates":[1216,7026]},{"type":"Point","properties":{"Station_ID":"WI-DG-20","Station_Nam":"SOLON SPRINGS 1.2 W, WI","Latitude":"46.35217","Longitude":"-91.84405","Snowdepth":"9.000","Units":"in","Rept_Date":"2021-01-10 13"},"coordinates":[1461,7423]},{"type":"Point","properties":{"Station_ID":"WI-BY-29","Station_Nam":"BAYFIELD 5.1 NNW, WI","Latitude":"46.88063","Longitude":"-90.85854","Snowdepth":"9.000","Units":"in","Rept_Date":"2021-01-10 14"},"coordinates":[1728,7677]},{"type":"Point","properties":{"Station_ID":"STOI2","Station_Nam":"STOCKTON 3 NNE","Latitude":"42.40050","Longitude":"-89.99580","Snowdepth":"9.000","Units":"in","Rept_Date":"2021-01-11 03"},"coordinates":[1961,5530]},{"type":"Point","properties":{"Station_ID":"MWN","Station_Nam":"MOUNT WASHINGTON","Latitude":"44.26670","Longitude":"-71.30000","Snowdepth":"9.000","Units":"in","Rept_Date":"2021-01-10 12"},"coordinates":[7024,6424]},{"type":"Point","properties":{"Station_ID":"MTLT1","Station_Nam":"GATLINBURG,TN","Latitude":"35.65500","Longitude":"-83.44110","Snowdepth":"9.000","Units":"in","Rept_Date":"2021-01-10 13"},"coordinates":[3736,2297]},{"type":"Point","properties":{"Station_ID":"MN-SL-108","Station_Nam":"IRON JUNCTION 3.4 NNW, MN","Latitude":"47.46150","Longitude":"-92.63130","Snowdepth":"9.000","Units":"in","Rept_Date":"2021-01-10 13"},"coordinates":[1248,7955]},{"type":"Point","properties":{"Station_ID":"MN-CN-36","Station_Nam":"CLOQUET 3.4 ENE, MN","Latitude":"46.74146","Longitude":"-92.42698","Snowdepth":"9.000","Units":"in","Rept_Date":"2021-01-10 13"},"coordinates":[1303,7610]},{"type":"Point","properties":{"Station_ID":"MI-HG-1","Station_Nam":"HOUGHTON 1.6 ESE, MI","Latitude":"47.10774","Longitude":"-88.52940","Snowdepth":"9.000","Units":"in","Rept_Date":"2021-01-10 13"},"coordinates":[2358,7785]},{"type":"Point","properties":{"Station_ID":"KMWN","Station_Nam":"MOUNT WASHINGTON","Latitude":"44.26666","Longitude":"-71.30000","Snowdepth":"9.000","Units":"in","Rept_Date":"2021-01-11 06"},"coordinates":[7024,6424]},{"type":"Point","properties":{"Station_ID":"IL-JD-8","Station_Nam":"STOCKTON 3.4 NNE, IL","Latitude":"42.39960","Longitude":"-89.99020","Snowdepth":"9.000","Units":"in","Rept_Date":"2021-01-10 13"},"coordinates":[1963,5529]},{"type":"Point","properties":{"Station_ID":"ELYM5","Station_Nam":"ELY","Latitude":"47.90560","Longitude":"-91.82830","Snowdepth":"9.000","Units":"in","Rept_Date":"2021-01-10 14"},"coordinates":[1465,8168]},{"type":"Point","properties":{"Station_ID":"COKM5","Station_Nam":"COOK","Latitude":"47.85060","Longitude":"-92.69250","Snowdepth":"9.000","Units":"in","Rept_Date":"2021-01-10 12"},"coordinates":[1231,8141]},{"type":"Point","properties":{"Station_ID":"BFHW3","Station_Nam":"BAYFIELD FISH HATCHERY","Latitude":"46.78670","Longitude":"-90.86420","Snowdepth":"9.000","Units":"in","Rept_Date":"2021-01-10 14"},"coordinates":[1726,7632]},{"type":"Point","properties":{"Station_ID":"BBEM4","Station_Nam":"BIG BAY 9SW","Latitude":"46.74620","Longitude":"-87.88160","Snowdepth":"9.000","Units":"in","Rept_Date":"2021-01-10 13"},"coordinates":[2534,7612]},{"type":"Point","properties":{"Station_ID":"CAN-ON-452","Station_Nam":"CHATSWORTH 1.8 ENE - GSCA, CAN","Latitude":"44.46118","Longitude":"-80.87506","Snowdepth":"8.800","Units":"in","Rept_Date":"2021-01-10 12"},"coordinates":[4431,6517]},{"type":"Point","properties":{"Station_ID":"CATQ6","Station_Nam":"CAT LAKE","Latitude":"51.72690","Longitude":"-91.82210","Snowdepth":"8.740","Units":"in","Rept_Date":"2021-01-11 06"},"coordinates":[1467,9999]},{"type":"Point","properties":{"Station_ID":"CAN-ON-451","Station_Nam":"OWEN SOUND 1.2 N - GSCA, CAN","Latitude":"44.58092","Longitude":"-80.93025","Snowdepth":"8.700","Units":"in","Rept_Date":"2021-01-10 13"},"coordinates":[4416,6575]},{"type":"Point","properties":{"Station_ID":"WI-RK-12","Station_Nam":"JANESVILLE 3.1 W, WI","Latitude":"42.67576","Longitude":"-89.07614","Snowdepth":"8.500","Units":"in","Rept_Date":"2021-01-10 13"},"coordinates":[2210,5662]},{"type":"Point","properties":{"Station_ID":"WI-BY-22","Station_Nam":"MASON 11.5 WNW, WI","Latitude":"46.50198","Longitude":"-91.28339","Snowdepth":"8.500","Units":"in","Rept_Date":"2021-01-10 14"},"coordinates":[1613,7495]},{"type":"Point","properties":{"Station_ID":"NY-SR-22","Station_Nam":"GREENFIELD CENTER 1.6 W, NY","Latitude":"43.12684","Longitude":"-73.87860","Snowdepth":"8.500","Units":"in","Rept_Date":"2021-01-10 14"},"coordinates":[6326,5878]},{"type":"Point","properties":{"Station_ID":"CAN-NS-103","Station_Nam":"TRAFALGAR 4.9 WSW, CAN","Latitude":"45.26217","Longitude":"-62.72285","Snowdepth":"8.500","Units":"in","Rept_Date":"2021-01-10 12"},"coordinates":[9347,6901]},{"type":"Point","properties":{"Station_ID":"CAN-NB-11","Station_Nam":"MIRAMICHI 3.3 S, CAN","Latitude":"46.99343","Longitude":"-65.50690","Snowdepth":"8.500","Units":"in","Rept_Date":"2021-01-10 12"},"coordinates":[8593,7731]},{"type":"Point","properties":{"Station_ID":"WTNM4","Station_Nam":"WATTON 2WSW","Latitude":"46.52660","Longitude":"-88.64240","Snowdepth":"8.000","Units":"in","Rept_Date":"2021-01-10 13"},"coordinates":[2328,7507]},{"type":"Point","properties":{"Station_ID":"WI-SR-1","Station_Nam":"HAYWARD 9.2 NNE, WI","Latitude":"46.13255","Longitude":"-91.40500","Snowdepth":"8.000","Units":"in","Rept_Date":"2021-01-10 12"},"coordinates":[1580,7318]},{"type":"Point","properties":{"Station_ID":"WI-IR-2","Station_Nam":"MERCER 2.0 SE, WI","Latitude":"46.14749","Longitude":"-90.03097","Snowdepth":"8.000","Units":"in","Rept_Date":"2021-01-10 13"},"coordinates":[1952,7325]},{"type":"Point","properties":{"Station_ID":"WI-BY-14","Station_Nam":"ASHLAND 9.8 W, WI","Latitude":"46.59742","Longitude":"-91.07856","Snowdepth":"8.000","Units":"in","Rept_Date":"2021-01-10 12"},"coordinates":[1668,7541]},{"type":"Point","properties":{"Station_ID":"WI-BY-1","Station_Nam":"BAYFIELD 8.8 N, WI","Latitude":"46.93855","Longitude":"-90.83490","Snowdepth":"8.000","Units":"in","Rept_Date":"2021-01-10 13"},"coordinates":[1734,7704]},{"type":"Point","properties":{"Station_ID":"VT-WS-23","Station_Nam":"CABOT 2.3 E, VT","Latitude":"44.39807","Longitude":"-72.26570","Snowdepth":"8.000","Units":"in","Rept_Date":"2021-01-10 12"},"coordinates":[6763,6487]},{"type":"Point","properties":{"Station_ID":"TOHM5","Station_Nam":"TWO HARBORS WWTP","Latitude":"47.01760","Longitude":"-91.66480","Snowdepth":"8.000","Units":"in","Rept_Date":"2021-01-10 13"},"coordinates":[1509,7742]},{"type":"Point","properties":{"Station_ID":"TOGM5","Station_Nam":"CELINA 2E","Latitude":"47.86630","Longitude":"-93.02660","Snowdepth":"8.000","Units":"in","Rept_Date":"2021-01-10 14"},"coordinates":[1141,8149]},{"type":"Point","properties":{"Station_ID":"SRAW3","Station_Nam":"SARONA","Latitude":"45.80250","Longitude":"-91.86700","Snowdepth":"8.000","Units":"in","Rept_Date":"2021-01-10 14"},"coordinates":[1455,7160]},{"type":"Point","properties":{"Station_ID":"MQT","Station_Nam":"MARQUETTE, MI","Latitude":"46.53140","Longitude":"-87.54920","Snowdepth":"8.000","Units":"in","Rept_Date":"2021-01-11 06"},"coordinates":[2624,7509]},{"type":"Point","properties":{"Station_ID":"MONW3","Station_Nam":"MONROE,WI","Latitude":"42.60000","Longitude":"-89.66670","Snowdepth":"8.000","Units":"in","Rept_Date":"2021-01-10 13"},"coordinates":[2050,5625]},{"type":"Point","properties":{"Station_ID":"MN-WR-25","Station_Nam":"SAINT MICHAEL 2.0 ENE, MN","Latitude":"45.20820","Longitude":"-93.65280","Snowdepth":"8.000","Units":"in","Rept_Date":"2021-01-10 12"},"coordinates":[971,6875]},{"type":"Point","properties":{"Station_ID":"MN-SL-115","Station_Nam":"COTTON 5.7 ESE, MN","Latitude":"47.15142","Longitude":"-92.35772","Snowdepth":"8.000","Units":"in","Rept_Date":"2021-01-10 14"},"coordinates":[1322,7806]},{"type":"Point","properties":{"Station_ID":"MN-HN-134","Station_Nam":"BROOKLYN CENTER 1.1 E, MN","Latitude":"45.06744","Longitude":"-93.29334","Snowdepth":"8.000","Units":"in","Rept_Date":"2021-01-10 13"},"coordinates":[1068,6808]},{"type":"Point","properties":{"Station_ID":"MN-CW-22","Station_Nam":"FORT RIPLEY 0.8 N, MN","Latitude":"46.18089","Longitude":"-94.36510","Snowdepth":"8.000","Units":"in","Rept_Date":"2021-01-10 13"},"coordinates":[778,7341]},{"type":"Point","properties":{"Station_ID":"MN-CK-6","Station_Nam":"GRAND MARAIS 4.4 W, MN","Latitude":"47.74865","Longitude":"-90.43760","Snowdepth":"8.000","Units":"in","Rept_Date":"2021-01-10 13"},"coordinates":[1842,8093]},{"type":"Point","properties":{"Station_ID":"MN-CG-16","Station_Nam":"NORTH BRANCH 1.3 NNW, MN","Latitude":"45.53121","Longitude":"-92.97110","Snowdepth":"8.000","Units":"in","Rept_Date":"2021-01-10 12"},"coordinates":[1156,7030]},{"type":"Point","properties":{"Station_ID":"MIEM4","Station_Nam":"MICHIGAMME 3WNW","Latitude":"46.54530","Longitude":"-88.18000","Snowdepth":"8.000","Units":"in","Rept_Date":"2021-01-10 13"},"coordinates":[2453,7516]},{"type":"Point","properties":{"Station_ID":"LUCW3","Station_Nam":"LUCK","Latitude":"45.57330","Longitude":"-92.48520","Snowdepth":"8.000","Units":"in","Rept_Date":"2021-01-10 17"},"coordinates":[1287,7050]},{"type":"Point","properties":{"Station_ID":"LNOW3","Station_Nam":"LAND O LAKES","Latitude":"46.19000","Longitude":"-89.45700","Snowdepth":"8.000","Units":"in","Rept_Date":"2021-01-10 13"},"coordinates":[2107,7346]},{"type":"Point","properties":{"Station_ID":"IRMM4","Station_Nam":"WWTP","Latitude":"46.46670","Longitude":"-90.18330","Snowdepth":"8.000","Units":"in","Rept_Date":"2021-01-10 13"},"coordinates":[1911,7478]},{"type":"Point","properties":{"Station_ID":"INL","Station_Nam":"FALLS INTERNATIONAL ARPT","Latitude":"48.56640","Longitude":"-93.40310","Snowdepth":"8.000","Units":"in","Rept_Date":"2021-01-11 00"},"coordinates":[1039,8484]},{"type":"Point","properties":{"Station_ID":"IFSM5","Station_Nam":"INTERNATIONAL FALLS SNOW","Latitude":"48.57780","Longitude":"-93.39640","Snowdepth":"8.000","Units":"in","Rept_Date":"2021-01-10 12"},"coordinates":[1040,8490]},{"type":"Point","properties":{"Station_ID":"HUBN3","Station_Nam":"HUBBARD BROOK","Latitude":"43.93330","Longitude":"-71.71670","Snowdepth":"8.000","Units":"in","Rept_Date":"2021-01-11 06"},"coordinates":[6911,6264]},{"type":"Point","properties":{"Station_ID":"HTLM4","Station_Nam":"SNOW PAID OBSERVER FOR KHTL","Latitude":"44.34470","Longitude":"-84.67730","Snowdepth":"8.000","Units":"in","Rept_Date":"2021-01-10 18"},"coordinates":[3402,6461]},{"type":"Point","properties":{"Station_ID":"HTL","Station_Nam":"ROSCOMMON COUNTY AIRPORT","Latitude":"44.35000","Longitude":"-84.66670","Snowdepth":"8.000","Units":"in","Rept_Date":"2021-01-11 00"},"coordinates":[3405,6464]},{"type":"Point","properties":{"Station_ID":"FORM5","Station_Nam":"FOREST LAKE 5NE","Latitude":"45.33170","Longitude":"-92.89820","Snowdepth":"8.000","Units":"in","Rept_Date":"2021-01-10 13"},"coordinates":[1175,6934]},{"type":"Point","properties":{"Station_ID":"EMBM5","Station_Nam":"EMBARASS,MN","Latitude":"47.65810","Longitude":"-92.19580","Snowdepth":"8.000","Units":"in","Rept_Date":"2021-01-10 14"},"coordinates":[1366,8049]},{"type":"Point","properties":{"Station_ID":"CMKW3","Station_Nam":"CLAM LAKE 4W","Latitude":"46.16940","Longitude":"-90.98080","Snowdepth":"8.000","Units":"in","Rept_Date":"2021-01-10 13"},"coordinates":[1695,7336]},{"type":"Point","properties":{"Station_ID":"CLIW3","Station_Nam":"CLINTON,WI","Latitude":"42.60000","Longitude":"-88.88330","Snowdepth":"8.000","Units":"in","Rept_Date":"2021-01-10 13"},"coordinates":[2263,5625]},{"type":"Point","properties":{"Station_ID":"CAN-PE-3","Station_Nam":"WELLINGTON 1.6 NE, CA","Latitude":"46.46672","Longitude":"-63.98920","Snowdepth":"8.000","Units":"in","Rept_Date":"2021-01-10 11"},"coordinates":[9004,7478]},{"type":"Point","properties":{"Station_ID":"CAN-NB-18","Station_Nam":"MCLEOD HILL 1.1 ENE, CA","Latitude":"46.02725","Longitude":"-66.67460","Snowdepth":"8.000","Units":"in","Rept_Date":"2021-01-10 12"},"coordinates":[8277,7268]},{"type":"Point","properties":{"Station_ID":"CAN-MB-368","Station_Nam":"WHITESHELL 1.3 NE, CAN","Latitude":"49.74405","Longitude":"-95.19123","Snowdepth":"8.000","Units":"in","Rept_Date":"2021-01-10 14"},"coordinates":[554,9049]},{"type":"Point","properties":{"Station_ID":"BLGW3","Station_Nam":"BELGIUM WWTP","Latitude":"43.51310","Longitude":"-87.85440","Snowdepth":"8.000","Units":"in","Rept_Date":"2021-01-10 13"},"coordinates":[2541,6063]},{"type":"Point","properties":{"Station_ID":"BCHN7","Station_Nam":"BEECH MOUNTAIN","Latitude":"36.18780","Longitude":"-81.87360","Snowdepth":"8.000","Units":"in","Rept_Date":"2021-01-10 12"},"coordinates":[4161,2552]},{"type":"Point","properties":{"Station_ID":"ANJM4","Station_Nam":"SNOW PAID OBSERVER FOR KANJ","Latitude":"46.48670","Longitude":"-84.40260","Snowdepth":"8.000","Units":"in","Rept_Date":"2021-01-10 18"},"coordinates":[3476,7488]},{"type":"Point","properties":{"Station_ID":"ANJ","Station_Nam":"SAULT STE MARIE","Latitude":"46.46670","Longitude":"-84.36670","Snowdepth":"8.000","Units":"in","Rept_Date":"2021-01-11 00"},"coordinates":[3486,7478]},{"type":"Point","properties":{"Station_ID":"FTHQ6","Station_Nam":"FORT HOPE","Latitude":"51.55820","Longitude":"-87.90510","Snowdepth":"7.640","Units":"in","Rept_Date":"2021-01-11 06"},"coordinates":[2528,9918]},{"type":"Point","properties":{"Station_ID":"WI-VL-9","Station_Nam":"LAND O' LAKES 11.7 W, WI","Latitude":"46.19023","Longitude":"-89.45790","Snowdepth":"7.500","Units":"in","Rept_Date":"2021-01-10 13"},"coordinates":[2107,7346]},{"type":"Point","properties":{"Station_ID":"WI-BY-2","Station_Nam":"MELLEN 18.6 SW, WI","Latitude":"46.16937","Longitude":"-90.98090","Snowdepth":"7.500","Units":"in","Rept_Date":"2021-01-10 13"},"coordinates":[1695,7336]},{"type":"Point","properties":{"Station_ID":"VT-OL-12","Station_Nam":"GREENSBORO 3.9 NNE, VT","Latitude":"44.63100","Longitude":"-72.28000","Snowdepth":"7.500","Units":"in","Rept_Date":"2021-01-10 13"},"coordinates":[6759,6599]},{"type":"Point","properties":{"Station_ID":"MN-BK-6","Station_Nam":"LAKE PARK 6.0 S, MN","Latitude":"46.79850","Longitude":"-96.12180","Snowdepth":"7.500","Units":"in","Rept_Date":"2021-01-10 13"},"coordinates":[302,7637]},{"type":"Point","properties":{"Station_ID":"IL-SP-25","Station_Nam":"FREEPORT 1.7 NW, IL","Latitude":"42.30427","Longitude":"-89.66285","Snowdepth":"7.500","Units":"in","Rept_Date":"2021-01-10 13"},"coordinates":[2052,5483]},{"type":"Point","properties":{"Station_ID":"CAN-QC-56","Station_Nam":"SUTTON 2.6 N, CAN","Latitude":"45.13119","Longitude":"-72.61218","Snowdepth":"7.100","Units":"in","Rept_Date":"2021-01-10 12"},"coordinates":[6669,6838]},{"type":"Point","properties":{"Station_ID":"CAN-QC-47","Station_Nam":"SAINTE-FOY 1.8 ENE, CAN","Latitude":"46.76934","Longitude":"-71.27124","Snowdepth":"7.100","Units":"in","Rept_Date":"2021-01-10 12"},"coordinates":[7032,7623]},{"type":"Point","properties":{"Station_ID":"CAN-NB-98","Station_Nam":"HOYT 4.2 S, CAN","Latitude":"45.54763","Longitude":"-66.55440","Snowdepth":"7.100","Units":"in","Rept_Date":"2021-01-10 11"},"coordinates":[8309,7038]},{"type":"Point","properties":{"Station_ID":"CAN-NB-97","Station_Nam":"NEW MARYLAND 0.6 NW, CAN","Latitude":"45.90112","Longitude":"-66.68739","Snowdepth":"7.100","Units":"in","Rept_Date":"2021-01-10 12"},"coordinates":[8273,7207]},{"type":"Point","properties":{"Station_ID":"WRIM5","Station_Nam":"WRIGHT 3E","Latitude":"46.68040","Longitude":"-92.95420","Snowdepth":"7.000","Units":"in","Rept_Date":"2021-01-10 12"},"coordinates":[1160,7581]},{"type":"Point","properties":{"Station_ID":"WNDP1","Station_Nam":"WINDBER COUNTY CLUB","Latitude":"40.28780","Longitude":"-78.77530","Snowdepth":"7.000","Units":"in","Rept_Date":"2021-01-10 12"},"coordinates":[5000,4517]},{"type":"Point","properties":{"Station_ID":"WI-WK-74","Station_Nam":"BROOKFIELD 2.8 SSW, WI","Latitude":"43.02390","Longitude":"-88.13760","Snowdepth":"7.000","Units":"in","Rept_Date":"2021-01-10 13"},"coordinates":[2465,5828]},{"type":"Point","properties":{"Station_ID":"WI-PK-33","Station_Nam":"FREDERIC 4.8 NE, WI","Latitude":"45.70970","Longitude":"-92.39950","Snowdepth":"7.000","Units":"in","Rept_Date":"2021-01-10 13"},"coordinates":[1310,7115]},{"type":"Point","properties":{"Station_ID":"VT-WS-7","Station_Nam":"MIDDLESEX 3.1 ENE, VT","Latitude":"44.31799","Longitude":"-72.62650","Snowdepth":"7.000","Units":"in","Rept_Date":"2021-01-10 13"},"coordinates":[6665,6449]},{"type":"Point","properties":{"Station_ID":"VT-WS-30","Station_Nam":"WOODBURY 3.4 NNW, VT","Latitude":"44.48825","Longitude":"-72.43258","Snowdepth":"7.000","Units":"in","Rept_Date":"2021-01-10 12"},"coordinates":[6718,6530]},{"type":"Point","properties":{"Station_ID":"VT-OL-1","Station_Nam":"WESTFIELD 0.7 WNW, VT","Latitude":"44.89160","Longitude":"-72.44350","Snowdepth":"7.000","Units":"in","Rept_Date":"2021-01-10 12"},"coordinates":[6715,6723]},{"type":"Point","properties":{"Station_ID":"TOPM1","Station_Nam":"TOPSFIELD","Latitude":"45.43470","Longitude":"-67.72020","Snowdepth":"7.000","Units":"in","Rept_Date":"2021-01-10 12"},"coordinates":[7994,6984]},{"type":"Point","properties":{"Station_ID":"SWHI4","Station_Nam":"SWISHER #2","Latitude":"41.84970","Longitude":"-91.67650","Snowdepth":"7.000","Units":"in","Rept_Date":"2021-01-10 15"},"coordinates":[1506,5266]},{"type":"Point","properties":{"Station_ID":"SUTV1","Station_Nam":"SUTTON","Latitude":"44.61220","Longitude":"-72.04810","Snowdepth":"7.000","Units":"in","Rept_Date":"2021-01-10 13"},"coordinates":[6822,6590]},{"type":"Point","properties":{"Station_ID":"SUAW3","Station_Nam":"SUAMICO","Latitude":"44.60190","Longitude":"-88.09780","Snowdepth":"7.000","Units":"in","Rept_Date":"2021-01-10 18"},"coordinates":[2475,6585]},{"type":"Point","properties":{"Station_ID":"SSMM4","Station_Nam":"SAULT STE MARIE","Latitude":"46.48660","Longitude":"-84.40250","Snowdepth":"7.000","Units":"in","Rept_Date":"2021-01-10 13"},"coordinates":[3476,7488]},{"type":"Point","properties":{"Station_ID":"RLWM5","Station_Nam":"CAMP NORRIS DNR","Latitude":"48.61000","Longitude":"-95.18170","Snowdepth":"7.000","Units":"in","Rept_Date":"2021-01-10 15"},"coordinates":[557,8505]},{"type":"Point","properties":{"Station_ID":"RLKW3","Station_Nam":"REST LAKE","Latitude":"46.12220","Longitude":"-89.87720","Snowdepth":"7.000","Units":"in","Rept_Date":"2021-01-10 13"},"coordinates":[1993,7313]},{"type":"Point","properties":{"Station_ID":"RGNM1","Station_Nam":"RANGELEY 2NW","Latitude":"44.98940","Longitude":"-70.67220","Snowdepth":"7.000","Units":"in","Rept_Date":"2021-01-10 15"},"coordinates":[7194,6770]},{"type":"Point","properties":{"Station_ID":"RANM1","Station_Nam":"RANGELEY","Latitude":"44.98910","Longitude":"-70.67190","Snowdepth":"7.000","Units":"in","Rept_Date":"2021-01-10 15"},"coordinates":[7194,6770]},{"type":"Point","properties":{"Station_ID":"PTBN3","Station_Nam":"PITTSBURG RESERVOIR","Latitude":"45.04690","Longitude":"-71.38300","Snowdepth":"7.000","Units":"in","Rept_Date":"2021-01-10 12"},"coordinates":[7002,6798]},{"type":"Point","properties":{"Station_ID":"PHEW3","Station_Nam":"PHELPS","Latitude":"46.06630","Longitude":"-89.07520","Snowdepth":"7.000","Units":"in","Rept_Date":"2021-01-10 13"},"coordinates":[2211,7286]},{"type":"Point","properties":{"Station_ID":"PDGM4","Station_Nam":"PAULDING","Latitude":"46.39760","Longitude":"-89.17940","Snowdepth":"7.000","Units":"in","Rept_Date":"2021-01-10 14"},"coordinates":[2182,7445]},{"type":"Point","properties":{"Station_ID":"NY-HR-18","Station_Nam":"SALISBURY CENTER 1.8 NW, NY","Latitude":"43.16260","Longitude":"-74.80880","Snowdepth":"7.000","Units":"in","Rept_Date":"2021-01-10 11"},"coordinates":[6074,5895]},{"type":"Point","properties":{"Station_ID":"NY-FK-9","Station_Nam":"GABRIELS 1.3 SE, NY","Latitude":"44.41934","Longitude":"-74.16194","Snowdepth":"7.000","Units":"in","Rept_Date":"2021-01-10 12"},"coordinates":[6249,6497]},{"type":"Point","properties":{"Station_ID":"NY-ES-11","Station_Nam":"VERMONTVILLE 2.8 S, NY","Latitude":"44.41205","Longitude":"-74.06760","Snowdepth":"7.000","Units":"in","Rept_Date":"2021-01-10 12"},"coordinates":[6275,6494]},{"type":"Point","properties":{"Station_ID":"NCBN6","Station_Nam":"NEWCOMB","Latitude":"43.97070","Longitude":"-74.22200","Snowdepth":"7.000","Units":"in","Rept_Date":"2021-01-10 12"},"coordinates":[6233,6282]},{"type":"Point","properties":{"Station_ID":"MTCI2","Station_Nam":"MOUNT CARROLL","Latitude":"42.09800","Longitude":"-89.98410","Snowdepth":"7.000","Units":"in","Rept_Date":"2021-01-10 14"},"coordinates":[1965,5385]},{"type":"Point","properties":{"Station_ID":"MSP","Station_Nam":"MINNEAPOLIS-ST PAUL INTL AP","Latitude":"44.88310","Longitude":"-93.22890","Snowdepth":"7.000","Units":"in","Rept_Date":"2021-01-11 00"},"coordinates":[1086,6719]},{"type":"Point","properties":{"Station_ID":"MPXM5","Station_Nam":"CHANHASSEN WSFO","Latitude":"44.84960","Longitude":"-93.56440","Snowdepth":"7.000","Units":"in","Rept_Date":"2021-01-11 06"},"coordinates":[995,6703]},{"type":"Point","properties":{"Station_ID":"MN-RM-56","Station_Nam":"ROSEVILLE 1.6 NW, MN","Latitude":"45.03303","Longitude":"-93.17523","Snowdepth":"7.000","Units":"in","Rept_Date":"2021-01-10 13"},"coordinates":[1100,6791]},{"type":"Point","properties":{"Station_ID":"MN-RM-15","Station_Nam":"ROSEVILLE 2.1 NW, MN","Latitude":"45.03502","Longitude":"-93.18620","Snowdepth":"7.000","Units":"in","Rept_Date":"2021-01-10 12"},"coordinates":[1097,6792]},{"type":"Point","properties":{"Station_ID":"MN-IT-7","Station_Nam":"GRAND RAPIDS 6.2 SSW, MN","Latitude":"47.13687","Longitude":"-93.56660","Snowdepth":"7.000","Units":"in","Rept_Date":"2021-01-10 12"},"coordinates":[994,7799]},{"type":"Point","properties":{"Station_ID":"MN-IT-23","Station_Nam":"BOVEY 13.4 N, MN","Latitude":"47.48855","Longitude":"-93.43497","Snowdepth":"7.000","Units":"in","Rept_Date":"2021-01-10 13"},"coordinates":[1030,7968]},{"type":"Point","properties":{"Station_ID":"MN-IT-1","Station_Nam":"GRAND RAPIDS 2.0 E, MN","Latitude":"47.22266","Longitude":"-93.49600","Snowdepth":"7.000","Units":"in","Rept_Date":"2021-01-10 14"},"coordinates":[1014,7840]},{"type":"Point","properties":{"Station_ID":"MN-IS-21","Station_Nam":"ISANTI 5.0 SW, MN","Latitude":"45.43360","Longitude":"-93.30200","Snowdepth":"7.000","Units":"in","Rept_Date":"2021-01-10 14"},"coordinates":[1066,6983]},{"type":"Point","properties":{"Station_ID":"MN-HN-298","Station_Nam":"EXCELSIOR 1.8 W, MN","Latitude":"44.89722","Longitude":"-93.60286","Snowdepth":"7.000","Units":"in","Rept_Date":"2021-01-10 13"},"coordinates":[985,6726]},{"type":"Point","properties":{"Station_ID":"MN-GH-28","Station_Nam":"CANNON FALLS 0.5 SE, MN","Latitude":"44.50866","Longitude":"-92.89526","Snowdepth":"7.000","Units":"in","Rept_Date":"2021-01-10 14"},"coordinates":[1176,6540]},{"type":"Point","properties":{"Station_ID":"MN-CW-44","Station_Nam":"CROSBY 1.1 SW, MN","Latitude":"46.47772","Longitude":"-93.97293","Snowdepth":"7.000","Units":"in","Rept_Date":"2021-01-10 13"},"coordinates":[884,7483]},{"type":"Point","properties":{"Station_ID":"MKX","Station_Nam":"MILWAUKEE, WI","Latitude":"42.96810","Longitude":"-88.54920","Snowdepth":"7.000","Units":"in","Rept_Date":"2021-01-11 06"},"coordinates":[2353,5802]},{"type":"Point","properties":{"Station_ID":"MI-OT-17","Station_Nam":"GAYLORD 4.1 S, MI","Latitude":"44.96388","Longitude":"-84.68467","Snowdepth":"7.000","Units":"in","Rept_Date":"2021-01-10 12"},"coordinates":[3400,6758]},{"type":"Point","properties":{"Station_ID":"MI-GL-4","Station_Nam":"GLADWIN 10.4 NNW, MI","Latitude":"44.11865","Longitude":"-84.58470","Snowdepth":"7.000","Units":"in","Rept_Date":"2021-01-10 14"},"coordinates":[3427,6353]},{"type":"Point","properties":{"Station_ID":"LPLN6","Station_Nam":"LAKE PLACID 2 S","Latitude":"44.30420","Longitude":"-73.98390","Snowdepth":"7.000","Units":"in","Rept_Date":"2021-01-10 13"},"coordinates":[6297,6442]},{"type":"Point","properties":{"Station_ID":"LAUP1","Station_Nam":"1.5MI S OF RT 30 ON SMIT (LAUREL RIDGE)","Latitude":"40.05000","Longitude":"-79.22060","Snowdepth":"7.000","Units":"in","Rept_Date":"2021-01-10 12"},"coordinates":[4879,4403]},{"type":"Point","properties":{"Station_ID":"KMSP","Station_Nam":"MINNEAPOLIS-ST PAUL INTERNATIONAL","Latitude":"44.86666","Longitude":"-93.21666","Snowdepth":"7.000","Units":"in","Rept_Date":"2021-01-11 06"},"coordinates":[1089,6711]},{"type":"Point","properties":{"Station_ID":"JOHV1","Station_Nam":"JOHNSON 2 N","Latitude":"44.65790","Longitude":"-72.67850","Snowdepth":"7.000","Units":"in","Rept_Date":"2021-01-10 12"},"coordinates":[6651,6611]},{"type":"Point","properties":{"Station_ID":"JCBM4","Station_Nam":"JACOBSVILLE","Latitude":"47.00830","Longitude":"-88.43180","Snowdepth":"7.000","Units":"in","Rept_Date":"2021-01-10 12"},"coordinates":[2385,7738]},{"type":"Point","properties":{"Station_ID":"ISEM5","Station_Nam":"ISLE 12N","Latitude":"46.31970","Longitude":"-93.50140","Snowdepth":"7.000","Units":"in","Rept_Date":"2021-01-10 14"},"coordinates":[1012,7408]},{"type":"Point","properties":{"Station_ID":"IL-SP-6","Station_Nam":"FREEPORT 2.0 NW, IL","Latitude":"42.30955","Longitude":"-89.66370","Snowdepth":"7.000","Units":"in","Rept_Date":"2021-01-10 14"},"coordinates":[2051,5486]},{"type":"Point","properties":{"Station_ID":"IA-ST-3","Station_Nam":"PARK VIEW 0.2 WSW, IA","Latitude":"41.68855","Longitude":"-90.54380","Snowdepth":"7.000","Units":"in","Rept_Date":"2021-01-10 13"},"coordinates":[1813,5188]},{"type":"Point","properties":{"Station_ID":"IA-JH-22","Station_Nam":"CORALVILLE 1.3 SE, IA","Latitude":"41.68066","Longitude":"-91.58000","Snowdepth":"7.000","Units":"in","Rept_Date":"2021-01-10 13"},"coordinates":[1532,5185]},{"type":"Point","properties":{"Station_ID":"IA-JH-20","Station_Nam":"CORALVILLE 1.4 S, IA","Latitude":"41.67016","Longitude":"-91.60296","Snowdepth":"7.000","Units":"in","Rept_Date":"2021-01-10 14"},"coordinates":[1526,5180]},{"type":"Point","properties":{"Station_ID":"ESGM1","Station_Nam":"EAST SANGERVILLE","Latitude":"45.13690","Longitude":"-69.28060","Snowdepth":"7.000","Units":"in","Rept_Date":"2021-01-10 12"},"coordinates":[7571,6841]},{"type":"Point","properties":{"Station_ID":"DLHM5","Station_Nam":"DULUTH NWS","Latitude":"46.83680","Longitude":"-92.21080","Snowdepth":"7.000","Units":"in","Rept_Date":"2021-01-11 06"},"coordinates":[1362,7656]},{"type":"Point","properties":{"Station_ID":"DLH","Station_Nam":"DULUTH, MN","Latitude":"46.83690","Longitude":"-92.21030","Snowdepth":"7.000","Units":"in","Rept_Date":"2021-01-11 00"},"coordinates":[1362,7656]},{"type":"Point","properties":{"Station_ID":"COUW3","Station_Nam":"COUDERAY,WI","Latitude":"45.86670","Longitude":"-91.45000","Snowdepth":"7.000","Units":"in","Rept_Date":"2021-01-10 22"},"coordinates":[1568,7191]},{"type":"Point","properties":{"Station_ID":"CORM1","Station_Nam":"CORINNA","Latitude":"44.91980","Longitude":"-69.24180","Snowdepth":"7.000","Units":"in","Rept_Date":"2021-01-10 12"},"coordinates":[7582,6737]},{"type":"Point","properties":{"Station_ID":"CLKM4","Station_Nam":"CLARKSBURG","Latitude":"46.49910","Longitude":"-87.84500","Snowdepth":"7.000","Units":"in","Rept_Date":"2021-01-10 12"},"coordinates":[2544,7494]},{"type":"Point","properties":{"Station_ID":"CAN-MB-56","Station_Nam":"WINNIPEG 7.6 ENE, CAN","Latitude":"49.93264","Longitude":"-97.04752","Snowdepth":"7.000","Units":"in","Rept_Date":"2021-01-10 14"},"coordinates":[52,9139]},{"type":"Point","properties":{"Station_ID":"CAN-ON-804","Station_Nam":"KEMBLE 1.6 S - GSCA, CAN","Latitude":"44.71013","Longitude":"-80.92735","Snowdepth":"6.700","Units":"in","Rept_Date":"2021-01-10 13"},"coordinates":[4417,6636]},{"type":"Point","properties":{"Station_ID":"CAN-NS-94","Station_Nam":"MARGAREE FORKS 2.6 SSE CBN, CAN","Latitude":"46.30937","Longitude":"-61.07603","Snowdepth":"6.700","Units":"in","Rept_Date":"2021-01-10 13"},"coordinates":[9793,7403]},{"type":"Point","properties":{"Station_ID":"QCX","Station_Nam":"QCX","Latitude":"51.32830","Longitude":"-70.08060","Snowdepth":"6.693","Units":"in","Rept_Date":"2021-01-10 12"},"coordinates":[7354,9808]},{"type":"Point","properties":{"Station_ID":"WI-RC-3","Station_Nam":"RACINE 2.3 WSW, WI","Latitude":"42.71124","Longitude":"-87.84570","Snowdepth":"6.500","Units":"in","Rept_Date":"2021-01-10 13"},"coordinates":[2544,5679]},{"type":"Point","properties":{"Station_ID":"WI-OZ-17","Station_Nam":"WEST BEND 7.3 E, WI","Latitude":"43.42860","Longitude":"-88.03870","Snowdepth":"6.500","Units":"in","Rept_Date":"2021-01-10 13"},"coordinates":[2491,6022]},{"type":"Point","properties":{"Station_ID":"WI-DA-99","Station_Nam":"FITCHBURG 1.1 NW, WI","Latitude":"42.99740","Longitude":"-89.44046","Snowdepth":"6.500","Units":"in","Rept_Date":"2021-01-10 13"},"coordinates":[2112,5816]},{"type":"Point","properties":{"Station_ID":"WI-BY-6","Station_Nam":"BARNES 2.2 S, WI","Latitude":"46.30264","Longitude":"-91.50320","Snowdepth":"6.500","Units":"in","Rept_Date":"2021-01-10 13"},"coordinates":[1553,7400]},{"type":"Point","properties":{"Station_ID":"VT-WS-19","Station_Nam":"WATERBURY 3.0 NW, VT","Latitude":"44.36060","Longitude":"-72.80770","Snowdepth":"6.500","Units":"in","Rept_Date":"2021-01-10 11"},"coordinates":[6616,6469]},{"type":"Point","properties":{"Station_ID":"VT-CL-14","Station_Nam":"LYNDONVILLE 1.1 W, VT","Latitude":"44.53582","Longitude":"-72.02867","Snowdepth":"6.500","Units":"in","Rept_Date":"2021-01-10 13"},"coordinates":[6827,6553]},{"type":"Point","properties":{"Station_ID":"MN-HN-31","Station_Nam":"MAPLE GROVE 1.0 NNE, MN","Latitude":"45.12261","Longitude":"-93.45790","Snowdepth":"6.500","Units":"in","Rept_Date":"2021-01-10 16"},"coordinates":[1024,6834]},{"type":"Point","properties":{"Station_ID":"IL-WN-26","Station_Nam":"ROCKFORD 1.5 ENE, IL","Latitude":"42.27775","Longitude":"-89.03590","Snowdepth":"6.500","Units":"in","Rept_Date":"2021-01-10 15"},"coordinates":[2221,5471]},{"type":"Point","properties":{"Station_ID":"IA-ST-1","Station_Nam":"LE CLAIRE 1.8 NNE, IA","Latitude":"41.62355","Longitude":"-90.35140","Snowdepth":"6.500","Units":"in","Rept_Date":"2021-01-10 13"},"coordinates":[1865,5157]},{"type":"Point","properties":{"Station_ID":"IA-JH-14","Station_Nam":"SWISHER 0.4 NNE, IA","Latitude":"41.84830","Longitude":"-91.69210","Snowdepth":"6.500","Units":"in","Rept_Date":"2021-01-10 15"},"coordinates":[1502,5265]},{"type":"Point","properties":{"Station_ID":"QLM","Station_Nam":"QLM","Latitude":"48.92030","Longitude":"-70.25280","Snowdepth":"6.457","Units":"in","Rept_Date":"2021-01-10 12"},"coordinates":[7308,8654]},{"type":"Point","properties":{"Station_ID":"HPN02_MADIS","Station_Nam":"MAPLE GROVE","Latitude":"45.11820","Longitude":"-93.42830","Snowdepth":"6.400","Units":"in","Rept_Date":"2021-01-11 02"},"coordinates":[1032,6832]},{"type":"Point","properties":{"Station_ID":"PA-CR-1","Station_Nam":"EMPORIUM 2.6 S, PA","Latitude":"41.47342","Longitude":"-78.24330","Snowdepth":"6.300","Units":"in","Rept_Date":"2021-01-10 13"},"coordinates":[5144,5085]},{"type":"Point","properties":{"Station_ID":"CAN-ON-771","Station_Nam":"KENORA 8.7 NNE - CANWARN, CAN","Latitude":"49.84171","Longitude":"-94.44386","Snowdepth":"6.300","Units":"in","Rept_Date":"2021-01-10 13"},"coordinates":[757,9096]},{"type":"Point","properties":{"Station_ID":"CAN-NB-105","Station_Nam":"SISSON BROOK 3.8 E, CAN","Latitude":"46.98305","Longitude":"-67.32532","Snowdepth":"6.300","Units":"in","Rept_Date":"2021-01-10 12"},"coordinates":[8101,7726]},{"type":"Point","properties":{"Station_ID":"CAN-MB-298","Station_Nam":"GARDENTON 4.2 W - SRRCD, CAN","Latitude":"49.09480","Longitude":"-96.75446","Snowdepth":"6.100","Units":"in","Rept_Date":"2021-01-10 14"},"coordinates":[131,8738]},{"type":"Point","properties":{"Station_ID":"WTBW3","Station_Nam":"WEST BEND PUBLIC WORKS","Latitude":"43.41110","Longitude":"-88.19380","Snowdepth":"6.000","Units":"in","Rept_Date":"2021-01-10 13"},"coordinates":[2449,6014]},{"type":"Point","properties":{"Station_ID":"WRTS2","Station_Nam":"WATERTOWN,SD","Latitude":"44.90280","Longitude":"-97.11360","Snowdepth":"6.000","Units":"in","Rept_Date":"2021-01-10 15"},"coordinates":[34,6729]},{"type":"Point","properties":{"Station_ID":"WLLP1","Station_Nam":"WELLSBORO 4 SW","Latitude":"41.70030","Longitude":"-77.38940","Snowdepth":"6.000","Units":"in","Rept_Date":"2021-01-10 12"},"coordinates":[5375,5194]},{"type":"Point","properties":{"Station_ID":"WI-WK-68","Station_Nam":"OCONOMOWOC 1.0 S, WI","Latitude":"43.09530","Longitude":"-88.48590","Snowdepth":"6.000","Units":"in","Rept_Date":"2021-01-10 14"},"coordinates":[2370,5863]},{"type":"Point","properties":{"Station_ID":"WI-WK-61","Station_Nam":"HARTLAND 5.0 NNE, WI","Latitude":"43.16351","Longitude":"-88.30400","Snowdepth":"6.000","Units":"in","Rept_Date":"2021-01-10 13"},"coordinates":[2420,5895]},{"type":"Point","properties":{"Station_ID":"WI-WK-20","Station_Nam":"MUKWONAGO 0.5 N, WI","Latitude":"42.87385","Longitude":"-88.33180","Snowdepth":"6.000","Units":"in","Rept_Date":"2021-01-10 13"},"coordinates":[2412,5756]},{"type":"Point","properties":{"Station_ID":"WI-PR-6","Station_Nam":"PHILLIPS 1.3 S, WI","Latitude":"45.67677","Longitude":"-90.39543","Snowdepth":"6.000","Units":"in","Rept_Date":"2021-01-10 12"},"coordinates":[1853,7100]},{"type":"Point","properties":{"Station_ID":"WI-OZ-22","Station_Nam":"SAUKVILLE 0.9 SSW, WI","Latitude":"43.37254","Longitude":"-87.95009","Snowdepth":"6.000","Units":"in","Rept_Date":"2021-01-10 13"},"coordinates":[2515,5995]},{"type":"Point","properties":{"Station_ID":"WI-OZ-12","Station_Nam":"PORT WASHINGTON 0.5 S, WI","Latitude":"43.38610","Longitude":"-87.87900","Snowdepth":"6.000","Units":"in","Rept_Date":"2021-01-10 13"},"coordinates":[2535,6002]},{"type":"Point","properties":{"Station_ID":"WI-MW-18","Station_Nam":"WEST ALLIS 0.7 SSE, WI","Latitude":"42.99802","Longitude":"-88.02380","Snowdepth":"6.000","Units":"in","Rept_Date":"2021-01-10 14"},"coordinates":[2495,5816]},{"type":"Point","properties":{"Station_ID":"WI-JF-10","Station_Nam":"PALMYRA 1.5 N, WI","Latitude":"42.90084","Longitude":"-88.58620","Snowdepth":"6.000","Units":"in","Rept_Date":"2021-01-10 13"},"coordinates":[2343,5769]},{"type":"Point","properties":{"Station_ID":"WI-DA-87","Station_Nam":"DUNKIRK 0.1 NW, WI","Latitude":"42.88356","Longitude":"-89.21056","Snowdepth":"6.000","Units":"in","Rept_Date":"2021-01-10 12"},"coordinates":[2174,5761]},{"type":"Point","properties":{"Station_ID":"WI-BR-2","Station_Nam":"CHETEK 2.0 SE, WI","Latitude":"45.29427","Longitude":"-91.62470","Snowdepth":"6.000","Units":"in","Rept_Date":"2021-01-10 13"},"coordinates":[1520,6916]},{"type":"Point","properties":{"Station_ID":"WHTW3","Station_Nam":"WHITEWATER,WI","Latitude":"42.85670","Longitude":"-88.72940","Snowdepth":"6.000","Units":"in","Rept_Date":"2021-01-10 11"},"coordinates":[2304,5748]},{"type":"Point","properties":{"Station_ID":"WELM5","Station_Nam":"WELLS","Latitude":"43.74680","Longitude":"-93.73680","Snowdepth":"6.000","Units":"in","Rept_Date":"2021-01-10 15"},"coordinates":[948,6175]},{"type":"Point","properties":{"Station_ID":"VT-WS-10","Station_Nam":"NORTHFIELD 1.5 N, VT","Latitude":"44.16986","Longitude":"-72.65200","Snowdepth":"6.000","Units":"in","Rept_Date":"2021-01-10 12"},"coordinates":[6658,6378]},{"type":"Point","properties":{"Station_ID":"VT-WR-2","Station_Nam":"POMFRET 2.6 N, VT","Latitude":"43.74230","Longitude":"-72.52550","Snowdepth":"6.000","Units":"in","Rept_Date":"2021-01-10 12"},"coordinates":[6692,6173]},{"type":"Point","properties":{"Station_ID":"VT-OL-25","Station_Nam":"NEWPORT 1.5 WSW, VT","Latitude":"44.93059","Longitude":"-72.23731","Snowdepth":"6.000","Units":"in","Rept_Date":"2021-01-10 12"},"coordinates":[6770,6742]},{"type":"Point","properties":{"Station_ID":"VT-OL-2","Station_Nam":"BARTON 3.0 ENE, VT","Latitude":"44.75863","Longitude":"-72.11680","Snowdepth":"6.000","Units":"in","Rept_Date":"2021-01-10 12"},"coordinates":[6803,6660]},{"type":"Point","properties":{"Station_ID":"VT-OG-14","Station_Nam":"BRADFORD 2.2 NNW, VT","Latitude":"44.02268","Longitude":"-72.14756","Snowdepth":"6.000","Units":"in","Rept_Date":"2021-01-10 12"},"coordinates":[6795,6307]},{"type":"Point","properties":{"Station_ID":"VT-ES-3","Station_Nam":"LUNENBURG 2.3 NNW, VT","Latitude":"44.49324","Longitude":"-71.70446","Snowdepth":"6.000","Units":"in","Rept_Date":"2021-01-10 13"},"coordinates":[6915,6532]},{"type":"Point","properties":{"Station_ID":"VT-BN-3","Station_Nam":"LANDGROVE 1.1 NNE, VT","Latitude":"43.29092","Longitude":"-72.83260","Snowdepth":"6.000","Units":"in","Rept_Date":"2021-01-10 13"},"coordinates":[6609,5956]},{"type":"Point","properties":{"Station_ID":"UGRW3","Station_Nam":"UNION GROVE,WI","Latitude":"42.70000","Longitude":"-88.03220","Snowdepth":"6.000","Units":"in","Rept_Date":"2021-01-10 13"},"coordinates":[2493,5673]},{"type":"Point","properties":{"Station_ID":"SLRW3","Station_Nam":"SLINGER","Latitude":"43.33390","Longitude":"-88.29780","Snowdepth":"6.000","Units":"in","Rept_Date":"2021-01-10 13"},"coordinates":[2421,5977]},{"type":"Point","properties":{"Station_ID":"SAVW3","Station_Nam":"SAUKVILLE WWTP","Latitude":"43.37470","Longitude":"-87.93940","Snowdepth":"6.000","Units":"in","Rept_Date":"2021-01-10 12"},"coordinates":[2518,5996]},{"type":"Point","properties":{"Station_ID":"ROBW3","Station_Nam":"ROBERTS WWTP","Latitude":"44.97070","Longitude":"-92.56200","Snowdepth":"6.000","Units":"in","Rept_Date":"2021-01-10 14"},"coordinates":[1266,6761]},{"type":"Point","properties":{"Station_ID":"RCKI2","Station_Nam":"MISSISSIPPI RIVER","Latitude":"41.51670","Longitude":"-90.56670","Snowdepth":"6.000","Units":"in","Rept_Date":"2021-01-11 06"},"coordinates":[1807,5106]},{"type":"Point","properties":{"Station_ID":"PRDM4","Station_Nam":"PARADISE","Latitude":"46.60380","Longitude":"-85.03960","Snowdepth":"6.000","Units":"in","Rept_Date":"2021-01-10 11"},"coordinates":[3304,7544]},{"type":"Point","properties":{"Station_ID":"PLEP1","Station_Nam":"PLEASANT MOUNT 1 W","Latitude":"41.73940","Longitude":"-75.44650","Snowdepth":"6.000","Units":"in","Rept_Date":"2021-01-10 16"},"coordinates":[5901,5213]},{"type":"Point","properties":{"Station_ID":"PERV1","Station_Nam":"PERU","Latitude":"43.26670","Longitude":"-72.90000","Snowdepth":"6.000","Units":"in","Rept_Date":"2021-01-10 12"},"coordinates":[6591,5945]},{"type":"Point","properties":{"Station_ID":"PEKN6","Station_Nam":"PECK LAKE","Latitude":"43.11500","Longitude":"-74.42360","Snowdepth":"6.000","Units":"in","Rept_Date":"2021-01-10 12"},"coordinates":[6178,5872]},{"type":"Point","properties":{"Station_ID":"OTTM5","Station_Nam":"OTTERTAIL,MN","Latitude":"46.41670","Longitude":"-95.56670","Snowdepth":"6.000","Units":"in","Rept_Date":"2021-01-10 14"},"coordinates":[453,7454]},{"type":"Point","properties":{"Station_ID":"ONCW3","Station_Nam":"SOUTH","Latitude":"43.11170","Longitude":"-88.49970","Snowdepth":"6.000","Units":"in","Rept_Date":"2021-01-10 14"},"coordinates":[2367,5870]},{"type":"Point","properties":{"Station_ID":"OLNI4","Station_Nam":"OELWEIN 1E","Latitude":"42.68010","Longitude":"-91.87510","Snowdepth":"6.000","Units":"in","Rept_Date":"2021-01-10 12"},"coordinates":[1452,5664]},{"type":"Point","properties":{"Station_ID":"NY-HM-10","Station_Nam":"LAKE PLEASANT 2.3 WSW, NY","Latitude":"43.45490","Longitude":"-74.45287","Snowdepth":"6.000","Units":"in","Rept_Date":"2021-01-10 12"},"coordinates":[6170,6035]},{"type":"Point","properties":{"Station_ID":"NY-ES-6","Station_Nam":"OLMSTEDVILLE 4.6 NNE, NY","Latitude":"43.83350","Longitude":"-73.89780","Snowdepth":"6.000","Units":"in","Rept_Date":"2021-01-10 13"},"coordinates":[6321,6216]},{"type":"Point","properties":{"Station_ID":"NY-DL-23","Station_Nam":"LONG EDDY 6.5 NNE, NY","Latitude":"41.93510","Longitude":"-75.07840","Snowdepth":"6.000","Units":"in","Rept_Date":"2021-01-10 13"},"coordinates":[6001,5307]},{"type":"Point","properties":{"Station_ID":"NY-CR-5","Station_Nam":"MARATHON 1.0 NW, NY","Latitude":"42.45161","Longitude":"-76.04370","Snowdepth":"6.000","Units":"in","Rept_Date":"2021-01-10 12"},"coordinates":[5740,5554]},{"type":"Point","properties":{"Station_ID":"NWSM1","Station_Nam":"NEW SHARON","Latitude":"44.63520","Longitude":"-70.00020","Snowdepth":"6.000","Units":"in","Rept_Date":"2021-01-10 12"},"coordinates":[7376,6601]},{"type":"Point","properties":{"Station_ID":"NH-MR-4","Station_Nam":"BOW 1.6 NW, NH","Latitude":"43.14994","Longitude":"-71.55650","Snowdepth":"6.000","Units":"in","Rept_Date":"2021-01-10 13"},"coordinates":[6955,5889]},{"type":"Point","properties":{"Station_ID":"NH-GR-47","Station_Nam":"LITTLETON 7.3 W, NH","Latitude":"44.31847","Longitude":"-71.91086","Snowdepth":"6.000","Units":"in","Rept_Date":"2021-01-10 13"},"coordinates":[6859,6449]},{"type":"Point","properties":{"Station_ID":"NH-CS-4","Station_Nam":"PITTSBURG 6.1 NE, NH","Latitude":"45.11060","Longitude":"-71.29760","Snowdepth":"6.000","Units":"in","Rept_Date":"2021-01-10 12"},"coordinates":[7025,6828]},{"type":"Point","properties":{"Station_ID":"NCON3","Station_Nam":"NORTH CONWAY","Latitude":"44.05620","Longitude":"-71.12970","Snowdepth":"6.000","Units":"in","Rept_Date":"2021-01-10 12"},"coordinates":[7070,6323]},{"type":"Point","properties":{"Station_ID":"NC-WT-10","Station_Nam":"BLOWING ROCK 2.2 NE, NC","Latitude":"36.14836","Longitude":"-81.64000","Snowdepth":"6.000","Units":"in","Rept_Date":"2021-01-10 12"},"coordinates":[4224,2533]},{"type":"Point","properties":{"Station_ID":"MYOM4","Station_Nam":"MIO WWTP","Latitude":"44.64660","Longitude":"-84.11580","Snowdepth":"6.000","Units":"in","Rept_Date":"2021-01-10 13"},"coordinates":[3554,6606]},{"type":"Point","properties":{"Station_ID":"MWOW3","Station_Nam":"MUKWONAGO","Latitude":"42.85380","Longitude":"-88.43550","Snowdepth":"6.000","Units":"in","Rept_Date":"2021-01-10 13"},"coordinates":[2384,5747]},{"type":"Point","properties":{"Station_ID":"MSTI4","Station_Nam":"MUSCATINE 2N","Latitude":"41.47130","Longitude":"-91.04630","Snowdepth":"6.000","Units":"in","Rept_Date":"2021-01-10 13"},"coordinates":[1677,5084]},{"type":"Point","properties":{"Station_ID":"MSN","Station_Nam":"MADISON DANE COUNTY RGNL","Latitude":"43.13970","Longitude":"-89.33750","Snowdepth":"6.000","Units":"in","Rept_Date":"2021-01-11 00"},"coordinates":[2140,5884]},{"type":"Point","properties":{"Station_ID":"MRAM5","Station_Nam":"MORA","Latitude":"45.87760","Longitude":"-93.31470","Snowdepth":"6.000","Units":"in","Rept_Date":"2021-01-10 13"},"coordinates":[1063,7196]},{"type":"Point","properties":{"Station_ID":"MNPV1","Station_Nam":"MONTPELIER 2","Latitude":"44.25530","Longitude":"-72.60060","Snowdepth":"6.000","Units":"in","Rept_Date":"2021-01-10 12"},"coordinates":[6672,6418]},{"type":"Point","properties":{"Station_ID":"MN-SH-10","Station_Nam":"BIG LAKE 5.6 NNE, MN","Latitude":"45.41409","Longitude":"-93.69190","Snowdepth":"6.000","Units":"in","Rept_Date":"2021-01-10 13"},"coordinates":[960,6974]},{"type":"Point","properties":{"Station_ID":"MN-SE-2","Station_Nam":"OWATONNA 0.8 E, MN","Latitude":"44.09170","Longitude":"-93.21380","Snowdepth":"6.000","Units":"in","Rept_Date":"2021-01-10 13"},"coordinates":[1090,6340]},{"type":"Point","properties":{"Station_ID":"MN-IT-17","Station_Nam":"GRAND RAPIDS 6.1 N, MN","Latitude":"47.31165","Longitude":"-93.55036","Snowdepth":"6.000","Units":"in","Rept_Date":"2021-01-10 13"},"coordinates":[999,7883]},{"type":"Point","properties":{"Station_ID":"MN-HN-6","Station_Nam":"LONG LAKE 0.2 WSW, MN","Latitude":"44.98290","Longitude":"-93.57360","Snowdepth":"6.000","Units":"in","Rept_Date":"2021-01-10 13"},"coordinates":[992,6767]},{"type":"Point","properties":{"Station_ID":"MN-HN-307","Station_Nam":"MINNEAPOLIS 1.5 WNW, MN","Latitude":"44.96860","Longitude":"-93.29580","Snowdepth":"6.000","Units":"in","Rept_Date":"2021-01-10 14"},"coordinates":[1068,6760]},{"type":"Point","properties":{"Station_ID":"MN-HN-267","Station_Nam":"MINNEAPOLIS 2.5 SE, MN","Latitude":"44.93331","Longitude":"-93.23680","Snowdepth":"6.000","Units":"in","Rept_Date":"2021-01-10 13"},"coordinates":[1084,6743]},{"type":"Point","properties":{"Station_ID":"MN-HN-17","Station_Nam":"EDEN PRAIRIE 3.3 WSW, MN","Latitude":"44.82940","Longitude":"-93.52010","Snowdepth":"6.000","Units":"in","Rept_Date":"2021-01-10 14"},"coordinates":[1007,6694]},{"type":"Point","properties":{"Station_ID":"MN-CV-8","Station_Nam":"WATERTOWN 0.5 NNW, MN","Latitude":"44.96631","Longitude":"-93.84890","Snowdepth":"6.000","Units":"in","Rept_Date":"2021-01-10 11"},"coordinates":[918,6759]},{"type":"Point","properties":{"Station_ID":"MN-AT-5","Station_Nam":"TAMARACK 1.4 SW, MN","Latitude":"46.63760","Longitude":"-93.14554","Snowdepth":"6.000","Units":"in","Rept_Date":"2021-01-10 11"},"coordinates":[1108,7560]},{"type":"Point","properties":{"Station_ID":"MLCM5","Station_Nam":"MILACA","Latitude":"45.75320","Longitude":"-93.66170","Snowdepth":"6.000","Units":"in","Rept_Date":"2021-01-10 13"},"coordinates":[969,7136]},{"type":"Point","properties":{"Station_ID":"MKTI4","Station_Nam":"MAQUOKETA","Latitude":"42.07710","Longitude":"-90.66470","Snowdepth":"6.000","Units":"in","Rept_Date":"2021-01-10 13"},"coordinates":[1780,5375]},{"type":"Point","properties":{"Station_ID":"MI-OT-4","Station_Nam":"GAYLORD 1.7 WNW, MI","Latitude":"45.03280","Longitude":"-84.71090","Snowdepth":"6.000","Units":"in","Rept_Date":"2021-01-10 13"},"coordinates":[3393,6791]},{"type":"Point","properties":{"Station_ID":"MI-GG-4","Station_Nam":"WATERSMEET 5.0 SE, MI","Latitude":"46.20333","Longitude":"-89.13170","Snowdepth":"6.000","Units":"in","Rept_Date":"2021-01-10 14"},"coordinates":[2195,7352]},{"type":"Point","properties":{"Station_ID":"MI-CP-14","Station_Nam":"SAULT STE. MARIE 2.2 E, MI","Latitude":"46.48933","Longitude":"-84.31971","Snowdepth":"6.000","Units":"in","Rept_Date":"2021-01-10 13"},"coordinates":[3498,7489]},{"type":"Point","properties":{"Station_ID":"ME-WL-8","Station_Nam":"WINTERPORT 2.9 N, ME","Latitude":"44.69369","Longitude":"-68.84800","Snowdepth":"6.000","Units":"in","Rept_Date":"2021-01-10 12"},"coordinates":[7688,6629]},{"type":"Point","properties":{"Station_ID":"ME-AR-18","Station_Nam":"NEW SWEDEN 4.9 NNW, ME","Latitude":"47.01080","Longitude":"-68.14390","Snowdepth":"6.000","Units":"in","Rept_Date":"2021-01-10 12"},"coordinates":[7879,7739]},{"type":"Point","properties":{"Station_ID":"ME-AN-32","Station_Nam":"WINTHROP 9.4 W, ME","Latitude":"44.30476","Longitude":"-70.15835","Snowdepth":"6.000","Units":"in","Rept_Date":"2021-01-10 12"},"coordinates":[7333,6442]},{"type":"Point","properties":{"Station_ID":"LILM1","Station_Nam":"LILLE","Latitude":"47.27770","Longitude":"-68.10520","Snowdepth":"6.000","Units":"in","Rept_Date":"2021-01-10 12"},"coordinates":[7889,7867]},{"type":"Point","properties":{"Station_ID":"LBRM5","Station_Nam":"LAKE BRONSON DAM","Latitude":"48.72410","Longitude":"-96.62180","Snowdepth":"6.000","Units":"in","Rept_Date":"2021-01-10 14"},"coordinates":[167,8560]},{"type":"Point","properties":{"Station_ID":"KMSN","Station_Nam":"MADISON DANE COUNTY RGNL","Latitude":"43.13333","Longitude":"-89.35000","Snowdepth":"6.000","Units":"in","Rept_Date":"2021-01-11 06"},"coordinates":[2136,5881]},{"type":"Point","properties":{"Station_ID":"JEFV1","Station_Nam":"JEFFERSONVILLE","Latitude":"44.58430","Longitude":"-72.78700","Snowdepth":"6.000","Units":"in","Rept_Date":"2021-01-10 12"},"coordinates":[6622,6576]},{"type":"Point","properties":{"Station_ID":"JACW3","Station_Nam":"JACKSON","Latitude":"43.31940","Longitude":"-88.16810","Snowdepth":"6.000","Units":"in","Rept_Date":"2021-01-10 12"},"coordinates":[2456,5970]},{"type":"Point","properties":{"Station_ID":"ISLV1","Station_Nam":"ISLAND POND","Latitude":"44.81280","Longitude":"-71.89020","Snowdepth":"6.000","Units":"in","Rept_Date":"2021-01-10 15"},"coordinates":[6864,6686]},{"type":"Point","properties":{"Station_ID":"IA-LS-5","Station_Nam":"WAPELLO 5.4 SE, IA","Latitude":"41.11441","Longitude":"-91.13017","Snowdepth":"6.000","Units":"in","Rept_Date":"2021-01-10 13"},"coordinates":[1654,4913]},{"type":"Point","properties":{"Station_ID":"HRTM1","Station_Nam":"HARTFORD","Latitude":"44.37440","Longitude":"-70.31620","Snowdepth":"6.000","Units":"in","Rept_Date":"2021-01-10 12"},"coordinates":[7291,6476]},{"type":"Point","properties":{"Station_ID":"HMYM1","Station_Nam":"HARMONY","Latitude":"44.94660","Longitude":"-69.54560","Snowdepth":"6.000","Units":"in","Rept_Date":"2021-01-10 11"},"coordinates":[7499,6750]},{"type":"Point","properties":{"Station_ID":"GTTI4","Station_Nam":"LOCK & DAM 10","Latitude":"42.78580","Longitude":"-91.09970","Snowdepth":"6.000","Units":"in","Rept_Date":"2021-01-10 14"},"coordinates":[1662,5714]},{"type":"Point","properties":{"Station_ID":"GNFN7","Station_Nam":"GRANDFATHER MOUNTAIN MUSEUM","Latitude":"36.08950","Longitude":"-81.83560","Snowdepth":"6.000","Units":"in","Rept_Date":"2021-01-10 16"},"coordinates":[4171,2505]},{"type":"Point","properties":{"Station_ID":"GAYM4","Station_Nam":"GAYLORD","Latitude":"45.03320","Longitude":"-84.71130","Snowdepth":"6.000","Units":"in","Rept_Date":"2021-01-10 13"},"coordinates":[3392,6791]},{"type":"Point","properties":{"Station_ID":"FEEI2","Station_Nam":"PECATONICA RIVER","Latitude":"42.30000","Longitude":"-89.61670","Snowdepth":"6.000","Units":"in","Rept_Date":"2021-01-10 13"},"coordinates":[2064,5481]},{"type":"Point","properties":{"Station_ID":"FARM1","Station_Nam":"FARMINGTON","Latitude":"44.68930","Longitude":"-70.15640","Snowdepth":"6.000","Units":"in","Rept_Date":"2021-01-10 12"},"coordinates":[7334,6626]},{"type":"Point","properties":{"Station_ID":"EZBI2","Station_Nam":"ELIZABETH","Latitude":"42.31620","Longitude":"-90.22690","Snowdepth":"6.000","Units":"in","Rept_Date":"2021-01-10 12"},"coordinates":[1899,5489]},{"type":"Point","properties":{"Station_ID":"EVRW3","Station_Nam":"EAGLE RIVER-4 E","Latitude":"45.91890","Longitude":"-89.15280","Snowdepth":"6.000","Units":"in","Rept_Date":"2021-01-10 13"},"coordinates":[2190,7216]},{"type":"Point","properties":{"Station_ID":"EGRW3","Station_Nam":"EAGLE RIVER-SOUTH","Latitude":"45.91360","Longitude":"-89.24360","Snowdepth":"6.000","Units":"in","Rept_Date":"2021-01-10 13"},"coordinates":[2165,7213]},{"type":"Point","properties":{"Station_ID":"DLNW3","Station_Nam":"WALWORTH COUNTYMETROPOLITAN SEWERAGE DISTRICT (DELEVAN)","Latitude":"42.63440","Longitude":"-88.66280","Snowdepth":"6.000","Units":"in","Rept_Date":"2021-01-10 12"},"coordinates":[2322,5642]},{"type":"Point","properties":{"Station_ID":"DLDI4","Station_Nam":"MISSISSIPPI RIVER","Latitude":"42.51670","Longitude":"-90.65000","Snowdepth":"6.000","Units":"in","Rept_Date":"2021-01-10 12"},"coordinates":[1784,5585]},{"type":"Point","properties":{"Station_ID":"CORV1","Station_Nam":"CORINTH","Latitude":"44.00690","Longitude":"-72.31940","Snowdepth":"6.000","Units":"in","Rept_Date":"2021-01-10 12"},"coordinates":[6748,6299]},{"type":"Point","properties":{"Station_ID":"CLNI4","Station_Nam":"CLINTON NO 1","Latitude":"41.79470","Longitude":"-90.26390","Snowdepth":"6.000","Units":"in","Rept_Date":"2021-01-11 00"},"coordinates":[1889,5239]},{"type":"Point","properties":{"Station_ID":"CCON6","Station_Nam":"CALLICOON CENTER","Latitude":"41.82750","Longitude":"-74.95060","Snowdepth":"6.000","Units":"in","Rept_Date":"2021-01-10 12"},"coordinates":[6036,5255]},{"type":"Point","properties":{"Station_ID":"CARM1","Station_Nam":"CARIBOU WFO","Latitude":"46.86810","Longitude":"-68.01250","Snowdepth":"6.000","Units":"in","Rept_Date":"2021-01-11 05"},"coordinates":[7915,7671]},{"type":"Point","properties":{"Station_ID":"CAR","Station_Nam":"CARIBOU, ME","Latitude":"46.86830","Longitude":"-68.01360","Snowdepth":"6.000","Units":"in","Rept_Date":"2021-01-10 12"},"coordinates":[7914,7671]},{"type":"Point","properties":{"Station_ID":"CAN-NB-5","Station_Nam":"OAK POINT 0.9 SSW, CA","Latitude":"45.50752","Longitude":"-66.09860","Snowdepth":"6.000","Units":"in","Rept_Date":"2021-01-10 12"},"coordinates":[8433,7019]},{"type":"Point","properties":{"Station_ID":"BROW3","Station_Nam":"BRODHEAD,WI","Latitude":"42.61720","Longitude":"-89.38970","Snowdepth":"6.000","Units":"in","Rept_Date":"2021-01-10 13"},"coordinates":[2126,5633]},{"type":"Point","properties":{"Station_ID":"BRAM5","Station_Nam":"BRAINERD","Latitude":"46.34320","Longitude":"-94.20900","Snowdepth":"6.000","Units":"in","Rept_Date":"2021-01-10 13"},"coordinates":[820,7419]},{"type":"Point","properties":{"Station_ID":"BLTW3","Station_Nam":"BELOIT,WI","Latitude":"42.50000","Longitude":"-89.03330","Snowdepth":"6.000","Units":"in","Rept_Date":"2021-01-10 12"},"coordinates":[2222,5577]},{"type":"Point","properties":{"Station_ID":"AVLV1","Station_Nam":"AVERILL","Latitude":"45.00570","Longitude":"-71.69030","Snowdepth":"6.000","Units":"in","Rept_Date":"2021-01-10 13"},"coordinates":[6919,6778]},{"type":"Point","properties":{"Station_ID":"ATY","Station_Nam":"WATERTOWN MUNICIPAL AIRPORT","Latitude":"44.91420","Longitude":"-97.15440","Snowdepth":"6.000","Units":"in","Rept_Date":"2021-01-10 12"},"coordinates":[23,6734]},{"type":"Point","properties":{"Station_ID":"ARGW3","Station_Nam":"ARGYLE","Latitude":"42.70060","Longitude":"-89.01890","Snowdepth":"6.000","Units":"in","Rept_Date":"2021-01-10 13"},"coordinates":[2226,5673]},{"type":"Point","properties":{"Station_ID":"AFTW3","Station_Nam":"ROCK RIVER","Latitude":"42.61670","Longitude":"-89.06670","Snowdepth":"6.000","Units":"in","Rept_Date":"2021-01-10 13"},"coordinates":[2213,5633]},{"type":"Point","properties":{"Station_ID":"QLP","Station_Nam":"QLP","Latitude":"48.13920","Longitude":"-72.63830","Snowdepth":"5.984","Units":"in","Rept_Date":"2021-01-10 12"},"coordinates":[6662,8280]},{"type":"Point","properties":{"Station_ID":"CAN-PE-19","Station_Nam":"CHARLOTTETOWN 6.5 NNW, CAN","Latitude":"46.29235","Longitude":"-63.17271","Snowdepth":"5.900","Units":"in","Rept_Date":"2021-01-10 12"},"coordinates":[9225,7395]},{"type":"Point","properties":{"Station_ID":"CAN-NS-159","Station_Nam":"NORTHPORT 0.1 NE, CAN","Latitude":"45.93299","Longitude":"-63.86711","Snowdepth":"5.900","Units":"in","Rept_Date":"2021-01-10 11"},"coordinates":[9037,7222]},{"type":"Point","properties":{"Station_ID":"WI-WS-5","Station_Nam":"JACKSON 0.2 WSW, WI","Latitude":"43.32007","Longitude":"-88.16820","Snowdepth":"5.800","Units":"in","Rept_Date":"2021-01-10 12"},"coordinates":[2456,5970]},{"type":"Point","properties":{"Station_ID":"HPN20_MADIS","Station_Nam":"HOPKINS","Latitude":"44.95556","Longitude":"-93.41140","Snowdepth":"5.800","Units":"in","Rept_Date":"2021-01-11 06"},"coordinates":[1036,6754]},{"type":"Point","properties":{"Station_ID":"MFU","Station_Nam":"MFU","Latitude":"51.52170","Longitude":"-66.91110","Snowdepth":"5.787","Units":"in","Rept_Date":"2021-01-10 12"},"coordinates":[8213,9901]},{"type":"Point","properties":{"Station_ID":"QIQ","Station_Nam":"QIQ","Latitude":"49.82390","Longitude":"-68.54310","Snowdepth":"5.512","Units":"in","Rept_Date":"2021-01-10 12"},"coordinates":[7771,9087]},{"type":"Point","properties":{"Station_ID":"WI-WK-29","Station_Nam":"OCONOMOWOC 4.6 NE, WI","Latitude":"43.14621","Longitude":"-88.42860","Snowdepth":"5.500","Units":"in","Rept_Date":"2021-01-10 15"},"coordinates":[2386,5887]},{"type":"Point","properties":{"Station_ID":"WI-PR-8","Station_Nam":"PHILLIPS 0.4 SSW, WI","Latitude":"45.69086","Longitude":"-90.40200","Snowdepth":"5.500","Units":"in","Rept_Date":"2021-01-10 14"},"coordinates":[1851,7106]},{"type":"Point","properties":{"Station_ID":"WI-MW-14","Station_Nam":"MILWAUKEE 3.6 NNW, WI","Latitude":"43.11300","Longitude":"-87.98730","Snowdepth":"5.500","Units":"in","Rept_Date":"2021-01-10 11"},"coordinates":[2505,5871]},{"type":"Point","properties":{"Station_ID":"VT-WR-17","Station_Nam":"ROCHESTER 2.3 NE, VT","Latitude":"43.89418","Longitude":"-72.76992","Snowdepth":"5.500","Units":"in","Rept_Date":"2021-01-10 12"},"coordinates":[6626,6245]},{"type":"Point","properties":{"Station_ID":"VT-OL-9","Station_Nam":"GREENSBORO 2.1 NNW, VT","Latitude":"44.60528","Longitude":"-72.30940","Snowdepth":"5.500","Units":"in","Rept_Date":"2021-01-10 12"},"coordinates":[6751,6586]},{"type":"Point","properties":{"Station_ID":"VT-CL-18","Station_Nam":"WHEELOCK 1.6 S, VT","Latitude":"44.56491","Longitude":"-72.08830","Snowdepth":"5.500","Units":"in","Rept_Date":"2021-01-10 12"},"coordinates":[6811,6567]},{"type":"Point","properties":{"Station_ID":"NH-CR-11","Station_Nam":"NORTH CONWAY 1.4 SSW, NH","Latitude":"44.03556","Longitude":"-71.14010","Snowdepth":"5.500","Units":"in","Rept_Date":"2021-01-10 12"},"coordinates":[7068,6313]},{"type":"Point","properties":{"Station_ID":"MN-CW-54","Station_Nam":"AITKIN 9.6 W, MN","Latitude":"46.53711","Longitude":"-93.90688","Snowdepth":"5.500","Units":"in","Rept_Date":"2021-01-10 14"},"coordinates":[902,7512]},{"type":"Point","properties":{"Station_ID":"MN-BK-10","Station_Nam":"DETROIT LAKES 5.7 N, MN","Latitude":"46.88666","Longitude":"-95.84444","Snowdepth":"5.500","Units":"in","Rept_Date":"2021-01-10 12"},"coordinates":[378,7679]},{"type":"Point","properties":{"Station_ID":"MI-AG-6","Station_Nam":"MUNISING 11.1 SSW, MI","Latitude":"46.27805","Longitude":"-86.75747","Snowdepth":"5.500","Units":"in","Rept_Date":"2021-01-10 12"},"coordinates":[2838,7388]},{"type":"Point","properties":{"Station_ID":"ME-WL-27","Station_Nam":"PROSPECT 2.6 W, ME","Latitude":"44.55719","Longitude":"-68.91732","Snowdepth":"5.500","Units":"in","Rept_Date":"2021-01-10 12"},"coordinates":[7669,6563]},{"type":"Point","properties":{"Station_ID":"ME-SM-4","Station_Nam":"SOLON 3.9 ESE, ME","Latitude":"44.94705","Longitude":"-69.77790","Snowdepth":"5.500","Units":"in","Rept_Date":"2021-01-10 12"},"coordinates":[7436,6750]},{"type":"Point","properties":{"Station_ID":"ME-SM-10","Station_Nam":"NORTH NEW PORTLAND 0.3 WSW, ME","Latitude":"44.92353","Longitude":"-70.02788","Snowdepth":"5.500","Units":"in","Rept_Date":"2021-01-10 12"},"coordinates":[7369,6739]},{"type":"Point","properties":{"Station_ID":"ME-PN-47","Station_Nam":"MILFORD 0.8 SSW, ME","Latitude":"44.94108","Longitude":"-68.64154","Snowdepth":"5.500","Units":"in","Rept_Date":"2021-01-10 12"},"coordinates":[7744,6747]},{"type":"Point","properties":{"Station_ID":"ME-FR-2","Station_Nam":"TEMPLE 1.8 W, ME","Latitude":"44.68329","Longitude":"-70.26420","Snowdepth":"5.500","Units":"in","Rept_Date":"2021-01-10 11"},"coordinates":[7305,6624]},{"type":"Point","properties":{"Station_ID":"IL-BN-19","Station_Nam":"BELVIDERE 5.0 NNW, IL","Latitude":"42.32071","Longitude":"-88.88282","Snowdepth":"5.500","Units":"in","Rept_Date":"2021-01-10 13"},"coordinates":[2263,5491]},{"type":"Point","properties":{"Station_ID":"CAN-NB-13","Station_Nam":"BATHURST 3.8 NW, CAN","Latitude":"47.64212","Longitude":"-65.68756","Snowdepth":"5.500","Units":"in","Rept_Date":"2021-01-10 11"},"coordinates":[8544,8041]},{"type":"Point","properties":{"Station_ID":"HPN09_MADIS","Station_Nam":"PLYMOUTH","Latitude":"44.98992","Longitude":"-93.47910","Snowdepth":"5.400","Units":"in","Rept_Date":"2021-01-11 06"},"coordinates":[1018,6771]},{"type":"Point","properties":{"Station_ID":"CAN-NB-55","Station_Nam":"FREDERICTON 4.5 N, CAN","Latitude":"45.99547","Longitude":"-66.64252","Snowdepth":"5.400","Units":"in","Rept_Date":"2021-01-10 12"},"coordinates":[8286,7252]},{"type":"Point","properties":{"Station_ID":"WI-JF-24","Station_Nam":"LAC LABELLE 1.2 SW, WI","Latitude":"43.13126","Longitude":"-88.53959","Snowdepth":"5.300","Units":"in","Rept_Date":"2021-01-10 15"},"coordinates":[2356,5880]},{"type":"Point","properties":{"Station_ID":"CAN-QC-51","Station_Nam":"BELOEIL 0.7 NW, CAN","Latitude":"45.58049","Longitude":"-73.21218","Snowdepth":"5.300","Units":"in","Rept_Date":"2021-01-10 12"},"coordinates":[6506,7054]},{"type":"Point","properties":{"Station_ID":"CAN-NS-3","Station_Nam":"WOLFVILLE 7.1 ESE, CAN","Latitude":"45.07921","Longitude":"-64.27107","Snowdepth":"5.300","Units":"in","Rept_Date":"2021-01-10 11"},"coordinates":[8928,6813]},{"type":"Point","properties":{"Station_ID":"CAN-NS-13","Station_Nam":"TRURO 5.0 ENE, CA","Latitude":"45.38252","Longitude":"-63.22810","Snowdepth":"5.300","Units":"in","Rept_Date":"2021-01-10 11"},"coordinates":[9210,6959]},{"type":"Point","properties":{"Station_ID":"NFGT1","Station_Nam":"NEW FOUND GAP","Latitude":"35.61080","Longitude":"-83.42890","Snowdepth":"5.220","Units":"in","Rept_Date":"2021-01-11 06"},"coordinates":[3740,2276]},{"type":"Point","properties":{"Station_ID":"NY-JF-30","Station_Nam":"WEST CARTHAGE 0.3 ENE, NY","Latitude":"43.97493","Longitude":"-75.61640","Snowdepth":"5.100","Units":"in","Rept_Date":"2021-01-10 12"},"coordinates":[5855,6284]},{"type":"Point","properties":{"Station_ID":"CAN-PE-1","Station_Nam":"STRATFORD 2.3 NNE, CAN","Latitude":"46.23576","Longitude":"-63.08208","Snowdepth":"5.100","Units":"in","Rept_Date":"2021-01-10 11"},"coordinates":[9250,7368]},{"type":"Point","properties":{"Station_ID":"CAN-NB-96","Station_Nam":"SAINT-IGNACE 2.6 NE, CAN","Latitude":"46.71424","Longitude":"-65.05609","Snowdepth":"5.100","Units":"in","Rept_Date":"2021-01-10 11"},"coordinates":[8715,7597]},{"type":"Point","properties":{"Station_ID":"CAN-NB-28","Station_Nam":"SUSSEX CORNER 1.4 NE - KWRC, CAN","Latitude":"45.71691","Longitude":"-65.46217","Snowdepth":"5.100","Units":"in","Rept_Date":"2021-01-10 10"},"coordinates":[8605,7119]},{"type":"Point","properties":{"Station_ID":"QGA","Station_Nam":"QGA","Latitude":"47.25640","Longitude":"-73.73810","Snowdepth":"5.079","Units":"in","Rept_Date":"2021-01-10 12"},"coordinates":[6364,7857]},{"type":"Point","properties":{"Station_ID":"WVLM1","Station_Nam":"WATERVILLE TREATMENT PLT","Latitude":"44.52720","Longitude":"-69.65440","Snowdepth":"5.000","Units":"in","Rept_Date":"2021-01-10 13"},"coordinates":[7470,6549]},{"type":"Point","properties":{"Station_ID":"WTRM4","Station_Nam":"WATERSMEET 12WSW","Latitude":"46.22310","Longitude":"-89.40850","Snowdepth":"5.000","Units":"in","Rept_Date":"2021-01-10 12"},"coordinates":[2120,7361]},{"type":"Point","properties":{"Station_ID":"WSTW3","Station_Nam":"WEST BEND -FIRE","Latitude":"43.43138","Longitude":"-88.16111","Snowdepth":"5.000","Units":"in","Rept_Date":"2021-01-10 13"},"coordinates":[2458,6024]},{"type":"Point","properties":{"Station_ID":"WRUM5","Station_Nam":"WARROAD 4W","Latitude":"48.89600","Longitude":"-95.40700","Snowdepth":"5.000","Units":"in","Rept_Date":"2021-01-11 04"},"coordinates":[496,8642]},{"type":"Point","properties":{"Station_ID":"WORV1","Station_Nam":"WORCESTER 2 W","Latitude":"44.37470","Longitude":"-72.58220","Snowdepth":"5.000","Units":"in","Rept_Date":"2021-01-10 12"},"coordinates":[6677,6476]},{"type":"Point","properties":{"Station_ID":"WODI2","Station_Nam":"WOODSTOCK","Latitude":"42.36280","Longitude":"-88.53140","Snowdepth":"5.000","Units":"in","Rept_Date":"2021-01-10 13"},"coordinates":[2358,5512]},{"type":"Point","properties":{"Station_ID":"WI-VR-1","Station_Nam":"HILLSBORO 0.5 WSW, WI","Latitude":"43.65138","Longitude":"-90.34753","Snowdepth":"5.000","Units":"in","Rept_Date":"2021-01-10 14"},"coordinates":[1866,6129]},{"type":"Point","properties":{"Station_ID":"WI-VL-14","Station_Nam":"BOULDER JUNCTION 1.4 NE, WI","Latitude":"46.12840","Longitude":"-89.62470","Snowdepth":"5.000","Units":"in","Rept_Date":"2021-01-10 13"},"coordinates":[2062,7316]},{"type":"Point","properties":{"Station_ID":"WI-RS-1","Station_Nam":"LADYSMITH 2.8 WNW, WI","Latitude":"45.48180","Longitude":"-91.14680","Snowdepth":"5.000","Units":"in","Rept_Date":"2021-01-10 13"},"coordinates":[1650,7006]},{"type":"Point","properties":{"Station_ID":"WI-PC-5","Station_Nam":"RIVER FALLS 1.2 SSW, WI","Latitude":"44.84032","Longitude":"-92.63500","Snowdepth":"5.000","Units":"in","Rept_Date":"2021-01-10 13"},"coordinates":[1247,6699]},{"type":"Point","properties":{"Station_ID":"WI-PC-10","Station_Nam":"RIVER FALLS 1.4 S, WI","Latitude":"44.83580","Longitude":"-92.62100","Snowdepth":"5.000","Units":"in","Rept_Date":"2021-01-10 13"},"coordinates":[1250,6697]},{"type":"Point","properties":{"Station_ID":"WI-MW-43","Station_Nam":"BROWN DEER 0.8 NW, WI","Latitude":"43.18438","Longitude":"-87.98401","Snowdepth":"5.000","Units":"in","Rept_Date":"2021-01-10 13"},"coordinates":[2506,5905]},{"type":"Point","properties":{"Station_ID":"WI-DA-39","Station_Nam":"MADISON 4.0 W, WI","Latitude":"43.07741","Longitude":"-89.46757","Snowdepth":"5.000","Units":"in","Rept_Date":"2021-01-10 13"},"coordinates":[2104,5854]},{"type":"Point","properties":{"Station_ID":"WI-AS-4","Station_Nam":"ASHLAND 0.5 WNW, WI","Latitude":"46.58240","Longitude":"-90.88390","Snowdepth":"5.000","Units":"in","Rept_Date":"2021-01-10 13"},"coordinates":[1721,7534]},{"type":"Point","properties":{"Station_ID":"WDOM5","Station_Nam":"WINDOM","Latitude":"43.87700","Longitude":"-95.11590","Snowdepth":"5.000","Units":"in","Rept_Date":"2021-01-10 14"},"coordinates":[575,6237]},{"type":"Point","properties":{"Station_ID":"WAIV1","Station_Nam":"WAITSFIELD","Latitude":"44.17560","Longitude":"-72.79610","Snowdepth":"5.000","Units":"in","Rept_Date":"2021-01-10 12"},"coordinates":[6619,6380]},{"type":"Point","properties":{"Station_ID":"VT-WS-33","Station_Nam":"WAITSFIELD 3.5 WNW, VT","Latitude":"44.20052","Longitude":"-72.89421","Snowdepth":"5.000","Units":"in","Rept_Date":"2021-01-10 13"},"coordinates":[6593,6392]},{"type":"Point","properties":{"Station_ID":"VT-WS-11","Station_Nam":"WAITSFIELD 1.8 SE, VT","Latitude":"44.17551","Longitude":"-72.79540","Snowdepth":"5.000","Units":"in","Rept_Date":"2021-01-10 12"},"coordinates":[6619,6380]},{"type":"Point","properties":{"Station_ID":"VT-BN-12","Station_Nam":"STAMFORD 5.0 NNE, VT","Latitude":"42.82000","Longitude":"-73.02000","Snowdepth":"5.000","Units":"in","Rept_Date":"2021-01-10 21"},"coordinates":[6558,5731]},{"type":"Point","properties":{"Station_ID":"VRGV1","Station_Nam":"VERGENNES","Latitude":"44.17190","Longitude":"-73.24720","Snowdepth":"5.000","Units":"in","Rept_Date":"2021-01-10 11"},"coordinates":[6497,6379]},{"type":"Point","properties":{"Station_ID":"VQAW3","Station_Nam":"VIROQUA","Latitude":"43.55970","Longitude":"-90.87560","Snowdepth":"5.000","Units":"in","Rept_Date":"2021-01-10 13"},"coordinates":[1723,6085]},{"type":"Point","properties":{"Station_ID":"VNTI4","Station_Nam":"VINTON","Latitude":"42.17020","Longitude":"-92.00770","Snowdepth":"5.000","Units":"in","Rept_Date":"2021-01-10 13"},"coordinates":[1417,5419]},{"type":"Point","properties":{"Station_ID":"TOPN6","Station_Nam":"TUPPER LAKE SUNMOUNT","Latitude":"44.23070","Longitude":"-74.43820","Snowdepth":"5.000","Units":"in","Rept_Date":"2021-01-10 12"},"coordinates":[6174,6407]},{"type":"Point","properties":{"Station_ID":"STMM4","Station_Nam":"STAMBAUGH 2SSE","Latitude":"46.05550","Longitude":"-88.62780","Snowdepth":"5.000","Units":"in","Rept_Date":"2021-01-10 13"},"coordinates":[2332,7281]},{"type":"Point","properties":{"Station_ID":"STGW3","Station_Nam":"ST GERMAIN","Latitude":"45.91550","Longitude":"-89.48940","Snowdepth":"5.000","Units":"in","Rept_Date":"2021-01-10 12"},"coordinates":[2099,7214]},{"type":"Point","properties":{"Station_ID":"SJBV1","Station_Nam":"SAINT JOHNSBURY","Latitude":"44.42000","Longitude":"-72.01940","Snowdepth":"5.000","Units":"in","Rept_Date":"2021-01-10 21"},"coordinates":[6829,6497]},{"type":"Point","properties":{"Station_ID":"SHIW3","Station_Nam":"SHIOCTON","Latitude":"44.43890","Longitude":"-88.58390","Snowdepth":"5.000","Units":"in","Rept_Date":"2021-01-10 13"},"coordinates":[2344,6506]},{"type":"Point","properties":{"Station_ID":"SHHW3","Station_Nam":"SHAWANO 2SSW","Latitude":"44.76310","Longitude":"-88.61830","Snowdepth":"5.000","Units":"in","Rept_Date":"2021-01-10 14"},"coordinates":[2334,6662]},{"type":"Point","properties":{"Station_ID":"ROWM3","Station_Nam":"ROWE 3NE","Latitude":"42.73500","Longitude":"-72.86920","Snowdepth":"5.000","Units":"in","Rept_Date":"2021-01-10 14"},"coordinates":[6599,5690]},{"type":"Point","properties":{"Station_ID":"ROCW3","Station_Nam":"ROCHESTER WWTP","Latitude":"42.72690","Longitude":"-88.22580","Snowdepth":"5.000","Units":"in","Rept_Date":"2021-01-10 13"},"coordinates":[2441,5686]},{"type":"Point","properties":{"Station_ID":"RARM4","Station_Nam":"RAPID RIVER 1 SW","Latitude":"45.91500","Longitude":"-86.98800","Snowdepth":"5.000","Units":"in","Rept_Date":"2021-01-10 12"},"coordinates":[2776,7214]},{"type":"Point","properties":{"Station_ID":"QCAI2","Station_Nam":"MOLINE SNOW","Latitude":"41.39990","Longitude":"-90.54800","Snowdepth":"5.000","Units":"in","Rept_Date":"2021-01-11 00"},"coordinates":[1812,5050]},{"type":"Point","properties":{"Station_ID":"PYRW3","Station_Nam":"PALMYRA WWTP","Latitude":"42.88720","Longitude":"-88.58310","Snowdepth":"5.000","Units":"in","Rept_Date":"2021-01-10 13"},"coordinates":[2344,5763]},{"type":"Point","properties":{"Station_ID":"PSHW3","Station_Nam":"PESHTIGO","Latitude":"45.02810","Longitude":"-87.73560","Snowdepth":"5.000","Units":"in","Rept_Date":"2021-01-10 13"},"coordinates":[2573,6789]},{"type":"Point","properties":{"Station_ID":"PLFV1","Station_Nam":"PLAINFIELD","Latitude":"44.27610","Longitude":"-72.41500","Snowdepth":"5.000","Units":"in","Rept_Date":"2021-01-10 12"},"coordinates":[6722,6428]},{"type":"Point","properties":{"Station_ID":"PBAN8","Station_Nam":"SITE 1-3MI.N","Latitude":"48.97420","Longitude":"-97.23860","Snowdepth":"5.000","Units":"in","Rept_Date":"2021-01-10 13"},"coordinates":[0,8680]},{"type":"Point","properties":{"Station_ID":"OCOW3","Station_Nam":"OCONOMOWOC,WI","Latitude":"43.10190","Longitude":"-88.50330","Snowdepth":"5.000","Units":"in","Rept_Date":"2021-01-10 13"},"coordinates":[2366,5866]},{"type":"Point","properties":{"Station_ID":"NY-SL-6","Station_Nam":"HANNAWA FALLS 0.1 SW, NY","Latitude":"44.61154","Longitude":"-74.97190","Snowdepth":"5.000","Units":"in","Rept_Date":"2021-01-10 12"},"coordinates":[6030,6589]},{"type":"Point","properties":{"Station_ID":"NY-LW-12","Station_Nam":"CHASES LAKE COOP, NY","Latitude":"43.75924","Longitude":"-75.29982","Snowdepth":"5.000","Units":"in","Rept_Date":"2021-01-10 11"},"coordinates":[5941,6181]},{"type":"Point","properties":{"Station_ID":"NY-CL-12","Station_Nam":"SARANAC 0.8 SSE, NY","Latitude":"44.63980","Longitude":"-73.73848","Snowdepth":"5.000","Units":"in","Rept_Date":"2021-01-10 12"},"coordinates":[6364,6603]},{"type":"Point","properties":{"Station_ID":"NY-BM-14","Station_Nam":"WHITNEY POINT 1.7 SSE, NY","Latitude":"42.30837","Longitude":"-75.95690","Snowdepth":"5.000","Units":"in","Rept_Date":"2021-01-10 12"},"coordinates":[5763,5485]},{"type":"Point","properties":{"Station_ID":"NUMN3","Station_Nam":"NORTHUMBERLAND","Latitude":"44.52830","Longitude":"-71.50440","Snowdepth":"5.000","Units":"in","Rept_Date":"2021-01-10 13"},"coordinates":[6969,6549]},{"type":"Point","properties":{"Station_ID":"NUMM5","Station_Nam":"NEW ULM 3SE","Latitude":"44.29450","Longitude":"-94.40840","Snowdepth":"5.000","Units":"in","Rept_Date":"2021-01-10 12"},"coordinates":[766,6437]},{"type":"Point","properties":{"Station_ID":"NPTV1","Station_Nam":"NEWPORT","Latitude":"44.94900","Longitude":"-72.19120","Snowdepth":"5.000","Units":"in","Rept_Date":"2021-01-10 12"},"coordinates":[6783,6751]},{"type":"Point","properties":{"Station_ID":"NH-CS-10","Station_Nam":"RANDOLPH 1.4 NE, NH","Latitude":"44.38824","Longitude":"-71.26950","Snowdepth":"5.000","Units":"in","Rept_Date":"2021-01-10 12"},"coordinates":[7033,6482]},{"type":"Point","properties":{"Station_ID":"NH-CR-15","Station_Nam":"JACKSON 3.7 NW, NH","Latitude":"44.19069","Longitude":"-71.22598","Snowdepth":"5.000","Units":"in","Rept_Date":"2021-01-10 12"},"coordinates":[7044,6388]},{"type":"Point","properties":{"Station_ID":"NC-ML-15","Station_Nam":"BULADEAN 1.3 ESE, NC","Latitude":"36.10222","Longitude":"-82.17261","Snowdepth":"5.000","Units":"in","Rept_Date":"2021-01-10 13"},"coordinates":[4080,2511]},{"type":"Point","properties":{"Station_ID":"MWTM1","Station_Nam":"MILLINOCKET WWTP","Latitude":"45.64030","Longitude":"-68.67480","Snowdepth":"5.000","Units":"in","Rept_Date":"2021-01-10 11"},"coordinates":[7735,7082]},{"type":"Point","properties":{"Station_ID":"MRRN6","Station_Nam":"MORRISVILLE 6 SW","Latitude":"42.84160","Longitude":"-75.72630","Snowdepth":"5.000","Units":"in","Rept_Date":"2021-01-10 12"},"coordinates":[5826,5741]},{"type":"Point","properties":{"Station_ID":"MNSM4","Station_Nam":"MUNISING","Latitude":"46.41210","Longitude":"-86.66250","Snowdepth":"5.000","Units":"in","Rept_Date":"2021-01-10 11"},"coordinates":[2864,7452]},{"type":"Point","properties":{"Station_ID":"MN-SC-2","Station_Nam":"PRIOR LAKE 2.0 W, MN","Latitude":"44.71250","Longitude":"-93.46360","Snowdepth":"5.000","Units":"in","Rept_Date":"2021-01-10 13"},"coordinates":[1022,6638]},{"type":"Point","properties":{"Station_ID":"MN-MR-4","Station_Nam":"LITTLE FALLS 1.2 SW, MN","Latitude":"45.96886","Longitude":"-94.37720","Snowdepth":"5.000","Units":"in","Rept_Date":"2021-01-10 13"},"coordinates":[775,7240]},{"type":"Point","properties":{"Station_ID":"MN-MR-13","Station_Nam":"LITTLE FALLS 8.0 NE, MN","Latitude":"46.06785","Longitude":"-94.24789","Snowdepth":"5.000","Units":"in","Rept_Date":"2021-01-10 13"},"coordinates":[810,7287]},{"type":"Point","properties":{"Station_ID":"MN-KB-17","Station_Nam":"MORA 2.5 S, MN","Latitude":"45.84100","Longitude":"-93.29700","Snowdepth":"5.000","Units":"in","Rept_Date":"2021-01-10 13"},"coordinates":[1067,7178]},{"type":"Point","properties":{"Station_ID":"MN-HN-272","Station_Nam":"RICHFIELD 1.1 WSW, MN","Latitude":"44.87052","Longitude":"-93.30394","Snowdepth":"5.000","Units":"in","Rept_Date":"2021-01-10 13"},"coordinates":[1066,6713]},{"type":"Point","properties":{"Station_ID":"MN-DK-53","Station_Nam":"LAKEVILLE 3.8 ENE, MN","Latitude":"44.70423","Longitude":"-93.18460","Snowdepth":"5.000","Units":"in","Rept_Date":"2021-01-10 14"},"coordinates":[1098,6634]},{"type":"Point","properties":{"Station_ID":"MN-BM-15","Station_Nam":"BEMIDJI 7.8 ENE, MN","Latitude":"47.52043","Longitude":"-94.72121","Snowdepth":"5.000","Units":"in","Rept_Date":"2021-01-10 13"},"coordinates":[682,7983]},{"type":"Point","properties":{"Station_ID":"MMTN7","Station_Nam":"MOUNT MITCHELL STATE PARK","Latitude":"35.75940","Longitude":"-82.27110","Snowdepth":"5.000","Units":"in","Rept_Date":"2021-01-10 12"},"coordinates":[4053,2347]},{"type":"Point","properties":{"Station_ID":"MLI","Station_Nam":"QUAD CITY INTL","Latitude":"41.44860","Longitude":"-90.50750","Snowdepth":"5.000","Units":"in","Rept_Date":"2021-01-10 12"},"coordinates":[1823,5073]},{"type":"Point","properties":{"Station_ID":"MI-OT-16","Station_Nam":"GAYLORD 2.2 SSE, MI","Latitude":"44.99441","Longitude":"-84.65820","Snowdepth":"5.000","Units":"in","Rept_Date":"2021-01-10 11"},"coordinates":[3407,6773]},{"type":"Point","properties":{"Station_ID":"MI-NW-8","Station_Nam":"WHITE CLOUD 7.5 ENE, MI","Latitude":"43.60630","Longitude":"-85.64190","Snowdepth":"5.000","Units":"in","Rept_Date":"2021-01-10 12"},"coordinates":[3140,6107]},{"type":"Point","properties":{"Station_ID":"MI-MQ-19","Station_Nam":"ISHPEMING 7.2 SW, MI","Latitude":"46.40550","Longitude":"-87.75670","Snowdepth":"5.000","Units":"in","Rept_Date":"2021-01-10 11"},"coordinates":[2568,7449]},{"type":"Point","properties":{"Station_ID":"ME-PN-43","Station_Nam":"ORONO 0.9 NE, ME","Latitude":"44.89261","Longitude":"-68.66903","Snowdepth":"5.000","Units":"in","Rept_Date":"2021-01-10 12"},"coordinates":[7737,6724]},{"type":"Point","properties":{"Station_ID":"ME-KB-53","Station_Nam":"READFIELD 2.0 NNE, ME","Latitude":"44.41620","Longitude":"-69.95190","Snowdepth":"5.000","Units":"in","Rept_Date":"2021-01-10 12"},"coordinates":[7389,6496]},{"type":"Point","properties":{"Station_ID":"ME-FR-4","Station_Nam":"NEW SHARON 2.0 NW, ME","Latitude":"44.66582","Longitude":"-70.02720","Snowdepth":"5.000","Units":"in","Rept_Date":"2021-01-10 12"},"coordinates":[7369,6615]},{"type":"Point","properties":{"Station_ID":"ME-FR-22","Station_Nam":"FARMINGTON 4.8 NNW, ME","Latitude":"44.73396","Longitude":"-70.18007","Snowdepth":"5.000","Units":"in","Rept_Date":"2021-01-10 14"},"coordinates":[7328,6648]},{"type":"Point","properties":{"Station_ID":"LVRM1","Station_Nam":"LIVERMORE FALLS 1 E","Latitude":"44.47160","Longitude":"-70.15940","Snowdepth":"5.000","Units":"in","Rept_Date":"2021-01-10 12"},"coordinates":[7333,6522]},{"type":"Point","properties":{"Station_ID":"LVDW3","Station_Nam":"LAC VIEUX DESERT","Latitude":"46.12110","Longitude":"-89.07580","Snowdepth":"5.000","Units":"in","Rept_Date":"2021-01-10 15"},"coordinates":[2211,7313]},{"type":"Point","properties":{"Station_ID":"LUPM4","Station_Nam":"LUPTON 1S","Latitude":"44.41990","Longitude":"-84.02320","Snowdepth":"5.000","Units":"in","Rept_Date":"2021-01-10 13"},"coordinates":[3579,6497]},{"type":"Point","properties":{"Station_ID":"LODW3","Station_Nam":"LODI","Latitude":"43.32170","Longitude":"-89.53110","Snowdepth":"5.000","Units":"in","Rept_Date":"2021-01-10 17"},"coordinates":[2087,5971]},{"type":"Point","properties":{"Station_ID":"LNGM5","Station_Nam":"LONG PRAIRIE","Latitude":"45.96460","Longitude":"-94.88920","Snowdepth":"5.000","Units":"in","Rept_Date":"2021-01-10 12"},"coordinates":[636,7238]},{"type":"Point","properties":{"Station_ID":"LKMW3","Station_Nam":"LAKE MILLS,WI","Latitude":"43.06670","Longitude":"-88.91220","Snowdepth":"5.000","Units":"in","Rept_Date":"2021-01-10 15"},"coordinates":[2255,5849]},{"type":"Point","properties":{"Station_ID":"KRFD","Station_Nam":"GREATER ROCKFORD AIRPORT","Latitude":"42.20000","Longitude":"-89.10000","Snowdepth":"5.000","Units":"in","Rept_Date":"2021-01-11 06"},"coordinates":[2204,5434]},{"type":"Point","properties":{"Station_ID":"KISM4","Station_Nam":"K.I. SAWYER WWTP","Latitude":"46.33410","Longitude":"-87.37790","Snowdepth":"5.000","Units":"in","Rept_Date":"2021-01-10 13"},"coordinates":[2670,7415]},{"type":"Point","properties":{"Station_ID":"KINM1","Station_Nam":"KINGFIELD","Latitude":"44.95950","Longitude":"-70.17530","Snowdepth":"5.000","Units":"in","Rept_Date":"2021-01-10 17"},"coordinates":[7329,6756]},{"type":"Point","properties":{"Station_ID":"KGTB","Station_Nam":"FORT DRUM / WHEELER-SACK U. S. ARMY AIRFIELD","Latitude":"44.05000","Longitude":"-75.73333","Snowdepth":"5.000","Units":"in","Rept_Date":"2021-01-11 06"},"coordinates":[5824,6320]},{"type":"Point","properties":{"Station_ID":"JKMM1","Station_Nam":"JACKMAN","Latitude":"45.62600","Longitude":"-70.24600","Snowdepth":"5.000","Units":"in","Rept_Date":"2021-01-10 12"},"coordinates":[7310,7075]},{"type":"Point","properties":{"Station_ID":"JFNW3","Station_Nam":"JEFFERSON - WWTP","Latitude":"42.99470","Longitude":"-88.80390","Snowdepth":"5.000","Units":"in","Rept_Date":"2021-01-10 13"},"coordinates":[2284,5814]},{"type":"Point","properties":{"Station_ID":"JFFN7","Station_Nam":"JEFFERSON 2 E","Latitude":"36.41610","Longitude":"-81.42860","Snowdepth":"5.000","Units":"in","Rept_Date":"2021-01-10 13"},"coordinates":[4281,2662]},{"type":"Point","properties":{"Station_ID":"INDN6","Station_Nam":"INDIAN LAKE","Latitude":"43.75500","Longitude":"-74.27560","Snowdepth":"5.000","Units":"in","Rept_Date":"2021-01-10 14"},"coordinates":[6218,6179]},{"type":"Point","properties":{"Station_ID":"IL-MCH-13","Station_Nam":"BULL VALLEY 2.5 WNW, IL","Latitude":"42.32455","Longitude":"-88.39460","Snowdepth":"5.000","Units":"in","Rept_Date":"2021-01-10 14"},"coordinates":[2395,5493]},{"type":"Point","properties":{"Station_ID":"IL-HY-5","Station_Nam":"COAL VALLEY 1.9 SE, IL","Latitude":"41.43339","Longitude":"-90.41750","Snowdepth":"5.000","Units":"in","Rept_Date":"2021-01-10 13"},"coordinates":[1847,5066]},{"type":"Point","properties":{"Station_ID":"ICYI4","Station_Nam":"IOWA CITY","Latitude":"41.60930","Longitude":"-91.50510","Snowdepth":"5.000","Units":"in","Rept_Date":"2021-01-10 13"},"coordinates":[1553,5150]},{"type":"Point","properties":{"Station_ID":"IA-ST-48","Station_Nam":"BETTENDORF 1.6 W, IA","Latitude":"41.56502","Longitude":"-90.50767","Snowdepth":"5.000","Units":"in","Rept_Date":"2021-01-10 13"},"coordinates":[1823,5129]},{"type":"Point","properties":{"Station_ID":"IA-ST-30","Station_Nam":"ELDRIDGE 0.7 SSW, IA","Latitude":"41.64465","Longitude":"-90.58706","Snowdepth":"5.000","Units":"in","Rept_Date":"2021-01-10 14"},"coordinates":[1801,5167]},{"type":"Point","properties":{"Station_ID":"IA-MC-13","Station_Nam":"MUSCATINE 2.1 N, IA","Latitude":"41.44808","Longitude":"-91.07428","Snowdepth":"5.000","Units":"in","Rept_Date":"2021-01-10 13"},"coordinates":[1669,5073]},{"type":"Point","properties":{"Station_ID":"IA-JH-1","Station_Nam":"SOLON 0.3 ESE, IA","Latitude":"41.80398","Longitude":"-91.48910","Snowdepth":"5.000","Units":"in","Rept_Date":"2021-01-10 13"},"coordinates":[1557,5244]},{"type":"Point","properties":{"Station_ID":"IA-DV-2","Station_Nam":"MOULTON 3.6 ENE, IA","Latitude":"40.70487","Longitude":"-92.61551","Snowdepth":"5.000","Units":"in","Rept_Date":"2021-01-10 13"},"coordinates":[1252,4717]},{"type":"Point","properties":{"Station_ID":"HSTM5","Station_Nam":"HASTINGS DAM 2","Latitude":"44.75970","Longitude":"-92.86890","Snowdepth":"5.000","Units":"in","Rept_Date":"2021-01-10 13"},"coordinates":[1183,6660]},{"type":"Point","properties":{"Station_ID":"GFDN6","Station_Nam":"CHASES LAKE","Latitude":"43.75920","Longitude":"-75.29980","Snowdepth":"5.000","Units":"in","Rept_Date":"2021-01-10 11"},"coordinates":[5941,6181]},{"type":"Point","properties":{"Station_ID":"FLAM4","Station_Nam":"FIFE LAKE 2WNW","Latitude":"44.58480","Longitude":"-85.36530","Snowdepth":"5.000","Units":"in","Rept_Date":"2021-01-10 12"},"coordinates":[3215,6576]},{"type":"Point","properties":{"Station_ID":"FATW3","Station_Nam":"FORT ATKINSON,WI","Latitude":"42.88330","Longitude":"-88.83330","Snowdepth":"5.000","Units":"in","Rept_Date":"2021-01-10 13"},"coordinates":[2276,5761]},{"type":"Point","properties":{"Station_ID":"DVNI4","Station_Nam":"DAVENPORT WFO","Latitude":"41.61170","Longitude":"-90.58160","Snowdepth":"5.000","Units":"in","Rept_Date":"2021-01-11 06"},"coordinates":[1803,5152]},{"type":"Point","properties":{"Station_ID":"DVN","Station_Nam":"QUAD CITIES, IA","Latitude":"41.61030","Longitude":"-90.58830","Snowdepth":"5.000","Units":"in","Rept_Date":"2021-01-11 00"},"coordinates":[1801,5151]},{"type":"Point","properties":{"Station_ID":"DUBI4","Station_Nam":"DUBUQUE #3","Latitude":"42.40870","Longitude":"-90.73250","Snowdepth":"5.000","Units":"in","Rept_Date":"2021-01-10 18"},"coordinates":[1762,5534]},{"type":"Point","properties":{"Station_ID":"DHMM1","Station_Nam":"DEDHAM","Latitude":"44.67880","Longitude":"-68.63560","Snowdepth":"5.000","Units":"in","Rept_Date":"2021-01-10 12"},"coordinates":[7746,6621]},{"type":"Point","properties":{"Station_ID":"DBQ","Station_Nam":"DUBUQUE REGIONAL AIRPORT","Latitude":"42.40310","Longitude":"-90.70920","Snowdepth":"5.000","Units":"in","Rept_Date":"2021-01-10 12"},"coordinates":[1768,5531]},{"type":"Point","properties":{"Station_ID":"DARW3","Station_Nam":"DARLINGTON","Latitude":"42.67780","Longitude":"-90.11860","Snowdepth":"5.000","Units":"in","Rept_Date":"2021-01-10 14"},"coordinates":[1928,5663]},{"type":"Point","properties":{"Station_ID":"CRPI4","Station_Nam":"CEDAR RAPIDS NO 1","Latitude":"42.05000","Longitude":"-91.58810","Snowdepth":"5.000","Units":"in","Rept_Date":"2021-01-10 23"},"coordinates":[1530,5362]},{"type":"Point","properties":{"Station_ID":"CLGM5","Station_Nam":"COLLEGEVILLE ST JOHN","Latitude":"45.57940","Longitude":"-94.39200","Snowdepth":"5.000","Units":"in","Rept_Date":"2021-01-11 00"},"coordinates":[771,7053]},{"type":"Point","properties":{"Station_ID":"BOON7","Station_Nam":"BOONE 1SE","Latitude":"36.21140","Longitude":"-81.64420","Snowdepth":"5.000","Units":"in","Rept_Date":"2021-01-10 12"},"coordinates":[4223,2564]},{"type":"Point","properties":{"Station_ID":"BOON6","Station_Nam":"BOONVILLE 4 SSW","Latitude":"43.43610","Longitude":"-75.36970","Snowdepth":"5.000","Units":"in","Rept_Date":"2021-01-10 12"},"coordinates":[5922,6026]},{"type":"Point","properties":{"Station_ID":"BKEM5","Station_Nam":"BRECKENRIDGE 4NE","Latitude":"46.30470","Longitude":"-96.52170","Snowdepth":"5.000","Units":"in","Rept_Date":"2021-01-10 13"},"coordinates":[194,7401]},{"type":"Point","properties":{"Station_ID":"BETM1","Station_Nam":"BETHEL 6 SSE","Latitude":"44.32000","Longitude":"-70.75680","Snowdepth":"5.000","Units":"in","Rept_Date":"2021-01-10 12"},"coordinates":[7171,6449]},{"type":"Point","properties":{"Station_ID":"AWXW3","Station_Nam":"ASHLAND","Latitude":"46.58240","Longitude":"-90.88390","Snowdepth":"5.000","Units":"in","Rept_Date":"2021-01-10 13"},"coordinates":[1721,7534]},{"type":"Point","properties":{"Station_ID":"AVTW3","Station_Nam":"ARBOR VITAE-JOHNSON LAKE","Latitude":"45.89940","Longitude":"-89.72670","Snowdepth":"5.000","Units":"in","Rept_Date":"2021-01-10 12"},"coordinates":[2034,7206]},{"type":"Point","properties":{"Station_ID":"AMOI4","Station_Nam":"ANAMOSA 3 SSW","Latitude":"42.07630","Longitude":"-91.30190","Snowdepth":"5.000","Units":"in","Rept_Date":"2021-01-10 13"},"coordinates":[1608,5374]},{"type":"Point","properties":{"Station_ID":"QTV","Station_Nam":"QTV","Latitude":"49.66000","Longitude":"-69.35690","Snowdepth":"4.882","Units":"in","Rept_Date":"2021-01-10 12"},"coordinates":[7550,9009]},{"type":"Point","properties":{"Station_ID":"WI-WW-2","Station_Nam":"LAKE GENEVA 0.6 ENE, WI","Latitude":"42.59169","Longitude":"-88.41770","Snowdepth":"4.800","Units":"in","Rept_Date":"2021-01-10 13"},"coordinates":[2389,5621]},{"type":"Point","properties":{"Station_ID":"CAN-PE-47","Station_Nam":"LONG CREEK 0.3 NNW, CAN","Latitude":"46.17420","Longitude":"-63.27320","Snowdepth":"4.700","Units":"in","Rept_Date":"2021-01-10 12"},"coordinates":[9198,7338]},{"type":"Point","properties":{"Station_ID":"CAN-NB-104","Station_Nam":"PENNFIELD RIDGE 2.7 SSW, CAN","Latitude":"45.09355","Longitude":"-66.71389","Snowdepth":"4.700","Units":"in","Rept_Date":"2021-01-10 11"},"coordinates":[8266,6820]},{"type":"Point","properties":{"Station_ID":"HPN19_MADIS","Station_Nam":"GREENFIELD","Latitude":"45.20343","Longitude":"-93.69130","Snowdepth":"4.650","Units":"in","Rept_Date":"2021-01-10 23"},"coordinates":[961,6873]},{"type":"Point","properties":{"Station_ID":"QWG","Station_Nam":"QWG","Latitude":"48.48890","Longitude":"-73.45940","Snowdepth":"4.646","Units":"in","Rept_Date":"2021-01-10 12"},"coordinates":[6439,8447]},{"type":"Point","properties":{"Station_ID":"CAN-PE-7","Station_Nam":"MORELL 1.4 NNW, CA","Latitude":"46.42741","Longitude":"-62.70870","Snowdepth":"4.600","Units":"in","Rept_Date":"2021-01-10 12"},"coordinates":[9351,7459]},{"type":"Point","properties":{"Station_ID":"WI-WW-13","Station_Nam":"MUKWONAGO 3.4 SW, WI","Latitude":"42.83734","Longitude":"-88.38534","Snowdepth":"4.500","Units":"in","Rept_Date":"2021-01-10 12"},"coordinates":[2397,5739]},{"type":"Point","properties":{"Station_ID":"WI-WS-30","Station_Nam":"HARTFORD 2.9 ENE, WI","Latitude":"43.34256","Longitude":"-88.33687","Snowdepth":"4.500","Units":"in","Rept_Date":"2021-01-10 13"},"coordinates":[2411,5981]},{"type":"Point","properties":{"Station_ID":"WI-JF-17","Station_Nam":"JOHNSON CREEK 2.7 SSW, WI","Latitude":"43.04559","Longitude":"-88.79925","Snowdepth":"4.500","Units":"in","Rept_Date":"2021-01-10 13"},"coordinates":[2285,5839]},{"type":"Point","properties":{"Station_ID":"WI-DA-33","Station_Nam":"OREGON 0.4 SSW, WI","Latitude":"42.92080","Longitude":"-89.38540","Snowdepth":"4.500","Units":"in","Rept_Date":"2021-01-10 13"},"coordinates":[2127,5779]},{"type":"Point","properties":{"Station_ID":"WI-DA-31","Station_Nam":"DEERFIELD 0.6 N, WI","Latitude":"43.05958","Longitude":"-89.07340","Snowdepth":"4.500","Units":"in","Rept_Date":"2021-01-10 14"},"coordinates":[2211,5845]},{"type":"Point","properties":{"Station_ID":"WI-DA-13","Station_Nam":"MADISON 3.7 WSW, WI","Latitude":"43.06230","Longitude":"-89.45650","Snowdepth":"4.500","Units":"in","Rept_Date":"2021-01-10 13"},"coordinates":[2107,5847]},{"type":"Point","properties":{"Station_ID":"WI-CB-5","Station_Nam":"PORTAGE 7.2 SW, WI","Latitude":"43.47933","Longitude":"-89.57370","Snowdepth":"4.500","Units":"in","Rept_Date":"2021-01-10 13"},"coordinates":[2076,6047]},{"type":"Point","properties":{"Station_ID":"WI-CB-4","Station_Nam":"PORTAGE 5.7 WSW, WI","Latitude":"43.51411","Longitude":"-89.56910","Snowdepth":"4.500","Units":"in","Rept_Date":"2021-01-10 12"},"coordinates":[2077,6063]},{"type":"Point","properties":{"Station_ID":"WI-AD-10","Station_Nam":"OXFORD 4.0 W, WI","Latitude":"43.78638","Longitude":"-89.64166","Snowdepth":"4.500","Units":"in","Rept_Date":"2021-01-10 13"},"coordinates":[2057,6194]},