{"type":"Topology","objects":{"snowdepth_geo":{"type":"GeometryCollection","name":"snowdepth","crs":{"type":"name","properties":{"name":"urn:ogc:def:crs:OGC:1.3:CRS84"}},"geometries":[{"type":"Point","properties":{"Station_ID":"MMSV1","Station_Nam":"MOUNT MANSFIELD","Latitude":"44.53330","Longitude":"-72.83330","Snowdepth":"80.000","Units":"in","Rept_Date":"2019-11-19 05"},"coordinates":[7418,4303]},{"type":"Point","properties":{"Station_ID":"PRKM4","Station_Nam":"MUNISING EAST","Latitude":"46.42580","Longitude":"-86.62000","Snowdepth":"76.500","Units":"in","Rept_Date":"2019-11-19 06"},"coordinates":[2842,5802]},{"type":"Point","properties":{"Station_ID":"OGIQ6","Station_Nam":"OGOKI CAMP","Latitude":"50.76680","Longitude":"-87.85820","Snowdepth":"61.100","Units":"in","Rept_Date":"2019-11-19 05"},"coordinates":[2431,9239]},{"type":"Point","properties":{"Station_ID":"AUDQ6","Station_Nam":"AUDEN","Latitude":"48.52600","Longitude":"-82.57570","Snowdepth":"47.640","Units":"in","Rept_Date":"2019-11-19 05"},"coordinates":[4184,7465]},{"type":"Point","properties":{"Station_ID":"DVLQ6","Station_Nam":"DEVIOUS LAKE","Latitude":"49.19890","Longitude":"-87.76440","Snowdepth":"43.460","Units":"in","Rept_Date":"2019-11-19 05"},"coordinates":[2462,7997]},{"type":"Point","properties":{"Station_ID":"MMNV1","Station_Nam":"MT. MANSFIELD","Latitude":"44.52480","Longitude":"-72.81540","Snowdepth":"9.000","Units":"in","Rept_Date":"2019-11-18 21"},"coordinates":[7424,4297]},{"type":"Point","properties":{"Station_ID":"ME-AR-18","Station_Nam":"NEW SWEDEN 4.9 NNW, ME","Latitude":"47.01080","Longitude":"-68.14390","Snowdepth":"9.000","Units":"in","Rept_Date":"2019-11-18 12"},"coordinates":[8974,6265]},{"type":"Point","properties":{"Station_ID":"AVLV1","Station_Nam":"AVERILL","Latitude":"45.00570","Longitude":"-71.69030","Snowdepth":"9.000","Units":"in","Rept_Date":"2019-11-18 13"},"coordinates":[7797,4677]},{"type":"Point","properties":{"Station_ID":"LILM1","Station_Nam":"LILLE","Latitude":"47.27770","Longitude":"-68.10520","Snowdepth":"8.000","Units":"in","Rept_Date":"2019-11-18 12"},"coordinates":[8987,6476]},{"type":"Point","properties":{"Station_ID":"KSGM4","Station_Nam":"KEARSARGE","Latitude":"47.27520","Longitude":"-88.41700","Snowdepth":"8.000","Units":"in","Rept_Date":"2019-11-18 13"},"coordinates":[2245,6474]},{"type":"Point","properties":{"Station_ID":"IWOM4","Station_Nam":"IRONWOOD#2","Latitude":"46.46520","Longitude":"-90.13820","Snowdepth":"8.000","Units":"in","Rept_Date":"2019-11-18 13"},"coordinates":[1674,5833]},{"type":"Point","properties":{"Station_ID":"HURW3","Station_Nam":"HURLEY","Latitude":"46.46250","Longitude":"-90.19550","Snowdepth":"8.000","Units":"in","Rept_Date":"2019-11-18 14"},"coordinates":[1655,5831]},{"type":"Point","properties":{"Station_ID":"HTLN3","Station_Nam":"HERMIT LAKE SNOWPLOT","Latitude":"44.26130","Longitude":"-71.28330","Snowdepth":"8.000","Units":"in","Rept_Date":"2019-11-18 11"},"coordinates":[7932,4088]},{"type":"Point","properties":{"Station_ID":"FISM1","Station_Nam":"FORT KENT COOP","Latitude":"47.23850","Longitude":"-68.61240","Snowdepth":"8.000","Units":"in","Rept_Date":"2019-11-18 12"},"coordinates":[8819,6445]},{"type":"Point","properties":{"Station_ID":"VT-OL-12","Station_Nam":"GREENSBORO 3.9 NNE, VT","Latitude":"44.63100","Longitude":"-72.28000","Snowdepth":"7.500","Units":"in","Rept_Date":"2019-11-18 12"},"coordinates":[7601,4381]},{"type":"Point","properties":{"Station_ID":"NY-NG-12","Station_Nam":"LOCKPORT 0.8 NE, NY","Latitude":"43.17645","Longitude":"-78.68340","Snowdepth":"7.500","Units":"in","Rept_Date":"2019-11-18 12"},"coordinates":[5476,3229]},{"type":"Point","properties":{"Station_ID":"PDLM4","Station_Nam":"PAINESDALE","Latitude":"47.04160","Longitude":"-88.67170","Snowdepth":"7.000","Units":"in","Rept_Date":"2019-11-18 13"},"coordinates":[2161,6289]},{"type":"Point","properties":{"Station_ID":"NWFM4","Station_Nam":"NW MICHIGAN RESEARCH FARM","Latitude":"44.88300","Longitude":"-85.67520","Snowdepth":"7.000","Units":"in","Rept_Date":"2019-11-18 13"},"coordinates":[3155,4580]},{"type":"Point","properties":{"Station_ID":"NPTM4","Station_Nam":"NORTHPORT 2W","Latitude":"45.13220","Longitude":"-85.64720","Snowdepth":"7.000","Units":"in","Rept_Date":"2019-11-18 13"},"coordinates":[3165,4777]},{"type":"Point","properties":{"Station_ID":"CNRM1","Station_Nam":"CONNOR TWP","Latitude":"46.95830","Longitude":"-68.03330","Snowdepth":"7.000","Units":"in","Rept_Date":"2019-11-18 12"},"coordinates":[9011,6223]},{"type":"Point","properties":{"Station_ID":"CARM1","Station_Nam":"CARIBOU WFO","Latitude":"46.86810","Longitude":"-68.01250","Snowdepth":"7.000","Units":"in","Rept_Date":"2019-11-19 05"},"coordinates":[9018,6152]},{"type":"Point","properties":{"Station_ID":"CAN-QC-47","Station_Nam":"SAINTE-FOY 1.8 ENE, CAN","Latitude":"46.76934","Longitude":"-71.27124","Snowdepth":"6.700","Units":"in","Rept_Date":"2019-11-18 12"},"coordinates":[7936,6074]},{"type":"Point","properties":{"Station_ID":"NY-SL-6","Station_Nam":"HANNAWA FALLS 0.1 SW, NY","Latitude":"44.61154","Longitude":"-74.97190","Snowdepth":"6.500","Units":"in","Rept_Date":"2019-11-18 12"},"coordinates":[6708,4365]},{"type":"Point","properties":{"Station_ID":"MI-AT-6","Station_Nam":"MANCELONA 0.5 ESE, MI","Latitude":"44.89981","Longitude":"-85.05100","Snowdepth":"6.500","Units":"in","Rept_Date":"2019-11-18 13"},"coordinates":[3362,4593]},{"type":"Point","properties":{"Station_ID":"CAN-NB-13","Station_Nam":"BATHURST 3.8 NW, CAN","Latitude":"47.64212","Longitude":"-65.68756","Snowdepth":"6.500","Units":"in","Rept_Date":"2019-11-18 11"},"coordinates":[9789,6765]},{"type":"Point","properties":{"Station_ID":"WRPW3","Station_Nam":"WATER PURIFICATION PLANT","Latitude":"44.38800","Longitude":"-89.80550","Snowdepth":"6.000","Units":"in","Rept_Date":"2019-11-18 12"},"coordinates":[1784,4188]},{"type":"Point","properties":{"Station_ID":"VT-OL-9","Station_Nam":"GREENSBORO 2.1 NNW, VT","Latitude":"44.60528","Longitude":"-72.30940","Snowdepth":"6.000","Units":"in","Rept_Date":"2019-11-18 12"},"coordinates":[7592,4360]},{"type":"Point","properties":{"Station_ID":"VT-OL-2","Station_Nam":"BARTON 3.0 ENE, VT","Latitude":"44.75863","Longitude":"-72.11680","Snowdepth":"6.000","Units":"in","Rept_Date":"2019-11-18 12"},"coordinates":[7655,4482]},{"type":"Point","properties":{"Station_ID":"VT-ES-3","Station_Nam":"LUNENBURG 2.3 NNW, VT","Latitude":"44.49324","Longitude":"-71.70446","Snowdepth":"6.000","Units":"in","Rept_Date":"2019-11-18 12"},"coordinates":[7792,4272]},{"type":"Point","properties":{"Station_ID":"SUAW3","Station_Nam":"SUAMICO","Latitude":"44.60190","Longitude":"-88.09780","Snowdepth":"6.000","Units":"in","Rept_Date":"2019-11-18 12"},"coordinates":[2351,4358]},{"type":"Point","properties":{"Station_ID":"SSMM4","Station_Nam":"SAULT STE MARIE","Latitude":"46.48660","Longitude":"-84.40250","Snowdepth":"6.000","Units":"in","Rept_Date":"2019-11-18 13"},"coordinates":[3578,5850]},{"type":"Point","properties":{"Station_ID":"PTBN3","Station_Nam":"DAM WITHIN","Latitude":"45.05000","Longitude":"-71.38330","Snowdepth":"6.000","Units":"in","Rept_Date":"2019-11-18 12"},"coordinates":[7899,4712]},{"type":"Point","properties":{"Station_ID":"NY-JF-30","Station_Nam":"WEST CARTHAGE 0.3 ENE, NY","Latitude":"43.97493","Longitude":"-75.61640","Snowdepth":"6.000","Units":"in","Rept_Date":"2019-11-18 12"},"coordinates":[6494,3861]},{"type":"Point","properties":{"Station_ID":"NY-ES-7","Station_Nam":"KEESEVILLE 0.8 SE, NY","Latitude":"44.49504","Longitude":"-73.47109","Snowdepth":"6.000","Units":"in","Rept_Date":"2019-11-18 13"},"coordinates":[7206,4273]},{"type":"Point","properties":{"Station_ID":"NWCM4","Station_Nam":"NEWBERRY CITY","Latitude":"46.35720","Longitude":"-85.51780","Snowdepth":"6.000","Units":"in","Rept_Date":"2019-11-18 12"},"coordinates":[3208,5747]},{"type":"Point","properties":{"Station_ID":"KLKM4","Station_Nam":"KALKASKA","Latitude":"44.72800","Longitude":"-85.17270","Snowdepth":"6.000","Units":"in","Rept_Date":"2019-11-18 13"},"coordinates":[3322,4457]},{"type":"Point","properties":{"Station_ID":"JOHV1","Station_Nam":"JOHNSON 2 N","Latitude":"44.65790","Longitude":"-72.67850","Snowdepth":"6.000","Units":"in","Rept_Date":"2019-11-18 12"},"coordinates":[7469,4402]},{"type":"Point","properties":{"Station_ID":"IRMM4","Station_Nam":"WWTP","Latitude":"46.46670","Longitude":"-90.18330","Snowdepth":"6.000","Units":"in","Rept_Date":"2019-11-18 13"},"coordinates":[1659,5834]},{"type":"Point","properties":{"Station_ID":"HERM4","Station_Nam":"HERMAN,MI","Latitude":"46.65000","Longitude":"-88.33330","Snowdepth":"6.000","Units":"in","Rept_Date":"2019-11-18 13"},"coordinates":[2273,5979]},{"type":"Point","properties":{"Station_ID":"FLAM4","Station_Nam":"FIFE LAKE 2WNW","Latitude":"44.58480","Longitude":"-85.36530","Snowdepth":"6.000","Units":"in","Rept_Date":"2019-11-18 12"},"coordinates":[3258,4344]},{"type":"Point","properties":{"Station_ID":"ENFV1","Station_Nam":"ENOSBURG FALLS 2","Latitude":"44.90960","Longitude":"-72.81370","Snowdepth":"6.000","Units":"in","Rept_Date":"2019-11-18 10"},"coordinates":[7424,4601]},{"type":"Point","properties":{"Station_ID":"BRKN6","Station_Nam":"BROCKPORT","Latitude":"43.21600","Longitude":"-77.95290","Snowdepth":"6.000","Units":"in","Rept_Date":"2019-11-18 14"},"coordinates":[5718,3260]},{"type":"Point","properties":{"Station_ID":"SVBQ6","Station_Nam":"SAVANT BASE","Latitude":"50.28730","Longitude":"-90.65670","Snowdepth":"5.750","Units":"in","Rept_Date":"2019-11-19 05"},"coordinates":[1502,8859]},{"type":"Point","properties":{"Station_ID":"WI-IR-3","Station_Nam":"PENCE 0.1 E, WI","Latitude":"46.41555","Longitude":"-90.27013","Snowdepth":"5.500","Units":"in","Rept_Date":"2019-11-18 13"},"coordinates":[1630,5794]},{"type":"Point","properties":{"Station_ID":"VT-WS-7","Station_Nam":"MIDDLESEX 3.1 ENE, VT","Latitude":"44.31799","Longitude":"-72.62650","Snowdepth":"5.500","Units":"in","Rept_Date":"2019-11-18 13"},"coordinates":[7486,4133]},{"type":"Point","properties":{"Station_ID":"VT-WS-30","Station_Nam":"WOODBURY 3.4 NNW, VT","Latitude":"44.48825","Longitude":"-72.43258","Snowdepth":"5.500","Units":"in","Rept_Date":"2019-11-18 12"},"coordinates":[7551,4268]},{"type":"Point","properties":{"Station_ID":"VT-OL-1","Station_Nam":"WESTFIELD 0.7 WNW, VT","Latitude":"44.89160","Longitude":"-72.44350","Snowdepth":"5.500","Units":"in","Rept_Date":"2019-11-18 12"},"coordinates":[7547,4587]},{"type":"Point","properties":{"Station_ID":"NY-ER-158","Station_Nam":"EAST AURORA 2.7 SSE, NY","Latitude":"42.72936","Longitude":"-78.60561","Snowdepth":"5.500","Units":"in","Rept_Date":"2019-11-18 12"},"coordinates":[5502,2875]},{"type":"Point","properties":{"Station_ID":"MI-MB-55","Station_Nam":"FRASER 1.2 N, MI","Latitude":"42.55697","Longitude":"-82.94938","Snowdepth":"5.500","Units":"in","Rept_Date":"2019-11-18 12"},"coordinates":[4060,2738]},{"type":"Point","properties":{"Station_ID":"MI-BG-3","Station_Nam":"L'ANSE 17.8 SE, MI","Latitude":"46.55730","Longitude":"-88.20770","Snowdepth":"5.500","Units":"in","Rept_Date":"2019-11-18 13"},"coordinates":[2315,5906]},{"type":"Point","properties":{"Station_ID":"SOCQ6","Station_Nam":"SOCKET LAKE","Latitude":"50.77870","Longitude":"-91.79300","Snowdepth":"5.280","Units":"in","Rept_Date":"2019-11-19 05"},"coordinates":[1125,9248]},{"type":"Point","properties":{"Station_ID":"CAN-QC-51","Station_Nam":"BELOEIL 0.7 NW, CAN","Latitude":"45.58049","Longitude":"-73.21218","Snowdepth":"5.200","Units":"in","Rept_Date":"2019-11-18 12"},"coordinates":[7292,5132]},{"type":"Point","properties":{"Station_ID":"CAN-QC-16","Station_Nam":"SAINT-ARMAND 3.6 W, CAN","Latitude":"45.02631","Longitude":"-73.08795","Snowdepth":"5.100","Units":"in","Rept_Date":"2019-11-18 12"},"coordinates":[7333,4694]},{"type":"Point","properties":{"Station_ID":"VT-WS-15","Station_Nam":"EAST CALAIS 1.5 SW, VT","Latitude":"44.35523","Longitude":"-72.45540","Snowdepth":"5.000","Units":"in","Rept_Date":"2019-11-18 12"},"coordinates":[7543,4162]},{"type":"Point","properties":{"Station_ID":"VT-OL-5","Station_Nam":"DERBY CENTER 1.8 NW, VT","Latitude":"44.97200","Longitude":"-72.14780","Snowdepth":"5.000","Units":"in","Rept_Date":"2019-11-18 12"},"coordinates":[7645,4651]},{"type":"Point","properties":{"Station_ID":"VT-CL-23","Station_Nam":"RYEGATE 1.5 N, VT","Latitude":"44.23024","Longitude":"-72.10523","Snowdepth":"5.000","Units":"in","Rept_Date":"2019-11-18 12"},"coordinates":[7659,4063]},{"type":"Point","properties":{"Station_ID":"VRGV1","Station_Nam":"VERGENNES","Latitude":"44.17190","Longitude":"-73.24720","Snowdepth":"5.000","Units":"in","Rept_Date":"2019-11-18 11"},"coordinates":[7280,4017]},{"type":"Point","properties":{"Station_ID":"RLKW3","Station_Nam":"REST LAKE","Latitude":"46.12220","Longitude":"-89.87720","Snowdepth":"5.000","Units":"in","Rept_Date":"2019-11-18 14"},"coordinates":[1761,5561]},{"type":"Point","properties":{"Station_ID":"QNCM4","Station_Nam":"QUINCY HILL","Latitude":"47.13640","Longitude":"-88.57950","Snowdepth":"5.000","Units":"in","Rept_Date":"2019-11-18 12"},"coordinates":[2191,6364]},{"type":"Point","properties":{"Station_ID":"PDGM4","Station_Nam":"PAULDING","Latitude":"46.39760","Longitude":"-89.17940","Snowdepth":"5.000","Units":"in","Rept_Date":"2019-11-18 13"},"coordinates":[1992,5779]},{"type":"Point","properties":{"Station_ID":"NPTV1","Station_Nam":"NEWPORT","Latitude":"44.94900","Longitude":"-72.19120","Snowdepth":"5.000","Units":"in","Rept_Date":"2019-11-18 12"},"coordinates":[7631,4632]},{"type":"Point","properties":{"Station_ID":"NH-CS-10","Station_Nam":"RANDOLPH 1.4 NE, NH","Latitude":"44.38824","Longitude":"-71.26950","Snowdepth":"5.000","Units":"in","Rept_Date":"2019-11-18 12"},"coordinates":[7937,4188]},{"type":"Point","properties":{"Station_ID":"NCBN6","Station_Nam":"NEWCOMB","Latitude":"43.97070","Longitude":"-74.22200","Snowdepth":"5.000","Units":"in","Rept_Date":"2019-11-18 13"},"coordinates":[6957,3858]},{"type":"Point","properties":{"Station_ID":"MNSM4","Station_Nam":"MUNISING","Latitude":"46.41210","Longitude":"-86.66250","Snowdepth":"5.000","Units":"in","Rept_Date":"2019-11-18 11"},"coordinates":[2828,5791]},{"type":"Point","properties":{"Station_ID":"MI-OT-17","Station_Nam":"GAYLORD 4.1 S, MI","Latitude":"44.96388","Longitude":"-84.68467","Snowdepth":"5.000","Units":"in","Rept_Date":"2019-11-18 12"},"coordinates":[3484,4644]},{"type":"Point","properties":{"Station_ID":"ME-AR-15","Station_Nam":"PRESQUE ISLE 1.3 WSW, ME","Latitude":"46.67960","Longitude":"-68.01270","Snowdepth":"5.000","Units":"in","Rept_Date":"2019-11-18 12"},"coordinates":[9018,6003]},{"type":"Point","properties":{"Station_ID":"MAPM4","Station_Nam":"MAPLE CITY 1E","Latitude":"44.85500","Longitude":"-85.83520","Snowdepth":"5.000","Units":"in","Rept_Date":"2019-11-18 23"},"coordinates":[3102,4558]},{"type":"Point","properties":{"Station_ID":"MALN6","Station_Nam":"MALONE","Latitude":"44.84180","Longitude":"-74.30600","Snowdepth":"5.000","Units":"in","Rept_Date":"2019-11-18 12"},"coordinates":[6929,4548]},{"type":"Point","properties":{"Station_ID":"LPLN6","Station_Nam":"LAKE PLACID 2 S","Latitude":"44.30420","Longitude":"-73.98390","Snowdepth":"5.000","Units":"in","Rept_Date":"2019-11-18 12"},"coordinates":[7036,4122]},{"type":"Point","properties":{"Station_ID":"JEFV1","Station_Nam":"JEFFERSONVILLE","Latitude":"44.58430","Longitude":"-72.78700","Snowdepth":"5.000","Units":"in","Rept_Date":"2019-11-18 12"},"coordinates":[7433,4344]},{"type":"Point","properties":{"Station_ID":"JEFN3","Station_Nam":"JEFFERSON","Latitude":"44.41690","Longitude":"-71.50080","Snowdepth":"5.000","Units":"in","Rept_Date":"2019-11-18 12"},"coordinates":[7860,4211]},{"type":"Point","properties":{"Station_ID":"GHMN3","Station_Nam":"PINKHAM NOTCH","Latitude":"44.25800","Longitude":"-71.25250","Snowdepth":"5.000","Units":"in","Rept_Date":"2019-11-18 11"},"coordinates":[7942,4085]},{"type":"Point","properties":{"Station_ID":"CHRM4","Station_Nam":"CHARLEVOIX","Latitude":"45.31720","Longitude":"-85.26720","Snowdepth":"5.000","Units":"in","Rept_Date":"2019-11-18 13"},"coordinates":[3291,4924]},{"type":"Point","properties":{"Station_ID":"CAN-NB-2","Station_Nam":"GRAFTON 2.7 NNE, CA","Latitude":"46.17062","Longitude":"-67.55330","Snowdepth":"5.000","Units":"in","Rept_Date":"2019-11-18 10"},"coordinates":[9170,5600]},{"type":"Point","properties":{"Station_ID":"CAN-NB-18","Station_Nam":"MCLEOD HILL 1.1 ENE, CA","Latitude":"46.02725","Longitude":"-66.67460","Snowdepth":"5.000","Units":"in","Rept_Date":"2019-11-18 12"},"coordinates":[9462,5486]},{"type":"Point","properties":{"Station_ID":"BRDM1","Station_Nam":"BRIDGEWATER","Latitude":"46.42870","Longitude":"-67.84370","Snowdepth":"5.000","Units":"in","Rept_Date":"2019-11-18 23"},"coordinates":[9074,5804]},{"type":"Point","properties":{"Station_ID":"BERM4","Station_Nam":"BERGLAND DAM","Latitude":"46.58690","Longitude":"-89.54750","Snowdepth":"5.000","Units":"in","Rept_Date":"2019-11-18 13"},"coordinates":[1870,5929]},{"type":"Point","properties":{"Station_ID":"ANJM4","Station_Nam":"SNOW PAID OBSERVER FOR KANJ","Latitude":"46.48670","Longitude":"-84.40260","Snowdepth":"5.000","Units":"in","Rept_Date":"2019-11-18 18"},"coordinates":[3578,5850]},{"type":"Point","properties":{"Station_ID":"ANJ","Station_Nam":"SAULT STE MARIE","Latitude":"46.46670","Longitude":"-84.36670","Snowdepth":"5.000","Units":"in","Rept_Date":"2019-11-19 00"},"coordinates":[3590,5834]},{"type":"Point","properties":{"Station_ID":"FTHQ6","Station_Nam":"FORT HOPE","Latitude":"51.55820","Longitude":"-87.90510","Snowdepth":"4.610","Units":"in","Rept_Date":"2019-11-19 05"},"coordinates":[2415,9865]},{"type":"Point","properties":{"Station_ID":"WI-VL-10","Station_Nam":"LAND O LAKES 4.3 WNW, WI","Latitude":"46.17440","Longitude":"-89.30380","Snowdepth":"4.500","Units":"in","Rept_Date":"2019-11-18 13"},"coordinates":[1951,5603]},{"type":"Point","properties":{"Station_ID":"VT-CL-14","Station_Nam":"LYNDONVILLE 1.1 W, VT","Latitude":"44.53582","Longitude":"-72.02867","Snowdepth":"4.500","Units":"in","Rept_Date":"2019-11-18 13"},"coordinates":[7685,4305]},{"type":"Point","properties":{"Station_ID":"VT-CH-11","Station_Nam":"UNDERHILL 5.1 NNE, VT","Latitude":"44.59811","Longitude":"-72.91880","Snowdepth":"4.500","Units":"in","Rept_Date":"2019-11-18 13"},"coordinates":[7389,4355]},{"type":"Point","properties":{"Station_ID":"NY-ER-65","Station_Nam":"BOSTON 1.5 NE, NY","Latitude":"42.65470","Longitude":"-78.72010","Snowdepth":"4.500","Units":"in","Rept_Date":"2019-11-18 12"},"coordinates":[5464,2816]},{"type":"Point","properties":{"Station_ID":"MI-GT-25","Station_Nam":"TRAVERSE CITY 4.7 ESE, MI","Latitude":"44.73370","Longitude":"-85.51189","Snowdepth":"4.500","Units":"in","Rept_Date":"2019-11-18 12"},"coordinates":[3210,4462]},{"type":"Point","properties":{"Station_ID":"CAN-ON-42","Station_Nam":"VANKLEEK HILL 3.4 S, CA","Latitude":"45.48987","Longitude":"-74.64570","Snowdepth":"4.500","Units":"in","Rept_Date":"2019-11-18 12"},"coordinates":[6816,5061]},{"type":"Point","properties":{"Station_ID":"NH-GR-47","Station_Nam":"LITTLETON 7.3 W, NH","Latitude":"44.31847","Longitude":"-71.91086","Snowdepth":"4.400","Units":"in","Rept_Date":"2019-11-18 13"},"coordinates":[7724,4133]},{"type":"Point","properties":{"Station_ID":"MI-WS-3","Station_Nam":"PLYMOUTH 5.4 W, MI","Latitude":"42.38279","Longitude":"-83.57120","Snowdepth":"4.300","Units":"in","Rept_Date":"2019-11-18 12"},"coordinates":[3854,2601]},{"type":"Point","properties":{"Station_ID":"CAN-ON-741","Station_Nam":"KIMBERLEY 2.7 WSW, CAN","Latitude":"44.37820","Longitude":"-80.56956","Snowdepth":"4.100","Units":"in","Rept_Date":"2019-11-18 14"},"coordinates":[4850,4180]},{"type":"Point","properties":{"Station_ID":"WLSN6","Station_Nam":"WALES","Latitude":"42.73920","Longitude":"-78.58780","Snowdepth":"4.000","Units":"in","Rept_Date":"2019-11-18 12"},"coordinates":[5508,2883]},{"type":"Point","properties":{"Station_ID":"WI-VL-9","Station_Nam":"LAND O' LAKES 11.7 W, WI","Latitude":"46.19023","Longitude":"-89.45790","Snowdepth":"4.000","Units":"in","Rept_Date":"2019-11-18 13"},"coordinates":[1900,5615]},{"type":"Point","properties":{"Station_ID":"WI-VL-14","Station_Nam":"BOULDER JUNCTION 1.4 NE, WI","Latitude":"46.12840","Longitude":"-89.62470","Snowdepth":"4.000","Units":"in","Rept_Date":"2019-11-18 13"},"coordinates":[1844,5566]},{"type":"Point","properties":{"Station_ID":"WI-PR-4","Station_Nam":"PARK FALLS 1.3 N, WI","Latitude":"45.95250","Longitude":"-90.44720","Snowdepth":"4.000","Units":"in","Rept_Date":"2019-11-18 13"},"coordinates":[1571,5427]},{"type":"Point","properties":{"Station_ID":"VT-LM-7","Station_Nam":"HYDE PARK 2.9 NE, VT","Latitude":"44.62080","Longitude":"-72.57250","Snowdepth":"4.000","Units":"in","Rept_Date":"2019-11-18 13"},"coordinates":[7504,4373]},{"type":"Point","properties":{"Station_ID":"VT-CL-35","Station_Nam":"LYNDONVILLE 1.8 N, VT","Latitude":"44.56031","Longitude":"-72.00844","Snowdepth":"4.000","Units":"in","Rept_Date":"2019-11-18 12"},"coordinates":[7691,4325]},{"type":"Point","properties":{"Station_ID":"VT-CL-18","Station_Nam":"WHEELOCK 1.6 S, VT","Latitude":"44.56491","Longitude":"-72.08830","Snowdepth":"4.000","Units":"in","Rept_Date":"2019-11-18 12"},"coordinates":[7665,4328]},{"type":"Point","properties":{"Station_ID":"TCEM4","Station_Nam":"TRAVERSE CITY 5ESE","Latitude":"44.73370","Longitude":"-85.51180","Snowdepth":"4.000","Units":"in","Rept_Date":"2019-11-18 12"},"coordinates":[3210,4462]},{"type":"Point","properties":{"Station_ID":"SUTV1","Station_Nam":"SUTTON","Latitude":"44.61220","Longitude":"-72.04810","Snowdepth":"4.000","Units":"in","Rept_Date":"2019-11-18 13"},"coordinates":[7678,4366]},{"type":"Point","properties":{"Station_ID":"SLNV1","Station_Nam":"SOUTH LINCOLN","Latitude":"44.07460","Longitude":"-72.97180","Snowdepth":"4.000","Units":"in","Rept_Date":"2019-11-18 12"},"coordinates":[7372,3940]},{"type":"Point","properties":{"Station_ID":"RGNM1","Station_Nam":"RANGELEY 2NW","Latitude":"44.98940","Longitude":"-70.67220","Snowdepth":"4.000","Units":"in","Rept_Date":"2019-11-18 10"},"coordinates":[8135,4664]},{"type":"Point","properties":{"Station_ID":"PKFW3","Station_Nam":"PARK FALLS,WI","Latitude":"45.93360","Longitude":"-90.45060","Snowdepth":"4.000","Units":"in","Rept_Date":"2019-11-18 14"},"coordinates":[1570,5412]},{"type":"Point","properties":{"Station_ID":"NY-GN-6","Station_Nam":"STAFFORD 1.8 NE, NY","Latitude":"42.99890","Longitude":"-78.04830","Snowdepth":"4.000","Units":"in","Rept_Date":"2019-11-18 12"},"coordinates":[5687,3088]},{"type":"Point","properties":{"Station_ID":"NY-ER-96","Station_Nam":"ELMA 2.7 WSW, NY","Latitude":"42.81004","Longitude":"-78.68130","Snowdepth":"4.000","Units":"in","Rept_Date":"2019-11-18 12"},"coordinates":[5477,2939]},{"type":"Point","properties":{"Station_ID":"NY-ER-86","Station_Nam":"TONAWANDA 1.5 NNE, NY","Latitude":"43.00507","Longitude":"-78.86600","Snowdepth":"4.000","Units":"in","Rept_Date":"2019-11-18 13"},"coordinates":[5415,3093]},{"type":"Point","properties":{"Station_ID":"NY-ER-166","Station_Nam":"BOSTON 2.5 NE, NY","Latitude":"42.65480","Longitude":"-78.70300","Snowdepth":"4.000","Units":"in","Rept_Date":"2019-11-18 12"},"coordinates":[5469,2816]},{"type":"Point","properties":{"Station_ID":"NY-ER-138","Station_Nam":"EAST AURORA 3.4 NNE, NY","Latitude":"42.81400","Longitude":"-78.59670","Snowdepth":"4.000","Units":"in","Rept_Date":"2019-11-18 12"},"coordinates":[5505,2942]},{"type":"Point","properties":{"Station_ID":"NVLV1","Station_Nam":"NASHVILLE","Latitude":"44.44970","Longitude":"-72.92640","Snowdepth":"4.000","Units":"in","Rept_Date":"2019-11-18 12"},"coordinates":[7387,4237]},{"type":"Point","properties":{"Station_ID":"MI-OT-4","Station_Nam":"GAYLORD 1.7 WNW, MI","Latitude":"45.03280","Longitude":"-84.71090","Snowdepth":"4.000","Units":"in","Rept_Date":"2019-11-18 13"},"coordinates":[3475,4699]},{"type":"Point","properties":{"Station_ID":"MI-OT-16","Station_Nam":"GAYLORD 2.2 SSE, MI","Latitude":"44.99441","Longitude":"-84.65820","Snowdepth":"4.000","Units":"in","Rept_Date":"2019-11-18 14"},"coordinates":[3493,4668]},{"type":"Point","properties":{"Station_ID":"MI-LV-26","Station_Nam":"FENTON 6.2 WSW, MI","Latitude":"42.76832","Longitude":"-83.82928","Snowdepth":"4.000","Units":"in","Rept_Date":"2019-11-18 13"},"coordinates":[3768,2906]},{"type":"Point","properties":{"Station_ID":"ME-PN-45","Station_Nam":"MILLINOCKET 2.7 ESE, ME","Latitude":"45.65002","Longitude":"-68.64472","Snowdepth":"4.000","Units":"in","Rept_Date":"2019-11-18 13"},"coordinates":[8808,5187]},{"type":"Point","properties":{"Station_ID":"LNOW3","Station_Nam":"LAND O LAKES","Latitude":"46.19000","Longitude":"-89.45700","Snowdepth":"4.000","Units":"in","Rept_Date":"2019-11-18 13"},"coordinates":[1900,5615]},{"type":"Point","properties":{"Station_ID":"LEXM4","Station_Nam":"LEXINGTON WATER PLANT","Latitude":"43.26310","Longitude":"-82.53280","Snowdepth":"4.000","Units":"in","Rept_Date":"2019-11-18 12"},"coordinates":[4198,3298]},{"type":"Point","properties":{"Station_ID":"KTVC","Station_Nam":"CHERRY CAPITAL AIRPORT","Latitude":"44.73333","Longitude":"-85.56666","Snowdepth":"4.000","Units":"in","Rept_Date":"2019-11-19 00"},"coordinates":[3191,4462]},{"type":"Point","properties":{"Station_ID":"KBTV","Station_Nam":"BURLINGTON INTERNATIONAL","Latitude":"44.46666","Longitude":"-73.15000","Snowdepth":"4.000","Units":"in","Rept_Date":"2019-11-18 18"},"coordinates":[7313,4251]},{"type":"Point","properties":{"Station_ID":"ISLV1","Station_Nam":"ISLAND POND","Latitude":"44.81280","Longitude":"-71.89020","Snowdepth":"4.000","Units":"in","Rept_Date":"2019-11-18 12"},"coordinates":[7731,4525]},{"type":"Point","properties":{"Station_ID":"INDN6","Station_Nam":"INDIAN LAKE","Latitude":"43.75500","Longitude":"-74.27560","Snowdepth":"4.000","Units":"in","Rept_Date":"2019-11-18 14"},"coordinates":[6939,3687]},{"type":"Point","properties":{"Station_ID":"HGHN6","Station_Nam":"HIGHMARKET","Latitude":"43.57520","Longitude":"-75.52070","Snowdepth":"4.000","Units":"in","Rept_Date":"2019-11-18 11"},"coordinates":[6526,3545]},{"type":"Point","properties":{"Station_ID":"GNLM4","Station_Nam":"GREENLAND 6N","Latitude":"46.87360","Longitude":"-89.10060","Snowdepth":"4.000","Units":"in","Rept_Date":"2019-11-18 11"},"coordinates":[2018,6156]},{"type":"Point","properties":{"Station_ID":"GAYM4","Station_Nam":"GAYLORD","Latitude":"45.03320","Longitude":"-84.71130","Snowdepth":"4.000","Units":"in","Rept_Date":"2019-11-18 13"},"coordinates":[3475,4699]},{"type":"Point","properties":{"Station_ID":"DFXM1","Station_Nam":"DOVER-FOXCROFT","Latitude":"45.18720","Longitude":"-69.18350","Snowdepth":"4.000","Units":"in","Rept_Date":"2019-11-18 12"},"coordinates":[8629,4821]},{"type":"Point","properties":{"Station_ID":"CAN-ON-109","Station_Nam":"MILDMAY 5.9 SSE, CA","Latitude":"43.98733","Longitude":"-81.10330","Snowdepth":"4.000","Units":"in","Rept_Date":"2019-11-18 13"},"coordinates":[4673,3871]},{"type":"Point","properties":{"Station_ID":"BTV","Station_Nam":"BURLINGTON, VT","Latitude":"44.47140","Longitude":"-73.15330","Snowdepth":"4.000","Units":"in","Rept_Date":"2019-11-19 01"},"coordinates":[7311,4254]},{"type":"Point","properties":{"Station_ID":"BRAM1","Station_Nam":"BRASSUA DAM","Latitude":"45.66020","Longitude":"-69.81190","Snowdepth":"4.000","Units":"in","Rept_Date":"2019-11-18 12"},"coordinates":[8421,5196]},{"type":"Point","properties":{"Station_ID":"APXM4","Station_Nam":"GAYLORD 9SSW","Latitude":"44.90720","Longitude":"-84.71880","Snowdepth":"4.000","Units":"in","Rept_Date":"2019-11-19 06"},"coordinates":[3473,4599]},{"type":"Point","properties":{"Station_ID":"ABNN6","Station_Nam":"ALBION","Latitude":"43.26330","Longitude":"-78.21520","Snowdepth":"4.000","Units":"in","Rept_Date":"2019-11-18 23"},"coordinates":[5631,3298]},{"type":"Point","properties":{"Station_ID":"CAN-ON-86","Station_Nam":"GUELPH 5.1 S - CANWARN, CAN","Latitude":"43.49691","Longitude":"-80.24385","Snowdepth":"3.900","Units":"in","Rept_Date":"2019-11-18 12"},"coordinates":[4958,3483]},{"type":"Point","properties":{"Station_ID":"CATQ6","Station_Nam":"CAT LAKE","Latitude":"51.72690","Longitude":"-91.82210","Snowdepth":"3.620","Units":"in","Rept_Date":"2019-11-19 05"},"coordinates":[1115,9999]},{"type":"Point","properties":{"Station_ID":"MI-AN-20","Station_Nam":"HOLLAND 5.3 WSW, MI","Latitude":"42.74900","Longitude":"-86.20200","Snowdepth":"3.600","Units":"in","Rept_Date":"2019-11-18 13"},"coordinates":[2980,2891]},{"type":"Point","properties":{"Station_ID":"VT-WS-19","Station_Nam":"WATERBURY 3.0 NW, VT","Latitude":"44.36060","Longitude":"-72.80770","Snowdepth":"3.500","Units":"in","Rept_Date":"2019-11-18 11"},"coordinates":[7426,4167]},{"type":"Point","properties":{"Station_ID":"VT-WS-10","Station_Nam":"NORTHFIELD 1.5 N, VT","Latitude":"44.16986","Longitude":"-72.65200","Snowdepth":"3.500","Units":"in","Rept_Date":"2019-11-18 12"},"coordinates":[7478,4016]},{"type":"Point","properties":{"Station_ID":"VT-WR-17","Station_Nam":"ROCHESTER 2.3 NE, VT","Latitude":"43.89418","Longitude":"-72.76992","Snowdepth":"3.500","Units":"in","Rept_Date":"2019-11-18 12"},"coordinates":[7439,3797]},{"type":"Point","properties":{"Station_ID":"VT-LM-1","Station_Nam":"STOWE 0.2 SW, VT","Latitude":"44.46399","Longitude":"-72.69070","Snowdepth":"3.500","Units":"in","Rept_Date":"2019-11-18 12"},"coordinates":[7465,4248]},{"type":"Point","properties":{"Station_ID":"VT-AD-24","Station_Nam":"MIDDLEBURY 0.3 N, VT","Latitude":"44.01808","Longitude":"-73.16844","Snowdepth":"3.500","Units":"in","Rept_Date":"2019-11-18 11"},"coordinates":[7306,3895]},{"type":"Point","properties":{"Station_ID":"MI-OK-109","Station_Nam":"HIGHLAND 1.3 NE, MI","Latitude":"42.67877","Longitude":"-83.59361","Snowdepth":"3.500","Units":"in","Rept_Date":"2019-11-18 13"},"coordinates":[3846,2835]},{"type":"Point","properties":{"Station_ID":"MI-CX-7","Station_Nam":"EAST JORDAN 2.1 NNW, MI","Latitude":"45.18639","Longitude":"-85.14750","Snowdepth":"3.500","Units":"in","Rept_Date":"2019-11-18 13"},"coordinates":[3330,4820]},{"type":"Point","properties":{"Station_ID":"CAN-QC-37","Station_Nam":"LAVAL 3.8 SSW, CAN","Latitude":"45.55358","Longitude":"-73.76976","Snowdepth":"3.500","Units":"in","Rept_Date":"2019-11-18 13"},"coordinates":[7107,5111]},{"type":"Point","properties":{"Station_ID":"CAN-ON-477","Station_Nam":"CALEDONIA 0.3 NW - GRCA, CAN","Latitude":"43.07135","Longitude":"-79.95667","Snowdepth":"3.500","Units":"in","Rept_Date":"2019-11-18 12"},"coordinates":[5053,3146]},{"type":"Point","properties":{"Station_ID":"CAN-NB-11","Station_Nam":"MIRAMICHI 3.3 S, CAN","Latitude":"46.99343","Longitude":"-65.50690","Snowdepth":"3.500","Units":"in","Rept_Date":"2019-11-18 09"},"coordinates":[9849,6251]},{"type":"Point","properties":{"Station_ID":"CAN-ON-92","Station_Nam":"DUNROBIN 1.9 W - MVCA, CAN","Latitude":"45.42318","Longitude":"-76.04525","Snowdepth":"3.100","Units":"in","Rept_Date":"2019-11-18 12"},"coordinates":[6352,5008]},{"type":"Point","properties":{"Station_ID":"WYON6","Station_Nam":"WYOMING 3W","Latitude":"42.81750","Longitude":"-78.14810","Snowdepth":"3.000","Units":"in","Rept_Date":"2019-11-18 12"},"coordinates":[5654,2945]},{"type":"Point","properties":{"Station_ID":"WTRM4","Station_Nam":"WATERSMEET 12WSW","Latitude":"46.22310","Longitude":"-89.40850","Snowdepth":"3.000","Units":"in","Rept_Date":"2019-11-18 12"},"coordinates":[1916,5641]},{"type":"Point","properties":{"Station_ID":"WTNM4","Station_Nam":"WATTON 2WSW","Latitude":"46.52660","Longitude":"-88.64240","Snowdepth":"3.000","Units":"in","Rept_Date":"2019-11-18 13"},"coordinates":[2170,5882]},{"type":"Point","properties":{"Station_ID":"WRSN6","Station_Nam":"WARSAW 6SW","Latitude":"42.68550","Longitude":"-78.22020","Snowdepth":"3.000","Units":"in","Rept_Date":"2019-11-18 12"},"coordinates":[5630,2840]},{"type":"Point","properties":{"Station_ID":"WORV1","Station_Nam":"WORCESTER 2 W","Latitude":"44.37470","Longitude":"-72.58220","Snowdepth":"3.000","Units":"in","Rept_Date":"2019-11-18 12"},"coordinates":[7501,4178]},{"type":"Point","properties":{"Station_ID":"WLNM4","Station_Nam":"WELLSTON 1N","Latitude":"44.22940","Longitude":"-85.95690","Snowdepth":"3.000","Units":"in","Rept_Date":"2019-11-18 12"},"coordinates":[3062,4063]},{"type":"Point","properties":{"Station_ID":"WBSN6","Station_Nam":"WEBSTER 2 NE","Latitude":"43.24190","Longitude":"-77.38810","Snowdepth":"3.000","Units":"in","Rept_Date":"2019-11-19 01"},"coordinates":[5906,3281]},{"type":"Point","properties":{"Station_ID":"WAIV1","Station_Nam":"WAITSFIELD","Latitude":"44.17560","Longitude":"-72.79610","Snowdepth":"3.000","Units":"in","Rept_Date":"2019-11-18 12"},"coordinates":[7430,4020]},{"type":"Point","properties":{"Station_ID":"VT-WS-11","Station_Nam":"WAITSFIELD 1.8 SE, VT","Latitude":"44.17551","Longitude":"-72.79540","Snowdepth":"3.000","Units":"in","Rept_Date":"2019-11-18 12"},"coordinates":[7430,4020]},{"type":"Point","properties":{"Station_ID":"VT-OG-11","Station_Nam":"VERSHIRE 1.5 ESE, VT","Latitude":"43.96138","Longitude":"-72.29777","Snowdepth":"3.000","Units":"in","Rept_Date":"2019-11-18 12"},"coordinates":[7595,3850]},{"type":"Point","properties":{"Station_ID":"VT-GI-3","Station_Nam":"ALBURGH 4.6 SSE, VT","Latitude":"44.91280","Longitude":"-73.26890","Snowdepth":"3.000","Units":"in","Rept_Date":"2019-11-18 14"},"coordinates":[7273,4604]},{"type":"Point","properties":{"Station_ID":"TCMM4","Station_Nam":"TRAVERSE CITY MUNSON","Latitude":"44.76070","Longitude":"-85.64430","Snowdepth":"3.000","Units":"in","Rept_Date":"2019-11-18 11"},"coordinates":[3166,4483]},{"type":"Point","properties":{"Station_ID":"SVSN6","Station_Nam":"SILVER SPRINGS 3N","Latitude":"42.70580","Longitude":"-78.09370","Snowdepth":"3.000","Units":"in","Rept_Date":"2019-11-18 12"},"coordinates":[5672,2856]},{"type":"Point","properties":{"Station_ID":"SJBV1","Station_Nam":"SAINT JOHNSBURY","Latitude":"44.42000","Longitude":"-72.01940","Snowdepth":"3.000","Units":"in","Rept_Date":"2019-11-18 21"},"coordinates":[7688,4214]},{"type":"Point","properties":{"Station_ID":"SBNN6","Station_Nam":"SANBORN","Latitude":"43.17050","Longitude":"-78.81810","Snowdepth":"3.000","Units":"in","Rept_Date":"2019-11-18 12"},"coordinates":[5431,3224]},{"type":"Point","properties":{"Station_ID":"ROC","Station_Nam":"GREATER ROCHESTER INTL","Latitude":"43.11890","Longitude":"-77.67280","Snowdepth":"3.000","Units":"in","Rept_Date":"2019-11-19 06"},"coordinates":[5811,3183]},{"type":"Point","properties":{"Station_ID":"RKWM1","Station_Nam":"MOOSEHEAD LAKE","Latitude":"45.58330","Longitude":"-69.71670","Snowdepth":"3.000","Units":"in","Rept_Date":"2019-11-18 12"},"coordinates":[8452,5135]},{"type":"Point","properties":{"Station_ID":"RANM1","Station_Nam":"RANGELEY,ME","Latitude":"44.96670","Longitude":"-70.65000","Snowdepth":"3.000","Units":"in","Rept_Date":"2019-11-18 11"},"coordinates":[8142,4646]},{"type":"Point","properties":{"Station_ID":"PRNW3","Station_Nam":"PRENTICE,WI","Latitude":"45.54780","Longitude":"-90.30000","Snowdepth":"3.000","Units":"in","Rept_Date":"2019-11-18 14"},"coordinates":[1620,5107]},{"type":"Point","properties":{"Station_ID":"POAM4","Station_Nam":"PORT AUSTIN WWTP","Latitude":"44.04670","Longitude":"-82.97030","Snowdepth":"3.000","Units":"in","Rept_Date":"2019-11-18 13"},"coordinates":[4053,3918]},{"type":"Point","properties":{"Station_ID":"OCON6","Station_Nam":"OSCEOLA","Latitude":"43.49910","Longitude":"-75.71210","Snowdepth":"3.000","Units":"in","Rept_Date":"2019-11-18 12"},"coordinates":[6462,3484]},{"type":"Point","properties":{"Station_ID":"NY-WY-11","Station_Nam":"SILVER SPRINGS COOP, NY","Latitude":"42.70580","Longitude":"-78.09370","Snowdepth":"3.000","Units":"in","Rept_Date":"2019-11-18 12"},"coordinates":[5672,2856]},{"type":"Point","properties":{"Station_ID":"NY-WY-10","Station_Nam":"WYOMING COOP, NY","Latitude":"42.82060","Longitude":"-78.14810","Snowdepth":"3.000","Units":"in","Rept_Date":"2019-11-18 12"},"coordinates":[5654,2947]},{"type":"Point","properties":{"Station_ID":"NY-ER-75","Station_Nam":"ELMA CENTER 0.7 SE, NY","Latitude":"42.81936","Longitude":"-78.62140","Snowdepth":"3.000","Units":"in","Rept_Date":"2019-11-18 14"},"coordinates":[5497,2946]},{"type":"Point","properties":{"Station_ID":"NY-ER-178","Station_Nam":"WEST SENECA 2.5 SE, NY","Latitude":"42.81374","Longitude":"-78.71399","Snowdepth":"3.000","Units":"in","Rept_Date":"2019-11-18 12"},"coordinates":[5466,2942]},{"type":"Point","properties":{"Station_ID":"NY-ER-177","Station_Nam":"CLARENCE 3.8 SSW, NY","Latitude":"42.96084","Longitude":"-78.66569","Snowdepth":"3.000","Units":"in","Rept_Date":"2019-11-18 13"},"coordinates":[5482,3058]},{"type":"Point","properties":{"Station_ID":"NY-ER-164","Station_Nam":"AKRON 0.9 NE, NY","Latitude":"43.02860","Longitude":"-78.48360","Snowdepth":"3.000","Units":"in","Rept_Date":"2019-11-18 12"},"coordinates":[5542,3112]},{"type":"Point","properties":{"Station_ID":"NY-CL-7","Station_Nam":"PERU 4.1 ESE, NY","Latitude":"44.56461","Longitude":"-73.45390","Snowdepth":"3.000","Units":"in","Rept_Date":"2019-11-18 11"},"coordinates":[7212,4328]},{"type":"Point","properties":{"Station_ID":"MWN","Station_Nam":"MOUNT WASHINGTON","Latitude":"44.26670","Longitude":"-71.30000","Snowdepth":"3.000","Units":"in","Rept_Date":"2019-11-19 05"},"coordinates":[7927,4092]},{"type":"Point","properties":{"Station_ID":"MIEM4","Station_Nam":"MICHIGAMME 3WNW","Latitude":"46.54530","Longitude":"-88.18000","Snowdepth":"3.000","Units":"in","Rept_Date":"2019-11-18 13"},"coordinates":[2324,5896]},{"type":"Point","properties":{"Station_ID":"MI-OK-112","Station_Nam":"TROY 2.8 W, MI","Latitude":"42.57358","Longitude":"-83.19643","Snowdepth":"3.000","Units":"in","Rept_Date":"2019-11-18 12"},"coordinates":[3978,2752]},{"type":"Point","properties":{"Station_ID":"MI-MD-10","Station_Nam":"MIDLAND 1.5 NNE, MI","Latitude":"43.64412","Longitude":"-84.21729","Snowdepth":"3.000","Units":"in","Rept_Date":"2019-11-18 11"},"coordinates":[3639,3599]},{"type":"Point","properties":{"Station_ID":"MI-HG-1","Station_Nam":"HOUGHTON 1.6 ESE, MI","Latitude":"47.10774","Longitude":"-88.52940","Snowdepth":"3.000","Units":"in","Rept_Date":"2019-11-18 13"},"coordinates":[2208,6342]},{"type":"Point","properties":{"Station_ID":"MI-GT-21","Station_Nam":"KINGSLEY 2.7 ENE, MI","Latitude":"44.59871","Longitude":"-85.48426","Snowdepth":"3.000","Units":"in","Rept_Date":"2019-11-18 12"},"coordinates":[3219,4355]},{"type":"Point","properties":{"Station_ID":"MI-GN-29","Station_Nam":"DAVISON 5.2 N, MI","Latitude":"43.10778","Longitude":"-83.51137","Snowdepth":"3.000","Units":"in","Rept_Date":"2019-11-18 14"},"coordinates":[3874,3175]},{"type":"Point","properties":{"Station_ID":"MI-CP-14","Station_Nam":"SAULT STE. MARIE 2.2 E, MI","Latitude":"46.48933","Longitude":"-84.31971","Snowdepth":"3.000","Units":"in","Rept_Date":"2019-11-18 12"},"coordinates":[3605,5852]},{"type":"Point","properties":{"Station_ID":"MEDN6","Station_Nam":"MEDINA","Latitude":"43.20930","Longitude":"-78.38940","Snowdepth":"3.000","Units":"in","Rept_Date":"2019-11-18 11"},"coordinates":[5574,3255]},{"type":"Point","properties":{"Station_ID":"MCHM4","Station_Nam":"MANCHESTER,MI","Latitude":"42.15000","Longitude":"-84.01670","Snowdepth":"3.000","Units":"in","Rept_Date":"2019-11-18 12"},"coordinates":[3706,2416]},{"type":"Point","properties":{"Station_ID":"LPEM4","Station_Nam":"LAPEER,MI","Latitude":"43.06280","Longitude":"-83.33330","Snowdepth":"3.000","Units":"in","Rept_Date":"2019-11-18 14"},"coordinates":[3933,3139]},{"type":"Point","properties":{"Station_ID":"LERN6","Station_Nam":"LE ROY 1E","Latitude":"42.97360","Longitude":"-77.96710","Snowdepth":"3.000","Units":"in","Rept_Date":"2019-11-18 13"},"coordinates":[5714,3068]},{"type":"Point","properties":{"Station_ID":"KROC","Station_Nam":"GREATER ROCHESTER INTERNATIONAL","Latitude":"43.11666","Longitude":"-77.68333","Snowdepth":"3.000","Units":"in","Rept_Date":"2019-11-19 06"},"coordinates":[5808,3182]},{"type":"Point","properties":{"Station_ID":"KMWN","Station_Nam":"MOUNT WASHINGTON","Latitude":"44.26666","Longitude":"-71.30000","Snowdepth":"3.000","Units":"in","Rept_Date":"2019-11-19 06"},"coordinates":[7927,4092]},{"type":"Point","properties":{"Station_ID":"JKMM1","Station_Nam":"JACKMAN","Latitude":"45.62600","Longitude":"-70.24600","Snowdepth":"3.000","Units":"in","Rept_Date":"2019-11-18 12"},"coordinates":[8276,5168]},{"type":"Point","properties":{"Station_ID":"GPFM4","Station_Nam":"GROSSE POINTE FARMS,MI","Latitude":"42.38330","Longitude":"-82.90000","Snowdepth":"3.000","Units":"in","Rept_Date":"2019-11-18 13"},"coordinates":[4076,2601]},{"type":"Point","properties":{"Station_ID":"GOVN6","Station_Nam":"GOUVERNEUR 3 NW","Latitude":"44.35400","Longitude":"-75.51230","Snowdepth":"3.000","Units":"in","Rept_Date":"2019-11-18 12"},"coordinates":[6528,4161]},{"type":"Point","properties":{"Station_ID":"GFDN6","Station_Nam":"CHASE LAKE","Latitude":"43.75920","Longitude":"-75.29980","Snowdepth":"3.000","Units":"in","Rept_Date":"2019-11-18 11"},"coordinates":[6599,3690]},{"type":"Point","properties":{"Station_ID":"ESGM1","Station_Nam":"EAST SANGERVILLE","Latitude":"45.13690","Longitude":"-69.28060","Snowdepth":"3.000","Units":"in","Rept_Date":"2019-11-18 12"},"coordinates":[8597,4781]},{"type":"Point","properties":{"Station_ID":"ENGM4","Station_Nam":"ENGADINE MDOT","Latitude":"46.12800","Longitude":"-85.56960","Snowdepth":"3.000","Units":"in","Rept_Date":"2019-11-18 12"},"coordinates":[3190,5566]},{"type":"Point","properties":{"Station_ID":"EJNM4","Station_Nam":"EAST JORDAN 2NW","Latitude":"45.18630","Longitude":"-85.14770","Snowdepth":"3.000","Units":"in","Rept_Date":"2019-11-18 13"},"coordinates":[3330,4820]},{"type":"Point","properties":{"Station_ID":"CORV1","Station_Nam":"CORINTH","Latitude":"44.00690","Longitude":"-72.31940","Snowdepth":"3.000","Units":"in","Rept_Date":"2019-11-18 12"},"coordinates":[7588,3887]},{"type":"Point","properties":{"Station_ID":"CORM1","Station_Nam":"CORINNA","Latitude":"44.91980","Longitude":"-69.24180","Snowdepth":"3.000","Units":"in","Rept_Date":"2019-11-18 15"},"coordinates":[8610,4609]},{"type":"Point","properties":{"Station_ID":"CLKM4","Station_Nam":"CLARKSBURG","Latitude":"46.49910","Longitude":"-87.84500","Snowdepth":"3.000","Units":"in","Rept_Date":"2019-11-18 12"},"coordinates":[2435,5860]},{"type":"Point","properties":{"Station_ID":"CGPM4","Station_Nam":"DOLLAR BAY","Latitude":"47.11670","Longitude":"-88.51370","Snowdepth":"3.000","Units":"in","Rept_Date":"2019-11-18 12"},"coordinates":[2213,6349]},{"type":"Point","properties":{"Station_ID":"BUTW3","Station_Nam":"BUTTERNUT,WI","Latitude":"46.05500","Longitude":"-90.52610","Snowdepth":"3.000","Units":"in","Rept_Date":"2019-11-18 12"},"coordinates":[1545,5508]},{"type":"Point","properties":{"Station_ID":"BRLN3","Station_Nam":"BERLIN","Latitude":"44.45350","Longitude":"-71.18540","Snowdepth":"3.000","Units":"in","Rept_Date":"2019-11-18 12"},"coordinates":[7965,4240]},{"type":"Point","properties":{"Station_ID":"BOON6","Station_Nam":"BOONVILLE 4 SSW","Latitude":"43.43610","Longitude":"-75.36970","Snowdepth":"3.000","Units":"in","Rept_Date":"2019-11-18 12"},"coordinates":[6576,3435]},{"type":"Point","properties":{"Station_ID":"BETM1","Station_Nam":"BETHEL 6 SSE","Latitude":"44.32000","Longitude":"-70.75680","Snowdepth":"3.000","Units":"in","Rept_Date":"2019-11-18 13"},"coordinates":[8107,4134]},{"type":"Point","properties":{"Station_ID":"BENN6","Station_Nam":"BENNETTS BRIDGE","Latitude":"43.53180","Longitude":"-75.95260","Snowdepth":"3.000","Units":"in","Rept_Date":"2019-11-18 12"},"coordinates":[6382,3510]},{"type":"Point","properties":{"Station_ID":"AVTW3","Station_Nam":"ARBOR VITAE-JOHNSON LAKE","Latitude":"45.89940","Longitude":"-89.72670","Snowdepth":"3.000","Units":"in","Rept_Date":"2019-11-18 12"},"coordinates":[1811,5385]},{"type":"Point","properties":{"Station_ID":"ATAN6","Station_Nam":"ATTICA 7 SW","Latitude":"42.81070","Longitude":"-78.39790","Snowdepth":"3.000","Units":"in","Rept_Date":"2019-11-18 11"},"coordinates":[5571,2939]},{"type":"Point","properties":{"Station_ID":"AASM4","Station_Nam":"ANN ARBOR SE","Latitude":"42.24160","Longitude":"-83.69330","Snowdepth":"3.000","Units":"in","Rept_Date":"2019-11-18 12"},"coordinates":[3813,2489]},{"type":"Point","properties":{"Station_ID":"TRIQ6","Station_Nam":"TRIO LAKE","Latitude":"49.22880","Longitude":"-87.22920","Snowdepth":"2.870","Units":"in","Rept_Date":"2019-11-19 05"},"coordinates":[2640,8021]},{"type":"Point","properties":{"Station_ID":"CAN-ON-132","Station_Nam":"ORANGEVILLE 5.1 SSW - CANWARN, CAN","Latitude":"43.87372","Longitude":"-80.13428","Snowdepth":"2.800","Units":"in","Rept_Date":"2019-11-18 11"},"coordinates":[4994,3781]},{"type":"Point","properties":{"Station_ID":"CAN-NB-97","Station_Nam":"NEW MARYLAND 0.6 NW, CAN","Latitude":"45.90112","Longitude":"-66.68739","Snowdepth":"2.800","Units":"in","Rept_Date":"2019-11-18 11"},"coordinates":[9458,5386]},{"type":"Point","properties":{"Station_ID":"IL-MCH-93","Station_Nam":"MARENGO 0.8 S, IL","Latitude":"42.23612","Longitude":"-88.60322","Snowdepth":"2.750","Units":"in","Rept_Date":"2019-11-18 13"},"coordinates":[2183,2484]},{"type":"Point","properties":{"Station_ID":"VT-AD-20","Station_Nam":"HANCOCK 0.3 S, VT","Latitude":"43.92166","Longitude":"-72.84042","Snowdepth":"2.500","Units":"in","Rept_Date":"2019-11-18 12"},"coordinates":[7415,3819]},{"type":"Point","properties":{"Station_ID":"NY-OL-5","Station_Nam":"MEDINA 0.4 WNW, NY","Latitude":"43.22300","Longitude":"-78.39539","Snowdepth":"2.500","Units":"in","Rept_Date":"2019-11-18 13"},"coordinates":[5572,3266]},{"type":"Point","properties":{"Station_ID":"NY-ER-50","Station_Nam":"EAST AURORA 0.1 ENE, NY","Latitude":"42.76750","Longitude":"-78.61580","Snowdepth":"2.500","Units":"in","Rept_Date":"2019-11-18 12"},"coordinates":[5498,2905]},{"type":"Point","properties":{"Station_ID":"NH-CR-27","Station_Nam":"TAMWORTH 0.4 NNW, NH","Latitude":"43.86449","Longitude":"-71.26610","Snowdepth":"2.500","Units":"in","Rept_Date":"2019-11-18 12"},"coordinates":[7938,3774]},{"type":"Point","properties":{"Station_ID":"MI-WS-41","Station_Nam":"ANN ARBOR 7.1 W, MI","Latitude":"42.26390","Longitude":"-83.86940","Snowdepth":"2.500","Units":"in","Rept_Date":"2019-11-18 12"},"coordinates":[3755,2506]},{"type":"Point","properties":{"Station_ID":"MI-WS-25","Station_Nam":"SALINE 3.8 SSW, MI","Latitude":"42.12618","Longitude":"-83.81090","Snowdepth":"2.500","Units":"in","Rept_Date":"2019-11-18 12"},"coordinates":[3774,2397]},{"type":"Point","properties":{"Station_ID":"MI-VB-13","Station_Nam":"PAW PAW 2.0 NE, MI","Latitude":"42.23743","Longitude":"-85.86171","Snowdepth":"2.500","Units":"in","Rept_Date":"2019-11-18 12"},"coordinates":[3093,2485]},{"type":"Point","properties":{"Station_ID":"MI-SC-3","Station_Nam":"PORT HURON 1.6 W, MI","Latitude":"42.99617","Longitude":"-82.46430","Snowdepth":"2.500","Units":"in","Rept_Date":"2019-11-18 14"},"coordinates":[4221,3086]},{"type":"Point","properties":{"Station_ID":"MI-HR-10","Station_Nam":"BAY PORT 3.2 SSW, MI","Latitude":"43.80746","Longitude":"-83.40013","Snowdepth":"2.500","Units":"in","Rept_Date":"2019-11-18 13"},"coordinates":[3910,3729]},{"type":"Point","properties":{"Station_ID":"MI-CT-2","Station_Nam":"HASLETT 1.2 N, MI","Latitude":"42.76997","Longitude":"-84.40310","Snowdepth":"2.500","Units":"in","Rept_Date":"2019-11-18 12"},"coordinates":[3578,2907]},{"type":"Point","properties":{"Station_ID":"ME-SM-3","Station_Nam":"PALMYRA 3.5 NW, ME","Latitude":"44.87180","Longitude":"-69.41952","Snowdepth":"2.500","Units":"in","Rept_Date":"2019-11-18 12"},"coordinates":[8551,4571]},{"type":"Point","properties":{"Station_ID":"CAN-ON-33","Station_Nam":"BURLINGTON 1.7 W, CA","Latitude":"43.37134","Longitude":"-79.83550","Snowdepth":"2.500","Units":"in","Rept_Date":"2019-11-18 12"},"coordinates":[5094,3383]},{"type":"Point","properties":{"Station_ID":"CAN-ON-748","Station_Nam":"WHITBY 2.4 SW, CAN","Latitude":"43.88036","Longitude":"-78.95664","Snowdepth":"2.400","Units":"in","Rept_Date":"2019-11-18 12"},"coordinates":[5385,3786]},{"type":"Point","properties":{"Station_ID":"NH-CR-41","Station_Nam":"ALBANY 2.8 SW, NH","Latitude":"43.92648","Longitude":"-71.21556","Snowdepth":"2.200","Units":"in","Rept_Date":"2019-11-18 13"},"coordinates":[7955,3823]},{"type":"Point","properties":{"Station_ID":"MI-AP-2","Station_Nam":"OSSINEKE 1.0 NNE, MI","Latitude":"44.92150","Longitude":"-83.42700","Snowdepth":"2.200","Units":"in","Rept_Date":"2019-11-18 14"},"coordinates":[3902,4611]},{"type":"Point","properties":{"Station_ID":"CAN-ON-322","Station_Nam":"WINDSOR 4.0 NE, CAN","Latitude":"42.31785","Longitude":"-83.01522","Snowdepth":"2.100","Units":"in","Rept_Date":"2019-11-18 12"},"coordinates":[4038,2549]},{"type":"Point","properties":{"Station_ID":"PTLQ6","Station_Nam":"PORTAGE LAKE","Latitude":"49.06950","Longitude":"-86.65940","Snowdepth":"2.050","Units":"in","Rept_Date":"2019-11-19 05"},"coordinates":[2829,7895]},{"type":"Point","properties":{"Station_ID":"YGTN6","Station_Nam":"YOUNGSTOWN 2NE","Latitude":"43.26820","Longitude":"-79.01020","Snowdepth":"2.000","Units":"in","Rept_Date":"2019-11-18 13"},"coordinates":[5367,3302]},{"type":"Point","properties":{"Station_ID":"YALM4","Station_Nam":"YALE,MI","Latitude":"43.15000","Longitude":"-82.80000","Snowdepth":"2.000","Units":"in","Rept_Date":"2019-11-18 12"},"coordinates":[4110,3208]},{"type":"Point","properties":{"Station_ID":"WYTM4","Station_Nam":"WYANDOTTE","Latitude":"42.20110","Longitude":"-83.16830","Snowdepth":"2.000","Units":"in","Rept_Date":"2019-11-18 13"},"coordinates":[3987,2457]},{"type":"Point","properties":{"Station_ID":"WLFM5","Station_Nam":"WOLF RIDGE ENVIRON LEARNING CENTER","Latitude":"47.38240","Longitude":"-91.19730","Snowdepth":"2.000","Units":"in","Rept_Date":"2019-11-18 13"},"coordinates":[1322,6559]},{"type":"Point","properties":{"Station_ID":"WI-RS-1","Station_Nam":"LADYSMITH 2.8 WNW, WI","Latitude":"45.48180","Longitude":"-91.14680","Snowdepth":"2.000","Units":"in","Rept_Date":"2019-11-18 13"},"coordinates":[1339,5054]},{"type":"Point","properties":{"Station_ID":"WI-BN-6","Station_Nam":"SUAMICO 4.4 WNW, WI","Latitude":"44.66111","Longitude":"-88.11780","Snowdepth":"2.000","Units":"in","Rept_Date":"2019-11-18 13"},"coordinates":[2345,4404]},{"type":"Point","properties":{"Station_ID":"WHKM4","Station_Nam":"WHITE LAKE,MI","Latitude":"42.69750","Longitude":"-83.47220","Snowdepth":"2.000","Units":"in","Rept_Date":"2019-11-19 06"},"coordinates":[3887,2850]},{"type":"Point","properties":{"Station_ID":"VT-WS-33","Station_Nam":"WAITSFIELD 3.5 WNW, VT","Latitude":"44.20052","Longitude":"-72.89421","Snowdepth":"2.000","Units":"in","Rept_Date":"2019-11-18 13"},"coordinates":[7397,4040]},{"type":"Point","properties":{"Station_ID":"VT-RT-7","Station_Nam":"RUTLAND 1.2 N, VT","Latitude":"43.62533","Longitude":"-72.97790","Snowdepth":"2.000","Units":"in","Rept_Date":"2019-11-18 12"},"coordinates":[7370,3584]},{"type":"Point","properties":{"Station_ID":"VSSM4","Station_Nam":"VASSAR,MI","Latitude":"43.36670","Longitude":"-83.58330","Snowdepth":"2.000","Units":"in","Rept_Date":"2019-11-18 12"},"coordinates":[3850,3380]},{"type":"Point","properties":{"Station_ID":"TMWN3","Station_Nam":"TAMWORTH 4","Latitude":"43.86390","Longitude":"-71.26610","Snowdepth":"2.000","Units":"in","Rept_Date":"2019-11-18 12"},"coordinates":[7938,3773]},{"type":"Point","properties":{"Station_ID":"TECM4","Station_Nam":"TECUMSEH,MI","Latitude":"42.00000","Longitude":"-83.95000","Snowdepth":"2.000","Units":"in","Rept_Date":"2019-11-18 12"},"coordinates":[3728,2297]},{"type":"Point","properties":{"Station_ID":"STIM4","Station_Nam":"ST IGNACE","Latitude":"45.86080","Longitude":"-84.71960","Snowdepth":"2.000","Units":"in","Rept_Date":"2019-11-18 12"},"coordinates":[3472,5354]},{"type":"Point","properties":{"Station_ID":"STGW3","Station_Nam":"ST GERMAIN","Latitude":"45.91550","Longitude":"-89.48940","Snowdepth":"2.000","Units":"in","Rept_Date":"2019-11-18 12"},"coordinates":[1889,5398]},{"type":"Point","properties":{"Station_ID":"SGVN6","Station_Nam":"SPRINGVILLE","Latitude":"42.54970","Longitude":"-78.57670","Snowdepth":"2.000","Units":"in","Rept_Date":"2019-11-19 00"},"coordinates":[5511,2733]},{"type":"Point","properties":{"Station_ID":"SCOM4","Station_Nam":"SCOTTVILLE 2 SE","Latitude":"43.93310","Longitude":"-86.24530","Snowdepth":"2.000","Units":"in","Rept_Date":"2019-11-18 12"},"coordinates":[2966,3828]},{"type":"Point","properties":{"Station_ID":"RUTV1","Station_Nam":"RUTLAND","Latitude":"43.62530","Longitude":"-72.97810","Snowdepth":"2.000","Units":"in","Rept_Date":"2019-11-18 12"},"coordinates":[7370,3584]},{"type":"Point","properties":{"Station_ID":"RLWM5","Station_Nam":"CAMP NORRIS DNR","Latitude":"48.61000","Longitude":"-95.18170","Snowdepth":"2.000","Units":"in","Rept_Date":"2019-11-18 14"},"coordinates":[0,7531]},{"type":"Point","properties":{"Station_ID":"RICM4","Station_Nam":"RICHMOND 4 NNW","Latitude":"42.87830","Longitude":"-82.79580","Snowdepth":"2.000","Units":"in","Rept_Date":"2019-11-18 13"},"coordinates":[4111,2993]},{"type":"Point","properties":{"Station_ID":"PONM4","Station_Nam":"STATE HOSPITAL","Latitude":"42.65000","Longitude":"-83.30000","Snowdepth":"2.000","Units":"in","Rept_Date":"2019-11-18 12"},"coordinates":[3944,2812]},{"type":"Point","properties":{"Station_ID":"PLFV1","Station_Nam":"PLAINFIELD","Latitude":"44.27610","Longitude":"-72.41500","Snowdepth":"2.000","Units":"in","Rept_Date":"2019-11-18 12"},"coordinates":[7557,4100]},{"type":"Point","properties":{"Station_ID":"PHEW3","Station_Nam":"PHELPS","Latitude":"46.06630","Longitude":"-89.07520","Snowdepth":"2.000","Units":"in","Rept_Date":"2019-11-18 13"},"coordinates":[2027,5517]},{"type":"Point","properties":{"Station_ID":"PENN6","Station_Nam":"PENDLETON 1 NE","Latitude":"43.10100","Longitude":"-78.71380","Snowdepth":"2.000","Units":"in","Rept_Date":"2019-11-18 12"},"coordinates":[5466,3169]},{"type":"Point","properties":{"Station_ID":"NY-OD-2","Station_Nam":"POINT ROCK 0.6 SE, NY","Latitude":"43.37335","Longitude":"-75.53840","Snowdepth":"2.000","Units":"in","Rept_Date":"2019-11-18 12"},"coordinates":[6520,3385]},{"type":"Point","properties":{"Station_ID":"NY-NG-2","Station_Nam":"NORTH TONAWANDA 1.0 NNE, NY","Latitude":"43.05725","Longitude":"-78.86170","Snowdepth":"2.000","Units":"in","Rept_Date":"2019-11-18 12"},"coordinates":[5417,3135]},{"type":"Point","properties":{"Station_ID":"NY-HR-18","Station_Nam":"SALISBURY CENTER 1.8 NW, NY","Latitude":"43.16260","Longitude":"-74.80880","Snowdepth":"2.000","Units":"in","Rept_Date":"2019-11-18 11"},"coordinates":[6762,3218]},{"type":"Point","properties":{"Station_ID":"NY-ER-63","Station_Nam":"GLENWOOD 1.5 SE, NY","Latitude":"42.60195","Longitude":"-78.63910","Snowdepth":"2.000","Units":"in","Rept_Date":"2019-11-18 13"},"coordinates":[5491,2774]},{"type":"Point","properties":{"Station_ID":"NY-ER-60","Station_Nam":"BLASDELL 1.5 SSW, NY","Latitude":"42.77657","Longitude":"-78.84440","Snowdepth":"2.000","Units":"in","Rept_Date":"2019-11-18 12"},"coordinates":[5423,2912]},{"type":"Point","properties":{"Station_ID":"NY-ER-102","Station_Nam":"CHEEKTOWAGA 2.7 NE, NY","Latitude":"42.94119","Longitude":"-78.71933","Snowdepth":"2.000","Units":"in","Rept_Date":"2019-11-18 12"},"coordinates":[5464,3043]},{"type":"Point","properties":{"Station_ID":"NWSM1","Station_Nam":"NEW SHARON","Latitude":"44.63520","Longitude":"-70.00020","Snowdepth":"2.000","Units":"in","Rept_Date":"2019-11-18 12"},"coordinates":[8358,4384]},{"type":"Point","properties":{"Station_ID":"NWFN6","Station_Nam":"NEWFANE","Latitude":"43.29010","Longitude":"-78.72280","Snowdepth":"2.000","Units":"in","Rept_Date":"2019-11-18 12"},"coordinates":[5463,3319]},{"type":"Point","properties":{"Station_ID":"NTON6","Station_Nam":"NORTH TONAWANDA","Latitude":"43.05730","Longitude":"-78.86170","Snowdepth":"2.000","Units":"in","Rept_Date":"2019-11-18 12"},"coordinates":[5417,3135]},{"type":"Point","properties":{"Station_ID":"NH-GR-49","Station_Nam":"PLYMOUTH 3.7 N, NH","Latitude":"43.79048","Longitude":"-71.68413","Snowdepth":"2.000","Units":"in","Rept_Date":"2019-11-18 12"},"coordinates":[7799,3715]},{"type":"Point","properties":{"Station_ID":"NH-CR-15","Station_Nam":"JACKSON 3.7 NW, NH","Latitude":"44.19069","Longitude":"-71.22598","Snowdepth":"2.000","Units":"in","Rept_Date":"2019-11-18 12"},"coordinates":[7951,4032]},{"type":"Point","properties":{"Station_ID":"NALN6","Station_Nam":"CATTARAUGUS","Latitude":"42.32450","Longitude":"-78.86700","Snowdepth":"2.000","Units":"in","Rept_Date":"2019-11-18 13"},"coordinates":[5415,2554]},{"type":"Point","properties":{"Station_ID":"MYOM4","Station_Nam":"MIO WWTP","Latitude":"44.64660","Longitude":"-84.11580","Snowdepth":"2.000","Units":"in","Rept_Date":"2019-11-18 13"},"coordinates":[3673,4393]},{"type":"Point","properties":{"Station_ID":"MXON6","Station_Nam":"MEXICO","Latitude":"43.43830","Longitude":"-76.26560","Snowdepth":"2.000","Units":"in","Rept_Date":"2019-11-18 12"},"coordinates":[6278,3436]},{"type":"Point","properties":{"Station_ID":"MWTM1","Station_Nam":"MILLINOCKET WWTP","Latitude":"45.64030","Longitude":"-68.67480","Snowdepth":"2.000","Units":"in","Rept_Date":"2019-11-18 11"},"coordinates":[8798,5180]},{"type":"Point","properties":{"Station_ID":"MRAM4","Station_Nam":"MORAN","Latitude":"45.99030","Longitude":"-84.83610","Snowdepth":"2.000","Units":"in","Rept_Date":"2019-11-18 13"},"coordinates":[3434,5457]},{"type":"Point","properties":{"Station_ID":"MQRW3","Station_Nam":"MINOCQUA","Latitude":"45.88630","Longitude":"-89.73220","Snowdepth":"2.000","Units":"in","Rept_Date":"2019-11-18 12"},"coordinates":[1809,5375]},{"type":"Point","properties":{"Station_ID":"MI-WY-33","Station_Nam":"LIVONIA 2.3 NNW, MI","Latitude":"42.43100","Longitude":"-83.38190","Snowdepth":"2.000","Units":"in","Rept_Date":"2019-11-18 12"},"coordinates":[3916,2639]},{"type":"Point","properties":{"Station_ID":"MI-WY-125","Station_Nam":"CANTON 2.7 N, MI","Latitude":"42.34732","Longitude":"-83.47286","Snowdepth":"2.000","Units":"in","Rept_Date":"2019-11-18 12"},"coordinates":[3886,2572]},{"type":"Point","properties":{"Station_ID":"MI-WS-11","Station_Nam":"ANN ARBOR 2.1 WNW, MI","Latitude":"42.28323","Longitude":"-83.77150","Snowdepth":"2.000","Units":"in","Rept_Date":"2019-11-18 13"},"coordinates":[3787,2522]},{"type":"Point","properties":{"Station_ID":"MI-PI-1","Station_Nam":"ROGERS CITY 0.2 WSW, MI","Latitude":"45.41740","Longitude":"-83.81060","Snowdepth":"2.000","Units":"in","Rept_Date":"2019-11-18 13"},"coordinates":[3774,5003]},{"type":"Point","properties":{"Station_ID":"MI-OK-94","Station_Nam":"FARMINGTON HILLS 1.4 N, MI","Latitude":"42.50660","Longitude":"-83.37910","Snowdepth":"2.000","Units":"in","Rept_Date":"2019-11-18 12"},"coordinates":[3917,2699]},{"type":"Point","properties":{"Station_ID":"MI-OC-3","Station_Nam":"HART 3 WSW, MI","Latitude":"43.67470","Longitude":"-86.42250","Snowdepth":"2.000","Units":"in","Rept_Date":"2019-11-18 12"},"coordinates":[2907,3623]},{"type":"Point","properties":{"Station_ID":"MI-MQ-2","Station_Nam":"MARQUETTE 6.5 SSE, MI","Latitude":"46.46461","Longitude":"-87.34064","Snowdepth":"2.000","Units":"in","Rept_Date":"2019-11-18 13"},"coordinates":[2603,5832]},{"type":"Point","properties":{"Station_ID":"MI-MC-4","Station_Nam":"ST. IGNACE 0.5SE, MI","Latitude":"45.86057","Longitude":"-84.71980","Snowdepth":"2.000","Units":"in","Rept_Date":"2019-11-18 12"},"coordinates":[3472,5354]},{"type":"Point","properties":{"Station_ID":"MI-MB-9","Station_Nam":"NEW BALTIMORE 0.4 SSE, MI","Latitude":"42.67702","Longitude":"-82.73570","Snowdepth":"2.000","Units":"in","Rept_Date":"2019-11-18 13"},"coordinates":[4131,2834]},{"type":"Point","properties":{"Station_ID":"MI-MB-33","Station_Nam":"ROSEVILLE 1.7 ENE, MI","Latitude":"42.51477","Longitude":"-82.90420","Snowdepth":"2.000","Units":"in","Rept_Date":"2019-11-18 12"},"coordinates":[4075,2705]},{"type":"Point","properties":{"Station_ID":"ME-PN-30","Station_Nam":"OLD TOWN 4.1 ESE, ME","Latitude":"44.93543","Longitude":"-68.65840","Snowdepth":"2.000","Units":"in","Rept_Date":"2019-11-18 12"},"coordinates":[8803,4622]},{"type":"Point","properties":{"Station_ID":"ME-FR-22","Station_Nam":"FARMINGTON 4.8 NNW, ME","Latitude":"44.73396","Longitude":"-70.18007","Snowdepth":"2.000","Units":"in","Rept_Date":"2019-11-18 14"},"coordinates":[8298,4462]},{"type":"Point","properties":{"Station_ID":"ME-AN-32","Station_Nam":"WINTHROP 9.4 W, ME","Latitude":"44.30476","Longitude":"-70.15835","Snowdepth":"2.000","Units":"in","Rept_Date":"2019-11-18 12"},"coordinates":[8306,4122]},{"type":"Point","properties":{"Station_ID":"LVRM1","Station_Nam":"LIVERMORE FALLS 1 E","Latitude":"44.47160","Longitude":"-70.15940","Snowdepth":"2.000","Units":"in","Rept_Date":"2019-11-18 12"},"coordinates":[8305,4254]},{"type":"Point","properties":{"Station_ID":"LVDW3","Station_Nam":"LAC VIEUX DESERT","Latitude":"46.12110","Longitude":"-89.07580","Snowdepth":"2.000","Units":"in","Rept_Date":"2019-11-18 15"},"coordinates":[2027,5560]},{"type":"Point","properties":{"Station_ID":"LUPM4","Station_Nam":"LUPTON 1S","Latitude":"44.41990","Longitude":"-84.02320","Snowdepth":"2.000","Units":"in","Rept_Date":"2019-11-18 13"},"coordinates":[3704,4214]},{"type":"Point","properties":{"Station_ID":"LTMW3","Station_Nam":"LAKE TOMAHAWK 2 SE","Latitude":"45.80750","Longitude":"-89.55830","Snowdepth":"2.000","Units":"in","Rept_Date":"2019-11-18 12"},"coordinates":[1866,5312]},{"type":"Point","properties":{"Station_ID":"LPTN6","Station_Nam":"LOCKPORT","Latitude":"43.18760","Longitude":"-78.60910","Snowdepth":"2.000","Units":"in","Rept_Date":"2019-11-19 00"},"coordinates":[5501,3238]},{"type":"Point","properties":{"Station_ID":"LPRM4","Station_Nam":"OAKDALE REGIONAL CENTER","Latitude":"43.05000","Longitude":"-83.35000","Snowdepth":"2.000","Units":"in","Rept_Date":"2019-11-18 12"},"coordinates":[3927,3129]},{"type":"Point","properties":{"Station_ID":"LNKM1","Station_Nam":"LINCOLN SANITARY DISTRICT/WTP","Latitude":"45.37520","Longitude":"-68.50820","Snowdepth":"2.000","Units":"in","Rept_Date":"2019-11-18 12"},"coordinates":[8853,4970]},{"type":"Point","properties":{"Station_ID":"LKVN6","Station_Nam":"LAKE VIEW","Latitude":"42.73180","Longitude":"-78.92400","Snowdepth":"2.000","Units":"in","Rept_Date":"2019-11-18 13"},"coordinates":[5396,2877]},{"type":"Point","properties":{"Station_ID":"LADW3","Station_Nam":"LADYSMITH WTP","Latitude":"45.44290","Longitude":"-91.08970","Snowdepth":"2.000","Units":"in","Rept_Date":"2019-11-18 13"},"coordinates":[1358,5023]},{"type":"Point","properties":{"Station_ID":"KUKN6","Station_Nam":"LAKESIDE","Latitude":"43.37140","Longitude":"-78.26630","Snowdepth":"2.000","Units":"in","Rept_Date":"2019-11-18 13"},"coordinates":[5614,3383]},{"type":"Point","properties":{"Station_ID":"KSEM4","Station_Nam":"KALKASKA 11SE","Latitude":"44.58970","Longitude":"-85.04860","Snowdepth":"2.000","Units":"in","Rept_Date":"2019-11-18 13"},"coordinates":[3363,4348]},{"type":"Point","properties":{"Station_ID":"KGTB","Station_Nam":"FORT DRUM / WHEELER-SACK U. S. ARMY AIRFIELD","Latitude":"44.05000","Longitude":"-75.73333","Snowdepth":"2.000","Units":"in","Rept_Date":"2019-11-19 06"},"coordinates":[6455,3921]},{"type":"Point","properties":{"Station_ID":"JCBM4","Station_Nam":"JACOBSVILLE","Latitude":"47.00830","Longitude":"-88.43180","Snowdepth":"2.000","Units":"in","Rept_Date":"2019-11-18 12"},"coordinates":[2240,6263]},{"type":"Point","properties":{"Station_ID":"HTLM4","Station_Nam":"SNOW PAID OBSERVER FOR KHTL","Latitude":"44.34470","Longitude":"-84.67730","Snowdepth":"2.000","Units":"in","Rept_Date":"2019-11-18 18"},"coordinates":[3487,4154]},{"type":"Point","properties":{"Station_ID":"HTL","Station_Nam":"ROSCOMMON COUNTY AIRPORT","Latitude":"44.35000","Longitude":"-84.66670","Snowdepth":"2.000","Units":"in","Rept_Date":"2019-11-19 00"},"coordinates":[3490,4158]},{"type":"Point","properties":{"Station_ID":"HRVM4","Station_Nam":"HARVEY","Latitude":"46.49080","Longitude":"-87.35470","Snowdepth":"2.000","Units":"in","Rept_Date":"2019-11-18 12"},"coordinates":[2598,5853]},{"type":"Point","properties":{"Station_ID":"HRTM4","Station_Nam":"HART,MI","Latitude":"43.70000","Longitude":"-86.36670","Snowdepth":"2.000","Units":"in","Rept_Date":"2019-11-18 12"},"coordinates":[2926,3644]},{"type":"Point","properties":{"Station_ID":"HRTM1","Station_Nam":"HARTFORD","Latitude":"44.37440","Longitude":"-70.31620","Snowdepth":"2.000","Units":"in","Rept_Date":"2019-11-18 12"},"coordinates":[8253,4177]},{"type":"Point","properties":{"Station_ID":"HMYM1","Station_Nam":"HARMONY","Latitude":"44.94660","Longitude":"-69.54560","Snowdepth":"2.000","Units":"in","Rept_Date":"2019-11-18 11"},"coordinates":[8509,4631]},{"type":"Point","properties":{"Station_ID":"HEBI2","Station_Nam":"HEBRON","Latitude":"42.46750","Longitude":"-88.48060","Snowdepth":"2.000","Units":"in","Rept_Date":"2019-11-18 13"},"coordinates":[2224,2668]},{"type":"Point","properties":{"Station_ID":"GGRM4","Station_Nam":"GREEN GARDEN NO.2","Latitude":"46.45330","Longitude":"-87.30380","Snowdepth":"2.000","Units":"in","Rept_Date":"2019-11-18 11"},"coordinates":[2615,5824]},{"type":"Point","properties":{"Station_ID":"FLTM4","Station_Nam":"FLINT,MI","Latitude":"43.03330","Longitude":"-83.76670","Snowdepth":"2.000","Units":"in","Rept_Date":"2019-11-18 13"},"coordinates":[3789,3116]},{"type":"Point","properties":{"Station_ID":"EVRW3","Station_Nam":"EAGLE RIVER-4 E","Latitude":"45.91890","Longitude":"-89.15280","Snowdepth":"2.000","Units":"in","Rept_Date":"2019-11-18 12"},"coordinates":[2001,5400]},{"type":"Point","properties":{"Station_ID":"CODN6","Station_Nam":"COLDEN 1W","Latitude":"42.64720","Longitude":"-78.71110","Snowdepth":"2.000","Units":"in","Rept_Date":"2019-11-18 12"},"coordinates":[5467,2810]},{"type":"Point","properties":{"Station_ID":"CNNW3","Station_Nam":"CRANDON","Latitude":"45.55110","Longitude":"-88.89830","Snowdepth":"2.000","Units":"in","Rept_Date":"2019-11-18 12"},"coordinates":[2086,5109]},{"type":"Point","properties":{"Station_ID":"CHSM4","Station_Nam":"CHESANING,MI","Latitude":"43.21670","Longitude":"-84.10000","Snowdepth":"2.000","Units":"in","Rept_Date":"2019-11-18 12"},"coordinates":[3678,3261]},{"type":"Point","properties":{"Station_ID":"CHLM4","Station_Nam":"CHELSEA,MI","Latitude":"42.31670","Longitude":"-84.01670","Snowdepth":"2.000","Units":"in","Rept_Date":"2019-11-18 14"},"coordinates":[3706,2548]},{"type":"Point","properties":{"Station_ID":"CHBM4","Station_Nam":"CHEBOYGAN","Latitude":"45.65270","Longitude":"-84.47250","Snowdepth":"2.000","Units":"in","Rept_Date":"2019-11-18 13"},"coordinates":[3554,5190]},{"type":"Point","properties":{"Station_ID":"CEFM4","Station_Nam":"EXPERIMENT FARM #2","Latitude":"46.33330","Longitude":"-86.91670","Snowdepth":"2.000","Units":"in","Rept_Date":"2019-11-18 13"},"coordinates":[2743,5728]},{"type":"Point","properties":{"Station_ID":"CAN-ON-5","Station_Nam":"OWEN SOUND 1.5 NW - GSCA, CAN","Latitude":"44.57837","Longitude":"-80.95461","Snowdepth":"2.000","Units":"in","Rept_Date":"2019-11-18 13"},"coordinates":[4722,4339]},{"type":"Point","properties":{"Station_ID":"CAN-ON-203","Station_Nam":"LUCKNOW 1.5 NNE - MVCA, CAN","Latitude":"43.97350","Longitude":"-81.50764","Snowdepth":"2.000","Units":"in","Rept_Date":"2019-11-18 13"},"coordinates":[4539,3860]},{"type":"Point","properties":{"Station_ID":"CAN-ON-103","Station_Nam":"CALEDONIA 12.4 NW, CA","Latitude":"43.14246","Longitude":"-80.06960","Snowdepth":"2.000","Units":"in","Rept_Date":"2019-11-18 12"},"coordinates":[5016,3202]},{"type":"Point","properties":{"Station_ID":"CAN-NB-96","Station_Nam":"SAINT-IGNACE 2.6 NE, CAN","Latitude":"46.71424","Longitude":"-65.05609","Snowdepth":"2.000","Units":"in","Rept_Date":"2019-11-18 11"},"coordinates":[9999,6030]},{"type":"Point","properties":{"Station_ID":"BNDM5","Station_Nam":"ELY 25E","Latitude":"47.97190","Longitude":"-91.44860","Snowdepth":"2.000","Units":"in","Rept_Date":"2019-11-18 13"},"coordinates":[1239,7026]},{"type":"Point","properties":{"Station_ID":"BEUM4","Station_Nam":"BEULAH 7SSW","Latitude":"44.53160","Longitude":"-86.13110","Snowdepth":"2.000","Units":"in","Rept_Date":"2019-11-18 13"},"coordinates":[3004,4302]},{"type":"Point","properties":{"Station_ID":"BDAM4","Station_Nam":"BAD AXE,MI","Latitude":"43.81670","Longitude":"-83.00000","Snowdepth":"2.000","Units":"in","Rept_Date":"2019-11-18 12"},"coordinates":[4043,3736]},{"type":"Point","properties":{"Station_ID":"ARBM4","Station_Nam":"UNIV OF MICH","Latitude":"42.30000","Longitude":"-83.71670","Snowdepth":"2.000","Units":"in","Rept_Date":"2019-11-18 23"},"coordinates":[3805,2535]},{"type":"Point","properties":{"Station_ID":"APN","Station_Nam":"PHELPS COLLINS FIELD","Latitude":"45.07810","Longitude":"-83.56030","Snowdepth":"2.000","Units":"in","Rept_Date":"2019-11-19 00"},"coordinates":[3857,4735]},{"type":"Point","properties":{"Station_ID":"ALPM4","Station_Nam":"SNOW PAID OBSERVER FOR KAPN","Latitude":"45.03110","Longitude":"-83.55970","Snowdepth":"2.000","Units":"in","Rept_Date":"2019-11-18 12"},"coordinates":[3857,4697]},{"type":"Point","properties":{"Station_ID":"KABQ6","Station_Nam":"CAB LAKE","Latitude":"49.59950","Longitude":"-89.17990","Snowdepth":"1.850","Units":"in","Rept_Date":"2019-11-19 05"},"coordinates":[1992,8315]},{"type":"Point","properties":{"Station_ID":"WI-PR-2","Station_Nam":"BUTTERNUT 5.9 SW, WI","Latitude":"45.96501","Longitude":"-90.59750","Snowdepth":"1.800","Units":"in","Rept_Date":"2019-11-18 12"},"coordinates":[1522,5437]},{"type":"Point","properties":{"Station_ID":"CAN-ON-9","Station_Nam":"WINDSOR 1.7 SE, CAN","Latitude":"42.28448","Longitude":"-83.03456","Snowdepth":"1.800","Units":"in","Rept_Date":"2019-11-18 12"},"coordinates":[4032,2523]},{"type":"Point","properties":{"Station_ID":"NY-WN-18","Station_Nam":"MACEDON 2.6 ESE, NY","Latitude":"43.05200","Longitude":"-77.25700","Snowdepth":"1.700","Units":"in","Rept_Date":"2019-11-18 12"},"coordinates":[5949,3130]},{"type":"Point","properties":{"Station_ID":"CAN-ON-173","Station_Nam":"DRESDEN 0.8 NNE, CAN","Latitude":"42.59703","Longitude":"-82.17812","Snowdepth":"1.700","Units":"in","Rept_Date":"2019-11-18 11"},"coordinates":[4316,2770]},{"type":"Point","properties":{"Station_ID":"NY-NG-30","Station_Nam":"LOCKPORT 2.5 ESE, NY","Latitude":"43.15207","Longitude":"-78.65338","Snowdepth":"1.600","Units":"in","Rept_Date":"2019-11-18 12"},"coordinates":[5486,3210]},{"type":"Point","properties":{"Station_ID":"MI-MB-54","Station_Nam":"UTICA 2.9 E, MI","Latitude":"42.63518","Longitude":"-82.96528","Snowdepth":"1.600","Units":"in","Rept_Date":"2019-11-18 12"},"coordinates":[4055,2800]},{"type":"Point","properties":{"Station_ID":"WI-WW-12","Station_Nam":"ELKHORN 0.4 ESE, WI","Latitude":"42.66970","Longitude":"-88.53170","Snowdepth":"1.500","Units":"in","Rept_Date":"2019-11-18 11"},"coordinates":[2207,2828]},{"type":"Point","properties":{"Station_ID":"WI-PR-8","Station_Nam":"PHILLIPS 0.4 SSW, WI","Latitude":"45.69086","Longitude":"-90.40200","Snowdepth":"1.500","Units":"in","Rept_Date":"2019-11-18 13"},"coordinates":[1586,5220]},{"type":"Point","properties":{"Station_ID":"WI-GN-5","Station_Nam":"MONTICELLO 2.2 SE, WI","Latitude":"42.71990","Longitude":"-89.56360","Snowdepth":"1.500","Units":"in","Rept_Date":"2019-11-18 13"},"coordinates":[1865,2867]},{"type":"Point","properties":{"Station_ID":"NY-OD-43","Station_Nam":"HOLLAND PATENT 1.1 WNW, NY","Latitude":"43.24707","Longitude":"-75.27750","Snowdepth":"1.500","Units":"in","Rept_Date":"2019-11-18 12"},"coordinates":[6606,3285]},{"type":"Point","properties":{"Station_ID":"NY-CT-22","Station_Nam":"FRANKLINVILLE 0.5 NNE, NY","Latitude":"42.34166","Longitude":"-78.45280","Snowdepth":"1.500","Units":"in","Rept_Date":"2019-11-18 12"},"coordinates":[5552,2568]},{"type":"Point","properties":{"Station_ID":"NY-CQ-39","Station_Nam":"GERRY 0.8 N, NY","Latitude":"42.20500","Longitude":"-79.24700","Snowdepth":"1.500","Units":"in","Rept_Date":"2019-11-18 13"},"coordinates":[5289,2460]},{"type":"Point","properties":{"Station_ID":"NY-CQ-22","Station_Nam":"FREDONIA 0.8 WNW, NY","Latitude":"42.44414","Longitude":"-79.34610","Snowdepth":"1.500","Units":"in","Rept_Date":"2019-11-18 10"},"coordinates":[5256,2649]},{"type":"Point","properties":{"Station_ID":"NH-MR-41","Station_Nam":"NEWBURY 1.6 NW, NH","Latitude":"43.33667","Longitude":"-72.06060","Snowdepth":"1.500","Units":"in","Rept_Date":"2019-11-18 12"},"coordinates":[7674,3356]},{"type":"Point","properties":{"Station_ID":"MI-VB-4","Station_Nam":"PAW PAW 3.6 NNE, MI","Latitude":"42.26582","Longitude":"-85.86190","Snowdepth":"1.500","Units":"in","Rept_Date":"2019-11-18 12"},"coordinates":[3093,2508]},{"type":"Point","properties":{"Station_ID":"MI-OK-35","Station_Nam":"WATERFORD 2.1 NW, MI","Latitude":"42.68742","Longitude":"-83.41320","Snowdepth":"1.500","Units":"in","Rept_Date":"2019-11-18 12"},"coordinates":[3906,2842]},{"type":"Point","properties":{"Station_ID":"MI-LN-16","Station_Nam":"CLINTON 0.5 NE, MI","Latitude":"42.07710","Longitude":"-83.96530","Snowdepth":"1.500","Units":"in","Rept_Date":"2019-11-18 12"},"coordinates":[3723,2359]},{"type":"Point","properties":{"Station_ID":"MI-JC-10","Station_Nam":"HANOVER 4.1 E, MI","Latitude":"42.09263","Longitude":"-84.47292","Snowdepth":"1.500","Units":"in","Rept_Date":"2019-11-18 14"},"coordinates":[3554,2371]},{"type":"Point","properties":{"Station_ID":"MI-IH-34","Station_Nam":"MASON 5.8 ENE, MI","Latitude":"42.61430","Longitude":"-84.33813","Snowdepth":"1.500","Units":"in","Rept_Date":"2019-11-18 13"},"coordinates":[3599,2784]},{"type":"Point","properties":{"Station_ID":"ME-OX-30","Station_Nam":"BETHEL 0.8 SE, ME","Latitude":"44.39723","Longitude":"-70.77801","Snowdepth":"1.500","Units":"in","Rept_Date":"2019-11-18 12"},"coordinates":[8100,4196]},{"type":"Point","properties":{"Station_ID":"ME-KB-25","Station_Nam":"SIDNEY 2.6 NNW, ME","Latitude":"44.44985","Longitude":"-69.73840","Snowdepth":"1.500","Units":"in","Rept_Date":"2019-11-18 12"},"coordinates":[8445,4237]},{"type":"Point","properties":{"Station_ID":"CAN-ON-466","Station_Nam":"PICTON 12.7 NNE, CAN","Latitude":"44.11197","Longitude":"-77.08426","Snowdepth":"1.400","Units":"in","Rept_Date":"2019-11-18 12"},"coordinates":[6007,3970]},{"type":"Point","properties":{"Station_ID":"CAN-ON-452","Station_Nam":"CHATSWORTH 1.8 ENE - GSCA, CAN","Latitude":"44.46118","Longitude":"-80.87506","Snowdepth":"1.400","Units":"in","Rept_Date":"2019-11-18 12"},"coordinates":[4749,4246]},{"type":"Point","properties":{"Station_ID":"CAN-ON-593","Station_Nam":"KITCHENER 4.5 E, CAN","Latitude":"43.45147","Longitude":"-80.43180","Snowdepth":"1.200","Units":"in","Rept_Date":"2019-11-18 14"},"coordinates":[4896,3447]},{"type":"Point","properties":{"Station_ID":"ZNOM4","Station_Nam":"NORWAY","Latitude":"45.77810","Longitude":"-87.89560","Snowdepth":"1.000","Units":"in","Rept_Date":"2019-11-18 13"},"coordinates":[2418,5289]},{"type":"Point","properties":{"Station_ID":"WTHN6","Station_Nam":"WHITEHALL LOCK C12","Latitude":"43.55000","Longitude":"-73.40000","Snowdepth":"1.000","Units":"in","Rept_Date":"2019-11-18 13"},"coordinates":[7230,3525]},{"type":"Point","properties":{"Station_ID":"WRRP1","Station_Nam":"ALLEGHENY RIVER AT WARREN","Latitude":"41.84380","Longitude":"-79.15000","Snowdepth":"1.000","Units":"in","Rept_Date":"2019-11-18 12"},"coordinates":[5321,2174]},{"type":"Point","properties":{"Station_ID":"WNDP1","Station_Nam":"WINDBER COUNTY CLUB","Latitude":"40.28780","Longitude":"-78.77530","Snowdepth":"1.000","Units":"in","Rept_Date":"2019-11-18 12"},"coordinates":[5445,942]},{"type":"Point","properties":{"Station_ID":"WI-WW-2","Station_Nam":"LAKE GENEVA 0.6 ENE, WI","Latitude":"42.59169","Longitude":"-88.41770","Snowdepth":"1.000","Units":"in","Rept_Date":"2019-11-18 13"},"coordinates":[2245,2766]},{"type":"Point","properties":{"Station_ID":"WI-WN-9","Station_Nam":"NEENAH 1.1 ENE, WI","Latitude":"44.17370","Longitude":"-88.45130","Snowdepth":"1.000","Units":"in","Rept_Date":"2019-11-18 13"},"coordinates":[2234,4019]},{"type":"Point","properties":{"Station_ID":"WI-WK-65","Station_Nam":"EAGLE 3.4 SW, WI","Latitude":"42.85067","Longitude":"-88.52596","Snowdepth":"1.000","Units":"in","Rept_Date":"2019-11-18 14"},"coordinates":[2209,2971]},{"type":"Point","properties":{"Station_ID":"WI-WK-61","Station_Nam":"HARTLAND 5.0 NNE, WI","Latitude":"43.16351","Longitude":"-88.30400","Snowdepth":"1.000","Units":"in","Rept_Date":"2019-11-18 13"},"coordinates":[2283,3219]},{"type":"Point","properties":{"Station_ID":"WI-RK-12","Station_Nam":"JANESVILLE 3.1 W, WI","Latitude":"42.67576","Longitude":"-89.07614","Snowdepth":"1.000","Units":"in","Rept_Date":"2019-11-18 13"},"coordinates":[2027,2833]},{"type":"Point","properties":{"Station_ID":"WI-PR-6","Station_Nam":"PHILLIPS 1.3 S, WI","Latitude":"45.67677","Longitude":"-90.39543","Snowdepth":"1.000","Units":"in","Rept_Date":"2019-11-18 12"},"coordinates":[1589,5209]},{"type":"Point","properties":{"Station_ID":"WI-ON-6","Station_Nam":"RHINELANDER 5.2 N, WI","Latitude":"45.71388","Longitude":"-89.42150","Snowdepth":"1.000","Units":"in","Rept_Date":"2019-11-18 14"},"coordinates":[1912,5238]},{"type":"Point","properties":{"Station_ID":"WI-OG-7","Station_Nam":"APPLETON 1.3 N, WI","Latitude":"44.28580","Longitude":"-88.39470","Snowdepth":"1.000","Units":"in","Rept_Date":"2019-11-18 13"},"coordinates":[2253,4107]},{"type":"Point","properties":{"Station_ID":"WI-GN-8","Station_Nam":"BRODHEAD 0.7 NNW, WI","Latitude":"42.62658","Longitude":"-89.38124","Snowdepth":"1.000","Units":"in","Rept_Date":"2019-11-18 14"},"coordinates":[1925,2794]},{"type":"Point","properties":{"Station_ID":"WI-DN-5","Station_Nam":"ELK MOUND 1.3 NE, WI","Latitude":"44.88627","Longitude":"-91.66680","Snowdepth":"1.000","Units":"in","Rept_Date":"2019-11-18 13"},"coordinates":[1167,4583]},{"type":"Point","properties":{"Station_ID":"WI-DA-31","Station_Nam":"DEERFIELD 0.6 N, WI","Latitude":"43.05958","Longitude":"-89.07340","Snowdepth":"1.000","Units":"in","Rept_Date":"2019-11-18 13"},"coordinates":[2027,3136]},{"type":"Point","properties":{"Station_ID":"WI-BR-2","Station_Nam":"CHETEK 2.0 SE, WI","Latitude":"45.29427","Longitude":"-91.62470","Snowdepth":"1.000","Units":"in","Rept_Date":"2019-11-18 13"},"coordinates":[1181,4906]},{"type":"Point","properties":{"Station_ID":"WAUO1","Station_Nam":"UNKNOWN","Latitude":"41.55000","Longitude":"-84.13000","Snowdepth":"1.000","Units":"in","Rept_Date":"2019-11-18 12"},"coordinates":[3668,1941]},{"type":"Point","properties":{"Station_ID":"VT-WR-2","Station_Nam":"POMFRET 2.6 N, VT","Latitude":"43.74230","Longitude":"-72.52550","Snowdepth":"1.000","Units":"in","Rept_Date":"2019-11-18 12"},"coordinates":[7520,3677]},{"type":"Point","properties":{"Station_ID":"TURM1","Station_Nam":"TURNER","Latitude":"44.28220","Longitude":"-70.25610","Snowdepth":"1.000","Units":"in","Rept_Date":"2019-11-18 12"},"coordinates":[8273,4104]},{"type":"Point","properties":{"Station_ID":"TOPM1","Station_Nam":"TOPSFIELD","Latitude":"45.43470","Longitude":"-67.72020","Snowdepth":"1.000","Units":"in","Rept_Date":"2019-11-18 12"},"coordinates":[9115,5017]},{"type":"Point","properties":{"Station_ID":"STOW3","Station_Nam":"STOUGHTON,WI","Latitude":"42.91670","Longitude":"-89.21670","Snowdepth":"1.000","Units":"in","Rept_Date":"2019-11-18 13"},"coordinates":[1980,3023]},{"type":"Point","properties":{"Station_ID":"SLNM4","Station_Nam":"SALINE,MI","Latitude":"42.13330","Longitude":"-83.81670","Snowdepth":"1.000","Units":"in","Rept_Date":"2019-11-18 15"},"coordinates":[3772,2403]},{"type":"Point","properties":{"Station_ID":"SHIW3","Station_Nam":"SHIOCTON","Latitude":"44.43890","Longitude":"-88.58390","Snowdepth":"1.000","Units":"in","Rept_Date":"2019-11-18 13"},"coordinates":[2190,4229]},{"type":"Point","properties":{"Station_ID":"SBOP1","Station_Nam":"SPRINGBORO","Latitude":"41.81660","Longitude":"-80.43330","Snowdepth":"1.000","Units":"in","Rept_Date":"2019-11-18 12"},"coordinates":[4895,2152]},{"type":"Point","properties":{"Station_ID":"SALM4","Station_Nam":"SALINE,MI","Latitude":"42.16670","Longitude":"-83.78330","Snowdepth":"1.000","Units":"in","Rept_Date":"2019-11-18 13"},"coordinates":[3783,2429]},{"type":"Point","properties":{"Station_ID":"RUHN6","Station_Nam":"RUSHFORD","Latitude":"42.42620","Longitude":"-78.19200","Snowdepth":"1.000","Units":"in","Rept_Date":"2019-11-18 13"},"coordinates":[5639,2635]},{"type":"Point","properties":{"Station_ID":"RHLW3","Station_Nam":"RHINELANDER 4NE","Latitude":"45.65270","Longitude":"-89.30740","Snowdepth":"1.000","Units":"in","Rept_Date":"2019-11-18 12"},"coordinates":[1950,5190]},{"type":"Point","properties":{"Station_ID":"RHIW3","Station_Nam":"RHINELANDER","Latitude":"45.59860","Longitude":"-89.45080","Snowdepth":"1.000","Units":"in","Rept_Date":"2019-11-18 13"},"coordinates":[1902,5147]},{"type":"Point","properties":{"Station_ID":"PTYM4","Station_Nam":"PETOSKEY NCMC","Latitude":"45.36120","Longitude":"-84.95110","Snowdepth":"1.000","Units":"in","Rept_Date":"2019-11-18 13"},"coordinates":[3396,4959]},{"type":"Point","properties":{"Station_ID":"PERV1","Station_Nam":"PERU","Latitude":"43.26670","Longitude":"-72.90000","Snowdepth":"1.000","Units":"in","Rept_Date":"2019-11-18 12"},"coordinates":[7396,3300]},{"type":"Point","properties":{"Station_ID":"PELW3","Station_Nam":"PELLA 3SE","Latitude":"44.73580","Longitude":"-88.73780","Snowdepth":"1.000","Units":"in","Rept_Date":"2019-11-18 11"},"coordinates":[2139,4464]},{"type":"Point","properties":{"Station_ID":"PEKN6","Station_Nam":"PECK LAKE","Latitude":"43.11500","Longitude":"-74.42360","Snowdepth":"1.000","Units":"in","Rept_Date":"2019-11-18 12"},"coordinates":[6890,3180]},{"type":"Point","properties":{"Station_ID":"PA-ER-5","Station_Nam":"NORTH EAST 1.2 WNW, PA","Latitude":"42.22058","Longitude":"-79.85510","Snowdepth":"1.000","Units":"in","Rept_Date":"2019-11-18 13"},"coordinates":[5087,2472]},{"type":"Point","properties":{"Station_ID":"PA-CW-8","Station_Nam":"SPRINGBORO 3.0 WNW, PA","Latitude":"41.81654","Longitude":"-80.42540","Snowdepth":"1.000","Units":"in","Rept_Date":"2019-11-18 12"},"coordinates":[4898,2152]},{"type":"Point","properties":{"Station_ID":"OWSM4","Station_Nam":"OWOSSO,MI","Latitude":"42.96670","Longitude":"-84.20000","Snowdepth":"1.000","Units":"in","Rept_Date":"2019-11-18 12"},"coordinates":[3645,3063]},{"type":"Point","properties":{"Station_ID":"OSWN6","Station_Nam":"OSWEGO","Latitude":"43.44990","Longitude":"-76.53680","Snowdepth":"1.000","Units":"in","Rept_Date":"2019-11-18 22"},"coordinates":[6188,3445]},{"type":"Point","properties":{"Station_ID":"OILM4","Station_Nam":"OIL CITY 3E","Latitude":"43.61140","Longitude":"-84.52810","Snowdepth":"1.000","Units":"in","Rept_Date":"2019-11-18 12"},"coordinates":[3536,3573]},{"type":"Point","properties":{"Station_ID":"OH-GG-11","Station_Nam":"MADISON 4.2 S, OH","Latitude":"41.71238","Longitude":"-81.03871","Snowdepth":"1.000","Units":"in","Rept_Date":"2019-11-18 12"},"coordinates":[4694,2070]},{"type":"Point","properties":{"Station_ID":"NY-SR-22","Station_Nam":"GREENFIELD CENTER 1.6 W, NY","Latitude":"43.12684","Longitude":"-73.87860","Snowdepth":"1.000","Units":"in","Rept_Date":"2019-11-18 14"},"coordinates":[7071,3190]},{"type":"Point","properties":{"Station_ID":"NY-NG-22","Station_Nam":"NIAGARA FALLS 5.7 E, NY","Latitude":"43.08297","Longitude":"-78.90460","Snowdepth":"1.000","Units":"in","Rept_Date":"2019-11-18 15"},"coordinates":[5403,3155]},{"type":"Point","properties":{"Station_ID":"NY-LV-5","Station_Nam":"DANSVILLE 1.0 ENE, NY","Latitude":"42.56802","Longitude":"-77.67900","Snowdepth":"1.000","Units":"in","Rept_Date":"2019-11-18 12"},"coordinates":[5809,2747]},{"type":"Point","properties":{"Station_ID":"NY-ER-72","Station_Nam":"TONAWANDA 3.1 NE, NY","Latitude":"43.01368","Longitude":"-78.82960","Snowdepth":"1.000","Units":"in","Rept_Date":"2019-11-18 12"},"coordinates":[5427,3100]},{"type":"Point","properties":{"Station_ID":"NY-ER-59","Station_Nam":"KENMORE 0.3 ESE, NY","Latitude":"42.96316","Longitude":"-78.86690","Snowdepth":"1.000","Units":"in","Rept_Date":"2019-11-18 13"},"coordinates":[5415,3060]},{"type":"Point","properties":{"Station_ID":"NY-ER-39","Station_Nam":"HAMBURG 0.4 WSW, NY","Latitude":"42.72253","Longitude":"-78.84330","Snowdepth":"1.000","Units":"in","Rept_Date":"2019-11-18 12"},"coordinates":[5423,2870]},{"type":"Point","properties":{"Station_ID":"NY-ER-13","Station_Nam":"WEST SENECA 2.3 NW, NY","Latitude":"42.85926","Longitude":"-78.78539","Snowdepth":"1.000","Units":"in","Rept_Date":"2019-11-18 12"},"coordinates":[5442,2978]},{"type":"Point","properties":{"Station_ID":"NY-ER-122","Station_Nam":"CHEEKTOWAGA 2.4 NW, NY","Latitude":"42.93457","Longitude":"-78.78295","Snowdepth":"1.000","Units":"in","Rept_Date":"2019-11-18 12"},"coordinates":[5443,3037]},{"type":"Point","properties":{"Station_ID":"NY-CQ-9","Station_Nam":"DUNKIRK 0.7 SW, NY","Latitude":"42.47167","Longitude":"-79.33360","Snowdepth":"1.000","Units":"in","Rept_Date":"2019-11-18 12"},"coordinates":[5260,2671]},{"type":"Point","properties":{"Station_ID":"NY-CQ-34","Station_Nam":"KENNEDY 2.6 SE, NY","Latitude":"42.12567","Longitude":"-79.07235","Snowdepth":"1.000","Units":"in","Rept_Date":"2019-11-18 13"},"coordinates":[5347,2397]},{"type":"Point","properties":{"Station_ID":"NY-CQ-27","Station_Nam":"SILVER CREEK 1.0 SSE, NY","Latitude":"42.53088","Longitude":"-79.15986","Snowdepth":"1.000","Units":"in","Rept_Date":"2019-11-18 12"},"coordinates":[5318,2718]},{"type":"Point","properties":{"Station_ID":"NH-CR-26","Station_Nam":"CENTER SANDWICH 4.9 E, NH","Latitude":"43.80976","Longitude":"-71.34150","Snowdepth":"1.000","Units":"in","Rept_Date":"2019-11-18 12"},"coordinates":[7913,3730]},{"type":"Point","properties":{"Station_ID":"NH-CR-11","Station_Nam":"NORTH CONWAY 1.4 SSW, NH","Latitude":"44.03556","Longitude":"-71.14010","Snowdepth":"1.000","Units":"in","Rept_Date":"2019-11-18 12"},"coordinates":[7980,3909]},{"type":"Point","properties":{"Station_ID":"NAZW3","Station_Nam":"ST. NAZIANZ-2 W","Latitude":"44.00420","Longitude":"-87.96360","Snowdepth":"1.000","Units":"in","Rept_Date":"2019-11-18 13"},"coordinates":[2396,3884]},{"type":"Point","properties":{"Station_ID":"MQT","Station_Nam":"MARQUETTE, MI","Latitude":"46.53140","Longitude":"-87.54920","Snowdepth":"1.000","Units":"in","Rept_Date":"2019-11-19 06"},"coordinates":[2533,5885]},{"type":"Point","properties":{"Station_ID":"MONW3","Station_Nam":"MONROE,WI","Latitude":"42.60000","Longitude":"-89.66670","Snowdepth":"1.000","Units":"in","Rept_Date":"2019-11-18 13"},"coordinates":[1830,2773]},{"type":"Point","properties":{"Station_ID":"MNPV1","Station_Nam":"MONTPELIER 2","Latitude":"44.25530","Longitude":"-72.60060","Snowdepth":"1.000","Units":"in","Rept_Date":"2019-11-18 12"},"coordinates":[7495,4083]},{"type":"Point","properties":{"Station_ID":"MMRN6","Station_Nam":"MOUNT MORRIS 2 W","Latitude":"42.73130","Longitude":"-77.90540","Snowdepth":"1.000","Units":"in","Rept_Date":"2019-11-18 13"},"coordinates":[5734,2877]},{"type":"Point","properties":{"Station_ID":"MI-WS-7","Station_Nam":"ANN ARBOR 3.1 SE, MI","Latitude":"42.23914","Longitude":"-83.69580","Snowdepth":"1.000","Units":"in","Rept_Date":"2019-11-18 12"},"coordinates":[3812,2487]},{"type":"Point","properties":{"Station_ID":"MI-WS-42","Station_Nam":"ANN ARBOR 4.5 W, MI","Latitude":"42.27814","Longitude":"-83.81884","Snowdepth":"1.000","Units":"in","Rept_Date":"2019-11-18 12"},"coordinates":[3771,2518]},{"type":"Point","properties":{"Station_ID":"MI-WS-28","Station_Nam":"DEXTER 0.3 ENE, MI","Latitude":"42.33367","Longitude":"-83.87510","Snowdepth":"1.000","Units":"in","Rept_Date":"2019-11-18 12"},"coordinates":[3753,2562]},{"type":"Point","properties":{"Station_ID":"MI-SW-5","Station_Nam":"DURAND 6.2 WNW, MI","Latitude":"42.92995","Longitude":"-84.10460","Snowdepth":"1.000","Units":"in","Rept_Date":"2019-11-18 13"},"coordinates":[3677,3034]},{"type":"Point","properties":{"Station_ID":"MI-OW-2","Station_Nam":"HOLLAND 3.9 NNE, MI","Latitude":"42.82296","Longitude":"-86.06780","Snowdepth":"1.000","Units":"in","Rept_Date":"2019-11-18 11"},"coordinates":[3025,2949]},{"type":"Point","properties":{"Station_ID":"MI-MQ-19","Station_Nam":"ISHPEMING 7.2 SW, MI","Latitude":"46.40550","Longitude":"-87.75670","Snowdepth":"1.000","Units":"in","Rept_Date":"2019-11-18 11"},"coordinates":[2464,5786]},{"type":"Point","properties":{"Station_ID":"MI-KZ-1","Station_Nam":"KALAMAZOO 6.0 SW, MI","Latitude":"42.20613","Longitude":"-85.65900","Snowdepth":"1.000","Units":"in","Rept_Date":"2019-11-18 13"},"coordinates":[3161,2461]},{"type":"Point","properties":{"Station_ID":"MI-JC-13","Station_Nam":"HANOVER 3.8 W, MI","Latitude":"42.10700","Longitude":"-84.62600","Snowdepth":"1.000","Units":"in","Rept_Date":"2019-11-18 13"},"coordinates":[3504,2382]},{"type":"Point","properties":{"Station_ID":"MI-IH-45","Station_Nam":"LANSING 1.0 ENE, MI","Latitude":"42.71480","Longitude":"-84.53490","Snowdepth":"1.000","Units":"in","Rept_Date":"2019-11-18 13"},"coordinates":[3534,2863]},{"type":"Point","properties":{"Station_ID":"MI-IH-32","Station_Nam":"WILLIAMSTON 4.0 ESE, MI","Latitude":"42.65859","Longitude":"-84.21630","Snowdepth":"1.000","Units":"in","Rept_Date":"2019-11-18 13"},"coordinates":[3640,2819]},{"type":"Point","properties":{"Station_ID":"MI-HL-9","Station_Nam":"MONTGOMERY 1.9 SSE, MI","Latitude":"41.75167","Longitude":"-84.78952","Snowdepth":"1.000","Units":"in","Rept_Date":"2019-11-18 13"},"coordinates":[3449,2101]},{"type":"Point","properties":{"Station_ID":"MI-HL-1","Station_Nam":"LITCHFIELD 0.3 ENE, MI","Latitude":"42.04528","Longitude":"-84.75310","Snowdepth":"1.000","Units":"in","Rept_Date":"2019-11-18 12"},"coordinates":[3461,2333]},{"type":"Point","properties":{"Station_ID":"MI-EM-5","Station_Nam":"HARBOR SPRINGS 0.7 ENE, MI","Latitude":"45.43450","Longitude":"-84.97540","Snowdepth":"1.000","Units":"in","Rept_Date":"2019-11-18 12"},"coordinates":[3388,5017]},{"type":"Point","properties":{"Station_ID":"MI-CT-18","Station_Nam":"LAINGSBURG 2.1 NNW, MI","Latitude":"42.91661","Longitude":"-84.36803","Snowdepth":"1.000","Units":"in","Rept_Date":"2019-11-18 13"},"coordinates":[3589,3023]},{"type":"Point","properties":{"Station_ID":"MI-CP-7","Station_Nam":"DRUMMOND 2.9 NE, MI","Latitude":"46.05329","Longitude":"-83.69060","Snowdepth":"1.000","Units":"in","Rept_Date":"2019-11-18 14"},"coordinates":[3814,5507]},{"type":"Point","properties":{"Station_ID":"MI-BN-2","Station_Nam":"STEVENSVILLE 1.7 SSE, MI","Latitude":"41.99114","Longitude":"-86.50860","Snowdepth":"1.000","Units":"in","Rept_Date":"2019-11-18 12"},"coordinates":[2879,2290]},{"type":"Point","properties":{"Station_ID":"MI-AN-25","Station_Nam":"PLAINWELL 0.5 WSW, MI","Latitude":"42.44318","Longitude":"-85.65374","Snowdepth":"1.000","Units":"in","Rept_Date":"2019-11-18 12"},"coordinates":[3162,2648]},{"type":"Point","properties":{"Station_ID":"ME-WL-8","Station_Nam":"WINTERPORT 2.9 N, ME","Latitude":"44.69369","Longitude":"-68.84800","Snowdepth":"1.000","Units":"in","Rept_Date":"2019-11-18 12"},"coordinates":[8740,4430]},{"type":"Point","properties":{"Station_ID":"ME-PN-47","Station_Nam":"MILFORD 0.8 SSW, ME","Latitude":"44.94108","Longitude":"-68.64154","Snowdepth":"1.000","Units":"in","Rept_Date":"2019-11-18 12"},"coordinates":[8809,4626]},{"type":"Point","properties":{"Station_ID":"MDLM4","Station_Nam":"MIDLAND,MI","Latitude":"43.61670","Longitude":"-84.21670","Snowdepth":"1.000","Units":"in","Rept_Date":"2019-11-19 05"},"coordinates":[3639,3578]},{"type":"Point","properties":{"Station_ID":"LKCM4","Station_Nam":"LAKE CITY EXP FARM","Latitude":"44.30880","Longitude":"-85.20500","Snowdepth":"1.000","Units":"in","Rept_Date":"2019-11-18 13"},"coordinates":[3311,4126]},{"type":"Point","properties":{"Station_ID":"LIDM4","Station_Nam":"LINDEN WWTP","Latitude":"42.81330","Longitude":"-83.80380","Snowdepth":"1.000","Units":"in","Rept_Date":"2019-11-18 13"},"coordinates":[3776,2941]},{"type":"Point","properties":{"Station_ID":"LGEW3","Station_Nam":"LAKE GENEVA, WI","Latitude":"42.60000","Longitude":"-88.43440","Snowdepth":"1.000","Units":"in","Rept_Date":"2019-11-18 13"},"coordinates":[2240,2773]},{"type":"Point","properties":{"Station_ID":"LBKV1","Station_Nam":"LYE BROOK","Latitude":"43.05000","Longitude":"-73.03330","Snowdepth":"1.000","Units":"in","Rept_Date":"2019-11-19 06"},"coordinates":[7351,3129]},{"type":"Point","properties":{"Station_ID":"LAN","Station_Nam":"CAPITAL CITY AIRPORT","Latitude":"42.77860","Longitude":"-84.58720","Snowdepth":"1.000","Units":"in","Rept_Date":"2019-11-19 00"},"coordinates":[3516,2914]},{"type":"Point","properties":{"Station_ID":"KISM4","Station_Nam":"K.I. SAWYER WWTP","Latitude":"46.33410","Longitude":"-87.37790","Snowdepth":"1.000","Units":"in","Rept_Date":"2019-11-18 13"},"coordinates":[2590,5729]},{"type":"Point","properties":{"Station_ID":"KINM1","Station_Nam":"KINGFIELD","Latitude":"44.95950","Longitude":"-70.17530","Snowdepth":"1.000","Units":"in","Rept_Date":"2019-11-18 12"},"coordinates":[8300,4641]},{"type":"Point","properties":{"Station_ID":"KBUF","Station_Nam":"GREATER BUFFALO INTERNATIONAL  AIRPORT","Latitude":"42.93333","Longitude":"-78.73333","Snowdepth":"1.000","Units":"in","Rept_Date":"2019-11-19 06"},"coordinates":[5459,3036]},{"type":"Point","properties":{"Station_ID":"INDM5","Station_Nam":"INDUS,MN","Latitude":"48.61670","Longitude":"-93.90000","Snowdepth":"1.000","Units":"in","Rept_Date":"2019-11-18 14"},"coordinates":[425,7536]},{"type":"Point","properties":{"Station_ID":"ILIM5","Station_Nam":"ISLAND LAKE","Latitude":"47.02400","Longitude":"-92.07000","Snowdepth":"1.000","Units":"in","Rept_Date":"2019-11-18 15"},"coordinates":[1033,6275]},{"type":"Point","properties":{"Station_ID":"IL-WN-26","Station_Nam":"ROCKFORD 1.5 ENE, IL","Latitude":"42.27775","Longitude":"-89.03590","Snowdepth":"1.000","Units":"in","Rept_Date":"2019-11-18 15"},"coordinates":[2040,2517]},{"type":"Point","properties":{"Station_ID":"IL-SP-7","Station_Nam":"DAVIS 0.5 N, IL","Latitude":"42.42919","Longitude":"-89.41730","Snowdepth":"1.000","Units":"in","Rept_Date":"2019-11-18 13"},"coordinates":[1913,2637]},{"type":"Point","properties":{"Station_ID":"IL-SP-14","Station_Nam":"FREEPORT 1.7 ESE, IL","Latitude":"42.28257","Longitude":"-89.60360","Snowdepth":"1.000","Units":"in","Rept_Date":"2019-11-18 13"},"coordinates":[1851,2521]},{"type":"Point","properties":{"Station_ID":"IL-MCH-83","Station_Nam":"CRYSTAL LAKE 1.0 WSW, IL","Latitude":"42.22882","Longitude":"-88.34964","Snowdepth":"1.000","Units":"in","Rept_Date":"2019-11-18 13"},"coordinates":[2268,2479]},{"type":"Point","properties":{"Station_ID":"IL-MCH-30","Station_Nam":"WONDER LAKE 0.8 WNW, IL","Latitude":"42.38354","Longitude":"-88.37090","Snowdepth":"1.000","Units":"in","Rept_Date":"2019-11-18 13"},"coordinates":[2261,2601]},{"type":"Point","properties":{"Station_ID":"IL-MCH-13","Station_Nam":"BULL VALLEY 2.5 WNW, IL","Latitude":"42.32455","Longitude":"-88.39460","Snowdepth":"1.000","Units":"in","Rept_Date":"2019-11-18 14"},"coordinates":[2253,2554]},{"type":"Point","properties":{"Station_ID":"IL-LK-9","Station_Nam":"LAKE VILLA 1.1 SSW, IL","Latitude":"42.40305","Longitude":"-88.09050","Snowdepth":"1.000","Units":"in","Rept_Date":"2019-11-18 12"},"coordinates":[2354,2617]},{"type":"Point","properties":{"Station_ID":"IL-BN-14","Station_Nam":"CAPRON 0.1 N, IL","Latitude":"42.39998","Longitude":"-88.74240","Snowdepth":"1.000","Units":"in","Rept_Date":"2019-11-18 13"},"coordinates":[2137,2614]},{"type":"Point","properties":{"Station_ID":"HUBN3","Station_Nam":"HUBBARD BROOK","Latitude":"43.93330","Longitude":"-71.71670","Snowdepth":"1.000","Units":"in","Rept_Date":"2019-11-19 06"},"coordinates":[7788,3828]},{"type":"Point","properties":{"Station_ID":"HRLN6","Station_Nam":"HORNELL ALMOND DAM","Latitude":"42.34880","Longitude":"-77.70440","Snowdepth":"1.000","Units":"in","Rept_Date":"2019-11-18 11"},"coordinates":[5801,2574]},{"type":"Point","properties":{"Station_ID":"HORW3","Station_Nam":"HORICON WWTP","Latitude":"43.45000","Longitude":"-88.63330","Snowdepth":"1.000","Units":"in","Rept_Date":"2019-11-18 13"},"coordinates":[2173,3446]},{"type":"Point","properties":{"Station_ID":"HOLM4","Station_Nam":"HOLLAND,MI","Latitude":"42.80000","Longitude":"-86.11670","Snowdepth":"1.000","Units":"in","Rept_Date":"2019-11-18 12"},"coordinates":[3009,2931]},{"type":"Point","properties":{"Station_ID":"HBHM4","Station_Nam":"HARBOR BEACH,MI","Latitude":"43.83330","Longitude":"-82.63330","Snowdepth":"1.000","Units":"in","Rept_Date":"2019-11-18 13"},"coordinates":[4165,3749]},{"type":"Point","properties":{"Station_ID":"HALM4","Station_Nam":"LOUD DAM","Latitude":"44.46250","Longitude":"-83.72190","Snowdepth":"1.000","Units":"in","Rept_Date":"2019-11-18 14"},"coordinates":[3804,4247]},{"type":"Point","properties":{"Station_ID":"GODM4","Station_Nam":"GOODRICH","Latitude":"42.91640","Longitude":"-83.50970","Snowdepth":"1.000","Units":"in","Rept_Date":"2019-11-18 12"},"coordinates":[3874,3023]},{"type":"Point","properties":{"Station_ID":"GLAM4","Station_Nam":"GLADWIN","Latitude":"43.97580","Longitude":"-84.49080","Snowdepth":"1.000","Units":"in","Rept_Date":"2019-11-18 12"},"coordinates":[3548,3862]},{"type":"Point","properties":{"Station_ID":"FNT","Station_Nam":"FLINT BISHOP INTL AIRPORT","Latitude":"42.96560","Longitude":"-83.74360","Snowdepth":"1.000","Units":"in","Rept_Date":"2019-11-19 06"},"coordinates":[3796,3062]},{"type":"Point","properties":{"Station_ID":"FARM4","Station_Nam":"FARMINGTON,MI","Latitude":"42.46670","Longitude":"-83.36670","Snowdepth":"1.000","Units":"in","Rept_Date":"2019-11-18 12"},"coordinates":[3922,2667]},{"type":"Point","properties":{"Station_ID":"FARM1","Station_Nam":"FARMINGTON","Latitude":"44.68930","Longitude":"-70.15640","Snowdepth":"1.000","Units":"in","Rept_Date":"2019-11-18 12"},"coordinates":[8306,4427]},{"type":"Point","properties":{"Station_ID":"ESDN3","Station_Nam":"EAST SANDWICH","Latitude":"43.80990","Longitude":"-71.34250","Snowdepth":"1.000","Units":"in","Rept_Date":"2019-11-18 11"},"coordinates":[7912,3731]},{"type":"Point","properties":{"Station_ID":"ELYM5","Station_Nam":"ELY","Latitude":"47.90560","Longitude":"-91.82830","Snowdepth":"1.000","Units":"in","Rept_Date":"2019-11-18 16"},"coordinates":[1113,6973]},{"type":"Point","properties":{"Station_ID":"DTW","Station_Nam":"DETROIT METROPOLITAN","Latitude":"42.21220","Longitude":"-83.35330","Snowdepth":"1.000","Units":"in","Rept_Date":"2019-11-19 06"},"coordinates":[3926,2466]},{"type":"Point","properties":{"Station_ID":"DRNM4","Station_Nam":"DURAND WWTP","Latitude":"42.92690","Longitude":"-83.98940","Snowdepth":"1.000","Units":"in","Rept_Date":"2019-11-18 13"},"coordinates":[3715,3031]},{"type":"Point","properties":{"Station_ID":"DRBM4","Station_Nam":"DEARBORN,MI","Latitude":"42.31670","Longitude":"-83.23330","Snowdepth":"1.000","Units":"in","Rept_Date":"2019-11-18 14"},"coordinates":[3966,2548]},{"type":"Point","properties":{"Station_ID":"DNDM4","Station_Nam":"DUNDEE,MI","Latitude":"41.95000","Longitude":"-83.65000","Snowdepth":"1.000","Units":"in","Rept_Date":"2019-11-18 12"},"coordinates":[3827,2258]},{"type":"Point","properties":{"Station_ID":"DLHM5","Station_Nam":"DULUTH NWS","Latitude":"46.83680","Longitude":"-92.21080","Snowdepth":"1.000","Units":"in","Rept_Date":"2019-11-19 06"},"coordinates":[986,6127]},{"type":"Point","properties":{"Station_ID":"DLH","Station_Nam":"DULUTH, MN","Latitude":"46.83690","Longitude":"-92.21030","Snowdepth":"1.000","Units":"in","Rept_Date":"2019-11-19 00"},"coordinates":[986,6127]},{"type":"Point","properties":{"Station_ID":"DKKN6","Station_Nam":"DUNKIRK 1S","Latitude":"42.47170","Longitude":"-79.33360","Snowdepth":"1.000","Units":"in","Rept_Date":"2019-11-18 12"},