{"type":"Topology","objects":{"snowdepth_geo":{"type":"GeometryCollection","name":"snowdepth","crs":{"type":"name","properties":{"name":"urn:ogc:def:crs:OGC:1.3:CRS84"}},"geometries":[{"type":"Point","properties":{"Station_ID":"MMSV1","Station_Nam":"MOUNT MANSFIELD","Latitude":"44.53330","Longitude":"-72.83330","Snowdepth":"78.000","Units":"in","Rept_Date":"2019-11-25 05"},"coordinates":[6641,5524]},{"type":"Point","properties":{"Station_ID":"PRKM4","Station_Nam":"MUNISING EAST","Latitude":"46.42580","Longitude":"-86.62000","Snowdepth":"76.500","Units":"in","Rept_Date":"2019-11-25 06"},"coordinates":[2890,6701]},{"type":"Point","properties":{"Station_ID":"OGIQ6","Station_Nam":"OGOKI CAMP","Latitude":"50.76680","Longitude":"-87.85820","Snowdepth":"61.100","Units":"in","Rept_Date":"2019-11-25 06"},"coordinates":[2553,9402]},{"type":"Point","properties":{"Station_ID":"AUDQ6","Station_Nam":"AUDEN","Latitude":"48.52600","Longitude":"-82.57570","Snowdepth":"47.640","Units":"in","Rept_Date":"2019-11-25 06"},"coordinates":[3990,8008]},{"type":"Point","properties":{"Station_ID":"DVLQ6","Station_Nam":"DEVIOUS LAKE","Latitude":"49.19890","Longitude":"-87.76440","Snowdepth":"43.460","Units":"in","Rept_Date":"2019-11-25 06"},"coordinates":[2578,8426]},{"type":"Point","properties":{"Station_ID":"CAN-NB-50","Station_Nam":"DOYLEVILLE 2.4 WNW, CAN","Latitude":"47.90803","Longitude":"-66.13279","Snowdepth":"17.100","Units":"in","Rept_Date":"2019-11-24 13"},"coordinates":[8465,7623]},{"type":"Point","properties":{"Station_ID":"ME-AR-18","Station_Nam":"NEW SWEDEN 4.9 NNW, ME","Latitude":"47.01080","Longitude":"-68.14390","Snowdepth":"11.500","Units":"in","Rept_Date":"2019-11-24 12"},"coordinates":[7917,7065]},{"type":"Point","properties":{"Station_ID":"IBLM5","Station_Nam":"ISABELLA 14W","Latitude":"47.59360","Longitude":"-91.65140","Snowdepth":"10.000","Units":"in","Rept_Date":"2019-11-24 15"},"coordinates":[1520,7428]},{"type":"Point","properties":{"Station_ID":"GMSM4","Station_Nam":"GRAND MARAIS 10S","Latitude":"46.50940","Longitude":"-85.96310","Snowdepth":"10.000","Units":"in","Rept_Date":"2019-11-24 13"},"coordinates":[3068,6753]},{"type":"Point","properties":{"Station_ID":"CAR","Station_Nam":"CARIBOU, ME","Latitude":"46.86830","Longitude":"-68.01360","Snowdepth":"10.000","Units":"in","Rept_Date":"2019-11-24 12"},"coordinates":[7953,6976]},{"type":"Point","properties":{"Station_ID":"VANM1","Station_Nam":"VAN BUREN","Latitude":"47.16600","Longitude":"-67.93900","Snowdepth":"9.000","Units":"in","Rept_Date":"2019-11-24 13"},"coordinates":[7973,7161]},{"type":"Point","properties":{"Station_ID":"LILM1","Station_Nam":"LILLE","Latitude":"47.27770","Longitude":"-68.10520","Snowdepth":"9.000","Units":"in","Rept_Date":"2019-11-24 12"},"coordinates":[7928,7231]},{"type":"Point","properties":{"Station_ID":"HTLN3","Station_Nam":"HERMIT LAKE SNOWPLOT","Latitude":"44.26130","Longitude":"-71.28330","Snowdepth":"9.000","Units":"in","Rept_Date":"2019-11-24 11"},"coordinates":[7063,5354]},{"type":"Point","properties":{"Station_ID":"CARM1","Station_Nam":"CARIBOU WFO","Latitude":"46.86810","Longitude":"-68.01250","Snowdepth":"9.000","Units":"in","Rept_Date":"2019-11-25 05"},"coordinates":[7953,6976]},{"type":"Point","properties":{"Station_ID":"FTHQ6","Station_Nam":"FORT HOPE","Latitude":"51.55820","Longitude":"-87.90510","Snowdepth":"8.430","Units":"in","Rept_Date":"2019-11-25 06"},"coordinates":[2540,9894]},{"type":"Point","properties":{"Station_ID":"PTLQ6","Station_Nam":"PORTAGE LAKE","Latitude":"49.06950","Longitude":"-86.65940","Snowdepth":"8.190","Units":"in","Rept_Date":"2019-11-25 06"},"coordinates":[2879,8346]},{"type":"Point","properties":{"Station_ID":"MWN","Station_Nam":"MOUNT WASHINGTON","Latitude":"44.26670","Longitude":"-71.30000","Snowdepth":"8.000","Units":"in","Rept_Date":"2019-11-25 05"},"coordinates":[7059,5358]},{"type":"Point","properties":{"Station_ID":"MMNV1","Station_Nam":"MT. MANSFIELD","Latitude":"44.52480","Longitude":"-72.81540","Snowdepth":"8.000","Units":"in","Rept_Date":"2019-11-24 21"},"coordinates":[6646,5518]},{"type":"Point","properties":{"Station_ID":"LEIM5","Station_Nam":"ORR 3E","Latitude":"48.05810","Longitude":"-92.75220","Snowdepth":"8.000","Units":"in","Rept_Date":"2019-11-24 12"},"coordinates":[1221,7716]},{"type":"Point","properties":{"Station_ID":"KMWN","Station_Nam":"MOUNT WASHINGTON","Latitude":"44.26666","Longitude":"-71.30000","Snowdepth":"8.000","Units":"in","Rept_Date":"2019-11-25 06"},"coordinates":[7059,5358]},{"type":"Point","properties":{"Station_ID":"IWOM4","Station_Nam":"IRONWOOD#2","Latitude":"46.46520","Longitude":"-90.13820","Snowdepth":"8.000","Units":"in","Rept_Date":"2019-11-24 13"},"coordinates":[1932,6725]},{"type":"Point","properties":{"Station_ID":"ELYM5","Station_Nam":"ELY","Latitude":"47.90560","Longitude":"-91.82830","Snowdepth":"8.000","Units":"in","Rept_Date":"2019-11-24 14"},"coordinates":[1472,7622]},{"type":"Point","properties":{"Station_ID":"BNDM5","Station_Nam":"ELY 25E","Latitude":"47.97190","Longitude":"-91.44860","Snowdepth":"8.000","Units":"in","Rept_Date":"2019-11-24 13"},"coordinates":[1576,7663]},{"type":"Point","properties":{"Station_ID":"TRIQ6","Station_Nam":"TRIO LAKE","Latitude":"49.22880","Longitude":"-87.22920","Snowdepth":"7.680","Units":"in","Rept_Date":"2019-11-25 06"},"coordinates":[2724,8445]},{"type":"Point","properties":{"Station_ID":"TOGM5","Station_Nam":"CELINA 2E","Latitude":"47.86630","Longitude":"-93.02660","Snowdepth":"7.000","Units":"in","Rept_Date":"2019-11-24 15"},"coordinates":[1146,7597]},{"type":"Point","properties":{"Station_ID":"CAN-NB-13","Station_Nam":"BATHURST 3.8 NW, CAN","Latitude":"47.64212","Longitude":"-65.68756","Snowdepth":"7.000","Units":"in","Rept_Date":"2019-11-24 11"},"coordinates":[8586,7458]},{"type":"Point","properties":{"Station_ID":"SVBQ6","Station_Nam":"SAVANT BASE","Latitude":"50.28730","Longitude":"-90.65670","Snowdepth":"6.610","Units":"in","Rept_Date":"2019-11-25 06"},"coordinates":[1791,9103]},{"type":"Point","properties":{"Station_ID":"QNCM4","Station_Nam":"QUINCY HILL","Latitude":"47.13640","Longitude":"-88.57950","Snowdepth":"6.000","Units":"in","Rept_Date":"2019-11-24 12"},"coordinates":[2356,7143]},{"type":"Point","properties":{"Station_ID":"NY-FK-7","Station_Nam":"SARANAC LAKE 6.2 N, NY","Latitude":"44.41359","Longitude":"-74.15211","Snowdepth":"6.000","Units":"in","Rept_Date":"2019-11-24 12"},"coordinates":[6282,5449]},{"type":"Point","properties":{"Station_ID":"ME-AR-15","Station_Nam":"PRESQUE ISLE 1.3 WSW, ME","Latitude":"46.67960","Longitude":"-68.01270","Snowdepth":"6.000","Units":"in","Rept_Date":"2019-11-24 12"},"coordinates":[7953,6859]},{"type":"Point","properties":{"Station_ID":"HURW3","Station_Nam":"HURLEY","Latitude":"46.46250","Longitude":"-90.19550","Snowdepth":"6.000","Units":"in","Rept_Date":"2019-11-24 14"},"coordinates":[1917,6724]},{"type":"Point","properties":{"Station_ID":"FISM1","Station_Nam":"FORT KENT COOP","Latitude":"47.23850","Longitude":"-68.61240","Snowdepth":"6.000","Units":"in","Rept_Date":"2019-11-24 12"},"coordinates":[7790,7207]},{"type":"Point","properties":{"Station_ID":"COKM5","Station_Nam":"COOK","Latitude":"47.85060","Longitude":"-92.69250","Snowdepth":"6.000","Units":"in","Rept_Date":"2019-11-24 12"},"coordinates":[1237,7587]},{"type":"Point","properties":{"Station_ID":"AVLV1","Station_Nam":"AVERILL","Latitude":"45.00570","Longitude":"-71.69030","Snowdepth":"6.000","Units":"in","Rept_Date":"2019-11-24 13"},"coordinates":[6952,5817]},{"type":"Point","properties":{"Station_ID":"CATQ6","Station_Nam":"CAT LAKE","Latitude":"51.72690","Longitude":"-91.82210","Snowdepth":"5.750","Units":"in","Rept_Date":"2019-11-25 06"},"coordinates":[1474,9999]},{"type":"Point","properties":{"Station_ID":"SOCQ6","Station_Nam":"SOCKET LAKE","Latitude":"50.77870","Longitude":"-91.79300","Snowdepth":"5.390","Units":"in","Rept_Date":"2019-11-25 06"},"coordinates":[1482,9409]},{"type":"Point","properties":{"Station_ID":"MI-BG-3","Station_Nam":"L'ANSE 17.8 SE, MI","Latitude":"46.55730","Longitude":"-88.20770","Snowdepth":"5.200","Units":"in","Rept_Date":"2019-11-24 13"},"coordinates":[2458,6783]},{"type":"Point","properties":{"Station_ID":"WLFM5","Station_Nam":"WOLF RIDGE ENVIRON LEARNING CENTER","Latitude":"47.38240","Longitude":"-91.19730","Snowdepth":"5.000","Units":"in","Rept_Date":"2019-11-24 13"},"coordinates":[1644,7296]},{"type":"Point","properties":{"Station_ID":"WI-IR-3","Station_Nam":"PENCE 0.1 E, WI","Latitude":"46.41555","Longitude":"-90.27013","Snowdepth":"5.000","Units":"in","Rept_Date":"2019-11-24 13"},"coordinates":[1896,6695]},{"type":"Point","properties":{"Station_ID":"VT-CL-3","Station_Nam":"GROTON 4.4 WSW, VT","Latitude":"44.19440","Longitude":"-72.28240","Snowdepth":"5.000","Units":"in","Rept_Date":"2019-11-24 11"},"coordinates":[6791,5313]},{"type":"Point","properties":{"Station_ID":"SUAW3","Station_Nam":"SUAMICO","Latitude":"44.60190","Longitude":"-88.09780","Snowdepth":"5.000","Units":"in","Rept_Date":"2019-11-24 12"},"coordinates":[2487,5566]},{"type":"Point","properties":{"Station_ID":"IRMM4","Station_Nam":"WWTP","Latitude":"46.46670","Longitude":"-90.18330","Snowdepth":"5.000","Units":"in","Rept_Date":"2019-11-24 13"},"coordinates":[1920,6726]},{"type":"Point","properties":{"Station_ID":"HERM4","Station_Nam":"HERMAN,MI","Latitude":"46.65000","Longitude":"-88.33330","Snowdepth":"5.000","Units":"in","Rept_Date":"2019-11-24 13"},"coordinates":[2423,6840]},{"type":"Point","properties":{"Station_ID":"BABM5","Station_Nam":"BABBITT","Latitude":"47.71210","Longitude":"-91.95330","Snowdepth":"5.000","Units":"in","Rept_Date":"2019-11-24 13"},"coordinates":[1438,7501]},{"type":"Point","properties":{"Station_ID":"CAN-NS-61","Station_Nam":"ASPY  BAY 0.9 SW, CA","Latitude":"46.91621","Longitude":"-60.49460","Snowdepth":"4.500","Units":"in","Rept_Date":"2019-11-24 11"},"coordinates":[9999,7006]},{"type":"Point","properties":{"Station_ID":"CAN-NB-11","Station_Nam":"MIRAMICHI 3.3 S, CAN","Latitude":"46.99343","Longitude":"-65.50690","Snowdepth":"4.500","Units":"in","Rept_Date":"2019-11-24 13"},"coordinates":[8635,7054]},{"type":"Point","properties":{"Station_ID":"CAN-QC-47","Station_Nam":"SAINTE-FOY 1.8 ENE, CAN","Latitude":"46.76934","Longitude":"-71.27124","Snowdepth":"4.200","Units":"in","Rept_Date":"2019-11-24 12"},"coordinates":[7066,6915]},{"type":"Point","properties":{"Station_ID":"CAN-ON-621","Station_Nam":"THUNDER BAY 4.2 WSW - MNRF, CAN","Latitude":"48.39163","Longitude":"-89.29107","Snowdepth":"4.100","Units":"in","Rept_Date":"2019-11-24 12"},"coordinates":[2163,7924]},{"type":"Point","properties":{"Station_ID":"WTRM4","Station_Nam":"WATERSMEET 12WSW","Latitude":"46.22310","Longitude":"-89.40850","Snowdepth":"4.000","Units":"in","Rept_Date":"2019-11-24 12"},"coordinates":[2131,6575]},{"type":"Point","properties":{"Station_ID":"WRPW3","Station_Nam":"WATER PURIFICATION PLANT","Latitude":"44.38800","Longitude":"-89.80550","Snowdepth":"4.000","Units":"in","Rept_Date":"2019-11-24 12"},"coordinates":[2023,5433]},{"type":"Point","properties":{"Station_ID":"WI-VL-9","Station_Nam":"LAND O' LAKES 11.7 W, WI","Latitude":"46.19023","Longitude":"-89.45790","Snowdepth":"4.000","Units":"in","Rept_Date":"2019-11-24 13"},"coordinates":[2117,6554]},{"type":"Point","properties":{"Station_ID":"WI-VL-10","Station_Nam":"LAND O LAKES 4.3 WNW, WI","Latitude":"46.17440","Longitude":"-89.30380","Snowdepth":"4.000","Units":"in","Rept_Date":"2019-11-24 13"},"coordinates":[2159,6545]},{"type":"Point","properties":{"Station_ID":"SJBV1","Station_Nam":"SAINT JOHNSBURY","Latitude":"44.42000","Longitude":"-72.01940","Snowdepth":"4.000","Units":"in","Rept_Date":"2019-11-24 21"},"coordinates":[6863,5453]},{"type":"Point","properties":{"Station_ID":"PDGM4","Station_Nam":"PAULDING","Latitude":"46.39760","Longitude":"-89.17940","Snowdepth":"4.000","Units":"in","Rept_Date":"2019-11-24 13"},"coordinates":[2193,6683]},{"type":"Point","properties":{"Station_ID":"PBAN8","Station_Nam":"SITE 1-3MI.N","Latitude":"48.97420","Longitude":"-97.23860","Snowdepth":"4.000","Units":"in","Rept_Date":"2019-11-24 13"},"coordinates":[0,8286]},{"type":"Point","properties":{"Station_ID":"NOHM5","Station_Nam":"NORTHOME","Latitude":"47.83590","Longitude":"-94.25550","Snowdepth":"4.000","Units":"in","Rept_Date":"2019-11-24 13"},"coordinates":[812,7578]},{"type":"Point","properties":{"Station_ID":"MNSM4","Station_Nam":"MUNISING","Latitude":"46.41210","Longitude":"-86.66250","Snowdepth":"4.000","Units":"in","Rept_Date":"2019-11-24 11"},"coordinates":[2878,6692]},{"type":"Point","properties":{"Station_ID":"MN-SL-15","Station_Nam":"CHISHOLM 0.4 WSW, MN","Latitude":"47.48557","Longitude":"-92.88690","Snowdepth":"4.000","Units":"in","Rept_Date":"2019-11-24 13"},"coordinates":[1184,7360]},{"type":"Point","properties":{"Station_ID":"LPLN6","Station_Nam":"LAKE PLACID 2 S","Latitude":"44.30420","Longitude":"-73.98390","Snowdepth":"4.000","Units":"in","Rept_Date":"2019-11-24 13"},"coordinates":[6328,5381]},{"type":"Point","properties":{"Station_ID":"LNOW3","Station_Nam":"LAND O LAKES","Latitude":"46.19000","Longitude":"-89.45700","Snowdepth":"4.000","Units":"in","Rept_Date":"2019-11-24 13"},"coordinates":[2118,6554]},{"type":"Point","properties":{"Station_ID":"JEFV1","Station_Nam":"JEFFERSONVILLE","Latitude":"44.58430","Longitude":"-72.78700","Snowdepth":"4.000","Units":"in","Rept_Date":"2019-11-24 12"},"coordinates":[6654,5555]},{"type":"Point","properties":{"Station_ID":"EMBM5","Station_Nam":"EMBARASS,MN","Latitude":"47.65810","Longitude":"-92.19580","Snowdepth":"4.000","Units":"in","Rept_Date":"2019-11-24 14"},"coordinates":[1372,7468]},{"type":"Point","properties":{"Station_ID":"COVM4","Station_Nam":"COVINGTON","Latitude":"46.55880","Longitude":"-88.54190","Snowdepth":"4.000","Units":"in","Rept_Date":"2019-11-24 13"},"coordinates":[2367,6784]},{"type":"Point","properties":{"Station_ID":"CAN-NB-2","Station_Nam":"GRAFTON 2.7 NNE, CA","Latitude":"46.17062","Longitude":"-67.55330","Snowdepth":"4.000","Units":"in","Rept_Date":"2019-11-24 11"},"coordinates":[8078,6542]},{"type":"Point","properties":{"Station_ID":"BRDM1","Station_Nam":"BRIDGEWATER","Latitude":"46.42870","Longitude":"-67.84370","Snowdepth":"4.000","Units":"in","Rept_Date":"2019-11-24 23"},"coordinates":[7999,6703]},{"type":"Point","properties":{"Station_ID":"ANDM1","Station_Nam":"ANDOVER 2","Latitude":"44.65300","Longitude":"-70.79410","Snowdepth":"4.000","Units":"in","Rept_Date":"2019-11-24 12"},"coordinates":[7196,5598]},{"type":"Point","properties":{"Station_ID":"VT-WS-7","Station_Nam":"MIDDLESEX 3.1 ENE, VT","Latitude":"44.31799","Longitude":"-72.62650","Snowdepth":"3.500","Units":"in","Rept_Date":"2019-11-24 14"},"coordinates":[6698,5390]},{"type":"Point","properties":{"Station_ID":"VT-OL-9","Station_Nam":"GREENSBORO 2.1 NNW, VT","Latitude":"44.60528","Longitude":"-72.30940","Snowdepth":"3.500","Units":"in","Rept_Date":"2019-11-24 12"},"coordinates":[6784,5568]},{"type":"Point","properties":{"Station_ID":"NY-SR-22","Station_Nam":"GREENFIELD CENTER 1.6 W, NY","Latitude":"43.12684","Longitude":"-73.87860","Snowdepth":"3.500","Units":"in","Rept_Date":"2019-11-24 14"},"coordinates":[6357,4649]},{"type":"Point","properties":{"Station_ID":"NY-FK-9","Station_Nam":"GABRIELS 1.3 SE, NY","Latitude":"44.41934","Longitude":"-74.16194","Snowdepth":"3.500","Units":"in","Rept_Date":"2019-11-24 12"},"coordinates":[6280,5453]},{"type":"Point","properties":{"Station_ID":"CAN-QC-51","Station_Nam":"BELOEIL 0.7 NW, CAN","Latitude":"45.58049","Longitude":"-73.21218","Snowdepth":"3.100","Units":"in","Rept_Date":"2019-11-24 12"},"coordinates":[6538,6175]},{"type":"Point","properties":{"Station_ID":"WTNM4","Station_Nam":"WATTON 2WSW","Latitude":"46.52660","Longitude":"-88.64240","Snowdepth":"3.000","Units":"in","Rept_Date":"2019-11-24 13"},"coordinates":[2339,6764]},{"type":"Point","properties":{"Station_ID":"VT-WS-30","Station_Nam":"WOODBURY 3.4 NNW, VT","Latitude":"44.48825","Longitude":"-72.43258","Snowdepth":"3.000","Units":"in","Rept_Date":"2019-11-24 12"},"coordinates":[6750,5496]},{"type":"Point","properties":{"Station_ID":"VT-OL-2","Station_Nam":"BARTON 3.0 ENE, VT","Latitude":"44.75863","Longitude":"-72.11680","Snowdepth":"3.000","Units":"in","Rept_Date":"2019-11-24 12"},"coordinates":[6836,5664]},{"type":"Point","properties":{"Station_ID":"VT-OL-1","Station_Nam":"WESTFIELD 0.7 WNW, VT","Latitude":"44.89160","Longitude":"-72.44350","Snowdepth":"3.000","Units":"in","Rept_Date":"2019-11-24 12"},"coordinates":[6747,5746]},{"type":"Point","properties":{"Station_ID":"SUTV1","Station_Nam":"SUTTON","Latitude":"44.61220","Longitude":"-72.04810","Snowdepth":"3.000","Units":"in","Rept_Date":"2019-11-24 12"},"coordinates":[6855,5573]},{"type":"Point","properties":{"Station_ID":"SUNP1","Station_Nam":"SUNBURY","Latitude":"40.85440","Longitude":"-76.79250","Snowdepth":"3.000","Units":"in","Rept_Date":"2019-11-24 15"},"coordinates":[5564,3235]},{"type":"Point","properties":{"Station_ID":"RLKW3","Station_Nam":"REST LAKE","Latitude":"46.12220","Longitude":"-89.87720","Snowdepth":"3.000","Units":"in","Rept_Date":"2019-11-24 14"},"coordinates":[2003,6512]},{"type":"Point","properties":{"Station_ID":"NY-OT-11","Station_Nam":"HARTWICK, NY","Latitude":"42.65990","Longitude":"-75.05000","Snowdepth":"3.000","Units":"in","Rept_Date":"2019-11-24 16"},"coordinates":[6038,4358]},{"type":"Point","properties":{"Station_ID":"NY-HR-18","Station_Nam":"SALISBURY CENTER 1.8 NW, NY","Latitude":"43.16260","Longitude":"-74.80880","Snowdepth":"3.000","Units":"in","Rept_Date":"2019-11-24 12"},"coordinates":[6104,4671]},{"type":"Point","properties":{"Station_ID":"NY-ES-7","Station_Nam":"KEESEVILLE 0.8 SE, NY","Latitude":"44.49504","Longitude":"-73.47109","Snowdepth":"3.000","Units":"in","Rept_Date":"2019-11-24 12"},"coordinates":[6468,5500]},{"type":"Point","properties":{"Station_ID":"MNV905PW","Station_Nam":"ROOSEVELT 5.3 N","Latitude":"48.87933","Longitude":"-95.08224","Snowdepth":"3.000","Units":"in","Rept_Date":"2019-11-24 13"},"coordinates":[587,8227]},{"type":"Point","properties":{"Station_ID":"MN-SL-108","Station_Nam":"IRON JUNCTION 3.4 NNW, MN","Latitude":"47.46150","Longitude":"-92.63130","Snowdepth":"3.000","Units":"in","Rept_Date":"2019-11-24 13"},"coordinates":[1254,7345]},{"type":"Point","properties":{"Station_ID":"LVDW3","Station_Nam":"LAC VIEUX DESERT","Latitude":"46.12110","Longitude":"-89.07580","Snowdepth":"3.000","Units":"in","Rept_Date":"2019-11-24 16"},"coordinates":[2221,6511]},{"type":"Point","properties":{"Station_ID":"LBRM5","Station_Nam":"LAKE BRONSON DAM","Latitude":"48.72410","Longitude":"-96.62180","Snowdepth":"3.000","Units":"in","Rept_Date":"2019-11-24 14"},"coordinates":[168,8131]},{"type":"Point","properties":{"Station_ID":"LBKV1","Station_Nam":"LYE BROOK","Latitude":"43.05000","Longitude":"-73.03330","Snowdepth":"3.000","Units":"in","Rept_Date":"2019-11-25 06"},"coordinates":[6587,4601]},{"type":"Point","properties":{"Station_ID":"KFWA","Station_Nam":"FORT WAYNE INTERNATIONAL","Latitude":"41.00000","Longitude":"-85.20000","Snowdepth":"3.000","Units":"in","Rept_Date":"2019-11-24 12"},"coordinates":[3276,3325]},{"type":"Point","properties":{"Station_ID":"JOHV1","Station_Nam":"JOHNSON 2 N","Latitude":"44.65790","Longitude":"-72.67850","Snowdepth":"3.000","Units":"in","Rept_Date":"2019-11-24 12"},"coordinates":[6683,5601]},{"type":"Point","properties":{"Station_ID":"INL","Station_Nam":"FALLS INTERNATIONAL ARPT","Latitude":"48.56640","Longitude":"-93.40310","Snowdepth":"3.000","Units":"in","Rept_Date":"2019-11-25 00"},"coordinates":[1044,8033]},{"type":"Point","properties":{"Station_ID":"IN-WL-11","Station_Nam":"BLUFFTON 0.9 SE, IN","Latitude":"40.73015","Longitude":"-85.16070","Snowdepth":"3.000","Units":"in","Rept_Date":"2019-11-24 12"},"coordinates":[3287,3157]},{"type":"Point","properties":{"Station_ID":"IN-AL-7","Station_Nam":"FORT WAYNE 9.1 SE, IN","Latitude":"40.99154","Longitude":"-85.00290","Snowdepth":"3.000","Units":"in","Rept_Date":"2019-11-24 12"},"coordinates":[3330,3320]},{"type":"Point","properties":{"Station_ID":"IFSM5","Station_Nam":"INTERNATIONAL FALLS SNOW","Latitude":"48.57780","Longitude":"-93.39640","Snowdepth":"3.000","Units":"in","Rept_Date":"2019-11-24 12"},"coordinates":[1046,8040]},{"type":"Point","properties":{"Station_ID":"GILV1","Station_Nam":"GILMAN","Latitude":"44.41120","Longitude":"-71.71860","Snowdepth":"3.000","Units":"in","Rept_Date":"2019-11-24 11"},"coordinates":[6945,5448]},{"type":"Point","properties":{"Station_ID":"KABQ6","Station_Nam":"CAB LAKE","Latitude":"49.59950","Longitude":"-89.17990","Snowdepth":"2.950","Units":"in","Rept_Date":"2019-11-25 06"},"coordinates":[2193,8675]},{"type":"Point","properties":{"Station_ID":"VT-OL-5","Station_Nam":"DERBY CENTER 1.8 NW, VT","Latitude":"44.97200","Longitude":"-72.14780","Snowdepth":"2.500","Units":"in","Rept_Date":"2019-11-24 12"},"coordinates":[6828,5796]},{"type":"Point","properties":{"Station_ID":"VT-CL-14","Station_Nam":"LYNDONVILLE 1.1 W, VT","Latitude":"44.53582","Longitude":"-72.02867","Snowdepth":"2.500","Units":"in","Rept_Date":"2019-11-24 12"},"coordinates":[6860,5525]},{"type":"Point","properties":{"Station_ID":"VT-AD-24","Station_Nam":"MIDDLEBURY 0.3 N, VT","Latitude":"44.01808","Longitude":"-73.16844","Snowdepth":"2.500","Units":"in","Rept_Date":"2019-11-24 09"},"coordinates":[6550,5203]},{"type":"Point","properties":{"Station_ID":"NH-GR-47","Station_Nam":"LITTLETON 7.3 W, NH","Latitude":"44.31847","Longitude":"-71.91086","Snowdepth":"2.500","Units":"in","Rept_Date":"2019-11-24 13"},"coordinates":[6892,5390]},{"type":"Point","properties":{"Station_ID":"MI-AT-6","Station_Nam":"MANCELONA 0.5 ESE, MI","Latitude":"44.89981","Longitude":"-85.05100","Snowdepth":"2.500","Units":"in","Rept_Date":"2019-11-24 13"},"coordinates":[3317,5752]},{"type":"Point","properties":{"Station_ID":"CAN-MB-63","Station_Nam":"STEINBACH 0.8 SSE, CA","Latitude":"49.51964","Longitude":"-96.67940","Snowdepth":"2.500","Units":"in","Rept_Date":"2019-11-24 14"},"coordinates":[152,8626]},{"type":"Point","properties":{"Station_ID":"CAN-NB-97","Station_Nam":"NEW MARYLAND 0.6 NW, CAN","Latitude":"45.90112","Longitude":"-66.68739","Snowdepth":"2.400","Units":"in","Rept_Date":"2019-11-24 11"},"coordinates":[8314,6375]},{"type":"Point","properties":{"Station_ID":"VT-WH-29","Station_Nam":"BRATTLEBORO 0.7 S, VT","Latitude":"42.84030","Longitude":"-72.55580","Snowdepth":"2.200","Units":"in","Rept_Date":"2019-11-24 12"},"coordinates":[6717,4470]},{"type":"Point","properties":{"Station_ID":"WRUM5","Station_Nam":"WARROAD 4W","Latitude":"48.89600","Longitude":"-95.40700","Snowdepth":"2.000","Units":"in","Rept_Date":"2019-11-25 04"},"coordinates":[498,8238]},{"type":"Point","properties":{"Station_ID":"WNDP1","Station_Nam":"WINDBER COUNTY CLUB","Latitude":"40.28780","Longitude":"-78.77530","Snowdepth":"2.000","Units":"in","Rept_Date":"2019-11-24 12"},"coordinates":[5024,2882]},{"type":"Point","properties":{"Station_ID":"WI-BY-2","Station_Nam":"MELLEN 18.6 SW, WI","Latitude":"46.16937","Longitude":"-90.98090","Snowdepth":"2.000","Units":"in","Rept_Date":"2019-11-24 13"},"coordinates":[1703,6541]},{"type":"Point","properties":{"Station_ID":"WDBI3","Station_Nam":"WOODBURN 3N","Latitude":"41.16450","Longitude":"-84.84820","Snowdepth":"2.000","Units":"in","Rept_Date":"2019-11-24 12"},"coordinates":[3372,3428]},{"type":"Point","properties":{"Station_ID":"VT-WS-19","Station_Nam":"WATERBURY 3.0 NW, VT","Latitude":"44.36060","Longitude":"-72.80770","Snowdepth":"2.000","Units":"in","Rept_Date":"2019-11-24 11"},"coordinates":[6648,5416]},{"type":"Point","properties":{"Station_ID":"VT-WS-15","Station_Nam":"EAST CALAIS 1.5 SW, VT","Latitude":"44.35523","Longitude":"-72.45540","Snowdepth":"2.000","Units":"in","Rept_Date":"2019-11-24 12"},"coordinates":[6744,5413]},{"type":"Point","properties":{"Station_ID":"VT-WH-9","Station_Nam":"WEST HALIFAX 0.2 SE, VT","Latitude":"42.78561","Longitude":"-72.76950","Snowdepth":"2.000","Units":"in","Rept_Date":"2019-11-24 13"},"coordinates":[6659,4436]},{"type":"Point","properties":{"Station_ID":"VT-OG-11","Station_Nam":"VERSHIRE 1.5 ESE, VT","Latitude":"43.96138","Longitude":"-72.29777","Snowdepth":"2.000","Units":"in","Rept_Date":"2019-11-24 13"},"coordinates":[6787,5168]},{"type":"Point","properties":{"Station_ID":"VT-CL-18","Station_Nam":"WHEELOCK 1.6 S, VT","Latitude":"44.56491","Longitude":"-72.08830","Snowdepth":"2.000","Units":"in","Rept_Date":"2019-11-24 12"},"coordinates":[6844,5543]},{"type":"Point","properties":{"Station_ID":"VT-CH-4","Station_Nam":"UNDERHILL 4.4 NNE, VT","Latitude":"44.58774","Longitude":"-72.92250","Snowdepth":"2.000","Units":"in","Rept_Date":"2019-11-24 12"},"coordinates":[6617,5557]},{"type":"Point","properties":{"Station_ID":"STCP1","Station_Nam":"STATE COLLEGE,PA","Latitude":"40.80000","Longitude":"-77.86670","Snowdepth":"2.000","Units":"in","Rept_Date":"2019-11-24 12"},"coordinates":[5272,3201]},{"type":"Point","properties":{"Station_ID":"SLNV1","Station_Nam":"SOUTH LINCOLN","Latitude":"44.07460","Longitude":"-72.97180","Snowdepth":"2.000","Units":"in","Rept_Date":"2019-11-24 12"},"coordinates":[6604,5238]},{"type":"Point","properties":{"Station_ID":"ROWM3","Station_Nam":"ROWE 3NE","Latitude":"42.73500","Longitude":"-72.86920","Snowdepth":"2.000","Units":"in","Rept_Date":"2019-11-24 12"},"coordinates":[6632,4405]},{"type":"Point","properties":{"Station_ID":"RGNM1","Station_Nam":"RANGELEY 2NW","Latitude":"44.98940","Longitude":"-70.67220","Snowdepth":"2.000","Units":"in","Rept_Date":"2019-11-24 13"},"coordinates":[7229,5807]},{"type":"Point","properties":{"Station_ID":"RANM1","Station_Nam":"RANGELEY,ME","Latitude":"44.96670","Longitude":"-70.65000","Snowdepth":"2.000","Units":"in","Rept_Date":"2019-11-24 12"},"coordinates":[7235,5793]},{"type":"Point","properties":{"Station_ID":"PTBN3","Station_Nam":"DAM WITHIN","Latitude":"45.05000","Longitude":"-71.38330","Snowdepth":"2.000","Units":"in","Rept_Date":"2019-11-24 12"},"coordinates":[7036,5845]},{"type":"Point","properties":{"Station_ID":"PHEW3","Station_Nam":"PHELPS","Latitude":"46.06630","Longitude":"-89.07520","Snowdepth":"2.000","Units":"in","Rept_Date":"2019-11-24 13"},"coordinates":[2221,6477]},{"type":"Point","properties":{"Station_ID":"PEKN6","Station_Nam":"PECK LAKE","Latitude":"43.11500","Longitude":"-74.42360","Snowdepth":"2.000","Units":"in","Rept_Date":"2019-11-24 13"},"coordinates":[6209,4641]},{"type":"Point","properties":{"Station_ID":"PA-CN-3","Station_Nam":"STATE COLLEGE 2.4 ENE, PA","Latitude":"40.80670","Longitude":"-77.81670","Snowdepth":"2.000","Units":"in","Rept_Date":"2019-11-24 14"},"coordinates":[5285,3205]},{"type":"Point","properties":{"Station_ID":"NY-HM-1","Station_Nam":"SPECULATOR 10.0 SSW, NY","Latitude":"43.45133","Longitude":"-74.47120","Snowdepth":"2.000","Units":"in","Rept_Date":"2019-11-24 12"},"coordinates":[6196,4850]},{"type":"Point","properties":{"Station_ID":"NY-CN-9","Station_Nam":"NORWICH 5.4 W, NY","Latitude":"42.53356","Longitude":"-75.63060","Snowdepth":"2.000","Units":"in","Rept_Date":"2019-11-24 12"},"coordinates":[5880,4279]},{"type":"Point","properties":{"Station_ID":"NUNV1","Station_Nam":"NORTH UNDERHILL","Latitude":"44.58760","Longitude":"-72.92150","Snowdepth":"2.000","Units":"in","Rept_Date":"2019-11-24 12"},"coordinates":[6617,5557]},{"type":"Point","properties":{"Station_ID":"NUMN3","Station_Nam":"NORTHUMBERLAND","Latitude":"44.52830","Longitude":"-71.50440","Snowdepth":"2.000","Units":"in","Rept_Date":"2019-11-24 13"},"coordinates":[7003,5520]},{"type":"Point","properties":{"Station_ID":"NPTV1","Station_Nam":"NEWPORT","Latitude":"44.94900","Longitude":"-72.19120","Snowdepth":"2.000","Units":"in","Rept_Date":"2019-11-24 12"},"coordinates":[6816,5782]},{"type":"Point","properties":{"Station_ID":"NH-CS-10","Station_Nam":"RANDOLPH 1.4 NE, NH","Latitude":"44.38824","Longitude":"-71.26950","Snowdepth":"2.000","Units":"in","Rept_Date":"2019-11-24 12"},"coordinates":[7067,5433]},{"type":"Point","properties":{"Station_ID":"NCKN6","Station_Nam":"NORTH CREEK 5 SE","Latitude":"43.66110","Longitude":"-73.89690","Snowdepth":"2.000","Units":"in","Rept_Date":"2019-11-24 12"},"coordinates":[6352,4981]},{"type":"Point","properties":{"Station_ID":"MTLT1","Station_Nam":"GATLINBURG,TN","Latitude":"35.65500","Longitude":"-83.44110","Snowdepth":"2.000","Units":"in","Rept_Date":"2019-11-24 13"},"coordinates":[3755,0]},{"type":"Point","properties":{"Station_ID":"MN-IT-23","Station_Nam":"BOVEY 13.4 N, MN","Latitude":"47.48855","Longitude":"-93.43497","Snowdepth":"2.000","Units":"in","Rept_Date":"2019-11-24 13"},"coordinates":[1035,7362]},{"type":"Point","properties":{"Station_ID":"MN-CK-6","Station_Nam":"GRAND MARAIS 4.4 W, MN","Latitude":"47.74865","Longitude":"-90.43760","Snowdepth":"2.000","Units":"in","Rept_Date":"2019-11-24 13"},"coordinates":[1851,7524]},{"type":"Point","properties":{"Station_ID":"MN-CK-3","Station_Nam":"TOFTE 4.9 NE, MN","Latitude":"47.62394","Longitude":"-90.76100","Snowdepth":"2.000","Units":"in","Rept_Date":"2019-11-24 13"},"coordinates":[1763,7446]},{"type":"Point","properties":{"Station_ID":"MN-BM-15","Station_Nam":"BEMIDJI 7.8 ENE, MN","Latitude":"47.52043","Longitude":"-94.72121","Snowdepth":"2.000","Units":"in","Rept_Date":"2019-11-24 13"},"coordinates":[685,7382]},{"type":"Point","properties":{"Station_ID":"MI-HG-1","Station_Nam":"HOUGHTON 1.6 ESE, MI","Latitude":"47.10774","Longitude":"-88.52940","Snowdepth":"2.000","Units":"in","Rept_Date":"2019-11-24 13"},"coordinates":[2370,7125]},{"type":"Point","properties":{"Station_ID":"KEEN3","Station_Nam":"KEENE","Latitude":"42.93900","Longitude":"-72.32470","Snowdepth":"2.000","Units":"in","Rept_Date":"2019-11-24 11"},"coordinates":[6780,4532]},{"type":"Point","properties":{"Station_ID":"JKMM1","Station_Nam":"JACKMAN","Latitude":"45.62600","Longitude":"-70.24600","Snowdepth":"2.000","Units":"in","Rept_Date":"2019-11-24 12"},"coordinates":[7345,6203]},{"type":"Point","properties":{"Station_ID":"JEFN3","Station_Nam":"JEFFERSON","Latitude":"44.41690","Longitude":"-71.50080","Snowdepth":"2.000","Units":"in","Rept_Date":"2019-11-24 12"},"coordinates":[7004,5451]},{"type":"Point","properties":{"Station_ID":"ISLV1","Station_Nam":"ISLAND POND","Latitude":"44.81280","Longitude":"-71.89020","Snowdepth":"2.000","Units":"in","Rept_Date":"2019-11-24 19"},"coordinates":[6898,5697]},{"type":"Point","properties":{"Station_ID":"IPT","Station_Nam":"WILLIAMSPORT RGNL","Latitude":"41.24190","Longitude":"-76.92110","Snowdepth":"2.000","Units":"in","Rept_Date":"2019-11-24 12"},"coordinates":[5529,3476]},{"type":"Point","properties":{"Station_ID":"INDN6","Station_Nam":"INDIAN LAKE","Latitude":"43.75500","Longitude":"-74.27560","Snowdepth":"2.000","Units":"in","Rept_Date":"2019-11-24 15"},"coordinates":[6249,5039]},{"type":"Point","properties":{"Station_ID":"IN-WL-14","Station_Nam":"OSSIAN 2.4 W, IN","Latitude":"40.87371","Longitude":"-85.21480","Snowdepth":"2.000","Units":"in","Rept_Date":"2019-11-24 13"},"coordinates":[3272,3247]},{"type":"Point","properties":{"Station_ID":"HRRI3","Station_Nam":"HARTFORD CITY 4ESE","Latitude":"40.43550","Longitude":"-85.28910","Snowdepth":"2.000","Units":"in","Rept_Date":"2019-11-24 13"},"coordinates":[3252,2974]},{"type":"Point","properties":{"Station_ID":"GHMN3","Station_Nam":"PINKHAM NOTCH","Latitude":"44.25800","Longitude":"-71.25250","Snowdepth":"2.000","Units":"in","Rept_Date":"2019-11-24 11"},"coordinates":[7072,5352]},{"type":"Point","properties":{"Station_ID":"GFDN6","Station_Nam":"CHASE LAKE","Latitude":"43.75920","Longitude":"-75.29980","Snowdepth":"2.000","Units":"in","Rept_Date":"2019-11-24 11"},"coordinates":[5970,5042]},{"type":"Point","properties":{"Station_ID":"DCRI3","Station_Nam":"DECATUR 1N","Latitude":"40.84830","Longitude":"-84.92990","Snowdepth":"2.000","Units":"in","Rept_Date":"2019-11-24 12"},"coordinates":[3350,3231]},{"type":"Point","properties":{"Station_ID":"CORV1","Station_Nam":"CORINTH","Latitude":"44.00690","Longitude":"-72.31940","Snowdepth":"2.000","Units":"in","Rept_Date":"2019-11-24 12"},"coordinates":[6781,5196]},{"type":"Point","properties":{"Station_ID":"COPN6","Station_Nam":"COOPERSTOWN","Latitude":"42.71660","Longitude":"-74.92660","Snowdepth":"2.000","Units":"in","Rept_Date":"2019-11-25 05"},"coordinates":[6072,4393]},{"type":"Point","properties":{"Station_ID":"CMKW3","Station_Nam":"CLAM LAKE 4W","Latitude":"46.16940","Longitude":"-90.98080","Snowdepth":"2.000","Units":"in","Rept_Date":"2019-11-24 13"},"coordinates":[1703,6541]},{"type":"Point","properties":{"Station_ID":"CLKM4","Station_Nam":"CLARKSBURG","Latitude":"46.49910","Longitude":"-87.84500","Snowdepth":"2.000","Units":"in","Rept_Date":"2019-11-24 12"},"coordinates":[2556,6747]},{"type":"Point","properties":{"Station_ID":"BGMN6","Station_Nam":"BINGHAMTON WFO","Latitude":"42.21160","Longitude":"-75.98580","Snowdepth":"2.000","Units":"in","Rept_Date":"2019-11-25 05"},"coordinates":[5783,4079]},{"type":"Point","properties":{"Station_ID":"38.9251_079.8536","Station_Nam":"ELKINS (X3890799)","Latitude":"38.92510","Longitude":"-79.85360","Snowdepth":"2.000","Units":"in","Rept_Date":"2019-11-24 14"},"coordinates":[4731,2034]},{"type":"Point","properties":{"Station_ID":"MA-FR-31","Station_Nam":"COLRAIN 3.7 WNW, MA","Latitude":"42.68716","Longitude":"-72.75112","Snowdepth":"1.800","Units":"in","Rept_Date":"2019-11-24 12"},"coordinates":[6664,4375]},{"type":"Point","properties":{"Station_ID":"NH-CH-21","Station_Nam":"KEENE 2.0 SE, NH","Latitude":"42.93133","Longitude":"-72.26822","Snowdepth":"1.700","Units":"in","Rept_Date":"2019-11-24 12"},"coordinates":[6795,4527]},{"type":"Point","properties":{"Station_ID":"NY-CR-3","Station_Nam":"WILLET 1.8 E, NY","Latitude":"42.47385","Longitude":"-75.87250","Snowdepth":"1.600","Units":"in","Rept_Date":"2019-11-24 12"},"coordinates":[5814,4242]},{"type":"Point","properties":{"Station_ID":"WV-PR-10","Station_Nam":"TERRA ALTA 4.9 NNE, WV","Latitude":"39.51024","Longitude":"-79.51024","Snowdepth":"1.500","Units":"in","Rept_Date":"2019-11-24 13"},"coordinates":[4824,2399]},{"type":"Point","properties":{"Station_ID":"WI-WB-2","Station_Nam":"STONE LAKE 2.0 NW, WI","Latitude":"45.85960","Longitude":"-91.57710","Snowdepth":"1.500","Units":"in","Rept_Date":"2019-11-24 11"},"coordinates":[1541,6349]},{"type":"Point","properties":{"Station_ID":"WI-SR-5","Station_Nam":"HAYWARD 9.7 NE, WI","Latitude":"46.12030","Longitude":"-91.35370","Snowdepth":"1.500","Units":"in","Rept_Date":"2019-11-24 14"},"coordinates":[1601,6511]},{"type":"Point","properties":{"Station_ID":"WI-SR-1","Station_Nam":"HAYWARD 9.2 NNE, WI","Latitude":"46.13255","Longitude":"-91.40500","Snowdepth":"1.500","Units":"in","Rept_Date":"2019-11-24 12"},"coordinates":[1587,6519]},{"type":"Point","properties":{"Station_ID":"WI-PR-2","Station_Nam":"BUTTERNUT 5.9 SW, WI","Latitude":"45.96501","Longitude":"-90.59750","Snowdepth":"1.500","Units":"in","Rept_Date":"2019-11-24 12"},"coordinates":[1807,6414]},{"type":"Point","properties":{"Station_ID":"WI-DG-20","Station_Nam":"SOLON SPRINGS 1.2 W, WI","Latitude":"46.35217","Longitude":"-91.84405","Snowdepth":"1.500","Units":"in","Rept_Date":"2019-11-24 13"},"coordinates":[1468,6655]},{"type":"Point","properties":{"Station_ID":"VT-WR-2","Station_Nam":"POMFRET 2.6 N, VT","Latitude":"43.74230","Longitude":"-72.52550","Snowdepth":"1.500","Units":"in","Rept_Date":"2019-11-24 12"},"coordinates":[6725,5031]},{"type":"Point","properties":{"Station_ID":"VT-WH-25","Station_Nam":"PUTNEY 0.7 NE, VT","Latitude":"42.98326","Longitude":"-72.51215","Snowdepth":"1.500","Units":"in","Rept_Date":"2019-11-24 14"},"coordinates":[6729,4559]},{"type":"Point","properties":{"Station_ID":"VT-LM-7","Station_Nam":"HYDE PARK 2.9 NE, VT","Latitude":"44.62080","Longitude":"-72.57250","Snowdepth":"1.500","Units":"in","Rept_Date":"2019-11-24 13"},"coordinates":[6712,5578]},{"type":"Point","properties":{"Station_ID":"VT-CL-23","Station_Nam":"RYEGATE 1.5 N, VT","Latitude":"44.23024","Longitude":"-72.10523","Snowdepth":"1.500","Units":"in","Rept_Date":"2019-11-24 12"},"coordinates":[6839,5335]},{"type":"Point","properties":{"Station_ID":"PA-CN-5","Station_Nam":"STATE COLLEGE 2.6 NW, PA","Latitude":"40.81620","Longitude":"-77.89540","Snowdepth":"1.500","Units":"in","Rept_Date":"2019-11-24 12"},"coordinates":[5264,3211]},{"type":"Point","properties":{"Station_ID":"OH-JF-9","Station_Nam":"MOUNT PLEASANT 1.4 WSW, OH","Latitude":"40.16496","Longitude":"-80.82290","Snowdepth":"1.500","Units":"in","Rept_Date":"2019-11-24 12"},"coordinates":[4467,2806]},{"type":"Point","properties":{"Station_ID":"OH-DR-17","Station_Nam":"PITSBURG 1.4 ENE, OH","Latitude":"39.99350","Longitude":"-84.46290","Snowdepth":"1.500","Units":"in","Rept_Date":"2019-11-24 14"},"coordinates":[3477,2699]},{"type":"Point","properties":{"Station_ID":"NY-SR-4","Station_Nam":"SARATOGA SPRINGS 0.5 S, NY","Latitude":"43.06032","Longitude":"-73.78010","Snowdepth":"1.500","Units":"in","Rept_Date":"2019-11-24 11"},"coordinates":[6384,4607]},{"type":"Point","properties":{"Station_ID":"NY-BM-14","Station_Nam":"WHITNEY POINT 1.7 SSE, NY","Latitude":"42.30837","Longitude":"-75.95690","Snowdepth":"1.500","Units":"in","Rept_Date":"2019-11-24 12"},"coordinates":[5791,4139]},{"type":"Point","properties":{"Station_ID":"NH-CS-4","Station_Nam":"PITTSBURG 6.1 NE, NH","Latitude":"45.11060","Longitude":"-71.29760","Snowdepth":"1.500","Units":"in","Rept_Date":"2019-11-24 12"},"coordinates":[7059,5883]},{"type":"Point","properties":{"Station_ID":"MN-IT-11","Station_Nam":"NASHWAUK 11.5 N, MN","Latitude":"47.54496","Longitude":"-93.19420","Snowdepth":"1.500","Units":"in","Rept_Date":"2019-11-24 13"},"coordinates":[1101,7397]},{"type":"Point","properties":{"Station_ID":"IN-BL-7","Station_Nam":"HARTFORD CITY 4.8 NW, IN","Latitude":"40.50690","Longitude":"-85.42750","Snowdepth":"1.500","Units":"in","Rept_Date":"2019-11-24 12"},"coordinates":[3214,3019]},{"type":"Point","properties":{"Station_ID":"CAN-QC-16","Station_Nam":"SAINT-ARMAND 3.6 W, CAN","Latitude":"45.02631","Longitude":"-73.08795","Snowdepth":"1.500","Units":"in","Rept_Date":"2019-11-24 12"},"coordinates":[6572,5830]},{"type":"Point","properties":{"Station_ID":"NY-CR-5","Station_Nam":"MARATHON 1.0 NW, NY","Latitude":"42.45161","Longitude":"-76.04370","Snowdepth":"1.200","Units":"in","Rept_Date":"2019-11-24 12"},"coordinates":[5768,4228]},{"type":"Point","properties":{"Station_ID":"VT-WH-26","Station_Nam":"WESTMINSTER 5.5 NW, VT","Latitude":"43.12572","Longitude":"-72.53419","Snowdepth":"1.100","Units":"in","Rept_Date":"2019-11-24 12"},"coordinates":[6723,4648]},{"type":"Point","properties":{"Station_ID":"WRSM5","Station_Nam":"WRENSHALL","Latitude":"46.61550","Longitude":"-92.38380","Snowdepth":"1.000","Units":"in","Rept_Date":"2019-11-24 14"},"coordinates":[1321,6819]},{"type":"Point","properties":{"Station_ID":"WORV1","Station_Nam":"WORCESTER 2 W","Latitude":"44.37470","Longitude":"-72.58220","Snowdepth":"1.000","Units":"in","Rept_Date":"2019-11-24 12"},"coordinates":[6710,5425]},{"type":"Point","properties":{"Station_ID":"WORM3","Station_Nam":"WORTHINGTON","Latitude":"42.38690","Longitude":"-72.92100","Snowdepth":"1.000","Units":"in","Rept_Date":"2019-11-24 12"},"coordinates":[6617,4188]},{"type":"Point","properties":{"Station_ID":"WI-BT-14","Station_Nam":"OAKLAND 9.0 ENE, WI","Latitude":"45.95184","Longitude":"-92.21653","Snowdepth":"1.000","Units":"in","Rept_Date":"2019-11-24 13"},"coordinates":[1367,6406]},{"type":"Point","properties":{"Station_ID":"VT-WR-17","Station_Nam":"ROCHESTER 2.3 NE, VT","Latitude":"43.89418","Longitude":"-72.76992","Snowdepth":"1.000","Units":"in","Rept_Date":"2019-11-24 12"},"coordinates":[6659,5126]},{"type":"Point","properties":{"Station_ID":"VT-LM-1","Station_Nam":"STOWE 0.2 SW, VT","Latitude":"44.46399","Longitude":"-72.69070","Snowdepth":"1.000","Units":"in","Rept_Date":"2019-11-24 12"},"coordinates":[6680,5480]},{"type":"Point","properties":{"Station_ID":"VT-ES-3","Station_Nam":"LUNENBURG 2.3 NNW, VT","Latitude":"44.49324","Longitude":"-71.70446","Snowdepth":"1.000","Units":"in","Rept_Date":"2019-11-24 09"},"coordinates":[6949,5499]},{"type":"Point","properties":{"Station_ID":"USBP1","Station_Nam":"USBP1","Latitude":"40.06110","Longitude":"-77.73330","Snowdepth":"1.000","Units":"in","Rept_Date":"2019-11-24 12"},"coordinates":[5308,2741]},{"type":"Point","properties":{"Station_ID":"TWOP1","Station_Nam":"TOWANDA 1 S","Latitude":"41.75110","Longitude":"-76.44300","Snowdepth":"1.000","Units":"in","Rept_Date":"2019-11-24 12"},"coordinates":[5659,3793]},{"type":"Point","properties":{"Station_ID":"TOPM1","Station_Nam":"TOPSFIELD","Latitude":"45.43470","Longitude":"-67.72020","Snowdepth":"1.000","Units":"in","Rept_Date":"2019-11-24 12"},"coordinates":[8033,6084]},{"type":"Point","properties":{"Station_ID":"STGW3","Station_Nam":"ST GERMAIN","Latitude":"45.91550","Longitude":"-89.48940","Snowdepth":"1.000","Units":"in","Rept_Date":"2019-11-24 12"},"coordinates":[2109,6383]},{"type":"Point","properties":{"Station_ID":"SSMM4","Station_Nam":"SAULT STE MARIE","Latitude":"46.48660","Longitude":"-84.40250","Snowdepth":"1.000","Units":"in","Rept_Date":"2019-11-24 13"},"coordinates":[3493,6739]},{"type":"Point","properties":{"Station_ID":"SNOW2","Station_Nam":"SNOWSHOE","Latitude":"38.39900","Longitude":"-79.99490","Snowdepth":"1.000","Units":"in","Rept_Date":"2019-11-24 11"},"coordinates":[4692,1707]},{"type":"Point","properties":{"Station_ID":"SHBN6","Station_Nam":"SHERBURNE","Latitude":"42.67730","Longitude":"-75.50660","Snowdepth":"1.000","Units":"in","Rept_Date":"2019-11-24 13"},"coordinates":[5914,4369]},{"type":"Point","properties":{"Station_ID":"RCVW2","Station_Nam":"ROCK CAVE 2NE","Latitude":"38.85610","Longitude":"-80.30740","Snowdepth":"1.000","Units":"in","Rept_Date":"2019-11-24 13"},"coordinates":[4607,1992]},{"type":"Point","properties":{"Station_ID":"PLFV1","Station_Nam":"PLAINFIELD","Latitude":"44.27610","Longitude":"-72.41500","Snowdepth":"1.000","Units":"in","Rept_Date":"2019-11-24 12"},"coordinates":[6755,5364]},{"type":"Point","properties":{"Station_ID":"PERV1","Station_Nam":"PERU","Latitude":"43.26670","Longitude":"-72.90000","Snowdepth":"1.000","Units":"in","Rept_Date":"2019-11-24 12"},"coordinates":[6623,4736]},{"type":"Point","properties":{"Station_ID":"PA-YR-31","Station_Nam":"MANCHESTER 0.7 NNW, PA","Latitude":"40.07128","Longitude":"-76.72305","Snowdepth":"1.000","Units":"in","Rept_Date":"2019-11-24 15"},"coordinates":[5583,2748]},{"type":"Point","properties":{"Station_ID":"PA-CN-18","Station_Nam":"PORT MATILDA 2.2 ESE, PA","Latitude":"40.79117","Longitude":"-78.01180","Snowdepth":"1.000","Units":"in","Rept_Date":"2019-11-24 12"},"coordinates":[5232,3195]},{"type":"Point","properties":{"Station_ID":"ORAN3","Station_Nam":"ORANGE","Latitude":"43.66880","Longitude":"-71.94830","Snowdepth":"1.000","Units":"in","Rept_Date":"2019-11-24 12"},"coordinates":[6882,4986]},{"type":"Point","properties":{"Station_ID":"OH-MY-39","Station_Nam":"CENTERVILLE 3.9 S, OH","Latitude":"39.58530","Longitude":"-84.14932","Snowdepth":"1.000","Units":"in","Rept_Date":"2019-11-24 12"},"coordinates":[3562,2445]},{"type":"Point","properties":{"Station_ID":"OH-HR-2","Station_Nam":"BELLEVUE 0.6 N, OH","Latitude":"41.28386","Longitude":"-82.84080","Snowdepth":"1.000","Units":"in","Rept_Date":"2019-11-24 12"},"coordinates":[3918,3502]},{"type":"Point","properties":{"Station_ID":"OH-DR-8","Station_Nam":"POTSDAM 2.6 WSW, OH","Latitude":"39.94630","Longitude":"-84.45370","Snowdepth":"1.000","Units":"in","Rept_Date":"2019-11-24 14"},"coordinates":[3479,2670]},{"type":"Point","properties":{"Station_ID":"OH-DR-7","Station_Nam":"VERSAILLES 1.6 WSW, OH","Latitude":"40.21806","Longitude":"-84.51390","Snowdepth":"1.000","Units":"in","Rept_Date":"2019-11-24 12"},"coordinates":[3463,2839]},{"type":"Point","properties":{"Station_ID":"OH-DR-1","Station_Nam":"BRADFORD 2.3 NW, OH","Latitude":"40.15262","Longitude":"-84.46130","Snowdepth":"1.000","Units":"in","Rept_Date":"2019-11-24 12"},"coordinates":[3477,2798]},{"type":"Point","properties":{"Station_ID":"NY-WS-8","Station_Nam":"GRANVILLE 9.5 SW, NY","Latitude":"43.31163","Longitude":"-73.39613","Snowdepth":"1.000","Units":"in","Rept_Date":"2019-11-24 12"},"coordinates":[6488,4764]},{"type":"Point","properties":{"Station_ID":"NY-WR-13","Station_Nam":"QUEENSBURY 2.5 E, NY","Latitude":"43.35877","Longitude":"-73.62849","Snowdepth":"1.000","Units":"in","Rept_Date":"2019-11-24 12"},"coordinates":[6425,4793]},{"type":"Point","properties":{"Station_ID":"NY-TG-15","Station_Nam":"BERKSHIRE 1.9 ENE, NY","Latitude":"42.31910","Longitude":"-76.21940","Snowdepth":"1.000","Units":"in","Rept_Date":"2019-11-24 13"},"coordinates":[5720,4146]},{"type":"Point","properties":{"Station_ID":"NY-OT-29","Station_Nam":"NEW BERLIN 1.5 NE, NY","Latitude":"42.63689","Longitude":"-75.31090","Snowdepth":"1.000","Units":"in","Rept_Date":"2019-11-24 13"},"coordinates":[5967,4344]},{"type":"Point","properties":{"Station_ID":"NY-OD-63","Station_Nam":"UTICA 2.6 ENE, NY","Latitude":"43.11209","Longitude":"-75.18019","Snowdepth":"1.000","Units":"in","Rept_Date":"2019-11-24 13"},"coordinates":[6003,4639]},{"type":"Point","properties":{"Station_ID":"NY-MD-9","Station_Nam":"EARLVILLE 0.4 W, NY","Latitude":"42.73982","Longitude":"-75.55200","Snowdepth":"1.000","Units":"in","Rept_Date":"2019-11-24 12"},"coordinates":[5901,4408]},{"type":"Point","properties":{"Station_ID":"NY-BM-51","Station_Nam":"ENDICOTT 2.8 NNE, NY","Latitude":"42.13560","Longitude":"-76.04380","Snowdepth":"1.000","Units":"in","Rept_Date":"2019-11-24 13"},"coordinates":[5768,4032]},{"type":"Point","properties":{"Station_ID":"NSKN6","Station_Nam":"NISKAYUNA","Latitude":"42.79580","Longitude":"-73.87670","Snowdepth":"1.000","Units":"in","Rept_Date":"2019-11-24 12"},"coordinates":[6357,4443]},{"type":"Point","properties":{"Station_ID":"NRWN6","Station_Nam":"NORWICH","Latitude":"42.51170","Longitude":"-75.51970","Snowdepth":"1.000","Units":"in","Rept_Date":"2019-11-24 10"},"coordinates":[5910,4266]},{"type":"Point","properties":{"Station_ID":"MZZI3","Station_Nam":"MARION 2N","Latitude":"40.58000","Longitude":"-85.65860","Snowdepth":"1.000","Units":"in","Rept_Date":"2019-11-24 12"},"coordinates":[3151,3064]},{"type":"Point","properties":{"Station_ID":"MWTM1","Station_Nam":"MILLINOCKET WWTP","Latitude":"45.64030","Longitude":"-68.67480","Snowdepth":"1.000","Units":"in","Rept_Date":"2019-11-24 12"},"coordinates":[7773,6212]},{"type":"Point","properties":{"Station_ID":"MRLV1","Station_Nam":"MARLBORO","Latitude":"42.86000","Longitude":"-72.72000","Snowdepth":"1.000","Units":"in","Rept_Date":"2019-11-24 13"},"coordinates":[6672,4483]},{"type":"Point","properties":{"Station_ID":"MN7M8EBJ","Station_Nam":"LUTSEN 15.7 NNW","Latitude":"47.85324","Longitude":"-89.92908","Snowdepth":"1.000","Units":"in","Rept_Date":"2019-11-24 14"},"coordinates":[1989,7589]},{"type":"Point","properties":{"Station_ID":"MN76ACVS","Station_Nam":"GRAND MARAIS 3.0 WNW","Latitude":"47.76602","Longitude":"-90.26427","Snowdepth":"1.000","Units":"in","Rept_Date":"2019-11-24 13"},"coordinates":[1898,7535]},{"type":"Point","properties":{"Station_ID":"MN6JKRHL","Station_Nam":"TOFTE 0.6 SSW","Latitude":"47.56557","Longitude":"-90.84117","Snowdepth":"1.000","Units":"in","Rept_Date":"2019-11-24 13"},"coordinates":[1741,7410]},{"type":"Point","properties":{"Station_ID":"MN-SL-115","Station_Nam":"COTTON 5.7 ESE, MN","Latitude":"47.15142","Longitude":"-92.35772","Snowdepth":"1.000","Units":"in","Rept_Date":"2019-11-24 14"},"coordinates":[1328,7152]},{"type":"Point","properties":{"Station_ID":"MMTN7","Station_Nam":"MOUNT MITCHELL STATE PARK","Latitude":"35.75940","Longitude":"-82.27110","Snowdepth":"1.000","Units":"in","Rept_Date":"2019-11-24 12"},"coordinates":[4073,65]},{"type":"Point","properties":{"Station_ID":"MIEM4","Station_Nam":"MICHIGAMME 3WNW","Latitude":"46.54530","Longitude":"-88.18000","Snowdepth":"1.000","Units":"in","Rept_Date":"2019-11-24 13"},"coordinates":[2465,6775]},{"type":"Point","properties":{"Station_ID":"MI-OT-17","Station_Nam":"GAYLORD 4.1 S, MI","Latitude":"44.96388","Longitude":"-84.68467","Snowdepth":"1.000","Units":"in","Rept_Date":"2019-11-24 12"},"coordinates":[3416,5791]},{"type":"Point","properties":{"Station_ID":"MHCP1","Station_Nam":"MAHANTANGO CK","Latitude":"40.66670","Longitude":"-76.66670","Snowdepth":"1.000","Units":"in","Rept_Date":"2019-11-24 18"},"coordinates":[5598,3118]},{"type":"Point","properties":{"Station_ID":"ME-SM-10","Station_Nam":"NORTH NEW PORTLAND 0.3 WSW, ME","Latitude":"44.92353","Longitude":"-70.02788","Snowdepth":"1.000","Units":"in","Rept_Date":"2019-11-24 12"},"coordinates":[7405,5766]},{"type":"Point","properties":{"Station_ID":"MCRW2","Station_Nam":"MCROSS 3E","Latitude":"37.99000","Longitude":"-80.68030","Snowdepth":"1.000","Units":"in","Rept_Date":"2019-11-24 12"},"coordinates":[4506,1453]},{"type":"Point","properties":{"Station_ID":"MAPM4","Station_Nam":"MAPLE CITY 1E","Latitude":"44.85500","Longitude":"-85.83520","Snowdepth":"1.000","Units":"in","Rept_Date":"2019-11-24 23"},"coordinates":[3103,5724]},{"type":"Point","properties":{"Station_ID":"MALN6","Station_Nam":"MALONE","Latitude":"44.84180","Longitude":"-74.30600","Snowdepth":"1.000","Units":"in","Rept_Date":"2019-11-24 12"},"coordinates":[6241,5715]},{"type":"Point","properties":{"Station_ID":"MAIW3","Station_Nam":"MADELINE ISLAND","Latitude":"46.78330","Longitude":"-90.76670","Snowdepth":"1.000","Units":"in","Rept_Date":"2019-11-24 15"},"coordinates":[1761,6923]},{"type":"Point","properties":{"Station_ID":"MA-HS-7","Station_Nam":"PLAINFIELD 2.2 SW, MA","Latitude":"42.49272","Longitude":"-72.94540","Snowdepth":"1.000","Units":"in","Rept_Date":"2019-11-24 15"},"coordinates":[6611,4254]},{"type":"Point","properties":{"Station_ID":"MA-HS-14","Station_Nam":"PLAINFIELD 2.4 ESE, MA","Latitude":"42.49792","Longitude":"-72.87769","Snowdepth":"1.000","Units":"in","Rept_Date":"2019-11-24 12"},"coordinates":[6629,4257]},{"type":"Point","properties":{"Station_ID":"MA-FR-17","Station_Nam":"BUCKLAND 1.8 ESE, MA","Latitude":"42.58900","Longitude":"-72.75110","Snowdepth":"1.000","Units":"in","Rept_Date":"2019-11-24 13"},"coordinates":[6664,4314]},{"type":"Point","properties":{"Station_ID":"LTMW3","Station_Nam":"LAKE TOMAHAWK 2 SE","Latitude":"45.80750","Longitude":"-89.55830","Snowdepth":"1.000","Units":"in","Rept_Date":"2019-11-24 12"},"coordinates":[2090,6316]},{"type":"Point","properties":{"Station_ID":"LNCM1","Station_Nam":"LINCOLN WATER DISTRICT","Latitude":"45.32410","Longitude":"-68.58300","Snowdepth":"1.000","Units":"in","Rept_Date":"2019-11-24 13"},"coordinates":[7798,6016]},{"type":"Point","properties":{"Station_ID":"KSEM4","Station_Nam":"KALKASKA 11SE","Latitude":"44.58970","Longitude":"-85.04860","Snowdepth":"1.000","Units":"in","Rept_Date":"2019-11-24 13"},"coordinates":[3317,5559]},{"type":"Point","properties":{"Station_ID":"KIMO1","Station_Nam":"KINGS MILLS","Latitude":"39.35310","Longitude":"-84.26020","Snowdepth":"1.000","Units":"in","Rept_Date":"2019-11-24 12"},"coordinates":[3532,2301]},{"type":"Point","properties":{"Station_ID":"KGFK","Station_Nam":"GRAND FORKS INTERNATIONAL","Latitude":"47.95000","Longitude":"-97.18333","Snowdepth":"1.000","Units":"in","Rept_Date":"2019-11-24 12"},"coordinates":[15,7649]},{"type":"Point","properties":{"Station_ID":"KDAY","Station_Nam":"COX DAYTON INTERNATIONAL","Latitude":"39.90000","Longitude":"-84.21666","Snowdepth":"1.000","Units":"in","Rept_Date":"2019-11-24 12"},"coordinates":[3544,2641]},{"type":"Point","properties":{"Station_ID":"JAPN3","Station_Nam":"JAFFREY SILVER RANCH AIRPARK","Latitude":"42.80880","Longitude":"-72.00530","Snowdepth":"1.000","Units":"in","Rept_Date":"2019-11-24 12"},"coordinates":[6867,4451]},{"type":"Point","properties":{"Station_ID":"IN-HT-1","Station_Nam":"HUNTINGTON 0.3 W, IN","Latitude":"40.88020","Longitude":"-85.51120","Snowdepth":"1.000","Units":"in","Rept_Date":"2019-11-24 12"},"coordinates":[3191,3251]},{"type":"Point","properties":{"Station_ID":"ILIM5","Station_Nam":"ISLAND LAKE","Latitude":"47.02400","Longitude":"-92.07000","Snowdepth":"1.000","Units":"in","Rept_Date":"2019-11-24 15"},"coordinates":[1407,7073]},{"type":"Point","properties":{"Station_ID":"HVJP1","Station_Nam":"HIDDEN VALLEY COOP","Latitude":"40.04200","Longitude":"-79.25660","Snowdepth":"1.000","Units":"in","Rept_Date":"2019-11-24 13"},"coordinates":[4893,2729]},{"type":"Point","properties":{"Station_ID":"GRFN8","Station_Nam":"UNIVERSITY","Latitude":"47.93330","Longitude":"-97.08330","Snowdepth":"1.000","Units":"in","Rept_Date":"2019-11-25 06"},"coordinates":[42,7639]},{"type":"Point","properties":{"Station_ID":"GRFM3","Station_Nam":"GREENFIELD NO. 3","Latitude":"42.57190","Longitude":"-72.59750","Snowdepth":"1.000","Units":"in","Rept_Date":"2019-11-24 10"},"coordinates":[6705,4303]},{"type":"Point","properties":{"Station_ID":"GRBM5","Station_Nam":"GRAND RAPIDS 12N","Latitude":"47.39800","Longitude":"-93.51330","Snowdepth":"1.000","Units":"in","Rept_Date":"2019-11-24 13"},"coordinates":[1014,7306]},{"type":"Point","properties":{"Station_ID":"GNEN6","Station_Nam":"GREENE","Latitude":"42.32440","Longitude":"-75.77170","Snowdepth":"1.000","Units":"in","Rept_Date":"2019-11-24 13"},"coordinates":[5842,4149]},{"type":"Point","properties":{"Station_ID":"GGRM4","Station_Nam":"GREEN GARDEN NO.2","Latitude":"46.45330","Longitude":"-87.30380","Snowdepth":"1.000","Units":"in","Rept_Date":"2019-11-24 13"},"coordinates":[2704,6718]},{"type":"Point","properties":{"Station_ID":"EVRW3","Station_Nam":"EAGLE RIVER-4 E","Latitude":"45.91890","Longitude":"-89.15280","Snowdepth":"1.000","Units":"in","Rept_Date":"2019-11-24 12"},"coordinates":[2200,6386]},{"type":"Point","properties":{"Station_ID":"EHYM3","Station_Nam":"EAST HAWLEY","Latitude":"42.57410","Longitude":"-72.86790","Snowdepth":"1.000","Units":"in","Rept_Date":"2019-11-24 13"},"coordinates":[6632,4305]},{"type":"Point","properties":{"Station_ID":"DLH","Station_Nam":"DULUTH, MN","Latitude":"46.83690","Longitude":"-92.21030","Snowdepth":"1.000","Units":"in","Rept_Date":"2019-11-25 00"},"coordinates":[1368,6957]},{"type":"Point","properties":{"Station_ID":"DAY","Station_Nam":"COX DAYTON INTERNATIONAL","Latitude":"39.90110","Longitude":"-84.22000","Snowdepth":"1.000","Units":"in","Rept_Date":"2019-11-24 12"},"coordinates":[3543,2642]},{"type":"Point","properties":{"Station_ID":"COUW3","Station_Nam":"COUDERAY,WI","Latitude":"45.86670","Longitude":"-91.45000","Snowdepth":"1.000","Units":"in","Rept_Date":"2019-11-24 22"},"coordinates":[1575,6353]},{"type":"Point","properties":{"Station_ID":"COTM5","Station_Nam":"COTTON","Latitude":"47.16870","Longitude":"-92.46290","Snowdepth":"1.000","Units":"in","Rept_Date":"2019-11-24 13"},"coordinates":[1300,7163]},{"type":"Point","properties":{"Station_ID":"BURV2","Station_Nam":"BURKES GARDEN","Latitude":"37.09250","Longitude":"-81.33580","Snowdepth":"1.000","Units":"in","Rept_Date":"2019-11-24 12"},"coordinates":[4328,894]},{"type":"Point","properties":{"Station_ID":"BSKN6","Station_Nam":"BUSKIRK","Latitude":"42.93610","Longitude":"-73.43250","Snowdepth":"1.000","Units":"in","Rept_Date":"2019-11-24 13"},"coordinates":[6478,4530]},{"type":"Point","properties":{"Station_ID":"BKBW2","Station_Nam":"DAVIS.","Latitude":"39.09830","Longitude":"-79.43190","Snowdepth":"1.000","Units":"in","Rept_Date":"2019-11-24 12"},"coordinates":[4846,2142]},{"type":"Point","properties":{"Station_ID":"AVTW3","Station_Nam":"ARBOR VITAE-JOHNSON LAKE","Latitude":"45.89940","Longitude":"-89.72670","Snowdepth":"1.000","Units":"in","Rept_Date":"2019-11-24 12"},"coordinates":[2044,6373]},{"type":"Point","properties":{"Station_ID":"ANJM4","Station_Nam":"SNOW PAID OBSERVER FOR KANJ","Latitude":"46.48670","Longitude":"-84.40260","Snowdepth":"1.000","Units":"in","Rept_Date":"2019-11-24 12"},"coordinates":[3493,6739]},{"type":"Point","properties":{"Station_ID":"ANJ","Station_Nam":"SAULT STE MARIE","Latitude":"46.46670","Longitude":"-84.36670","Snowdepth":"1.000","Units":"in","Rept_Date":"2019-11-25 00"},"coordinates":[3503,6726]},{"type":"Point","properties":{"Station_ID":"41.2839_082.8408","Station_Nam":"1 N Bellevue  CoCoRaHS (OH-HR-2)","Latitude":"41.28390","Longitude":"-82.84080","Snowdepth":"1.000","Units":"in","Rept_Date":"2019-11-24 10"},"coordinates":[3918,3502]},{"type":"Point","properties":{"Station_ID":"38.8561_080.3074","Station_Nam":"2 NE ROCK CAVE  CO-OP OBSERVER (RCVW2)","Latitude":"38.85610","Longitude":"-80.30740","Snowdepth":"1.000","Units":"in","Rept_Date":"2019-11-24 13"},"coordinates":[4607,1992]},{"type":"Point","properties":{"Station_ID":"38.3990_079.9949","Station_Nam":"SNOWSHOE  CO-OP OBSERVER (X3840800)","Latitude":"38.39900","Longitude":"-79.99490","Snowdepth":"1.000","Units":"in","Rept_Date":"2019-11-24 11"},"coordinates":[4692,1707]}]}},"arcs":[],"transform":{"scale":[0.0036747674767476754,0.0016073507350735073],"translate":[-97.2386,35.655]}}