{"type":"Topology","objects":{"snowdepth_geo":{"type":"GeometryCollection","geometries":[{"type":"Point","coordinates":[-72.8154,44.5248],"properties":{"Station_ID":"MMNV1","Station_Nam":"MT. MANSFIELD","Latitude":"44.52480","Longitude":"-72.81540","Snowdepth":"84.000","Units":"in","Rept_Date":"2025-04-05 20"}},{"type":"Point","coordinates":[-86.62,46.4258],"properties":{"Station_ID":"PRKM4","Station_Nam":"MUNISING EAST","Latitude":"46.42580","Longitude":"-86.62000","Snowdepth":"76.500","Units":"in","Rept_Date":"2025-04-06 06"}},{"type":"Point","coordinates":[-88.4679,47.2455],"properties":{"Station_ID":"CLUM4","Station_Nam":"CALUMET-TAMARACK","Latitude":"47.24550","Longitude":"-88.46790","Snowdepth":"47.000","Units":"in","Rept_Date":"2025-04-05 13"}},{"type":"Point","coordinates":[-69.6747,50.7925],"properties":{"Station_ID":"CQOU","Station_Nam":"CQOU","Latitude":"50.79250","Longitude":"-69.67470","Snowdepth":"44.134","Units":"in","Rept_Date":"2025-04-05 12"}},{"type":"Point","coordinates":[-67.1394,51.1114],"properties":{"Station_ID":"CQGD","Station_Nam":"CQGD","Latitude":"51.11140","Longitude":"-67.13940","Snowdepth":"43.976","Units":"in","Rept_Date":"2025-04-05 12"}},{"type":"Point","coordinates":[-68.8236,50.6617],"properties":{"Station_ID":"CMLZ","Station_Nam":"CMLZ","Latitude":"50.66170","Longitude":"-68.82360","Snowdepth":"42.638","Units":"in","Rept_Date":"2025-04-05 12"}},{"type":"Point","coordinates":[-88.6717,47.0416],"properties":{"Station_ID":"PDLM4","Station_Nam":"PAINESDALE","Latitude":"47.04160","Longitude":"-88.67170","Snowdepth":"41.000","Units":"in","Rept_Date":"2025-04-05 12"}},{"type":"Point","coordinates":[-86.6625,46.4121],"properties":{"Station_ID":"MNSM4","Station_Nam":"MUNISING","Latitude":"46.41210","Longitude":"-86.66250","Snowdepth":"41.000","Units":"in","Rept_Date":"2025-04-05 11"}},{"type":"Point","coordinates":[-75.1,50.7236],"properties":{"Station_ID":"CQLB","Station_Nam":"CQLB","Latitude":"50.72360","Longitude":"-75.10000","Snowdepth":"34.567","Units":"in","Rept_Date":"2025-04-05 12"}},{"type":"Point","coordinates":[-69.3569,49.66],"properties":{"Station_ID":"CQTV","Station_Nam":"CQTV","Latitude":"49.66000","Longitude":"-69.35690","Snowdepth":"30.827","Units":"in","Rept_Date":"2025-04-05 12"}},{"type":"Point","coordinates":[-70.0806,51.3283],"properties":{"Station_ID":"CQCX","Station_Nam":"CQCX","Latitude":"51.32830","Longitude":"-70.08060","Snowdepth":"30.354","Units":"in","Rept_Date":"2025-04-05 12"}},{"type":"Point","coordinates":[-82.5757,48.526],"properties":{"Station_ID":"AUDQ6","Station_Nam":"AUDEN","Latitude":"48.52600","Longitude":"-82.57570","Snowdepth":"29.880","Units":"in","Rept_Date":"2025-04-06 06"}},{"type":"Point","coordinates":[-74.2064,48.855],"properties":{"Station_ID":"CQGO","Station_Nam":"CQGO","Latitude":"48.85500","Longitude":"-74.20640","Snowdepth":"29.842","Units":"in","Rept_Date":"2025-04-05 12"}},{"type":"Point","coordinates":[-74.4039,50.8328],"properties":{"Station_ID":"CQFT","Station_Nam":"CQFT","Latitude":"50.83280","Longitude":"-74.40390","Snowdepth":"29.803","Units":"in","Rept_Date":"2025-04-05 12"}},{"type":"Point","coordinates":[-87.2292,49.2288],"properties":{"Station_ID":"TRIQ6","Station_Nam":"TRIO LAKE","Latitude":"49.22880","Longitude":"-87.22920","Snowdepth":"29.490","Units":"in","Rept_Date":"2025-04-06 06"}},{"type":"Point","coordinates":[-67.6264,49.6472],"properties":{"Station_ID":"CQGT","Station_Nam":"CQGT","Latitude":"49.64720","Longitude":"-67.62640","Snowdepth":"29.134","Units":"in","Rept_Date":"2025-04-05 12"}},{"type":"Point","coordinates":[-88.5795,47.1364],"properties":{"Station_ID":"QNCM4","Station_Nam":"QUINCY HILL","Latitude":"47.13640","Longitude":"-88.57950","Snowdepth":"28.000","Units":"in","Rept_Date":"2025-04-05 13"}},{"type":"Point","coordinates":[-71.2833,44.2613],"properties":{"Station_ID":"HTLN3","Station_Nam":"HERMIT LAKE SNOWPLOT","Latitude":"44.26130","Longitude":"-71.28330","Snowdepth":"28.000","Units":"in","Rept_Date":"2025-04-05 09"}},{"type":"Point","coordinates":[-86.6594,49.0695],"properties":{"Station_ID":"PTLQ6","Station_Nam":"PORTAGE LAKE","Latitude":"49.06950","Longitude":"-86.65940","Snowdepth":"27.320","Units":"in","Rept_Date":"2025-04-06 06"}},{"type":"Point","coordinates":[-88.2077,46.5573],"properties":{"Station_ID":"MI-BG-3","Station_Nam":"THREE LAKES, MI","Latitude":"46.55730","Longitude":"-88.20770","Snowdepth":"27.000","Units":"in","Rept_Date":"2025-04-05 12"}},{"type":"Point","coordinates":[-87.7644,49.1989],"properties":{"Station_ID":"DVLQ6","Station_Nam":"DEVIOUS LAKE","Latitude":"49.19890","Longitude":"-87.76440","Snowdepth":"26.610","Units":"in","Rept_Date":"2025-04-06 06"}},{"type":"Point","coordinates":[-71.7031,44.1382],"properties":{"Station_ID":"LLHN3","Station_Nam":"LONESOME LAKE HUT","Latitude":"44.13820","Longitude":"-71.70310","Snowdepth":"26.000","Units":"in","Rept_Date":"2025-04-05 11"}},{"type":"Point","coordinates":[-91.793,50.7787],"properties":{"Station_ID":"SOCQ6","Station_Nam":"SOCKET LAKE","Latitude":"50.77870","Longitude":"-91.79300","Snowdepth":"25.280","Units":"in","Rept_Date":"2025-04-06 06"}},{"type":"Point","coordinates":[-66.9111,51.5217],"properties":{"Station_ID":"CMFU","Station_Nam":"CMFU","Latitude":"51.52170","Longitude":"-66.91110","Snowdepth":"25.157","Units":"in","Rept_Date":"2025-04-05 12"}},{"type":"Point","coordinates":[-71.1955,44.2594],"properties":{"Station_ID":"CRNN3","Station_Nam":"CARTER NOTCH","Latitude":"44.25940","Longitude":"-71.19550","Snowdepth":"25.000","Units":"in","Rept_Date":"2025-04-05 11"}},{"type":"Point","coordinates":[-87.8582,50.7668],"properties":{"Station_ID":"OGIQ6","Station_Nam":"OGOKI CAMP","Latitude":"50.76680","Longitude":"-87.85820","Snowdepth":"23.940","Units":"in","Rept_Date":"2025-04-06 06"}},{"type":"Point","coordinates":[-90.6567,50.2873],"properties":{"Station_ID":"SVBQ6","Station_Nam":"SAVANT BASE","Latitude":"50.28730","Longitude":"-90.65670","Snowdepth":"23.460","Units":"in","Rept_Date":"2025-04-06 06"}},{"type":"Point","coordinates":[-72.5719,51.0578],"properties":{"Station_ID":"CQTM","Station_Nam":"CQTM","Latitude":"51.05780","Longitude":"-72.57190","Snowdepth":"23.268","Units":"in","Rept_Date":"2025-04-05 12"}},{"type":"Point","coordinates":[-70.2528,48.9203],"properties":{"Station_ID":"CQLM","Station_Nam":"CQLM","Latitude":"48.92030","Longitude":"-70.25280","Snowdepth":"23.071","Units":"in","Rept_Date":"2025-04-05 12"}},{"type":"Point","coordinates":[-88.6926,47.13156],"properties":{"Station_ID":"MI-HG-21","Station_Nam":"ATLANTIC MINE 3.9 NW, MI","Latitude":"47.13156","Longitude":"-88.69260","Snowdepth":"23.000","Units":"in","Rept_Date":"2025-04-05 12"}},{"type":"Point","coordinates":[-68.8406,51.2833],"properties":{"Station_ID":"CMRL","Station_Nam":"CMRL","Latitude":"51.28330","Longitude":"-68.84060","Snowdepth":"22.598","Units":"in","Rept_Date":"2025-04-05 12"}},{"type":"Point","coordinates":[-71.4944,44.1959],"properties":{"Station_ID":"ZFHN3","Station_Nam":"ZEALAND FALLS HUT","Latitude":"44.19590","Longitude":"-71.49440","Snowdepth":"22.000","Units":"in","Rept_Date":"2025-04-05 11"}},{"type":"Point","coordinates":[-88.3333,46.65],"properties":{"Station_ID":"HERM4","Station_Nam":"HERMAN,MI","Latitude":"46.65000","Longitude":"-88.33330","Snowdepth":"22.000","Units":"in","Rept_Date":"2025-04-05 13"}},{"type":"Point","coordinates":[-76.5983,47.8275],"properties":{"Station_ID":"CQCU","Station_Nam":"CQCU","Latitude":"47.82750","Longitude":"-76.59830","Snowdepth":"21.968","Units":"in","Rept_Date":"2025-04-05 12"}},{"type":"Point","coordinates":[-88.5294,47.10774],"properties":{"Station_ID":"MI-HG-1","Station_Nam":"HOUGHTON 1.6 ESE, MI","Latitude":"47.10774","Longitude":"-88.52940","Snowdepth":"21.500","Units":"in","Rept_Date":"2025-04-05 14"}},{"type":"Point","coordinates":[-70.4719,50.1033],"properties":{"Station_ID":"CQMA","Station_Nam":"CQMA","Latitude":"50.10330","Longitude":"-70.47190","Snowdepth":"21.378","Units":"in","Rept_Date":"2025-04-05 12"}},{"type":"Point","coordinates":[-90.30508,47.8062],"properties":{"Station_ID":"MN-CK-29","Station_Nam":"GRAND MARAIS 3.8 NNE, MN","Latitude":"47.80620","Longitude":"-90.30508","Snowdepth":"21.000","Units":"in","Rept_Date":"2025-04-05 12"}},{"type":"Point","coordinates":[-91.8221,51.7269],"properties":{"Station_ID":"CATQ6","Station_Nam":"CAT LAKE","Latitude":"51.72690","Longitude":"-91.82210","Snowdepth":"19.650","Units":"in","Rept_Date":"2025-04-06 06"}},{"type":"Point","coordinates":[-87.45705,46.47288],"properties":{"Station_ID":"MI-MQ-30","Station_Nam":"MARQUETTE 6.1 SSW, MI","Latitude":"46.47288","Longitude":"-87.45705","Snowdepth":"19.000","Units":"in","Rept_Date":"2025-04-05 11"}},{"type":"Point","coordinates":[-88.5983,47.13273],"properties":{"Station_ID":"54021_MADIS","Station_Nam":"HANCOCK 0.1 ENE, MI","Latitude":"47.13273","Longitude":"-88.59830","Snowdepth":"19.000","Units":"in","Rept_Date":"2025-04-05 14"}},{"type":"Point","coordinates":[-86.9375,50.6386],"properties":{"Station_ID":"ANAQ6","Station_Nam":"ANACONDA","Latitude":"50.63860","Longitude":"-86.93750","Snowdepth":"18.620","Units":"in","Rept_Date":"2025-04-06 02"}},{"type":"Point","coordinates":[-73.8067,47.8461],"properties":{"Station_ID":"CQWE","Station_Nam":"CQWE","Latitude":"47.84610","Longitude":"-73.80670","Snowdepth":"17.913","Units":"in","Rept_Date":"2025-04-05 12"}},{"type":"Point","coordinates":[-73.9228,50.2708],"properties":{"Station_ID":"CQLI","Station_Nam":"CQLI","Latitude":"50.27080","Longitude":"-73.92280","Snowdepth":"17.874","Units":"in","Rept_Date":"2025-04-05 12"}},{"type":"Point","coordinates":[-87.5492,46.5314],"properties":{"Station_ID":"MQT","Station_Nam":"MARQUETTE, MI","Latitude":"46.53140","Longitude":"-87.54920","Snowdepth":"17.000","Units":"in","Rept_Date":"2025-04-06 06"}},{"type":"Point","coordinates":[-72.2011,51.4528],"properties":{"Station_ID":"CQCO","Station_Nam":"CQCO","Latitude":"51.45280","Longitude":"-72.20110","Snowdepth":"16.929","Units":"in","Rept_Date":"2025-04-05 12"}},{"type":"Point","coordinates":[-66.13279,47.90803],"properties":{"Station_ID":"CAN-NB-50","Station_Nam":"DOYLEVILLE 2.4 WNW, CAN","Latitude":"47.90803","Longitude":"-66.13279","Snowdepth":"16.700","Units":"in","Rept_Date":"2025-04-05 12"}},{"type":"Point","coordinates":[-84.28515,46.50299],"properties":{"Station_ID":"CAN-ON-915","Station_Nam":"SAULT STE. MARIE 3.9 ESE, CAN","Latitude":"46.50299","Longitude":"-84.28515","Snowdepth":"16.300","Units":"in","Rept_Date":"2025-04-05 12"}},{"type":"Point","coordinates":[-88.7038,49.19],"properties":{"Station_ID":"NONQ6","Station_Nam":"NONWATIN","Latitude":"49.19000","Longitude":"-88.70380","Snowdepth":"16.100","Units":"in","Rept_Date":"2025-04-06 06"}},{"type":"Point","coordinates":[-84.4025,46.4866],"properties":{"Station_ID":"SSMM4","Station_Nam":"SAULT STE MARIE","Latitude":"46.48660","Longitude":"-84.40250","Snowdepth":"16.000","Units":"in","Rept_Date":"2025-04-05 11"}},{"type":"Point","coordinates":[-84.31971,46.48933],"properties":{"Station_ID":"MI-CP-14","Station_Nam":"SAULT STE. MARIE 2.2 E, MI","Latitude":"46.48933","Longitude":"-84.31971","Snowdepth":"16.000","Units":"in","Rept_Date":"2025-04-05 11"}},{"type":"Point","coordinates":[-88.854,46.8944],"properties":{"Station_ID":"57011_MADIS","Station_Nam":"TWIN LAKES 0.2 SW, MI","Latitude":"46.89440","Longitude":"-88.85400","Snowdepth":"16.000","Units":"in","Rept_Date":"2025-04-05 12"}},{"type":"Point","coordinates":[-89.1799,49.5995],"properties":{"Station_ID":"KABQ6","Station_Nam":"CAB LAKE","Latitude":"49.59950","Longitude":"-89.17990","Snowdepth":"15.510","Units":"in","Rept_Date":"2025-04-06 06"}},{"type":"Point","coordinates":[-68.5431,49.8239],"properties":{"Station_ID":"CQIQ","Station_Nam":"CQIQ","Latitude":"49.82390","Longitude":"-68.54310","Snowdepth":"15.236","Units":"in","Rept_Date":"2025-04-05 12"}},{"type":"Point","coordinates":[-87.8816,46.7462],"properties":{"Station_ID":"BBEM4","Station_Nam":"BIG BAY 9SW","Latitude":"46.74620","Longitude":"-87.88160","Snowdepth":"15.000","Units":"in","Rept_Date":"2025-04-05 12"}},{"type":"Point","coordinates":[-84.4026,46.4867],"properties":{"Station_ID":"ANJM4","Station_Nam":"SNOW PAID OBSERVER FOR KANJ","Latitude":"46.48670","Longitude":"-84.40260","Snowdepth":"15.000","Units":"in","Rept_Date":"2025-04-06 00"}},{"type":"Point","coordinates":[-87.4503,46.28397],"properties":{"Station_ID":"61591_MADIS","Station_Nam":"GWINN 0.7 SW, MI","Latitude":"46.28397","Longitude":"-87.45030","Snowdepth":"15.000","Units":"in","Rept_Date":"2025-04-05 13"}},{"type":"Point","coordinates":[-75.845,49.2906],"properties":{"Station_ID":"CQMD","Station_Nam":"CQMD","Latitude":"49.29060","Longitude":"-75.84500","Snowdepth":"14.449","Units":"in","Rept_Date":"2025-04-05 12"}},{"type":"Point","coordinates":[-90.87444,48.14388],"properties":{"Station_ID":"MN-CK-56","Station_Nam":"GRAND MARAIS 36.2 NW, MN","Latitude":"48.14388","Longitude":"-90.87444","Snowdepth":"13.500","Units":"in","Rept_Date":"2025-04-05 12"}},{"type":"Point","coordinates":[-91.4716,48.7067],"properties":{"Station_ID":"ATIQ6","Station_Nam":"ATIKOKAN","Latitude":"48.70670","Longitude":"-91.47160","Snowdepth":"12.520","Units":"in","Rept_Date":"2025-04-06 06"}},{"type":"Point","coordinates":[-94.2577,52.1145],"properties":{"Station_ID":"POPQ6","Station_Nam":"POPLAR HILL","Latitude":"52.11450","Longitude":"-94.25770","Snowdepth":"12.440","Units":"in","Rept_Date":"2025-04-06 06"}},{"type":"Point","coordinates":[-87.9051,51.5582],"properties":{"Station_ID":"FTHQ6","Station_Nam":"FORT HOPE","Latitude":"51.55820","Longitude":"-87.90510","Snowdepth":"12.200","Units":"in","Rept_Date":"2025-04-06 06"}},{"type":"Point","coordinates":[-91.86862,47.88254],"properties":{"Station_ID":"MN-SL-328","Station_Nam":"ELY 1.8 SSW, MN","Latitude":"47.88254","Longitude":"-91.86862","Snowdepth":"12.000","Units":"in","Rept_Date":"2025-04-05 12"}},{"type":"Point","coordinates":[-70.18007,44.73396],"properties":{"Station_ID":"ME-FR-22","Station_Nam":"FARMINGTON 4.8 NNW, ME","Latitude":"44.73396","Longitude":"-70.18007","Snowdepth":"11.500","Units":"in","Rept_Date":"2025-04-05 13"}},{"type":"Point","coordinates":[-87.845,46.4991],"properties":{"Station_ID":"CLKM4","Station_Nam":"CLARKSBURG","Latitude":"46.49910","Longitude":"-87.84500","Snowdepth":"11.000","Units":"in","Rept_Date":"2025-04-05 11"}},{"type":"Point","coordinates":[-84.303,46.503],"properties":{"Station_ID":"CAN-ON-757","Station_Nam":"SAULT STE. MARIE 2.8 ESE - GLFC, CAN","Latitude":"46.50300","Longitude":"-84.30300","Snowdepth":"11.000","Units":"in","Rept_Date":"2025-04-05 12"}},{"type":"Point","coordinates":[-88.6424,46.5266],"properties":{"Station_ID":"WTNM4","Station_Nam":"WATTON 2WSW","Latitude":"46.52660","Longitude":"-88.64240","Snowdepth":"10.000","Units":"in","Rept_Date":"2025-04-05 12"}},{"type":"Point","coordinates":[-87.7567,46.4055],"properties":{"Station_ID":"MI-MQ-19","Station_Nam":"ISHPEMING 7.2 SW, MI","Latitude":"46.40550","Longitude":"-87.75670","Snowdepth":"10.000","Units":"in","Rept_Date":"2025-04-05 10"}},{"type":"Point","coordinates":[-73.7381,47.2564],"properties":{"Station_ID":"CQGA","Station_Nam":"CQGA","Latitude":"47.25640","Longitude":"-73.73810","Snowdepth":"8.701","Units":"in","Rept_Date":"2025-04-05 12"}},{"type":"Point","coordinates":[-90.27013,46.41555],"properties":{"Station_ID":"WI-IR-3","Station_Nam":"PENCE 0.1 E, WI","Latitude":"46.41555","Longitude":"-90.27013","Snowdepth":"8.000","Units":"in","Rept_Date":"2025-04-05 12"}},{"type":"Point","coordinates":[-90.4376,47.74865],"properties":{"Station_ID":"MN-CK-6","Station_Nam":"GRAND MARAIS 4.4 W, MN","Latitude":"47.74865","Longitude":"-90.43760","Snowdepth":"8.000","Units":"in","Rept_Date":"2025-04-05 12"}},{"type":"Point","coordinates":[-71.4127,44.2196],"properties":{"Station_ID":"CAWN3","Station_Nam":"CRAWFORD NOTCH","Latitude":"44.21960","Longitude":"-71.41270","Snowdepth":"8.000","Units":"in","Rept_Date":"2025-04-05 11"}},{"type":"Point","coordinates":[-96.1218,46.7985],"properties":{"Station_ID":"MN-BK-6","Station_Nam":"LAKE PARK 6.0 S, MN","Latitude":"46.79850","Longitude":"-96.12180","Snowdepth":"7.500","Units":"in","Rept_Date":"2025-04-05 12"}},{"type":"Point","coordinates":[-90.08287,46.54936],"properties":{"Station_ID":"MI-GG-11","Station_Nam":"IRONWOOD 7.3 NNE, MI","Latitude":"46.54936","Longitude":"-90.08287","Snowdepth":"7.500","Units":"in","Rept_Date":"2025-04-05 12"}},{"type":"Point","coordinates":[-73.4594,48.4889],"properties":{"Station_ID":"CQWG","Station_Nam":"CQWG","Latitude":"48.48890","Longitude":"-73.45940","Snowdepth":"7.283","Units":"in","Rept_Date":"2025-04-05 12"}},{"type":"Point","coordinates":[-71.27124,46.76934],"properties":{"Station_ID":"CAN-QC-47","Station_Nam":"SAINTE-FOY 1.8 ENE, CAN","Latitude":"46.76934","Longitude":"-71.27124","Snowdepth":"7.100","Units":"in","Rept_Date":"2025-04-05 11"}},{"type":"Point","coordinates":[-91.1973,47.3824],"properties":{"Station_ID":"WLFM5","Station_Nam":"WOLF RIDGE ENVIRON LEARNING CENTER","Latitude":"47.38240","Longitude":"-91.19730","Snowdepth":"7.000","Units":"in","Rept_Date":"2025-04-05 12"}},{"type":"Point","coordinates":[-73.9839,44.3042],"properties":{"Station_ID":"LPLN6","Station_Nam":"LAKE PLACID 2 S","Latitude":"44.30420","Longitude":"-73.98390","Snowdepth":"7.000","Units":"in","Rept_Date":"2025-04-05 12"}},{"type":"Point","coordinates":[-87.3038,46.4533],"properties":{"Station_ID":"GGRM4","Station_Nam":"GREEN GARDEN NO.2","Latitude":"46.45330","Longitude":"-87.30380","Snowdepth":"7.000","Units":"in","Rept_Date":"2025-04-05 08"}},{"type":"Point","coordinates":[-92.6925,47.8506],"properties":{"Station_ID":"COKM5","Station_Nam":"COOK","Latitude":"47.85060","Longitude":"-92.69250","Snowdepth":"7.000","Units":"in","Rept_Date":"2025-04-05 11"}},{"type":"Point","coordinates":[-91.4486,47.9719],"properties":{"Station_ID":"BNDM5","Station_Nam":"ELY 25E","Latitude":"47.97190","Longitude":"-91.44860","Snowdepth":"7.000","Units":"in","Rept_Date":"2025-04-05 14"}},{"type":"Point","coordinates":[-75.6147,48.8722],"properties":{"Station_ID":"CQYR","Station_Nam":"CQYR","Latitude":"48.87220","Longitude":"-75.61470","Snowdepth":"6.890","Units":"in","Rept_Date":"2025-04-05 12"}},{"type":"Point","coordinates":[-71.22598,44.19069],"properties":{"Station_ID":"NH-CR-15","Station_Nam":"JACKSON 3.7 NW, NH","Latitude":"44.19069","Longitude":"-71.22598","Snowdepth":"6.700","Units":"in","Rept_Date":"2025-04-05 11"}},{"type":"Point","coordinates":[-75.5384,43.37335],"properties":{"Station_ID":"NY-OD-2","Station_Nam":"POINT ROCK 0.6 SE, NY","Latitude":"43.37335","Longitude":"-75.53840","Snowdepth":"6.500","Units":"in","Rept_Date":"2025-04-05 12"}},{"type":"Point","coordinates":[-94.10155,47.82442],"properties":{"Station_ID":"MN-IT-80","Station_Nam":"NORTHOME 8.4 ESE, MN","Latitude":"47.82442","Longitude":"-94.10155","Snowdepth":"6.500","Units":"in","Rept_Date":"2025-04-05 12"}},{"type":"Point","coordinates":[-89.0752,46.0663],"properties":{"Station_ID":"PHEW3","Station_Nam":"PHELPS","Latitude":"46.06630","Longitude":"-89.07520","Snowdepth":"6.000","Units":"in","Rept_Date":"2025-04-05 12"}},{"type":"Point","coordinates":[-93.216,48.59631],"properties":{"Station_ID":"MN-KC-20","Station_Nam":"INTERNATIONAL FALLS 8.8 E, MN","Latitude":"48.59631","Longitude":"-93.21600","Snowdepth":"6.000","Units":"in","Rept_Date":"2025-04-05 12"}},{"type":"Point","coordinates":[-90.761,47.62394],"properties":{"Station_ID":"MN-CK-3","Station_Nam":"TOFTE 4.9 NE, MN","Latitude":"47.62394","Longitude":"-90.76100","Snowdepth":"6.000","Units":"in","Rept_Date":"2025-04-05 12"}},{"type":"Point","coordinates":[-90.43796,47.74462],"properties":{"Station_ID":"MN-CK-18","Station_Nam":"GRAND MARAIS 4.4 WSW, MN","Latitude":"47.74462","Longitude":"-90.43796","Snowdepth":"6.000","Units":"in","Rept_Date":"2025-04-05 12"}},{"type":"Point","coordinates":[-75.5543,43.6051],"properties":{"Station_ID":"HGHN6","Station_Nam":"HIGHMARKET","Latitude":"43.60510","Longitude":"-75.55430","Snowdepth":"6.000","Units":"in","Rept_Date":"2025-04-05 10"}},{"type":"Point","coordinates":[-90.84932,47.56499],"properties":{"Station_ID":"MN-CK-31","Station_Nam":"TOFTE 0.9 SW, MN","Latitude":"47.56499","Longitude":"-90.84932","Snowdepth":"5.800","Units":"in","Rept_Date":"2025-04-05 12"}},{"type":"Point","coordinates":[-96.1109,46.7415],"properties":{"Station_ID":"MN-BK-15","Station_Nam":"LAKE PARK 9.9 S, MN","Latitude":"46.74150","Longitude":"-96.11090","Snowdepth":"5.500","Units":"in","Rept_Date":"2025-04-05 13"}},{"type":"Point","coordinates":[-87.21344,46.33748],"properties":{"Station_ID":"MI-MQ-34","Station_Nam":"SKANDIA 3.0 SSE, MI","Latitude":"46.33748","Longitude":"-87.21344","Snowdepth":"5.500","Units":"in","Rept_Date":"2025-04-05 11"}},{"type":"Point","coordinates":[-95.8902,50.14747],"properties":{"Station_ID":"CAN-MB-32","Station_Nam":"PINAWA 1.0 SW, CA","Latitude":"50.14747","Longitude":"-95.89020","Snowdepth":"5.500","Units":"in","Rept_Date":"2025-04-05 12"}},{"type":"Point","coordinates":[-91.0109,46.689],"properties":{"Station_ID":"WI-BY-56","Station_Nam":"WASHBURN 5.7 W, WI","Latitude":"46.68900","Longitude":"-91.01090","Snowdepth":"5.000","Units":"in","Rept_Date":"2025-04-05 12"}},{"type":"Point","coordinates":[-90.85854,46.88063],"properties":{"Station_ID":"WI-BY-29","Station_Nam":"BAYFIELD 5.1 NNW, WI","Latitude":"46.88063","Longitude":"-90.85854","Snowdepth":"5.000","Units":"in","Rept_Date":"2025-04-05 13"}},{"type":"Point","coordinates":[-95.3799,46.5092],"properties":{"Station_ID":"NYMM5","Station_Nam":"NEW YORK MILLS","Latitude":"46.50920","Longitude":"-95.37990","Snowdepth":"5.000","Units":"in","Rept_Date":"2025-04-05 12"}},{"type":"Point","coordinates":[-95.42403,45.86613],"properties":{"Station_ID":"MN-DS-48","Station_Nam":"ALEXANDRIA 2.6 WSW, MN","Latitude":"45.86613","Longitude":"-95.42403","Snowdepth":"5.000","Units":"in","Rept_Date":"2025-04-05 13"}},{"type":"Point","coordinates":[-93.0484,48.4088],"properties":{"Station_ID":"KABM5","Station_Nam":"KABETOGAMA","Latitude":"48.40880","Longitude":"-93.04840","Snowdepth":"5.000","Units":"in","Rept_Date":"2025-04-05 12"}},{"type":"Point","coordinates":[-90.1955,46.4625],"properties":{"Station_ID":"HURW3","Station_Nam":"HURLEY","Latitude":"46.46250","Longitude":"-90.19550","Snowdepth":"5.000","Units":"in","Rept_Date":"2025-04-05 13"}},{"type":"Point","coordinates":[-94.84649,46.00588],"properties":{"Station_ID":"MN-TD-12","Station_Nam":"LONG PRAIRIE 2.1 NNE, MN","Latitude":"46.00588","Longitude":"-94.84649","Snowdepth":"4.500","Units":"in","Rept_Date":"2025-04-05 13"}},{"type":"Point","coordinates":[-95.60246,45.9678],"properties":{"Station_ID":"MN-DS-50","Station_Nam":"BRANDON 0.4 WNW, MN","Latitude":"45.96780","Longitude":"-95.60246","Snowdepth":"4.500","Units":"in","Rept_Date":"2025-04-05 12"}},{"type":"Point","coordinates":[-72.6383,48.1392],"properties":{"Station_ID":"CQLP","Station_Nam":"CQLP","Latitude":"48.13920","Longitude":"-72.63830","Snowdepth":"4.331","Units":"in","Rept_Date":"2025-04-05 12"}},{"type":"Point","coordinates":[-89.4579,46.19023],"properties":{"Station_ID":"WI-VL-9","Station_Nam":"LAND O' LAKES 11.7 W, WI","Latitude":"46.19023","Longitude":"-89.45790","Snowdepth":"4.000","Units":"in","Rept_Date":"2025-04-05 12"}},{"type":"Point","coordinates":[-90.1696,46.388],"properties":{"Station_ID":"WI-IR-6","Station_Nam":"HURLEY 4.1 SSE, WI","Latitude":"46.38800","Longitude":"-90.16960","Snowdepth":"4.000","Units":"in","Rept_Date":"2025-04-05 12"}},{"type":"Point","coordinates":[-93.0266,47.8663],"properties":{"Station_ID":"TOGM5","Station_Nam":"CELINA 2E","Latitude":"47.86630","Longitude":"-93.02660","Snowdepth":"4.000","Units":"in","Rept_Date":"2025-04-05 13"}},{"type":"Point","coordinates":[-96.6561,46.7769],"properties":{"Station_ID":"SBNM5","Station_Nam":"SABIN","Latitude":"46.77690","Longitude":"-96.65610","Snowdepth":"4.000","Units":"in","Rept_Date":"2025-04-05 16"}},{"type":"Point","coordinates":[-84.3239,46.1864],"properties":{"Station_ID":"PICM4","Station_Nam":"PICKFORD 3NE","Latitude":"46.18640","Longitude":"-84.32390","Snowdepth":"4.000","Units":"in","Rept_Date":"2025-04-05 22"}},{"type":"Point","coordinates":[-95.5667,46.4167],"properties":{"Station_ID":"OTTM5","Station_Nam":"OTTERTAIL,MN","Latitude":"46.41670","Longitude":"-95.56670","Snowdepth":"4.000","Units":"in","Rept_Date":"2025-04-05 12"}},{"type":"Point","coordinates":[-95.60954,45.30901],"properties":{"Station_ID":"MN-SW-8","Station_Nam":"BENSON 0.4 SSW, MN","Latitude":"45.30901","Longitude":"-95.60954","Snowdepth":"4.000","Units":"in","Rept_Date":"2025-04-05 12"}},{"type":"Point","coordinates":[-96.06043,45.71649],"properties":{"Station_ID":"MN-SV-4","Station_Nam":"DONNELLY 2.9 NW, MN","Latitude":"45.71649","Longitude":"-96.06043","Snowdepth":"4.000","Units":"in","Rept_Date":"2025-04-05 13"}},{"type":"Point","coordinates":[-72.8333,44.5333],"properties":{"Station_ID":"MMSV1","Station_Nam":"MOUNT MANSFIELD","Latitude":"44.53330","Longitude":"-72.83330","Snowdepth":"4.000","Units":"in","Rept_Date":"2025-04-06 06"}},{"type":"Point","coordinates":[-89.28143,46.85396],"properties":{"Station_ID":"MI-ON-4","Station_Nam":"ONTONAGON 1.8 ESE, MI","Latitude":"46.85396","Longitude":"-89.28143","Snowdepth":"4.000","Units":"in","Rept_Date":"2025-04-05 12"}},{"type":"Point","coordinates":[-97.2381,46.4025],"properties":{"Station_ID":"MCLN8","Station_Nam":"MC LEOD,ND","Latitude":"46.40250","Longitude":"-97.23810","Snowdepth":"4.000","Units":"in","Rept_Date":"2025-04-05 12"}},{"type":"Point","coordinates":[-89.457,46.19],"properties":{"Station_ID":"LNOW3","Station_Nam":"LAND O LAKES","Latitude":"46.19000","Longitude":"-89.45700","Snowdepth":"4.000","Units":"in","Rept_Date":"2025-04-05 12"}},{"type":"Point","coordinates":[-94.8892,45.9646],"properties":{"Station_ID":"LNGM5","Station_Nam":"LONG PRAIRIE","Latitude":"45.96460","Longitude":"-94.88920","Snowdepth":"4.000","Units":"in","Rept_Date":"2025-04-05 11"}},{"type":"Point","coordinates":[-92.7522,48.0581],"properties":{"Station_ID":"LEIM5","Station_Nam":"ORR 3E","Latitude":"48.05810","Longitude":"-92.75220","Snowdepth":"4.000","Units":"in","Rept_Date":"2025-04-05 11"}},{"type":"Point","coordinates":[-90.1382,46.4652],"properties":{"Station_ID":"IWOM4","Station_Nam":"IRONWOOD#2","Latitude":"46.46520","Longitude":"-90.13820","Snowdepth":"4.000","Units":"in","Rept_Date":"2025-04-05 12"}},{"type":"Point","coordinates":[-90.1833,46.4667],"properties":{"Station_ID":"IRMM4","Station_Nam":"WWTP","Latitude":"46.46670","Longitude":"-90.18330","Snowdepth":"4.000","Units":"in","Rept_Date":"2025-04-05 12"}},{"type":"Point","coordinates":[-93.9,48.6167],"properties":{"Station_ID":"INDM5","Station_Nam":"INDUS,MN","Latitude":"48.61670","Longitude":"-93.90000","Snowdepth":"4.000","Units":"in","Rept_Date":"2025-04-05 12"}},{"type":"Point","coordinates":[-90.8875,48.1667],"properties":{"Station_ID":"GNFM5","Station_Nam":"GUNFLINT LAKE","Latitude":"48.16670","Longitude":"-90.88750","Snowdepth":"4.000","Units":"in","Rept_Date":"2025-04-05 12"}},{"type":"Point","coordinates":[-92.0251,46.89158],"properties":{"Station_ID":"56581_MADIS","Station_Nam":"DULUTH 8.4 NNE, MN","Latitude":"46.89158","Longitude":"-92.02510","Snowdepth":"4.000","Units":"in","Rept_Date":"2025-04-05 13"}},{"type":"Point","coordinates":[-90.96005,46.64576],"properties":{"Station_ID":"WI-BY-52","Station_Nam":"WASHBURN 3.7 WSW, WI","Latitude":"46.64576","Longitude":"-90.96005","Snowdepth":"3.500","Units":"in","Rept_Date":"2025-04-05 12"}},{"type":"Point","coordinates":[-72.8326,43.29092],"properties":{"Station_ID":"VT-BN-3","Station_Nam":"LANDGROVE 1.1 NNE, VT","Latitude":"43.29092","Longitude":"-72.83260","Snowdepth":"3.500","Units":"in","Rept_Date":"2025-04-05 12"}},{"type":"Point","coordinates":[-79.81035,44.50564],"properties":{"Station_ID":"CAN-ON-245","Station_Nam":"PHELPSTON 3.1 ESE, CAN","Latitude":"44.50564","Longitude":"-79.81035","Snowdepth":"3.500","Units":"in","Rept_Date":"2025-04-05 11"}},{"type":"Point","coordinates":[-53.5195,47.42741],"properties":{"Station_ID":"CAN-NL-14","Station_Nam":"WHITBOURNE 1.4 NE, CA","Latitude":"47.42741","Longitude":"-53.51950","Snowdepth":"3.500","Units":"in","Rept_Date":"2025-04-05 09"}},{"type":"Point","coordinates":[-66.68739,45.90112],"properties":{"Station_ID":"CAN-NB-97","Station_Nam":"NEW MARYLAND 0.6 NW, CAN","Latitude":"45.90112","Longitude":"-66.68739","Snowdepth":"3.100","Units":"in","Rept_Date":"2025-04-05 12"}},{"type":"Point","coordinates":[-88.7416,45.1452],"properties":{"Station_ID":"WLKW3","Station_Nam":"WHITE LAKE 1 SE","Latitude":"45.14520","Longitude":"-88.74160","Snowdepth":"3.000","Units":"in","Rept_Date":"2025-04-05 13"}},{"type":"Point","coordinates":[-91.07856,46.59742],"properties":{"Station_ID":"WI-BY-14","Station_Nam":"ASHLAND 9.8 W, WI","Latitude":"46.59742","Longitude":"-91.07856","Snowdepth":"3.000","Units":"in","Rept_Date":"2025-04-05 11"}},{"type":"Point","coordinates":[-96.5041,45.808],"properties":{"Station_ID":"WHTM5","Station_Nam":"WHEATON","Latitude":"45.80800","Longitude":"-96.50410","Snowdepth":"3.000","Units":"in","Rept_Date":"2025-04-05 13"}},{"type":"Point","coordinates":[-90.4122,46.3678],"properties":{"Station_ID":"UPSW3","Station_Nam":"UPSON,WI","Latitude":"46.36780","Longitude":"-90.41220","Snowdepth":"3.000","Units":"in","Rept_Date":"2025-04-05 23"}},{"type":"Point","coordinates":[-91.6648,47.0176],"properties":{"Station_ID":"TOHM5","Station_Nam":"TWO HARBORS WWTP","Latitude":"47.01760","Longitude":"-91.66480","Snowdepth":"3.000","Units":"in","Rept_Date":"2025-04-05 12"}},{"type":"Point","coordinates":[-88.6278,46.0555],"properties":{"Station_ID":"STMM4","Station_Nam":"STAMBAUGH 2SSE","Latitude":"46.05550","Longitude":"-88.62780","Snowdepth":"3.000","Units":"in","Rept_Date":"2025-04-05 12"}},{"type":"Point","coordinates":[-97.11925,44.91604],"properties":{"Station_ID":"SD-CD-30","Station_Nam":"WATERTOWN 2.3 E, SD","Latitude":"44.91604","Longitude":"-97.11925","Snowdepth":"3.000","Units":"in","Rept_Date":"2025-04-05 13"}},{"type":"Point","coordinates":[-94.55543,45.57441],"properties":{"Station_ID":"MN-SR-29","Station_Nam":"ALBANY 3.8 S, MN","Latitude":"45.57441","Longitude":"-94.55543","Snowdepth":"3.000","Units":"in","Rept_Date":"2025-04-05 12"}},{"type":"Point","coordinates":[-92.6313,47.4615],"properties":{"Station_ID":"MN-SL-108","Station_Nam":"IRON JUNCTION 3.4 NNW, MN","Latitude":"47.46150","Longitude":"-92.63130","Snowdepth":"3.000","Units":"in","Rept_Date":"2025-04-05 14"}},{"type":"Point","coordinates":[-91.66769,47.02898],"properties":{"Station_ID":"MN-LK-32","Station_Nam":"TWO HARBORS 0.4 ESE, MN","Latitude":"47.02898","Longitude":"-91.66769","Snowdepth":"3.000","Units":"in","Rept_Date":"2025-04-05 13"}},{"type":"Point","coordinates":[-93.6936,47.60215],"properties":{"Station_ID":"MN-IT-47","Station_Nam":"MARCELL 0.7 NNW, MN","Latitude":"47.60215","Longitude":"-93.69360","Snowdepth":"3.000","Units":"in","Rept_Date":"2025-04-05 13"}},{"type":"Point","coordinates":[-95.0522,46.9286],"properties":{"Station_ID":"MN-HB-40","Station_Nam":"PARK RAPIDS 1.0 NNE, MN","Latitude":"46.92860","Longitude":"-95.05220","Snowdepth":"3.000","Units":"in","Rept_Date":"2025-04-05 12"}},{"type":"Point","coordinates":[-88.18,46.5453],"properties":{"Station_ID":"MIEM4","Station_Nam":"MICHIGAMME 3WNW","Latitude":"46.54530","Longitude":"-88.18000","Snowdepth":"3.000","Units":"in","Rept_Date":"2025-04-05 12"}},{"type":"Point","coordinates":[-95.9269,45.1219],"properties":{"Station_ID":"MIAM5","Station_Nam":"MILAN 1NW","Latitude":"45.12190","Longitude":"-95.92690","Snowdepth":"3.000","Units":"in","Rept_Date":"2025-04-05 23"}},{"type":"Point","coordinates":[-94.3056,45.3533],"properties":{"Station_ID":"KIMM5","Station_Nam":"KIMBALL 3N","Latitude":"45.35330","Longitude":"-94.30560","Snowdepth":"3.000","Units":"in","Rept_Date":"2025-04-05 10"}},{"type":"Point","coordinates":[-91.8283,47.9056],"properties":{"Station_ID":"ELYM5","Station_Nam":"ELY","Latitude":"47.90560","Longitude":"-91.82830","Snowdepth":"3.000","Units":"in","Rept_Date":"2025-04-05 13"}},{"type":"Point","coordinates":[-69.8119,45.6602],"properties":{"Station_ID":"BRAM1","Station_Nam":"BRASSUA DAM","Latitude":"45.66020","Longitude":"-69.81190","Snowdepth":"3.000","Units":"in","Rept_Date":"2025-04-05 11"}},{"type":"Point","coordinates":[-97.12,45.09],"properties":{"Station_ID":"SHSS2","Station_Nam":"SOUTH SHORE 8W SOUTH DAKOTA MESONET","Latitude":"45.09000","Longitude":"-97.12000","Snowdepth":"2.560","Units":"in","Rept_Date":"2025-04-06 06"}},{"type":"Point","coordinates":[-75.6992,38.17779],"properties":{"Station_ID":"011MD_MADIS","Station_Nam":"PRINCESS ANNE 2 S","Latitude":"38.17779","Longitude":"-75.69920","Snowdepth":"2.520","Units":"in","Rept_Date":"2025-04-06 06"}},{"type":"Point","coordinates":[-92.89089,47.49417],"properties":{"Station_ID":"MN-SL-245","Station_Nam":"CHISHOLM 0.7 NW, MN","Latitude":"47.49417","Longitude":"-92.89089","Snowdepth":"2.500","Units":"in","Rept_Date":"2025-04-05 11"}},{"type":"Point","coordinates":[-93.43497,47.48855],"properties":{"Station_ID":"MN-IT-23","Station_Nam":"BOVEY 13.4 N, MN","Latitude":"47.48855","Longitude":"-93.43497","Snowdepth":"2.500","Units":"in","Rept_Date":"2025-04-05 12"}},{"type":"Point","coordinates":[-58.6185,48.55436],"properties":{"Station_ID":"CAN-NL-65","Station_Nam":"KIPPENS 0.7 NE, CA","Latitude":"48.55436","Longitude":"-58.61850","Snowdepth":"2.500","Units":"in","Rept_Date":"2025-04-05 11"}},{"type":"Point","coordinates":[-86.413,45.80105],"properties":{"Station_ID":"75281_MADIS","Station_Nam":"MANISTIQUE 13.4 SW, MI","Latitude":"45.80105","Longitude":"-86.41300","Snowdepth":"2.500","Units":"in","Rept_Date":"2025-04-05 12"}},{"type":"Point","coordinates":[-66.68965,46.01577],"properties":{"Station_ID":"CAN-NB-174","Station_Nam":"MCLEOD HILL 1.3 SSW, CAN","Latitude":"46.01577","Longitude":"-66.68965","Snowdepth":"2.400","Units":"in","Rept_Date":"2025-04-05 10"}},{"type":"Point","coordinates":[-89.6247,46.1284],"properties":{"Station_ID":"WI-VL-14","Station_Nam":"BOULDER JUNCTION 1.4 NE, WI","Latitude":"46.12840","Longitude":"-89.62470","Snowdepth":"2.000","Units":"in","Rept_Date":"2025-04-05 12"}},{"type":"Point","coordinates":[-88.1415,45.89369],"properties":{"Station_ID":"WI-FL-4","Station_Nam":"FLORENCE 5.6 ESE, WI","Latitude":"45.89369","Longitude":"-88.14150","Snowdepth":"2.000","Units":"in","Rept_Date":"2025-04-05 12"}},{"type":"Point","coordinates":[-90.98092,46.16937],"properties":{"Station_ID":"WI-BY-2","Station_Nam":"CLAM LAKE 4 W, WI","Latitude":"46.16937","Longitude":"-90.98092","Snowdepth":"2.000","Units":"in","Rept_Date":"2025-04-05 12"}},{"type":"Point","coordinates":[-90.8839,46.5824],"properties":{"Station_ID":"WI-AS-4","Station_Nam":"ASHLAND 0.5 WNW, WI","Latitude":"46.58240","Longitude":"-90.88390","Snowdepth":"2.000","Units":"in","Rept_Date":"2025-04-05 12"}},{"type":"Point","coordinates":[-97.1152,44.9074],"properties":{"Station_ID":"WATS2","Station_Nam":"WATERTOWN COOP","Latitude":"44.90740","Longitude":"-97.11520","Snowdepth":"2.000","Units":"in","Rept_Date":"2025-04-05 11"}},{"type":"Point","coordinates":[-69.7167,45.5833],"properties":{"Station_ID":"RKWM1","Station_Nam":"MOOSEHEAD LAKE","Latitude":"45.58330","Longitude":"-69.71670","Snowdepth":"2.000","Units":"in","Rept_Date":"2025-04-05 11"}},{"type":"Point","coordinates":[-89.1794,46.3976],"properties":{"Station_ID":"PDGM4","Station_Nam":"PAULDING","Latitude":"46.39760","Longitude":"-89.17940","Snowdepth":"2.000","Units":"in","Rept_Date":"2025-04-05 13"}},{"type":"Point","coordinates":[-95.13102,46.44368],"properties":{"Station_ID":"MN-WD-18","Station_Nam":"WADENA 0.3 ENE, MN","Latitude":"46.44368","Longitude":"-95.13102","Snowdepth":"2.000","Units":"in","Rept_Date":"2025-04-05 13"}},{"type":"Point","coordinates":[-94.19737,45.4195],"properties":{"Station_ID":"MN-SR-48","Station_Nam":"SAINT AUGUSTA 2.1 S, MN","Latitude":"45.41950","Longitude":"-94.19737","Snowdepth":"2.000","Units":"in","Rept_Date":"2025-04-05 12"}},{"type":"Point","coordinates":[-91.955,47.875],"properties":{"Station_ID":"MN-SL-323","Station_Nam":"ELY 5.2 WSW, MN","Latitude":"47.87500","Longitude":"-91.95500","Snowdepth":"2.000","Units":"in","Rept_Date":"2025-04-05 12"}},{"type":"Point","coordinates":[-92.2392,47.4246],"properties":{"Station_ID":"MN-SL-291","Station_Nam":"AURORA 7.4 S, MN","Latitude":"47.42460","Longitude":"-92.23920","Snowdepth":"2.000","Units":"in","Rept_Date":"2025-04-05 12"}},{"type":"Point","coordinates":[-91.87967,47.8151],"properties":{"Station_ID":"MN-SL-198","Station_Nam":"ELY 6.4 SSW, MN","Latitude":"47.81510","Longitude":"-91.87967","Snowdepth":"2.000","Units":"in","Rept_Date":"2025-04-05 12"}},{"type":"Point","coordinates":[-91.86218,47.24692],"properties":{"Station_ID":"MN-SL-160","Station_Nam":"BRIMSON 2.0 S, MN","Latitude":"47.24692","Longitude":"-91.86218","Snowdepth":"2.000","Units":"in","Rept_Date":"2025-04-05 12"}},{"type":"Point","coordinates":[-94.24789,46.06785],"properties":{"Station_ID":"MN-MR-13","Station_Nam":"LITTLE FALLS 8.0 NE, MN","Latitude":"46.06785","Longitude":"-94.24789","Snowdepth":"2.000","Units":"in","Rept_Date":"2025-04-05 12"}},{"type":"Point","coordinates":[-93.62866,45.88021],"properties":{"Station_ID":"MN-ML-26","Station_Nam":"MILACA 8.6 N, MN","Latitude":"45.88021","Longitude":"-93.62866","Snowdepth":"2.000","Units":"in","Rept_Date":"2025-04-05 13"}},{"type":"Point","coordinates":[-93.5666,47.13687],"properties":{"Station_ID":"MN-IT-7","Station_Nam":"GRAND RAPIDS 6.2 SSW, MN","Latitude":"47.13687","Longitude":"-93.56660","Snowdepth":"2.000","Units":"in","Rept_Date":"2025-04-05 11"}},{"type":"Point","coordinates":[-93.40368,47.2454],"properties":{"Station_ID":"MN-IT-39","Station_Nam":"BOVEY 3.5 S, MN","Latitude":"47.24540","Longitude":"-93.40368","Snowdepth":"2.000","Units":"in","Rept_Date":"2025-04-05 12"}},{"type":"Point","coordinates":[-93.4294,47.28842],"properties":{"Station_ID":"MN-IT-38","Station_Nam":"COLERAINE 0.7 S, MN","Latitude":"47.28842","Longitude":"-93.42940","Snowdepth":"2.000","Units":"in","Rept_Date":"2025-04-05 12"}},{"type":"Point","coordinates":[-93.55036,47.31165],"properties":{"Station_ID":"MN-IT-17","Station_Nam":"GRAND RAPIDS 6.1 N, MN","Latitude":"47.31165","Longitude":"-93.55036","Snowdepth":"2.000","Units":"in","Rept_Date":"2025-04-05 12"}},{"type":"Point","coordinates":[-93.87514,47.33564],"properties":{"Station_ID":"MN-IT-10","Station_Nam":"DEER RIVER 3.7 W, MN","Latitude":"47.33564","Longitude":"-93.87514","Snowdepth":"2.000","Units":"in","Rept_Date":"2025-04-05 13"}},{"type":"Point","coordinates":[-94.3651,46.18089],"properties":{"Station_ID":"MN-CW-22","Station_Nam":"FORT RIPLEY 0.8 N, MN","Latitude":"46.18089","Longitude":"-94.36510","Snowdepth":"2.000","Units":"in","Rept_Date":"2025-04-05 12"}},{"type":"Point","coordinates":[-94.72121,47.52043],"properties":{"Station_ID":"MN-BM-15","Station_Nam":"BEMIDJI 7.8 ENE, MN","Latitude":"47.52043","Longitude":"-94.72121","Snowdepth":"2.000","Units":"in","Rept_Date":"2025-04-05 12"}},{"type":"Point","coordinates":[-84.73582,45.86422],"properties":{"Station_ID":"MI-MC-5","Station_Nam":"ST. IGNACE 0.6 WSW, MI","Latitude":"45.86422","Longitude":"-84.73582","Snowdepth":"2.000","Units":"in","Rept_Date":"2025-04-05 11"}},{"type":"Point","coordinates":[-89.1317,46.20333],"properties":{"Station_ID":"MI-GG-4","Station_Nam":"WATERSMEET 5.0 SE, MI","Latitude":"46.20333","Longitude":"-89.13170","Snowdepth":"2.000","Units":"in","Rept_Date":"2025-04-05 13"}},{"type":"Point","coordinates":[-68.1439,47.0108],"properties":{"Station_ID":"ME-AR-18","Station_Nam":"NEW SWEDEN 4.9 NNW, ME","Latitude":"47.01080","Longitude":"-68.14390","Snowdepth":"2.000","Units":"in","Rept_Date":"2025-04-05 11"}},{"type":"Point","coordinates":[-89.0758,46.1211],"properties":{"Station_ID":"LVDW3","Station_Nam":"LAC VIEUX DESERT","Latitude":"46.12110","Longitude":"-89.07580","Snowdepth":"2.000","Units":"in","Rept_Date":"2025-04-05 14"}},{"type":"Point","coordinates":[-89.1528,45.9189],"properties":{"Station_ID":"EVRW3","Station_Nam":"EAGLE RIVER-4 E","Latitude":"45.91890","Longitude":"-89.15280","Snowdepth":"2.000","Units":"in","Rept_Date":"2025-04-05 12"}},{"type":"Point","coordinates":[-92.2108,46.8368],"properties":{"Station_ID":"DLHM5","Station_Nam":"DULUTH NWS","Latitude":"46.83680","Longitude":"-92.21080","Snowdepth":"2.000","Units":"in","Rept_Date":"2025-04-06 06"}},{"type":"Point","coordinates":[-90.9808,46.1694],"properties":{"Station_ID":"CMKW3","Station_Nam":"CLAM LAKE 4W","Latitude":"46.16940","Longitude":"-90.98080","Snowdepth":"2.000","Units":"in","Rept_Date":"2025-04-05 12"}},{"type":"Point","coordinates":[-94.392,45.5794],"properties":{"Station_ID":"CLGM5","Station_Nam":"COLLEGEVILLE ST JOHN","Latitude":"45.57940","Longitude":"-94.39200","Snowdepth":"2.000","Units":"in","Rept_Date":"2025-04-05 23"}},{"type":"Point","coordinates":[-54.63396,48.97737],"properties":{"Station_ID":"CAN-NL-82","Station_Nam":"GANDER 2.7 NW, CAN","Latitude":"48.97737","Longitude":"-54.63396","Snowdepth":"2.000","Units":"in","Rept_Date":"2025-04-05 09"}},{"type":"Point","coordinates":[-91.8624,47.2472],"properties":{"Station_ID":"BRMM5","Station_Nam":"BRIMSON 2S","Latitude":"47.24720","Longitude":"-91.86240","Snowdepth":"2.000","Units":"in","Rept_Date":"2025-04-05 12"}},{"type":"Point","coordinates":[-94.209,46.3432],"properties":{"Station_ID":"BRAM5","Station_Nam":"BRAINERD","Latitude":"46.34320","Longitude":"-94.20900","Snowdepth":"2.000","Units":"in","Rept_Date":"2025-04-05 12"}},{"type":"Point","coordinates":[-90.8839,46.5824],"properties":{"Station_ID":"AWXW3","Station_Nam":"ASHLAND","Latitude":"46.58240","Longitude":"-90.88390","Snowdepth":"2.000","Units":"in","Rept_Date":"2025-04-05 12"}},{"type":"Point","coordinates":[-96.1257,45.3856],"properties":{"Station_ID":"ARTM5","Station_Nam":"ARTICHOKE LAKE 1 E","Latitude":"45.38560","Longitude":"-96.12570","Snowdepth":"2.000","Units":"in","Rept_Date":"2025-04-05 23"}},{"type":"Point","coordinates":[-76.9258,39.26249],"properties":{"Station_ID":"001MD_MADIS","Station_Nam":"CLARKSVILLE 4 NNE","Latitude":"39.26249","Longitude":"-76.92580","Snowdepth":"1.770","Units":"in","Rept_Date":"2025-04-06 06"}},{"type":"Point","coordinates":[-76.8431,38.59709],"properties":{"Station_ID":"010MD_MADIS","Station_Nam":"WALDORF 4 ESE","Latitude":"38.59709","Longitude":"-76.84310","Snowdepth":"1.650","Units":"in","Rept_Date":"2025-04-06 06"}},{"type":"Point","coordinates":[-71.90238,43.29531],"properties":{"Station_ID":"NH-MR-60","Station_Nam":"SOUTH SUTTON 1.3 SE, NH","Latitude":"43.29531","Longitude":"-71.90238","Snowdepth":"1.500","Units":"in","Rept_Date":"2025-04-05 12"}},{"type":"Point","coordinates":[-92.93065,47.4266],"properties":{"Station_ID":"MN-SL-339","Station_Nam":"HIBBING 2.1 NNE, MN","Latitude":"47.42660","Longitude":"-92.93065","Snowdepth":"1.500","Units":"in","Rept_Date":"2025-04-05 12"}},{"type":"Point","coordinates":[-93.97293,46.47772],"properties":{"Station_ID":"MN-CW-44","Station_Nam":"CROSBY 1.1 SW, MN","Latitude":"46.47772","Longitude":"-93.97293","Snowdepth":"1.500","Units":"in","Rept_Date":"2025-04-05 15"}},{"type":"Point","coordinates":[-94.21266,46.91588],"properties":{"Station_ID":"MN-CS-81","Station_Nam":"LONGVILLE 4.9 S, MN","Latitude":"46.91588","Longitude":"-94.21266","Snowdepth":"1.500","Units":"in","Rept_Date":"2025-04-05 12"}},{"type":"Point","coordinates":[-65.5069,46.99343],"properties":{"Station_ID":"CAN-NB-11","Station_Nam":"MIRAMICHI 3.3 S, CAN","Latitude":"46.99343","Longitude":"-65.50690","Snowdepth":"1.500","Units":"in","Rept_Date":"2025-04-05 09"}},{"type":"Point","coordinates":[-92.1659,46.40955],"properties":{"Station_ID":"76881_MADIS","Station_Nam":"FOXBORO 8.5 SE, WI","Latitude":"46.40955","Longitude":"-92.16590","Snowdepth":"1.500","Units":"in","Rept_Date":"2025-04-05 10"}},{"type":"Point","coordinates":[-79.2367,39.56781],"properties":{"Station_ID":"021MD_MADIS","Station_Nam":"BITTINGER 3SSW","Latitude":"39.56781","Longitude":"-79.23670","Snowdepth":"1.500","Units":"in","Rept_Date":"2025-04-06 06"}},{"type":"Point","coordinates":[-77.9385,39.69766],"properties":{"Station_ID":"015MD_MADIS","Station_Nam":"CLEAR SPRING 3 N","Latitude":"39.69766","Longitude":"-77.93850","Snowdepth":"1.500","Units":"in","Rept_Date":"2025-04-06 06"}},{"type":"Point","coordinates":[-67.32532,46.98305],"properties":{"Station_ID":"CAN-NB-105","Station_Nam":"SISSON BROOK 3.8 E, CAN","Latitude":"46.98305","Longitude":"-67.32532","Snowdepth":"1.200","Units":"in","Rept_Date":"2025-04-05 11"}},{"type":"Point","coordinates":[-75.7741,38.35866],"properties":{"Station_ID":"012MD_MADIS","Station_Nam":"QUANTICO 2 WSW","Latitude":"38.35866","Longitude":"-75.77410","Snowdepth":"1.180","Units":"in","Rept_Date":"2025-04-06 06"}},{"type":"Point","coordinates":[-76.6234,39.39474],"properties":{"Station_ID":"013MD_MADIS","Station_Nam":"TOWSON 1 WSW","Latitude":"39.39474","Longitude":"-76.62340","Snowdepth":"1.100","Units":"in","Rept_Date":"2025-04-06 06"}},{"type":"Point","coordinates":[-89.4085,46.2231],"properties":{"Station_ID":"WTRM4","Station_Nam":"WATERSMEET 12WSW","Latitude":"46.22310","Longitude":"-89.40850","Snowdepth":"1.000","Units":"in","Rept_Date":"2025-04-05 11"}},{"type":"Point","coordinates":[-95.407,48.896],"properties":{"Station_ID":"WRUM5","Station_Nam":"WARROAD 4W","Latitude":"48.89600","Longitude":"-95.40700","Snowdepth":"1.000","Units":"in","Rept_Date":"2025-04-06 03"}},{"type":"Point","coordinates":[-91.96437,45.69577],"properties":{"Station_ID":"WI-WB-19","Station_Nam":"SHELL LAKE 4.3 SW, WI","Latitude":"45.69577","Longitude":"-91.96437","Snowdepth":"1.000","Units":"in","Rept_Date":"2025-04-05 13"}},{"type":"Point","coordinates":[-91.84405,46.35217],"properties":{"Station_ID":"WI-DG-20","Station_Nam":"SOLON SPRINGS 1.2 W, WI","Latitude":"46.35217","Longitude":"-91.84405","Snowdepth":"1.000","Units":"in","Rept_Date":"2025-04-05 12"}},{"type":"Point","coordinates":[-92.1368,46.7087],"properties":{"Station_ID":"WI-DG-18","Station_Nam":"SUPERIOR 3.7 WNW, WI","Latitude":"46.70870","Longitude":"-92.13680","Snowdepth":"1.000","Units":"in","Rept_Date":"2025-04-05 12"}},{"type":"Point","coordinates":[-97,45.6667],"properties":{"Station_ID":"SSSS2","Station_Nam":"MILBANK-36MI.NW","Latitude":"45.66670","Longitude":"-97.00000","Snowdepth":"1.000","Units":"in","Rept_Date":"2025-04-06 03"}},{"type":"Point","coordinates":[-96.8348,45.6948],"properties":{"Station_ID":"SD-RB-4","Station_Nam":"SISSETON 10.4 ENE, SD","Latitude":"45.69480","Longitude":"-96.83480","Snowdepth":"1.000","Units":"in","Rept_Date":"2025-04-05 12"}},{"type":"Point","coordinates":[-94.1495,45.551],"properties":{"Station_ID":"SCSM5","Station_Nam":"ST CLOUD STATE","Latitude":"45.55100","Longitude":"-94.14950","Snowdepth":"1.000","Units":"in","Rept_Date":"2025-04-05 11"}},{"type":"Point","coordinates":[-89.8772,46.1222],"properties":{"Station_ID":"RLKW3","Station_Nam":"REST LAKE","Latitude":"46.12220","Longitude":"-89.87720","Snowdepth":"1.000","Units":"in","Rept_Date":"2025-04-05 12"}},{"type":"Point","coordinates":[-94.2072,45.7576],"properties":{"Station_ID":"RCEM5","Station_Nam":"RICE","Latitude":"45.75760","Longitude":"-94.20720","Snowdepth":"1.000","Units":"in","Rept_Date":"2025-04-05 12"}},{"type":"Point","coordinates":[-95.081,46.9415],"properties":{"Station_ID":"PRPM5","Station_Nam":"PARK RAPIDS 2NW","Latitude":"46.94150","Longitude":"-95.08100","Snowdepth":"1.000","Units":"in","Rept_Date":"2025-04-05 12"}},{"type":"Point","coordinates":[-74.4236,43.115],"properties":{"Station_ID":"PEKN6","Station_Nam":"PECK LAKE","Latitude":"43.11500","Longitude":"-74.42360","Snowdepth":"1.000","Units":"in","Rept_Date":"2025-04-05 11"}},{"type":"Point","coordinates":[-86.4011,45.7961],"properties":{"Station_ID":"PARM4","Station_Nam":"PARENT BAY","Latitude":"45.79610","Longitude":"-86.40110","Snowdepth":"1.000","Units":"in","Rept_Date":"2025-04-05 20"}},{"type":"Point","coordinates":[-71.3415,43.80976],"properties":{"Station_ID":"NH-CR-26","Station_Nam":"CENTER SANDWICH 4.9 E, NH","Latitude":"43.80976","Longitude":"-71.34150","Snowdepth":"1.000","Units":"in","Rept_Date":"2025-04-05 11"}},{"type":"Point","coordinates":[-71.3,44.2667],"properties":{"Station_ID":"MWN","Station_Nam":"MOUNT WASHINGTON","Latitude":"44.26670","Longitude":"-71.30000","Snowdepth":"1.000","Units":"in","Rept_Date":"2025-04-05 12"}},{"type":"Point","coordinates":[-89.7322,45.8863],"properties":{"Station_ID":"MQRW3","Station_Nam":"MINOCQUA","Latitude":"45.88630","Longitude":"-89.73220","Snowdepth":"1.000","Units":"in","Rept_Date":"2025-04-05 11"}},{"type":"Point","coordinates":[-94.7312,45.3517],"properties":{"Station_ID":"MN-SR-24","Station_Nam":"PAYNESVILLE 1.9 SSW, MN","Latitude":"45.35170","Longitude":"-94.73120","Snowdepth":"1.000","Units":"in","Rept_Date":"2025-04-05 12"}},{"type":"Point","coordinates":[-92.01263,46.84257],"properties":{"Station_ID":"MN-SL-216","Station_Nam":"DULUTH 6.0 NE, MN","Latitude":"46.84257","Longitude":"-92.01263","Snowdepth":"1.000","Units":"in","Rept_Date":"2025-04-05 12"}},{"type":"Point","coordinates":[-92.06341,46.80975],"properties":{"Station_ID":"MN-SL-202","Station_Nam":"DULUTH 2.7 NE, MN","Latitude":"46.80975","Longitude":"-92.06341","Snowdepth":"1.000","Units":"in","Rept_Date":"2025-04-05 12"}},{"type":"Point","coordinates":[-94.3772,45.96886],"properties":{"Station_ID":"MN-MR-4","Station_Nam":"LITTLE FALLS 1.2 SW, MN","Latitude":"45.96886","Longitude":"-94.37720","Snowdepth":"1.000","Units":"in","Rept_Date":"2025-04-05 12"}},{"type":"Point","coordinates":[-95.08179,46.94214],"properties":{"Station_ID":"MN-HB-16","Station_Nam":"PARK RAPIDS 2.0 NNW, MN","Latitude":"46.94214","Longitude":"-95.08179","Snowdepth":"1.000","Units":"in","Rept_Date":"2025-04-05 12"}},{"type":"Point","coordinates":[-94.29969,46.63421],"properties":{"Station_ID":"MN-CW-77","Station_Nam":"PEQUOT LAKES 3.2 N, MN","Latitude":"46.63421","Longitude":"-94.29969","Snowdepth":"1.000","Units":"in","Rept_Date":"2025-04-05 12"}},{"type":"Point","coordinates":[-92.42698,46.74146],"properties":{"Station_ID":"MN-CN-36","Station_Nam":"CLOQUET 3.4 ENE, MN","Latitude":"46.74146","Longitude":"-92.42698","Snowdepth":"1.000","Units":"in","Rept_Date":"2025-04-05 12"}},{"type":"Point","coordinates":[-86.5485,45.89815],"properties":{"Station_ID":"MI-DL-1","Station_Nam":"GARDEN CORNERS 0.8 NW, MI","Latitude":"45.89815","Longitude":"-86.54850","Snowdepth":"1.000","Units":"in","Rept_Date":"2025-04-05 12"}},{"type":"Point","coordinates":[-88.08416,45.82719],"properties":{"Station_ID":"MI-DC-6","Station_Nam":"IRON MOUNTAIN 1.1 W, MI","Latitude":"45.82719","Longitude":"-88.08416","Snowdepth":"1.000","Units":"in","Rept_Date":"2025-04-05 12"}},{"type":"Point","coordinates":[-71.3,44.26666],"properties":{"Station_ID":"KMWN","Station_Nam":"MOUNT WASHINGTON","Latitude":"44.26666","Longitude":"-71.30000","Snowdepth":"1.000","Units":"in","Rept_Date":"2025-04-06 06"}},{"type":"Point","coordinates":[-93.3964,48.5778],"properties":{"Station_ID":"IFSM5","Station_Nam":"INTL FALLS SNOW","Latitude":"48.57780","Longitude":"-93.39640","Snowdepth":"1.000","Units":"in","Rept_Date":"2025-04-05 11"}},{"type":"Point","coordinates":[-97.2267,44.6633],"properties":{"Station_ID":"HYTS2","Station_Nam":"HAYTI 1W","Latitude":"44.66330","Longitude":"-97.22670","Snowdepth":"1.000","Units":"in","Rept_Date":"2025-04-05 13"}},{"type":"Point","coordinates":[-90.3282,47.7518],"properties":{"Station_ID":"GMRM5","Station_Nam":"GRAND MARIAS WATER TREATMENT PLANT","Latitude":"47.75180","Longitude":"-90.32820","Snowdepth":"1.000","Units":"in","Rept_Date":"2025-04-05 11"}},{"type":"Point","coordinates":[-86.5485,45.8983],"properties":{"Station_ID":"GDCM4","Station_Nam":"GARDEN CORNERS","Latitude":"45.89830","Longitude":"-86.54850","Snowdepth":"1.000","Units":"in","Rept_Date":"2025-04-05 12"}},{"type":"Point","coordinates":[-92.8671,46.9195],"properties":{"Station_ID":"FLDM5","Station_Nam":"FLOODWOOD","Latitude":"46.91950","Longitude":"-92.86710","Snowdepth":"1.000","Units":"in","Rept_Date":"2025-04-05 12"}},{"type":"Point","coordinates":[-96.7962,46.8293],"properties":{"Station_ID":"FDRN8","Station_Nam":"FARGO 3S","Latitude":"46.82930","Longitude":"-96.79620","Snowdepth":"1.000","Units":"in","Rept_Date":"2025-04-05 21"}},{"type":"Point","coordinates":[-71.3425,43.8099],"properties":{"Station_ID":"ESDN3","Station_Nam":"EAST SANDWICH","Latitude":"43.80990","Longitude":"-71.34250","Snowdepth":"1.000","Units":"in","Rept_Date":"2025-04-05 10"}},{"type":"Point","coordinates":[-88.9038,45.6736],"properties":{"Station_ID":"AGNW3","Station_Nam":"ARGONNE-1.5 NW","Latitude":"45.67360","Longitude":"-88.90380","Snowdepth":"1.000","Units":"in","Rept_Date":"2025-04-05 12"}},{"type":"Point","coordinates":[-88.0856,45.78378],"properties":{"Station_ID":"62681_MADIS","Station_Nam":"AURORA 0.7 E, WI","Latitude":"45.78378","Longitude":"-88.08560","Snowdepth":"1.000","Units":"in","Rept_Date":"2025-04-05 11"}}]}},"arcs":[],"bbox":[-97.2381,38.17779,-53.5195,52.1145]}
