{"type":"Topology","objects":{"snowdepth_geo":{"type":"GeometryCollection","name":"snowdepth","crs":{"type":"name","properties":{"name":"urn:ogc:def:crs:OGC:1.3:CRS84"}},"geometries":[{"type":"Point","properties":{"Station_ID":"PRKM4","Station_Nam":"MUNISING EAST","Latitude":"46.42580","Longitude":"-86.62000","Snowdepth":"76.500","Units":"in","Rept_Date":"2019-12-08 06"},"coordinates":[2492,6701]},{"type":"Point","properties":{"Station_ID":"OGIQ6","Station_Nam":"OGOKI CAMP","Latitude":"50.76680","Longitude":"-87.85820","Snowdepth":"61.100","Units":"in","Rept_Date":"2019-12-08 06"},"coordinates":[2202,9402]},{"type":"Point","properties":{"Station_ID":"AUDQ6","Station_Nam":"AUDEN","Latitude":"48.52600","Longitude":"-82.57570","Snowdepth":"47.640","Units":"in","Rept_Date":"2019-12-08 06"},"coordinates":[3441,8008]},{"type":"Point","properties":{"Station_ID":"DVLQ6","Station_Nam":"DEVIOUS LAKE","Latitude":"49.19890","Longitude":"-87.76440","Snowdepth":"43.460","Units":"in","Rept_Date":"2019-12-08 06"},"coordinates":[2224,8426]},{"type":"Point","properties":{"Station_ID":"GMSM4","Station_Nam":"GRAND MARAIS 10S","Latitude":"46.50940","Longitude":"-85.96310","Snowdepth":"30.000","Units":"in","Rept_Date":"2019-12-07 13"},"coordinates":[2646,6753]},{"type":"Point","properties":{"Station_ID":"HURW3","Station_Nam":"HURLEY","Latitude":"46.46250","Longitude":"-90.19550","Snowdepth":"29.000","Units":"in","Rept_Date":"2019-12-07 14"},"coordinates":[1653,6724]},{"type":"Point","properties":{"Station_ID":"HTLN3","Station_Nam":"HERMIT LAKE SNOWPLOT","Latitude":"44.26130","Longitude":"-71.28330","Snowdepth":"29.000","Units":"in","Rept_Date":"2019-12-07 11"},"coordinates":[6092,5354]},{"type":"Point","properties":{"Station_ID":"SWTW3","Station_Nam":"SUPERIOR WWTP","Latitude":"46.72700","Longitude":"-92.07200","Snowdepth":"26.000","Units":"in","Rept_Date":"2019-12-08 06"},"coordinates":[1213,6888]},{"type":"Point","properties":{"Station_ID":"PDLM4","Station_Nam":"PAINESDALE","Latitude":"47.04160","Longitude":"-88.67170","Snowdepth":"25.000","Units":"in","Rept_Date":"2019-12-07 13"},"coordinates":[2011,7084]},{"type":"Point","properties":{"Station_ID":"NH-RC-65","Station_Nam":"DERRY 4.2 NW, NH","Latitude":"42.93825","Longitude":"-71.34552","Snowdepth":"24.900","Units":"in","Rept_Date":"2019-12-07 12"},"coordinates":[6077,4531]},{"type":"Point","properties":{"Station_ID":"HVCN3","Station_Nam":"HARVARD CABIN SNOWPLOT","Latitude":"44.26630","Longitude":"-71.27790","Snowdepth":"24.000","Units":"in","Rept_Date":"2019-12-07 10"},"coordinates":[6093,5357]},{"type":"Point","properties":{"Station_ID":"VT-WH-9","Station_Nam":"WEST HALIFAX 0.2 SE, VT","Latitude":"42.78561","Longitude":"-72.76950","Snowdepth":"23.500","Units":"in","Rept_Date":"2019-12-07 14"},"coordinates":[5743,4436]},{"type":"Point","properties":{"Station_ID":"WI-IR-3","Station_Nam":"PENCE 0.1 E, WI","Latitude":"46.41555","Longitude":"-90.27013","Snowdepth":"23.000","Units":"in","Rept_Date":"2019-12-07 13"},"coordinates":[1635,6695]},{"type":"Point","properties":{"Station_ID":"MMNV1","Station_Nam":"MT. MANSFIELD","Latitude":"44.52480","Longitude":"-72.81540","Snowdepth":"23.000","Units":"in","Rept_Date":"2019-12-07 21"},"coordinates":[5732,5518]},{"type":"Point","properties":{"Station_ID":"NY-SC-2","Station_Nam":"SCOTIA 1.1 NW, NY","Latitude":"42.84473","Longitude":"-73.97480","Snowdepth":"22.500","Units":"in","Rept_Date":"2019-12-07 11"},"coordinates":[5460,4473]},{"type":"Point","properties":{"Station_ID":"MA-WR-56","Station_Nam":"STERLING 4.3 NW, MA","Latitude":"42.47540","Longitude":"-71.81140","Snowdepth":"22.500","Units":"in","Rept_Date":"2019-12-07 12"},"coordinates":[5968,4243]},{"type":"Point","properties":{"Station_ID":"UPSW3","Station_Nam":"UPSON,WI","Latitude":"46.36780","Longitude":"-90.41220","Snowdepth":"22.000","Units":"in","Rept_Date":"2019-12-08 00"},"coordinates":[1602,6665]},{"type":"Point","properties":{"Station_ID":"NWCM4","Station_Nam":"NEWBERRY CITY","Latitude":"46.35720","Longitude":"-85.51780","Snowdepth":"22.000","Units":"in","Rept_Date":"2019-12-07 12"},"coordinates":[2751,6658]},{"type":"Point","properties":{"Station_ID":"MQT","Station_Nam":"MARQUETTE, MI","Latitude":"46.53140","Longitude":"-87.54920","Snowdepth":"22.000","Units":"in","Rept_Date":"2019-12-08 05"},"coordinates":[2274,6767]},{"type":"Point","properties":{"Station_ID":"KISM4","Station_Nam":"K.I. SAWYER WWTP","Latitude":"46.33410","Longitude":"-87.37790","Snowdepth":"22.000","Units":"in","Rept_Date":"2019-12-07 13"},"coordinates":[2314,6644]},{"type":"Point","properties":{"Station_ID":"ABNM3","Station_Nam":"ASHBURNHAM NORTH","Latitude":"42.66170","Longitude":"-71.93590","Snowdepth":"22.000","Units":"in","Rept_Date":"2019-12-07 12"},"coordinates":[5938,4359]},{"type":"Point","properties":{"Station_ID":"WRSM5","Station_Nam":"WRENSHALL","Latitude":"46.61550","Longitude":"-92.38380","Snowdepth":"21.000","Units":"in","Rept_Date":"2019-12-07 14"},"coordinates":[1139,6819]},{"type":"Point","properties":{"Station_ID":"VT-BN-12","Station_Nam":"STAMFORD 5.0 NNE, VT","Latitude":"42.82000","Longitude":"-73.02000","Snowdepth":"21.000","Units":"in","Rept_Date":"2019-12-07 21"},"coordinates":[5684,4458]},{"type":"Point","properties":{"Station_ID":"MAIW3","Station_Nam":"MADELINE ISLAND","Latitude":"46.78330","Longitude":"-90.76670","Snowdepth":"21.000","Units":"in","Rept_Date":"2019-12-07 13"},"coordinates":[1519,6923]},{"type":"Point","properties":{"Station_ID":"LVDW3","Station_Nam":"LAC VIEUX DESERT","Latitude":"46.12110","Longitude":"-89.07580","Snowdepth":"21.000","Units":"in","Rept_Date":"2019-12-07 15"},"coordinates":[1916,6511]},{"type":"Point","properties":{"Station_ID":"BBEM4","Station_Nam":"BIG BAY 9SW","Latitude":"46.74620","Longitude":"-87.88160","Snowdepth":"21.000","Units":"in","Rept_Date":"2019-12-07 13"},"coordinates":[2196,6900]},{"type":"Point","properties":{"Station_ID":"GREN3","Station_Nam":"GREENVILLE 1 NNE","Latitude":"42.78270","Longitude":"-71.79850","Snowdepth":"20.000","Units":"in","Rept_Date":"2019-12-07 14"},"coordinates":[5971,4434]},{"type":"Point","properties":{"Station_ID":"GNLM4","Station_Nam":"GREENLAND 6N","Latitude":"46.87360","Longitude":"-89.10060","Snowdepth":"20.000","Units":"in","Rept_Date":"2019-12-07 13"},"coordinates":[1910,6980]},{"type":"Point","properties":{"Station_ID":"QGD","Station_Nam":"QGD","Latitude":"51.11140","Longitude":"-67.13940","Snowdepth":"19.724","Units":"in","Rept_Date":"2019-12-07 12"},"coordinates":[7064,9616]},{"type":"Point","properties":{"Station_ID":"MI-BG-3","Station_Nam":"L'ANSE 17.8 SE, MI","Latitude":"46.55730","Longitude":"-88.20770","Snowdepth":"19.500","Units":"in","Rept_Date":"2019-12-07 13"},"coordinates":[2119,6783]},{"type":"Point","properties":{"Station_ID":"RRVM4","Station_Nam":"RAPID RIVER 9S","Latitude":"45.78750","Longitude":"-86.93920","Snowdepth":"19.000","Units":"in","Rept_Date":"2019-12-07 16"},"coordinates":[2417,6304]},{"type":"Point","properties":{"Station_ID":"PHEW3","Station_Nam":"PHELPS","Latitude":"46.06630","Longitude":"-89.07520","Snowdepth":"19.000","Units":"in","Rept_Date":"2019-12-07 13"},"coordinates":[1916,6477]},{"type":"Point","properties":{"Station_ID":"MA-WR-22","Station_Nam":"FITCHBURG 2.0 NNE, MA","Latitude":"42.61671","Longitude":"-71.80100","Snowdepth":"19.000","Units":"in","Rept_Date":"2019-12-07 13"},"coordinates":[5970,4331]},{"type":"Point","properties":{"Station_ID":"GLDM4","Station_Nam":"GLADSTONE NO. 2","Latitude":"45.84330","Longitude":"-87.03910","Snowdepth":"19.000","Units":"in","Rept_Date":"2019-12-07 12"},"coordinates":[2394,6339]},{"type":"Point","properties":{"Station_ID":"FCHM3","Station_Nam":"FITCHBURG COOP","Latitude":"42.61680","Longitude":"-71.80170","Snowdepth":"19.000","Units":"in","Rept_Date":"2019-12-07 13"},"coordinates":[5970,4331]},{"type":"Point","properties":{"Station_ID":"ESGM1","Station_Nam":"EAST SANGERVILLE","Latitude":"45.13690","Longitude":"-69.28060","Snowdepth":"19.000","Units":"in","Rept_Date":"2019-12-07 12"},"coordinates":[6562,5899]},{"type":"Point","properties":{"Station_ID":"ESAM4","Station_Nam":"ESCANABA","Latitude":"45.74380","Longitude":"-87.04060","Snowdepth":"19.000","Units":"in","Rept_Date":"2019-12-07 12"},"coordinates":[2393,6277]},{"type":"Point","properties":{"Station_ID":"NH-HL-48","Station_Nam":"GREENVILLE 1.1 ENE, NH","Latitude":"42.77674","Longitude":"-71.77990","Snowdepth":"18.500","Units":"in","Rept_Date":"2019-12-07 13"},"coordinates":[5975,4431]},{"type":"Point","properties":{"Station_ID":"WI-WB-2","Station_Nam":"STONE LAKE 2.0 NW, WI","Latitude":"45.85960","Longitude":"-91.57710","Snowdepth":"18.000","Units":"in","Rept_Date":"2019-12-07 13"},"coordinates":[1329,6349]},{"type":"Point","properties":{"Station_ID":"WI-BY-14","Station_Nam":"ASHLAND 9.8 W, WI","Latitude":"46.59742","Longitude":"-91.07856","Snowdepth":"18.000","Units":"in","Rept_Date":"2019-12-07 12"},"coordinates":[1446,6808]},{"type":"Point","properties":{"Station_ID":"QNCM4","Station_Nam":"QUINCY HILL","Latitude":"47.13640","Longitude":"-88.57950","Snowdepth":"18.000","Units":"in","Rept_Date":"2019-12-07 12"},"coordinates":[2032,7143]},{"type":"Point","properties":{"Station_ID":"NH-HL-19","Station_Nam":"BROOKLINE 2.1 SW, NH","Latitude":"42.71235","Longitude":"-71.69760","Snowdepth":"18.000","Units":"in","Rept_Date":"2019-12-07 14"},"coordinates":[5994,4391]},{"type":"Point","properties":{"Station_ID":"NH-CS-10","Station_Nam":"RANDOLPH 1.4 NE, NH","Latitude":"44.38824","Longitude":"-71.26950","Snowdepth":"18.000","Units":"in","Rept_Date":"2019-12-07 12"},"coordinates":[6095,5433]},{"type":"Point","properties":{"Station_ID":"KSGM4","Station_Nam":"KEARSARGE","Latitude":"47.27520","Longitude":"-88.41700","Snowdepth":"18.000","Units":"in","Rept_Date":"2019-12-07 13"},"coordinates":[2070,7229]},{"type":"Point","properties":{"Station_ID":"JAPN3","Station_Nam":"JAFFREY SILVER RANCH AIRPARK","Latitude":"42.80880","Longitude":"-72.00530","Snowdepth":"18.000","Units":"in","Rept_Date":"2019-12-07 12"},"coordinates":[5922,4451]},{"type":"Point","properties":{"Station_ID":"ILIM5","Station_Nam":"ISLAND LAKE","Latitude":"47.02400","Longitude":"-92.07000","Snowdepth":"18.000","Units":"in","Rept_Date":"2019-12-07 15"},"coordinates":[1213,7073]},{"type":"Point","properties":{"Station_ID":"DLSN6","Station_Nam":"DELANSON 2NE","Latitude":"42.76720","Longitude":"-74.17110","Snowdepth":"18.000","Units":"in","Rept_Date":"2019-12-07 12"},"coordinates":[5414,4425]},{"type":"Point","properties":{"Station_ID":"BFHW3","Station_Nam":"BAYFIELD FISH HATCHERY","Latitude":"46.78670","Longitude":"-90.86420","Snowdepth":"18.000","Units":"in","Rept_Date":"2019-12-07 14"},"coordinates":[1496,6926]},{"type":"Point","properties":{"Station_ID":"ME-AR-18","Station_Nam":"NEW SWEDEN 4.9 NNW, ME","Latitude":"47.01080","Longitude":"-68.14390","Snowdepth":"17.500","Units":"in","Rept_Date":"2019-12-07 12"},"coordinates":[6828,7065]},{"type":"Point","properties":{"Station_ID":"WRPW3","Station_Nam":"WATER PURIFICATION PLANT","Latitude":"44.38800","Longitude":"-89.80550","Snowdepth":"17.000","Units":"in","Rept_Date":"2019-12-07 12"},"coordinates":[1744,5433]},{"type":"Point","properties":{"Station_ID":"WI-BY-1","Station_Nam":"BAYFIELD 8.8 N, WI","Latitude":"46.93855","Longitude":"-90.83490","Snowdepth":"17.000","Units":"in","Rept_Date":"2019-12-07 13"},"coordinates":[1503,7020]},{"type":"Point","properties":{"Station_ID":"RPDM4","Station_Nam":"RAPID RIVER 4SSE","Latitude":"45.87270","Longitude":"-86.94960","Snowdepth":"17.000","Units":"in","Rept_Date":"2019-12-07 14"},"coordinates":[2415,6357]},{"type":"Point","properties":{"Station_ID":"PDGM4","Station_Nam":"PAULDING","Latitude":"46.39760","Longitude":"-89.17940","Snowdepth":"17.000","Units":"in","Rept_Date":"2019-12-07 14"},"coordinates":[1891,6683]},{"type":"Point","properties":{"Station_ID":"NY-AB-54","Station_Nam":"ALTAMONT 2.9 SW, NY","Latitude":"42.68182","Longitude":"-74.08326","Snowdepth":"17.000","Units":"in","Rept_Date":"2019-12-07 12"},"coordinates":[5434,4372]},{"type":"Point","properties":{"Station_ID":"MA-WR-54","Station_Nam":"BARRE 1.4 NNE, MA","Latitude":"42.44082","Longitude":"-72.09591","Snowdepth":"17.000","Units":"in","Rept_Date":"2019-12-07 12"},"coordinates":[5901,4222]},{"type":"Point","properties":{"Station_ID":"DLHM5","Station_Nam":"DULUTH NWS","Latitude":"46.83680","Longitude":"-92.21080","Snowdepth":"17.000","Units":"in","Rept_Date":"2019-12-08 00"},"coordinates":[1180,6957]},{"type":"Point","properties":{"Station_ID":"DLH","Station_Nam":"DULUTH, MN","Latitude":"46.83690","Longitude":"-92.21030","Snowdepth":"17.000","Units":"in","Rept_Date":"2019-12-08 00"},"coordinates":[1180,6957]},{"type":"Point","properties":{"Station_ID":"ASBM3","Station_Nam":"ASHBURNHAM","Latitude":"42.61780","Longitude":"-71.91590","Snowdepth":"17.000","Units":"in","Rept_Date":"2019-12-07 12"},"coordinates":[5943,4332]},{"type":"Point","properties":{"Station_ID":"MA-WR-44","Station_Nam":"WESTMINSTER 0.6 WSW, MA","Latitude":"42.54505","Longitude":"-71.91032","Snowdepth":"16.500","Units":"in","Rept_Date":"2019-12-07 12"},"coordinates":[5944,4287]},{"type":"Point","properties":{"Station_ID":"MA-MD-47","Station_Nam":"WEST TOWNSEND 0.5 W, MA","Latitude":"42.67623","Longitude":"-71.74983","Snowdepth":"16.500","Units":"in","Rept_Date":"2019-12-07 11"},"coordinates":[5982,4368]},{"type":"Point","properties":{"Station_ID":"MA-HS-7","Station_Nam":"PLAINFIELD 2.2 SW, MA","Latitude":"42.49272","Longitude":"-72.94540","Snowdepth":"16.500","Units":"in","Rept_Date":"2019-12-07 13"},"coordinates":[5701,4254]},{"type":"Point","properties":{"Station_ID":"MA-BE-20","Station_Nam":"LEE 3.7 SE, MA","Latitude":"42.27242","Longitude":"-73.19763","Snowdepth":"16.300","Units":"in","Rept_Date":"2019-12-07 12"},"coordinates":[5642,4117]},{"type":"Point","properties":{"Station_ID":"QOU","Station_Nam":"QOU","Latitude":"50.79250","Longitude":"-69.67470","Snowdepth":"16.102","Units":"in","Rept_Date":"2019-12-07 12"},"coordinates":[6469,9418]},{"type":"Point","properties":{"Station_ID":"WTRM4","Station_Nam":"WATERSMEET 12WSW","Latitude":"46.22310","Longitude":"-89.40850","Snowdepth":"16.000","Units":"in","Rept_Date":"2019-12-07 12"},"coordinates":[1838,6575]},{"type":"Point","properties":{"Station_ID":"WI-VL-10","Station_Nam":"LAND O LAKES 4.3 WNW, WI","Latitude":"46.17440","Longitude":"-89.30380","Snowdepth":"16.000","Units":"in","Rept_Date":"2019-12-07 13"},"coordinates":[1862,6545]},{"type":"Point","properties":{"Station_ID":"WI-DG-20","Station_Nam":"SOLON SPRINGS 1.2 W, WI","Latitude":"46.35217","Longitude":"-91.84405","Snowdepth":"16.000","Units":"in","Rept_Date":"2019-12-07 13"},"coordinates":[1266,6655]},{"type":"Point","properties":{"Station_ID":"SUAW3","Station_Nam":"SUAMICO","Latitude":"44.60190","Longitude":"-88.09780","Snowdepth":"16.000","Units":"in","Rept_Date":"2019-12-07 12"},"coordinates":[2145,5566]},{"type":"Point","properties":{"Station_ID":"NY-RN-20","Station_Nam":"TROY 2.1 NNE, NY","Latitude":"42.75930","Longitude":"-73.65283","Snowdepth":"16.000","Units":"in","Rept_Date":"2019-12-07 12"},"coordinates":[5535,4420]},{"type":"Point","properties":{"Station_ID":"NY-GR-14","Station_Nam":"LEXINGTON 1.5 N, NY","Latitude":"42.26024","Longitude":"-74.35875","Snowdepth":"16.000","Units":"in","Rept_Date":"2019-12-07 12"},"coordinates":[5370,4109]},{"type":"Point","properties":{"Station_ID":"NY-AB-1","Station_Nam":"ALTAMONT 2.7 SSW, NY","Latitude":"42.66696","Longitude":"-74.05090","Snowdepth":"16.000","Units":"in","Rept_Date":"2019-12-07 12"},"coordinates":[5442,4362]},{"type":"Point","properties":{"Station_ID":"MNSM4","Station_Nam":"MUNISING","Latitude":"46.41210","Longitude":"-86.66250","Snowdepth":"16.000","Units":"in","Rept_Date":"2019-12-07 11"},"coordinates":[2482,6692]},{"type":"Point","properties":{"Station_ID":"IRMM4","Station_Nam":"WWTP","Latitude":"46.46670","Longitude":"-90.18330","Snowdepth":"16.000","Units":"in","Rept_Date":"2019-12-07 13"},"coordinates":[1656,6726]},{"type":"Point","properties":{"Station_ID":"IBLM5","Station_Nam":"ISABELLA 14W","Latitude":"47.59360","Longitude":"-91.65140","Snowdepth":"16.000","Units":"in","Rept_Date":"2019-12-07 15"},"coordinates":[1311,7428]},{"type":"Point","properties":{"Station_ID":"GGRM4","Station_Nam":"GREEN GARDEN NO.2","Latitude":"46.45330","Longitude":"-87.30380","Snowdepth":"16.000","Units":"in","Rept_Date":"2019-12-07 12"},"coordinates":[2332,6718]},{"type":"Point","properties":{"Station_ID":"EHYM3","Station_Nam":"EAST HAWLEY","Latitude":"42.57410","Longitude":"-72.86790","Snowdepth":"16.000","Units":"in","Rept_Date":"2019-12-07 15"},"coordinates":[5720,4305]},{"type":"Point","properties":{"Station_ID":"CRVW3","Station_Nam":"CRIVITZ HIGH FALLS","Latitude":"45.35750","Longitude":"-88.19190","Snowdepth":"16.000","Units":"in","Rept_Date":"2019-12-07 13"},"coordinates":[2123,6036]},{"type":"Point","properties":{"Station_ID":"BRDM1","Station_Nam":"BRIDGEWATER","Latitude":"46.42870","Longitude":"-67.84370","Snowdepth":"16.000","Units":"in","Rept_Date":"2019-12-07 23"},"coordinates":[6899,6703]},{"type":"Point","properties":{"Station_ID":"ASXW3","Station_Nam":"ASHLAND,WI","Latitude":"46.55220","Longitude":"-90.91610","Snowdepth":"16.000","Units":"in","Rept_Date":"2019-12-07 14"},"coordinates":[1484,6780]},{"type":"Point","properties":{"Station_ID":"ME-PN-45","Station_Nam":"MILLINOCKET 2.7 ESE, ME","Latitude":"45.65002","Longitude":"-68.64472","Snowdepth":"15.800","Units":"in","Rept_Date":"2019-12-07 13"},"coordinates":[6711,6218]},{"type":"Point","properties":{"Station_ID":"WI-BY-22","Station_Nam":"MASON 11.5 WNW, WI","Latitude":"46.50198","Longitude":"-91.28339","Snowdepth":"15.500","Units":"in","Rept_Date":"2019-12-07 14"},"coordinates":[1398,6748]},{"type":"Point","properties":{"Station_ID":"MA-WR-8","Station_Nam":"FITCHBURG 1.6 SSW, MA","Latitude":"42.56674","Longitude":"-71.82170","Snowdepth":"15.500","Units":"in","Rept_Date":"2019-12-07 11"},"coordinates":[5965,4300]},{"type":"Point","properties":{"Station_ID":"WI-IR-2","Station_Nam":"MERCER 2.0 SE, WI","Latitude":"46.14749","Longitude":"-90.03097","Snowdepth":"15.200","Units":"in","Rept_Date":"2019-12-07 13"},"coordinates":[1692,6528]},{"type":"Point","properties":{"Station_ID":"WORM3","Station_Nam":"WORTHINGTON","Latitude":"42.38690","Longitude":"-72.92100","Snowdepth":"15.000","Units":"in","Rept_Date":"2019-12-07 12"},"coordinates":[5707,4188]},{"type":"Point","properties":{"Station_ID":"WI-VL-9","Station_Nam":"LAND O' LAKES 11.7 W, WI","Latitude":"46.19023","Longitude":"-89.45790","Snowdepth":"15.000","Units":"in","Rept_Date":"2019-12-07 13"},"coordinates":[1826,6554]},{"type":"Point","properties":{"Station_ID":"SHHN6","Station_Nam":"SCHOHARIE VILLAGE","Latitude":"42.66500","Longitude":"-74.30360","Snowdepth":"15.000","Units":"in","Rept_Date":"2019-12-07 12"},"coordinates":[5383,4361]},{"type":"Point","properties":{"Station_ID":"ROWM3","Station_Nam":"ROWE 3NE","Latitude":"42.73500","Longitude":"-72.86920","Snowdepth":"15.000","Units":"in","Rept_Date":"2019-12-07 15"},"coordinates":[5719,4405]},{"type":"Point","properties":{"Station_ID":"RLKW3","Station_Nam":"REST LAKE","Latitude":"46.12220","Longitude":"-89.87720","Snowdepth":"15.000","Units":"in","Rept_Date":"2019-12-07 14"},"coordinates":[1728,6512]},{"type":"Point","properties":{"Station_ID":"PHON6","Station_Nam":"PHOENICIA 2SW","Latitude":"42.06420","Longitude":"-74.34080","Snowdepth":"15.000","Units":"in","Rept_Date":"2019-12-07 12"},"coordinates":[5374,3987]},{"type":"Point","properties":{"Station_ID":"NY-SC-20","Station_Nam":"ROTTERDAM 0.9 NW, NY","Latitude":"42.78862","Longitude":"-73.96671","Snowdepth":"15.000","Units":"in","Rept_Date":"2019-12-07 13"},"coordinates":[5462,4438]},{"type":"Point","properties":{"Station_ID":"NY-JF-30","Station_Nam":"WEST CARTHAGE 0.3 ENE, NY","Latitude":"43.97493","Longitude":"-75.61640","Snowdepth":"15.000","Units":"in","Rept_Date":"2019-12-07 12"},"coordinates":[5075,5176]},{"type":"Point","properties":{"Station_ID":"NY-AB-23","Station_Nam":"ALBANY 0.7 SW, NY","Latitude":"42.66019","Longitude":"-73.81030","Snowdepth":"15.000","Units":"in","Rept_Date":"2019-12-07 12"},"coordinates":[5498,4358]},{"type":"Point","properties":{"Station_ID":"NH-RC-72","Station_Nam":"DERRY 5.7 N, NH","Latitude":"42.97653","Longitude":"-71.27139","Snowdepth":"15.000","Units":"in","Rept_Date":"2019-12-07 12"},"coordinates":[6094,4555]},{"type":"Point","properties":{"Station_ID":"NH-HL-49","Station_Nam":"MONT VERNON 1.3 SSW, NH","Latitude":"42.87616","Longitude":"-71.68280","Snowdepth":"15.000","Units":"in","Rept_Date":"2019-12-07 12"},"coordinates":[5998,4493]},{"type":"Point","properties":{"Station_ID":"MRLV1","Station_Nam":"MARLBORO","Latitude":"42.86000","Longitude":"-72.72000","Snowdepth":"15.000","Units":"in","Rept_Date":"2019-12-07 12"},"coordinates":[5754,4483]},{"type":"Point","properties":{"Station_ID":"MN-SL-105","Station_Nam":"DULUTH 11.8 NNE, MN","Latitude":"46.94680","Longitude":"-92.03925","Snowdepth":"15.000","Units":"in","Rept_Date":"2019-12-07 13"},"coordinates":[1220,7025]},{"type":"Point","properties":{"Station_ID":"ME-AR-15","Station_Nam":"PRESQUE ISLE 1.3 WSW, ME","Latitude":"46.67960","Longitude":"-68.01270","Snowdepth":"15.000","Units":"in","Rept_Date":"2019-12-07 12"},"coordinates":[6859,6859]},{"type":"Point","properties":{"Station_ID":"LNOW3","Station_Nam":"LAND O LAKES","Latitude":"46.19000","Longitude":"-89.45700","Snowdepth":"15.000","Units":"in","Rept_Date":"2019-12-07 13"},"coordinates":[1826,6554]},{"type":"Point","properties":{"Station_ID":"LBKV1","Station_Nam":"LYE BROOK","Latitude":"43.05000","Longitude":"-73.03330","Snowdepth":"15.000","Units":"in","Rept_Date":"2019-12-08 06"},"coordinates":[5681,4601]},{"type":"Point","properties":{"Station_ID":"HRKM3","Station_Nam":"HARDWICK 2 ESE","Latitude":"42.34570","Longitude":"-72.15410","Snowdepth":"15.000","Units":"in","Rept_Date":"2019-12-07 13"},"coordinates":[5887,4163]},{"type":"Point","properties":{"Station_ID":"GHMN3","Station_Nam":"PINKHAM NOTCH","Latitude":"44.25800","Longitude":"-71.25250","Snowdepth":"15.000","Units":"in","Rept_Date":"2019-12-07 10"},"coordinates":[6099,5352]},{"type":"Point","properties":{"Station_ID":"COBN6","Station_Nam":"COBLESKILL 2ESE","Latitude":"42.66710","Longitude":"-74.44230","Snowdepth":"15.000","Units":"in","Rept_Date":"2019-12-07 13"},"coordinates":[5350,4363]},{"type":"Point","properties":{"Station_ID":"ASTW3","Station_Nam":"ATHELSTANE","Latitude":"45.42500","Longitude":"-88.05750","Snowdepth":"15.000","Units":"in","Rept_Date":"2019-12-07 12"},"coordinates":[2155,6078]},{"type":"Point","properties":{"Station_ID":"AROM4","Station_Nam":"ARNOLD,MI","Latitude":"46.06670","Longitude":"-87.48330","Snowdepth":"15.000","Units":"in","Rept_Date":"2019-12-07 13"},"coordinates":[2290,6478]},{"type":"Point","properties":{"Station_ID":"ACVN6","Station_Nam":"ALCOVE DAM","Latitude":"42.46970","Longitude":"-73.92670","Snowdepth":"15.000","Units":"in","Rept_Date":"2019-12-07 13"},"coordinates":[5471,4240]},{"type":"Point","properties":{"Station_ID":"ABGW3","Station_Nam":"AMBERG 9 E","Latitude":"45.48250","Longitude":"-87.81190","Snowdepth":"15.000","Units":"in","Rept_Date":"2019-12-07 12"},"coordinates":[2212,6114]},{"type":"Point","properties":{"Station_ID":"QCU","Station_Nam":"QCU","Latitude":"47.82750","Longitude":"-76.59830","Snowdepth":"14.921","Units":"in","Rept_Date":"2019-12-07 12"},"coordinates":[4844,7573]},{"type":"Point","properties":{"Station_ID":"CAN-NB-105","Station_Nam":"SISSON BROOK 3.8 E, CAN","Latitude":"46.98305","Longitude":"-67.32532","Snowdepth":"14.600","Units":"in","Rept_Date":"2019-12-07 12"},"coordinates":[7020,7048]},{"type":"Point","properties":{"Station_ID":"WI-BY-2","Station_Nam":"MELLEN 18.6 SW, WI","Latitude":"46.16937","Longitude":"-90.98090","Snowdepth":"14.500","Units":"in","Rept_Date":"2019-12-07 13"},"coordinates":[1469,6541]},{"type":"Point","properties":{"Station_ID":"NY-OD-2","Station_Nam":"POINT ROCK 0.6 SE, NY","Latitude":"43.37335","Longitude":"-75.53840","Snowdepth":"14.500","Units":"in","Rept_Date":"2019-12-07 13"},"coordinates":[5093,4802]},{"type":"Point","properties":{"Station_ID":"NY-HR-18","Station_Nam":"SALISBURY CENTER 1.8 NW, NY","Latitude":"43.16260","Longitude":"-74.80880","Snowdepth":"14.500","Units":"in","Rept_Date":"2019-12-07 12"},"coordinates":[5264,4671]},{"type":"Point","properties":{"Station_ID":"MA-WR-75","Station_Nam":"WARREN 2.4 WSW, MA","Latitude":"42.20400","Longitude":"-72.23540","Snowdepth":"14.500","Units":"in","Rept_Date":"2019-12-07 12"},"coordinates":[5868,4074]},{"type":"Point","properties":{"Station_ID":"WI-PR-2","Station_Nam":"BUTTERNUT 5.9 SW, WI","Latitude":"45.96501","Longitude":"-90.59750","Snowdepth":"14.000","Units":"in","Rept_Date":"2019-12-07 12"},"coordinates":[1559,6414]},{"type":"Point","properties":{"Station_ID":"STGW3","Station_Nam":"ST GERMAIN","Latitude":"45.91550","Longitude":"-89.48940","Snowdepth":"14.000","Units":"in","Rept_Date":"2019-12-07 12"},"coordinates":[1819,6383]},{"type":"Point","properties":{"Station_ID":"SDLM3","Station_Nam":"SUNDERLAND","Latitude":"42.44480","Longitude":"-72.55290","Snowdepth":"14.000","Units":"in","Rept_Date":"2019-12-07 12"},"coordinates":[5794,4224]},{"type":"Point","properties":{"Station_ID":"NY-SR-16","Station_Nam":"BALLSTON SPA 2.9 ESE, NY","Latitude":"42.99000","Longitude":"-73.80000","Snowdepth":"14.000","Units":"in","Rept_Date":"2019-12-07 14"},"coordinates":[5501,4563]},{"type":"Point","properties":{"Station_ID":"NEDM1","Station_Nam":"CAPE NEDDICK","Latitude":"43.22410","Longitude":"-70.63880","Snowdepth":"14.000","Units":"in","Rept_Date":"2019-12-07 12"},"coordinates":[6243,4709]},{"type":"Point","properties":{"Station_ID":"MTQM4","Station_Nam":"MANISTIQUE WWTP","Latitude":"45.95120","Longitude":"-86.25130","Snowdepth":"14.000","Units":"in","Rept_Date":"2019-12-07 12"},"coordinates":[2579,6406]},{"type":"Point","properties":{"Station_ID":"ME-YK-52","Station_Nam":"YORK 5.2 N, ME","Latitude":"43.23585","Longitude":"-70.63400","Snowdepth":"14.000","Units":"in","Rept_Date":"2019-12-07 12"},"coordinates":[6244,4716]},{"type":"Point","properties":{"Station_ID":"MA-FR-12","Station_Nam":"SUNDERLAND 1.3 SE, MA","Latitude":"42.45217","Longitude":"-72.56610","Snowdepth":"14.000","Units":"in","Rept_Date":"2019-12-07 12"},"coordinates":[5790,4229]},{"type":"Point","properties":{"Station_ID":"HMPN3","Station_Nam":"WEST HAMPSTEAD","Latitude":"42.91080","Longitude":"-71.20200","Snowdepth":"14.000","Units":"in","Rept_Date":"2019-12-07 12"},"coordinates":[6111,4514]},{"type":"Point","properties":{"Station_ID":"HERM4","Station_Nam":"HERMAN,MI","Latitude":"46.65000","Longitude":"-88.33330","Snowdepth":"14.000","Units":"in","Rept_Date":"2019-12-07 13"},"coordinates":[2090,6840]},{"type":"Point","properties":{"Station_ID":"EMLN3","Station_Nam":"EAST MILFORD","Latitude":"42.82660","Longitude":"-71.62600","Snowdepth":"14.000","Units":"in","Rept_Date":"2019-12-07 12"},"coordinates":[6011,4462]},{"type":"Point","properties":{"Station_ID":"COUW3","Station_Nam":"COUDERAY,WI","Latitude":"45.86670","Longitude":"-91.45000","Snowdepth":"14.000","Units":"in","Rept_Date":"2019-12-07 22"},"coordinates":[1359,6353]},{"type":"Point","properties":{"Station_ID":"CMKW3","Station_Nam":"CLAM LAKE 4W","Latitude":"46.16940","Longitude":"-90.98080","Snowdepth":"14.000","Units":"in","Rept_Date":"2019-12-07 13"},"coordinates":[1469,6541]},{"type":"Point","properties":{"Station_ID":"CARM1","Station_Nam":"CARIBOU WFO","Latitude":"46.86810","Longitude":"-68.01250","Snowdepth":"14.000","Units":"in","Rept_Date":"2019-12-08 05"},"coordinates":[6859,6976]},{"type":"Point","properties":{"Station_ID":"AVLV1","Station_Nam":"AVERILL","Latitude":"45.00570","Longitude":"-71.69030","Snowdepth":"14.000","Units":"in","Rept_Date":"2019-12-07 13"},"coordinates":[5996,5817]},{"type":"Point","properties":{"Station_ID":"MFU","Station_Nam":"MFU","Latitude":"51.52170","Longitude":"-66.91110","Snowdepth":"13.779","Units":"in","Rept_Date":"2019-12-07 12"},"coordinates":[7118,9871]},{"type":"Point","properties":{"Station_ID":"QGO","Station_Nam":"QGO","Latitude":"48.85500","Longitude":"-74.20640","Snowdepth":"13.622","Units":"in","Rept_Date":"2019-12-07 12"},"coordinates":[5405,8212]},{"type":"Point","properties":{"Station_ID":"VT-WH-29","Station_Nam":"BRATTLEBORO 0.7 S, VT","Latitude":"42.84030","Longitude":"-72.55580","Snowdepth":"13.500","Units":"in","Rept_Date":"2019-12-07 12"},"coordinates":[5793,4470]},{"type":"Point","properties":{"Station_ID":"NY-RN-1","Station_Nam":"AVERILL PARK 0.9 WNW, NY","Latitude":"42.63910","Longitude":"-73.56980","Snowdepth":"13.500","Units":"in","Rept_Date":"2019-12-07 13"},"coordinates":[5555,4345]},{"type":"Point","properties":{"Station_ID":"NY-AB-21","Station_Nam":"NWS ALBANY, NY","Latitude":"42.69180","Longitude":"-73.83110","Snowdepth":"13.500","Units":"in","Rept_Date":"2019-12-07 12"},"coordinates":[5494,4378]},{"type":"Point","properties":{"Station_ID":"MLZ","Station_Nam":"MLZ","Latitude":"50.66170","Longitude":"-68.82360","Snowdepth":"13.071","Units":"in","Rept_Date":"2019-12-07 12"},"coordinates":[6669,9336]},{"type":"Point","properties":{"Station_ID":"ZBWN3","Station_Nam":"NASHUA CWSU","Latitude":"42.73440","Longitude":"-71.48030","Snowdepth":"13.000","Units":"in","Rept_Date":"2019-12-07 12"},"coordinates":[6045,4404]},{"type":"Point","properties":{"Station_ID":"WI-VL-14","Station_Nam":"BOULDER JUNCTION 1.4 NE, WI","Latitude":"46.12840","Longitude":"-89.62470","Snowdepth":"13.000","Units":"in","Rept_Date":"2019-12-07 13"},"coordinates":[1787,6516]},{"type":"Point","properties":{"Station_ID":"VANM1","Station_Nam":"VAN BUREN","Latitude":"47.16600","Longitude":"-67.93900","Snowdepth":"13.000","Units":"in","Rept_Date":"2019-12-07 13"},"coordinates":[6876,7161]},{"type":"Point","properties":{"Station_ID":"TRYN6","Station_Nam":"TROY","Latitude":"42.75080","Longitude":"-73.68550","Snowdepth":"13.000","Units":"in","Rept_Date":"2019-12-07 12"},"coordinates":[5528,4415]},{"type":"Point","properties":{"Station_ID":"PEKN6","Station_Nam":"PECK LAKE","Latitude":"43.11500","Longitude":"-74.42360","Snowdepth":"13.000","Units":"in","Rept_Date":"2019-12-07 13"},"coordinates":[5355,4641]},{"type":"Point","properties":{"Station_ID":"NY-SC-11","Station_Nam":"SCHENECTADY 3.3 E, NY","Latitude":"42.79382","Longitude":"-73.86390","Snowdepth":"13.000","Units":"in","Rept_Date":"2019-12-07 14"},"coordinates":[5486,4441]},{"type":"Point","properties":{"Station_ID":"NY-GR-7","Station_Nam":"GREENVILLE 0.7 E, NY","Latitude":"42.41400","Longitude":"-74.00900","Snowdepth":"13.000","Units":"in","Rept_Date":"2019-12-07 10"},"coordinates":[5452,4205]},{"type":"Point","properties":{"Station_ID":"NY-GR-13","Station_Nam":"TANNERSVILLE 4.5 SSE, NY","Latitude":"42.13884","Longitude":"-74.08697","Snowdepth":"13.000","Units":"in","Rept_Date":"2019-12-07 12"},"coordinates":[5434,4034]},{"type":"Point","properties":{"Station_ID":"MRQM4","Station_Nam":"MARQUETTE WFP","Latitude":"46.54580","Longitude":"-87.37950","Snowdepth":"13.000","Units":"in","Rept_Date":"2019-12-07 13"},"coordinates":[2314,6776]},{"type":"Point","properties":{"Station_ID":"MRAM4","Station_Nam":"MORAN","Latitude":"45.99030","Longitude":"-84.83610","Snowdepth":"13.000","Units":"in","Rept_Date":"2019-12-07 13"},"coordinates":[2911,6430]},{"type":"Point","properties":{"Station_ID":"MI-HG-1","Station_Nam":"HOUGHTON 1.6 ESE, MI","Latitude":"47.10774","Longitude":"-88.52940","Snowdepth":"13.000","Units":"in","Rept_Date":"2019-12-07 13"},"coordinates":[2044,7125]},{"type":"Point","properties":{"Station_ID":"MHT","Station_Nam":"MANCHESTER AIRPORT GRENIER INDSTRL ARPK","Latitude":"42.93440","Longitude":"-71.43690","Snowdepth":"13.000","Units":"in","Rept_Date":"2019-12-07 12"},"coordinates":[6055,4529]},{"type":"Point","properties":{"Station_ID":"MA-WR-58","Station_Nam":"LUNENBURG 0.6 NE, MA","Latitude":"42.60180","Longitude":"-71.71653","Snowdepth":"13.000","Units":"in","Rept_Date":"2019-12-07 13"},"coordinates":[5990,4322]},{"type":"Point","properties":{"Station_ID":"MA-MD-125","Station_Nam":"TEWKSBURY 3.6 SSE, MA","Latitude":"42.57083","Longitude":"-71.19813","Snowdepth":"13.000","Units":"in","Rept_Date":"2019-12-07 13"},"coordinates":[6112,4303]},{"type":"Point","properties":{"Station_ID":"MA-HD-28","Station_Nam":"WESTFIELD 2.8 SE, MA","Latitude":"42.10685","Longitude":"-72.72148","Snowdepth":"13.000","Units":"in","Rept_Date":"2019-12-07 11"},"coordinates":[5754,4014]},{"type":"Point","properties":{"Station_ID":"MA-FR-13","Station_Nam":"CONWAY 2.9 NW, MA","Latitude":"42.54419","Longitude":"-72.72743","Snowdepth":"13.000","Units":"in","Rept_Date":"2019-12-07 12"},"coordinates":[5753,4286]},{"type":"Point","properties":{"Station_ID":"LTMW3","Station_Nam":"LAKE TOMAHAWK 2 SE","Latitude":"45.80750","Longitude":"-89.55830","Snowdepth":"13.000","Units":"in","Rept_Date":"2019-12-07 14"},"coordinates":[1803,6316]},{"type":"Point","properties":{"Station_ID":"LEVM3","Station_Nam":"LEVERETT NO.2","Latitude":"42.44680","Longitude":"-72.53000","Snowdepth":"13.000","Units":"in","Rept_Date":"2019-12-07 12"},"coordinates":[5799,4225]},{"type":"Point","properties":{"Station_ID":"IMNM4","Station_Nam":"IRON MOUTAIN 5N","Latitude":"45.87580","Longitude":"-88.04030","Snowdepth":"13.000","Units":"in","Rept_Date":"2019-12-07 14"},"coordinates":[2159,6359]},{"type":"Point","properties":{"Station_ID":"EGRW3","Station_Nam":"EAGLE RIVER-SOUTH","Latitude":"45.91360","Longitude":"-89.24360","Snowdepth":"13.000","Units":"in","Rept_Date":"2019-12-07 13"},"coordinates":[1876,6382]},{"type":"Point","properties":{"Station_ID":"CRLM5","Station_Nam":"CROSS LAKE DAM","Latitude":"46.66930","Longitude":"-94.11060","Snowdepth":"13.000","Units":"in","Rept_Date":"2019-12-07 14"},"coordinates":[734,6852]},{"type":"Point","properties":{"Station_ID":"CAN-NB-13","Station_Nam":"BATHURST 3.8 NW, CAN","Latitude":"47.64212","Longitude":"-65.68756","Snowdepth":"13.000","Units":"in","Rept_Date":"2019-12-07 11"},"coordinates":[7405,7458]},{"type":"Point","properties":{"Station_ID":"BSKN6","Station_Nam":"BUSKIRK","Latitude":"42.93610","Longitude":"-73.43250","Snowdepth":"13.000","Units":"in","Rept_Date":"2019-12-07 12"},"coordinates":[5587,4530]},{"type":"Point","properties":{"Station_ID":"WI-PR-6","Station_Nam":"PHILLIPS 1.3 S, WI","Latitude":"45.67677","Longitude":"-90.39543","Snowdepth":"12.500","Units":"in","Rept_Date":"2019-12-07 12"},"coordinates":[1606,6235]},{"type":"Point","properties":{"Station_ID":"VT-BN-7","Station_Nam":"MANCHESTER 2.8 ENE, VT","Latitude":"43.17274","Longitude":"-73.01811","Snowdepth":"12.500","Units":"in","Rept_Date":"2019-12-07 12"},"coordinates":[5684,4677]},{"type":"Point","properties":{"Station_ID":"NY-SR-4","Station_Nam":"SARATOGA SPRINGS 0.5 S, NY","Latitude":"43.06032","Longitude":"-73.78010","Snowdepth":"12.500","Units":"in","Rept_Date":"2019-12-07 11"},"coordinates":[5506,4607]},{"type":"Point","properties":{"Station_ID":"MN-AT-5","Station_Nam":"TAMARACK 1.4 SW, MN","Latitude":"46.63760","Longitude":"-93.14554","Snowdepth":"12.500","Units":"in","Rept_Date":"2019-12-07 13"},"coordinates":[961,6833]},{"type":"Point","properties":{"Station_ID":"CAN-NB-11","Station_Nam":"MIRAMICHI 3.3 S, CAN","Latitude":"46.99343","Longitude":"-65.50690","Snowdepth":"12.500","Units":"in","Rept_Date":"2019-12-07 12"},"coordinates":[7447,7054]},{"type":"Point","properties":{"Station_ID":"QFT","Station_Nam":"QFT","Latitude":"50.83280","Longitude":"-74.40390","Snowdepth":"12.283","Units":"in","Rept_Date":"2019-12-07 12"},"coordinates":[5359,9443]},{"type":"Point","properties":{"Station_ID":"QLB","Station_Nam":"QLB","Latitude":"50.72360","Longitude":"-75.10000","Snowdepth":"12.244","Units":"in","Rept_Date":"2019-12-07 12"},"coordinates":[5196,9375]},{"type":"Point","properties":{"Station_ID":"WI-RS-1","Station_Nam":"LADYSMITH 2.8 WNW, WI","Latitude":"45.48180","Longitude":"-91.14680","Snowdepth":"12.000","Units":"in","Rept_Date":"2019-12-07 13"},"coordinates":[1430,6114]},{"type":"Point","properties":{"Station_ID":"WI-PR-8","Station_Nam":"PHILLIPS 0.4 SSW, WI","Latitude":"45.69086","Longitude":"-90.40200","Snowdepth":"12.000","Units":"in","Rept_Date":"2019-12-07 13"},"coordinates":[1605,6244]},{"type":"Point","properties":{"Station_ID":"WI-BY-6","Station_Nam":"BARNES 2.2 S, WI","Latitude":"46.30264","Longitude":"-91.50320","Snowdepth":"12.000","Units":"in","Rept_Date":"2019-12-07 13"},"coordinates":[1346,6624]},{"type":"Point","properties":{"Station_ID":"VT-WH-26","Station_Nam":"WESTMINSTER 5.5 NW, VT","Latitude":"43.12572","Longitude":"-72.53419","Snowdepth":"12.000","Units":"in","Rept_Date":"2019-12-07 12"},"coordinates":[5798,4648]},{"type":"Point","properties":{"Station_ID":"PRDM4","Station_Nam":"PARADISE","Latitude":"46.60380","Longitude":"-85.03960","Snowdepth":"12.000","Units":"in","Rept_Date":"2019-12-07 11"},"coordinates":[2863,6812]},{"type":"Point","properties":{"Station_ID":"PARM4","Station_Nam":"PARENT BAY","Latitude":"45.79610","Longitude":"-86.40110","Snowdepth":"12.000","Units":"in","Rept_Date":"2019-12-07 17"},"coordinates":[2543,6309]},{"type":"Point","properties":{"Station_ID":"NY-SR-22","Station_Nam":"GREENFIELD CENTER 1.6 W, NY","Latitude":"43.12684","Longitude":"-73.87860","Snowdepth":"12.000","Units":"in","Rept_Date":"2019-12-07 13"},"coordinates":[5482,4649]},{"type":"Point","properties":{"Station_ID":"NY-DL-28","Station_Nam":"FLEISCHMANNS 5.7 N, NY","Latitude":"42.23779","Longitude":"-74.52335","Snowdepth":"12.000","Units":"in","Rept_Date":"2019-12-07 12"},"coordinates":[5331,4095]},{"type":"Point","properties":{"Station_ID":"NY-CY-27","Station_Nam":"MORAVIA 5.9 ENE, NY","Latitude":"42.73491","Longitude":"-76.31137","Snowdepth":"12.000","Units":"in","Rept_Date":"2019-12-07 12"},"coordinates":[4911,4405]},{"type":"Point","properties":{"Station_ID":"NH-RC-18","Station_Nam":"DEERFIELD 3.2 WSW, NH","Latitude":"43.13350","Longitude":"-71.27940","Snowdepth":"12.000","Units":"in","Rept_Date":"2019-12-07 12"},"coordinates":[6092,4653]},{"type":"Point","properties":{"Station_ID":"MWTM1","Station_Nam":"MILLINOCKET WWTP","Latitude":"45.64030","Longitude":"-68.67480","Snowdepth":"12.000","Units":"in","Rept_Date":"2019-12-07 12"},"coordinates":[6704,6212]},{"type":"Point","properties":{"Station_ID":"MN-SL-139","Station_Nam":"DULUTH 1.2 SE, MN","Latitude":"46.77000","Longitude":"-92.08826","Snowdepth":"12.000","Units":"in","Rept_Date":"2019-12-07 12"},"coordinates":[1209,6915]},{"type":"Point","properties":{"Station_ID":"MA-HD-25","Station_Nam":"LUDLOW 2.3 SW, MA","Latitude":"42.14523","Longitude":"-72.51650","Snowdepth":"12.000","Units":"in","Rept_Date":"2019-12-07 12"},"coordinates":[5802,4038]},{"type":"Point","properties":{"Station_ID":"MA-FR-17","Station_Nam":"BUCKLAND 1.8 ESE, MA","Latitude":"42.58900","Longitude":"-72.75110","Snowdepth":"12.000","Units":"in","Rept_Date":"2019-12-07 13"},"coordinates":[5747,4314]},{"type":"Point","properties":{"Station_ID":"MA-BE-21","Station_Nam":"CHESHIRE 0.5 NNW, MA","Latitude":"42.56315","Longitude":"-73.15701","Snowdepth":"12.000","Units":"in","Rept_Date":"2019-12-07 12"},"coordinates":[5652,4298]},{"type":"Point","properties":{"Station_ID":"LILM1","Station_Nam":"LILLE","Latitude":"47.27770","Longitude":"-68.10520","Snowdepth":"12.000","Units":"in","Rept_Date":"2019-12-07 12"},"coordinates":[6837,7231]},{"type":"Point","properties":{"Station_ID":"KMHT","Station_Nam":"MANCHESTER AIRPORT","Latitude":"42.93333","Longitude":"-71.43333","Snowdepth":"12.000","Units":"in","Rept_Date":"2019-12-08 00"},"coordinates":[6056,4528]},{"type":"Point","properties":{"Station_ID":"KALB","Station_Nam":"ALBANY INTERNATIONAL AIRPORT","Latitude":"42.75000","Longitude":"-73.80000","Snowdepth":"12.000","Units":"in","Rept_Date":"2019-12-07 18"},"coordinates":[5501,4414]},{"type":"Point","properties":{"Station_ID":"JCBM4","Station_Nam":"JACOBSVILLE","Latitude":"47.00830","Longitude":"-88.43180","Snowdepth":"12.000","Units":"in","Rept_Date":"2019-12-07 12"},"coordinates":[2067,7063]},{"type":"Point","properties":{"Station_ID":"HUDN3","Station_Nam":"HUDSON 1 SSE","Latitude":"42.78300","Longitude":"-71.41480","Snowdepth":"12.000","Units":"in","Rept_Date":"2019-12-07 12"},"coordinates":[6061,4435]},{"type":"Point","properties":{"Station_ID":"HMYM1","Station_Nam":"HARMONY","Latitude":"44.94660","Longitude":"-69.54560","Snowdepth":"12.000","Units":"in","Rept_Date":"2019-12-07 12"},"coordinates":[6499,5781]},{"type":"Point","properties":{"Station_ID":"EPPN3","Station_Nam":"EPPING","Latitude":"43.03020","Longitude":"-71.08380","Snowdepth":"12.000","Units":"in","Rept_Date":"2019-12-07 14"},"coordinates":[6138,4588]},{"type":"Point","properties":{"Station_ID":"COPN6","Station_Nam":"COOPERSTOWN","Latitude":"42.71660","Longitude":"-74.92660","Snowdepth":"12.000","Units":"in","Rept_Date":"2019-12-08 05"},"coordinates":[5236,4393]},{"type":"Point","properties":{"Station_ID":"CLKM4","Station_Nam":"CLARKSBURG","Latitude":"46.49910","Longitude":"-87.84500","Snowdepth":"12.000","Units":"in","Rept_Date":"2019-12-07 12"},"coordinates":[2205,6747]},{"type":"Point","properties":{"Station_ID":"BNDM5","Station_Nam":"ELY 25E","Latitude":"47.97190","Longitude":"-91.44860","Snowdepth":"12.000","Units":"in","Rept_Date":"2019-12-07 13"},"coordinates":[1359,7663]},{"type":"Point","properties":{"Station_ID":"BGBM4","Station_Nam":"BIG BAY 1NW","Latitude":"46.83250","Longitude":"-87.75040","Snowdepth":"12.000","Units":"in","Rept_Date":"2019-12-07 13"},"coordinates":[2227,6954]},{"type":"Point","properties":{"Station_ID":"AUBN6","Station_Nam":"AUBURN","Latitude":"42.93270","Longitude":"-76.54470","Snowdepth":"12.000","Units":"in","Rept_Date":"2019-12-07 12"},"coordinates":[4857,4528]},{"type":"Point","properties":{"Station_ID":"QCX","Station_Nam":"QCX","Latitude":"51.32830","Longitude":"-70.08060","Snowdepth":"11.929","Units":"in","Rept_Date":"2019-12-07 12"},"coordinates":[6374,9751]},{"type":"Point","properties":{"Station_ID":"PTLQ6","Station_Nam":"PORTAGE LAKE","Latitude":"49.06950","Longitude":"-86.65940","Snowdepth":"11.890","Units":"in","Rept_Date":"2019-12-08 06"},"coordinates":[2483,8346]},{"type":"Point","properties":{"Station_ID":"QTM","Station_Nam":"QTM","Latitude":"51.05780","Longitude":"-72.57190","Snowdepth":"11.811","Units":"in","Rept_Date":"2019-12-07 12"},"coordinates":[5789,9583]},{"type":"Point","properties":{"Station_ID":"WI-SR-5","Station_Nam":"HAYWARD 9.7 NE, WI","Latitude":"46.12030","Longitude":"-91.35370","Snowdepth":"11.500","Units":"in","Rept_Date":"2019-12-07 14"},"coordinates":[1381,6511]},{"type":"Point","properties":{"Station_ID":"WI-ON-6","Station_Nam":"RHINELANDER 5.2 N, WI","Latitude":"45.71388","Longitude":"-89.42150","Snowdepth":"11.500","Units":"in","Rept_Date":"2019-12-07 14"},"coordinates":[1835,6258]},{"type":"Point","properties":{"Station_ID":"WI-LN-2","Station_Nam":"MERRILL 7.0 W, WI","Latitude":"45.17746","Longitude":"-89.84820","Snowdepth":"11.500","Units":"in","Rept_Date":"2019-12-07 12"},"coordinates":[1734,5924]},{"type":"Point","properties":{"Station_ID":"WI-BT-14","Station_Nam":"OAKLAND 9.0 ENE, WI","Latitude":"45.95184","Longitude":"-92.21653","Snowdepth":"11.500","Units":"in","Rept_Date":"2019-12-07 13"},"coordinates":[1179,6406]},{"type":"Point","properties":{"Station_ID":"NY-OG-61","Station_Nam":"SKANEATELES 0.8 NNW, NY","Latitude":"42.95538","Longitude":"-76.43362","Snowdepth":"11.500","Units":"in","Rept_Date":"2019-12-07 13"},"coordinates":[4883,4542]},{"type":"Point","properties":{"Station_ID":"NY-OG-10","Station_Nam":"CAMILLUS 1.0 W, NY","Latitude":"43.03962","Longitude":"-76.32830","Snowdepth":"11.500","Units":"in","Rept_Date":"2019-12-07 12"},"coordinates":[4908,4594]},{"type":"Point","properties":{"Station_ID":"NH-MR-41","Station_Nam":"NEWBURY 1.6 NW, NH","Latitude":"43.33667","Longitude":"-72.06060","Snowdepth":"11.500","Units":"in","Rept_Date":"2019-12-07 12"},"coordinates":[5909,4779]},{"type":"Point","properties":{"Station_ID":"MA-WR-41","Station_Nam":"AUBURN 2.6 SW, MA","Latitude":"42.17336","Longitude":"-71.86869","Snowdepth":"11.500","Units":"in","Rept_Date":"2019-12-07 13"},"coordinates":[5954,4055]},{"type":"Point","properties":{"Station_ID":"CAN-NB-97","Station_Nam":"NEW MARYLAND 0.6 NW, CAN","Latitude":"45.90112","Longitude":"-66.68739","Snowdepth":"11.400","Units":"in","Rept_Date":"2019-12-07 11"},"coordinates":[7170,6375]},{"type":"Point","properties":{"Station_ID":"WILW3","Station_Nam":"RESERVOIR","Latitude":"45.70000","Longitude":"-89.83330","Snowdepth":"11.000","Units":"in","Rept_Date":"2019-12-07 12"},"coordinates":[1738,6249]},{"type":"Point","properties":{"Station_ID":"TOHM5","Station_Nam":"TWO HARBORS WWTP","Latitude":"47.01760","Longitude":"-91.66480","Snowdepth":"11.000","Units":"in","Rept_Date":"2019-12-07 13"},"coordinates":[1308,7069]},{"type":"Point","properties":{"Station_ID":"TOGM5","Station_Nam":"CELINA 2E","Latitude":"47.86630","Longitude":"-93.02660","Snowdepth":"11.000","Units":"in","Rept_Date":"2019-12-07 14"},"coordinates":[989,7597]},{"type":"Point","properties":{"Station_ID":"TAKW3","Station_Nam":"RICE RESERVOIR NO. 2","Latitude":"45.53770","Longitude":"-89.73220","Snowdepth":"11.000","Units":"in","Rept_Date":"2019-12-07 13"},"coordinates":[1762,6148]},{"type":"Point","properties":{"Station_ID":"RHLW3","Station_Nam":"RHINELANDER 4NE","Latitude":"45.65270","Longitude":"-89.30740","Snowdepth":"11.000","Units":"in","Rept_Date":"2019-12-07 12"},"coordinates":[1861,6220]},{"type":"Point","properties":{"Station_ID":"PSM","Station_Nam":"PEASE INTL TRADEPORT AP","Latitude":"43.07810","Longitude":"-70.82330","Snowdepth":"11.000","Units":"in","Rept_Date":"2019-12-07 12"},"coordinates":[6199,4618]},{"type":"Point","properties":{"Station_ID":"PERV1","Station_Nam":"PERU","Latitude":"43.26670","Longitude":"-72.90000","Snowdepth":"11.000","Units":"in","Rept_Date":"2019-12-07 12"},"coordinates":[5712,4736]},{"type":"Point","properties":{"Station_ID":"OCON6","Station_Nam":"OSCEOLA","Latitude":"43.49910","Longitude":"-75.71210","Snowdepth":"11.000","Units":"in","Rept_Date":"2019-12-07 12"},"coordinates":[5052,4880]},{"type":"Point","properties":{"Station_ID":"NY-OT-11","Station_Nam":"HARTWICK, NY","Latitude":"42.65990","Longitude":"-75.05000","Snowdepth":"11.000","Units":"in","Rept_Date":"2019-12-07 14"},"coordinates":[5208,4358]},{"type":"Point","properties":{"Station_ID":"NY-OG-2","Station_Nam":"DE WITT 1.4 WSW, NY","Latitude":"43.03333","Longitude":"-76.10000","Snowdepth":"11.000","Units":"in","Rept_Date":"2019-12-07 12"},"coordinates":[4961,4590]},{"type":"Point","properties":{"Station_ID":"NY-DL-32","Station_Nam":"DELHI 6.6 WNW, NY","Latitude":"42.32118","Longitude":"-75.02991","Snowdepth":"11.000","Units":"in","Rept_Date":"2019-12-07 12"},"coordinates":[5212,4147]},{"type":"Point","properties":{"Station_ID":"NY-CR-1","Station_Nam":"FREETOWN 1.0 NE, NY","Latitude":"42.53299","Longitude":"-76.02111","Snowdepth":"11.000","Units":"in","Rept_Date":"2019-12-07 12"},"coordinates":[4980,4279]},{"type":"Point","properties":{"Station_ID":"NY-CN-9","Station_Nam":"NORWICH 5.4 W, NY","Latitude":"42.53356","Longitude":"-75.63060","Snowdepth":"11.000","Units":"in","Rept_Date":"2019-12-07 12"},"coordinates":[5071,4279]},{"type":"Point","properties":{"Station_ID":"NHBN6","Station_Nam":"HEBRON","Latitude":"43.29540","Longitude":"-73.39830","Snowdepth":"11.000","Units":"in","Rept_Date":"2019-12-07 12"},"coordinates":[5595,4753]},{"type":"Point","properties":{"Station_ID":"NH-RC-48","Station_Nam":"NORTHWOOD 2.9 WSW, NH","Latitude":"43.20114","Longitude":"-71.25750","Snowdepth":"11.000","Units":"in","Rept_Date":"2019-12-07 12"},"coordinates":[6098,4695]},{"type":"Point","properties":{"Station_ID":"NH-RC-33","Station_Nam":"HAMPSTEAD 1.6 NNE, NH","Latitude":"42.89614","Longitude":"-71.16850","Snowdepth":"11.000","Units":"in","Rept_Date":"2019-12-07 12"},"coordinates":[6118,4505]},{"type":"Point","properties":{"Station_ID":"NBLN6","Station_Nam":"LANSING MANOR","Latitude":"42.44860","Longitude":"-74.46530","Snowdepth":"11.000","Units":"in","Rept_Date":"2019-12-07 15"},"coordinates":[5345,4227]},{"type":"Point","properties":{"Station_ID":"MQRW3","Station_Nam":"MINOCQUA","Latitude":"45.88630","Longitude":"-89.73220","Snowdepth":"11.000","Units":"in","Rept_Date":"2019-12-07 12"},"coordinates":[1762,6365]},{"type":"Point","properties":{"Station_ID":"MN-SL-15","Station_Nam":"CHISHOLM 0.4 WSW, MN","Latitude":"47.48557","Longitude":"-92.88690","Snowdepth":"11.000","Units":"in","Rept_Date":"2019-12-07 13"},"coordinates":[1021,7360]},{"type":"Point","properties":{"Station_ID":"MLLW3","Station_Nam":"MERRILL 8W","Latitude":"45.17810","Longitude":"-89.84810","Snowdepth":"11.000","Units":"in","Rept_Date":"2019-12-07 12"},"coordinates":[1735,5925]},{"type":"Point","properties":{"Station_ID":"ME-YK-2","Station_Nam":"KITTERY POINT 0.8 WSW, ME","Latitude":"43.08101","Longitude":"-70.71380","Snowdepth":"11.000","Units":"in","Rept_Date":"2019-12-07 12"},"coordinates":[6225,4620]},{"type":"Point","properties":{"Station_ID":"MCLN8","Station_Nam":"MC LEOD,ND","Latitude":"46.40250","Longitude":"-97.23810","Snowdepth":"11.000","Units":"in","Rept_Date":"2019-12-07 13"},"coordinates":[0,6686]},{"type":"Point","properties":{"Station_ID":"MA-HS-26","Station_Nam":"EASTHAMPTON 0.5 SW, MA","Latitude":"42.26110","Longitude":"-72.68920","Snowdepth":"11.000","Units":"in","Rept_Date":"2019-12-07 12"},"coordinates":[5762,4110]},{"type":"Point","properties":{"Station_ID":"LPLN6","Station_Nam":"LAKE PLACID 2 S","Latitude":"44.30420","Longitude":"-73.98390","Snowdepth":"11.000","Units":"in","Rept_Date":"2019-12-07 11"},"coordinates":[5458,5381]},{"type":"Point","properties":{"Station_ID":"KCEF","Station_Nam":"CHICOPEE FALLS / WESTOVER AIR FORCE BASE","Latitude":"42.20000","Longitude":"-72.53333","Snowdepth":"11.000","Units":"in","Rept_Date":"2019-12-08 00"},"coordinates":[5798,4072]},{"type":"Point","properties":{"Station_ID":"CORM1","Station_Nam":"CORINNA","Latitude":"44.91980","Longitude":"-69.24180","Snowdepth":"11.000","Units":"in","Rept_Date":"2019-12-07 13"},"coordinates":[6571,5764]},{"type":"Point","properties":{"Station_ID":"CLGM5","Station_Nam":"COLLEGEVILLE ST JOHN","Latitude":"45.57940","Longitude":"-94.39200","Snowdepth":"11.000","Units":"in","Rept_Date":"2019-12-08 00"},"coordinates":[668,6174]},{"type":"Point","properties":{"Station_ID":"CAN-ON-245","Station_Nam":"PHELPSTON 3.1 ESE, CAN","Latitude":"44.50564","Longitude":"-79.81035","Snowdepth":"11.000","Units":"in","Rept_Date":"2019-12-07 12"},"coordinates":[4090,5506]},{"type":"Point","properties":{"Station_ID":"CAN-ON-118","Station_Nam":"DURHAM 1.4 S, CAN","Latitude":"44.16525","Longitude":"-80.82064","Snowdepth":"11.000","Units":"in","Rept_Date":"2019-12-07 12"},"coordinates":[3853,5295]},{"type":"Point","properties":{"Station_ID":"BRAM5","Station_Nam":"BRAINERD","Latitude":"46.34320","Longitude":"-94.20900","Snowdepth":"11.000","Units":"in","Rept_Date":"2019-12-07 13"},"coordinates":[711,6650]},{"type":"Point","properties":{"Station_ID":"AVTW3","Station_Nam":"ARBOR VITAE-JOHNSON LAKE","Latitude":"45.89940","Longitude":"-89.72670","Snowdepth":"11.000","Units":"in","Rept_Date":"2019-12-07 12"},"coordinates":[1763,6373]},{"type":"Point","properties":{"Station_ID":"ALB","Station_Nam":"ALBANY INTL AP","Latitude":"42.74810","Longitude":"-73.80330","Snowdepth":"11.000","Units":"in","Rept_Date":"2019-12-08 00"},"coordinates":[5500,4413]},{"type":"Point","properties":{"Station_ID":"QCO","Station_Nam":"QCO","Latitude":"51.45280","Longitude":"-72.20110","Snowdepth":"10.984","Units":"in","Rept_Date":"2019-12-07 12"},"coordinates":[5876,9828]},{"type":"Point","properties":{"Station_ID":"VT-WH-25","Station_Nam":"PUTNEY 0.7 NE, VT","Latitude":"42.98326","Longitude":"-72.51215","Snowdepth":"10.500","Units":"in","Rept_Date":"2019-12-07 16"},"coordinates":[5803,4559]},{"type":"Point","properties":{"Station_ID":"NY-MD-9","Station_Nam":"EARLVILLE 0.4 W, NY","Latitude":"42.73982","Longitude":"-75.55200","Snowdepth":"10.500","Units":"in","Rept_Date":"2019-12-07 12"},"coordinates":[5090,4408]},{"type":"Point","properties":{"Station_ID":"NY-HR-16","Station_Nam":"ILION 0.7 WSW, NY","Latitude":"43.00880","Longitude":"-75.05390","Snowdepth":"10.500","Units":"in","Rept_Date":"2019-12-07 12"},"coordinates":[5207,4575]},{"type":"Point","properties":{"Station_ID":"ND-CS-25","Station_Nam":"FARGO 2.1 N, ND","Latitude":"46.90816","Longitude":"-96.77937","Snowdepth":"10.500","Units":"in","Rept_Date":"2019-12-07 14"},"coordinates":[108,7001]},{"type":"Point","properties":{"Station_ID":"MI-DL-4","Station_Nam":"GLADSTONE 2.1 SW, MI","Latitude":"45.83218","Longitude":"-87.05727","Snowdepth":"10.500","Units":"in","Rept_Date":"2019-12-07 12"},"coordinates":[2389,6332]},{"type":"Point","properties":{"Station_ID":"MA-WR-76","Station_Nam":"WORCESTER 1.7 N, MA","Latitude":"42.29380","Longitude":"-71.80516","Snowdepth":"10.500","Units":"in","Rept_Date":"2019-12-07 11"},"coordinates":[5969,4130]},{"type":"Point","properties":{"Station_ID":"MA-BE-11","Station_Nam":"GREAT BARRINGTON 3.0 N, MA","Latitude":"42.23790","Longitude":"-73.35030","Snowdepth":"10.500","Units":"in","Rept_Date":"2019-12-07 12"},"coordinates":[5606,4096]},{"type":"Point","properties":{"Station_ID":"QMD","Station_Nam":"QMD","Latitude":"49.29060","Longitude":"-75.84500","Snowdepth":"10.354","Units":"in","Rept_Date":"2019-12-07 12"},"coordinates":[5021,8483]},{"type":"Point","properties":{"Station_ID":"NH-HL-77","Station_Nam":"WEARE 4.3 S, NH","Latitude":"43.03222","Longitude":"-71.73669","Snowdepth":"10.300","Units":"in","Rept_Date":"2019-12-07 13"},"coordinates":[5985,4590]},{"type":"Point","properties":{"Station_ID":"MA-ES-48","Station_Nam":"ANDOVER 0.6 E, MA","Latitude":"42.65659","Longitude":"-71.13048","Snowdepth":"10.100","Units":"in","Rept_Date":"2019-12-07 10"},"coordinates":[6127,4356]},{"type":"Point","properties":{"Station_ID":"QWE","Station_Nam":"QWE","Latitude":"47.84610","Longitude":"-73.80670","Snowdepth":"10.079","Units":"in","Rept_Date":"2019-12-07 12"},"coordinates":[5499,7585]},{"type":"Point","properties":{"Station_ID":"WLKW3","Station_Nam":"WHITE LAKE 1 SE","Latitude":"45.14520","Longitude":"-88.74160","Snowdepth":"10.000","Units":"in","Rept_Date":"2019-12-07 14"},"coordinates":[1994,5904]},{"type":"Point","properties":{"Station_ID":"WLKM5","Station_Nam":"AH-GWAH-CHING","Latitude":"47.15000","Longitude":"-94.65000","Snowdepth":"10.000","Units":"in","Rept_Date":"2019-12-07 14"},"coordinates":[608,7152]},{"type":"Point","properties":{"Station_ID":"WEAN3","Station_Nam":"WEARE 2 NE","Latitude":"43.09900","Longitude":"-71.75710","Snowdepth":"10.000","Units":"in","Rept_Date":"2019-12-07 13"},"coordinates":[5980,4631]},{"type":"Point","properties":{"Station_ID":"VT-WR-17","Station_Nam":"ROCHESTER 2.3 NE, VT","Latitude":"43.89418","Longitude":"-72.76992","Snowdepth":"10.000","Units":"in","Rept_Date":"2019-12-07 12"},"coordinates":[5743,5126]},{"type":"Point","properties":{"Station_ID":"VT-AD-20","Station_Nam":"HANCOCK 0.3 S, VT","Latitude":"43.92166","Longitude":"-72.84042","Snowdepth":"10.000","Units":"in","Rept_Date":"2019-12-07 12"},"coordinates":[5726,5143]},{"type":"Point","properties":{"Station_ID":"SULW3","Station_Nam":"SUMMIT LAKE","Latitude":"45.37880","Longitude":"-89.19410","Snowdepth":"10.000","Units":"in","Rept_Date":"2019-12-07 11"},"coordinates":[1888,6050]},{"type":"Point","properties":{"Station_ID":"STMM4","Station_Nam":"STAMBAUGH 2SSE","Latitude":"46.05550","Longitude":"-88.62780","Snowdepth":"10.000","Units":"in","Rept_Date":"2019-12-07 13"},"coordinates":[2021,6471]},{"type":"Point","properties":{"Station_ID":"SRAW3","Station_Nam":"SARONA","Latitude":"45.80250","Longitude":"-91.86700","Snowdepth":"10.000","Units":"in","Rept_Date":"2019-12-07 14"},"coordinates":[1261,6313]},{"type":"Point","properties":{"Station_ID":"NY-OD-63","Station_Nam":"UTICA 2.6 ENE, NY","Latitude":"43.11209","Longitude":"-75.18019","Snowdepth":"10.000","Units":"in","Rept_Date":"2019-12-07 13"},"coordinates":[5177,4639]},{"type":"Point","properties":{"Station_ID":"NRWN6","Station_Nam":"NORWICH","Latitude":"42.51170","Longitude":"-75.51970","Snowdepth":"10.000","Units":"in","Rept_Date":"2019-12-07 11"},"coordinates":[5097,4266]},{"type":"Point","properties":{"Station_ID":"NH-ST-19","Station_Nam":"DOVER 0.8 E, NH","Latitude":"43.18762","Longitude":"-70.86850","Snowdepth":"10.000","Units":"in","Rept_Date":"2019-12-07 12"},"coordinates":[6189,4686]},{"type":"Point","properties":{"Station_ID":"MXON6","Station_Nam":"MEXICO","Latitude":"43.43830","Longitude":"-76.26560","Snowdepth":"10.000","Units":"in","Rept_Date":"2019-12-07 12"},"coordinates":[4922,4842]},{"type":"Point","properties":{"Station_ID":"MIEM4","Station_Nam":"MICHIGAMME 3WNW","Latitude":"46.54530","Longitude":"-88.18000","Snowdepth":"10.000","Units":"in","Rept_Date":"2019-12-07 13"},"coordinates":[2126,6775]},{"type":"Point","properties":{"Station_ID":"MI-OT-17","Station_Nam":"GAYLORD 4.1 S, MI","Latitude":"44.96388","Longitude":"-84.68467","Snowdepth":"10.000","Units":"in","Rept_Date":"2019-12-07 12"},"coordinates":[2946,5791]},{"type":"Point","properties":{"Station_ID":"MA-MD-42","Station_Nam":"HOLLISTON 0.8 S, MA","Latitude":"42.18820","Longitude":"-71.43390","Snowdepth":"10.000","Units":"in","Rept_Date":"2019-12-07 12"},"coordinates":[6056,4065]},{"type":"Point","properties":{"Station_ID":"MA-MD-156","Station_Nam":"MARLBOROUGH 2.8 ENE, MA","Latitude":"42.37021","Longitude":"-71.50011","Snowdepth":"10.000","Units":"in","Rept_Date":"2019-12-07 11"},"coordinates":[6041,4178]},{"type":"Point","properties":{"Station_ID":"MA-MD-115","Station_Nam":"HUDSON 1.4 NW, MA","Latitude":"42.40372","Longitude":"-71.58680","Snowdepth":"10.000","Units":"in","Rept_Date":"2019-12-07 12"},"coordinates":[6020,4199]},{"type":"Point","properties":{"Station_ID":"MA-FR-10","Station_Nam":"CONWAY 0.9 SW, MA","Latitude":"42.50879","Longitude":"-72.69730","Snowdepth":"10.000","Units":"in","Rept_Date":"2019-12-07 13"},"coordinates":[5760,4264]},{"type":"Point","properties":{"Station_ID":"MA-BE-3","Station_Nam":"STOCKBRIDGE .2 NNE, MA","Latitude":"42.28983","Longitude":"-73.31950","Snowdepth":"10.000","Units":"in","Rept_Date":"2019-12-07 11"},"coordinates":[5614,4128]},{"type":"Point","properties":{"Station_ID":"LOWN6","Station_Nam":"LOWVILLE","Latitude":"43.79280","Longitude":"-75.48290","Snowdepth":"10.000","Units":"in","Rept_Date":"2019-12-07 12"},"coordinates":[5106,5063]},{"type":"Point","properties":{"Station_ID":"LNCM1","Station_Nam":"LINCOLN WATER DISTRICT","Latitude":"45.32410","Longitude":"-68.58300","Snowdepth":"10.000","Units":"in","Rept_Date":"2019-12-07 12"},"coordinates":[6725,6016]},{"type":"Point","properties":{"Station_ID":"KPSM","Station_Nam":"PEASE AIR FORCE BASE / PORTSMOUTH","Latitude":"43.08333","Longitude":"-70.81666","Snowdepth":"10.000","Units":"in","Rept_Date":"2019-12-08 00"},"coordinates":[6201,4621]},{"type":"Point","properties":{"Station_ID":"KEEN3","Station_Nam":"KEENE","Latitude":"42.93900","Longitude":"-72.32470","Snowdepth":"10.000","Units":"in","Rept_Date":"2019-12-07 11"},"coordinates":[5847,4532]},{"type":"Point","properties":{"Station_ID":"ISEM5","Station_Nam":"ISLE 12N","Latitude":"46.31970","Longitude":"-93.50140","Snowdepth":"10.000","Units":"in","Rept_Date":"2019-12-07 14"},"coordinates":[877,6635]},{"type":"Point","properties":{"Station_ID":"INDN6","Station_Nam":"INDIAN LAKE","Latitude":"43.75500","Longitude":"-74.27560","Snowdepth":"10.000","Units":"in","Rept_Date":"2019-12-07 12"},"coordinates":[5389,5039]},{"type":"Point","properties":{"Station_ID":"HGHN6","Station_Nam":"HIGHMARKET","Latitude":"43.57520","Longitude":"-75.52070","Snowdepth":"10.000","Units":"in","Rept_Date":"2019-12-07 11"},"coordinates":[5097,4927]},{"type":"Point","properties":{"Station_ID":"GRFM3","Station_Nam":"GREENFIELD NO. 3","Latitude":"42.57190","Longitude":"-72.59750","Snowdepth":"10.000","Units":"in","Rept_Date":"2019-12-07 11"},"coordinates":[5783,4303]},{"type":"Point","properties":{"Station_ID":"GFDN6","Station_Nam":"CHASES LAKE","Latitude":"43.75920","Longitude":"-75.29980","Snowdepth":"10.000","Units":"in","Rept_Date":"2019-12-07 11"},"coordinates":[5149,5042]},{"type":"Point","properties":{"Station_ID":"FISM1","Station_Nam":"FORT KENT COOP","Latitude":"47.23850","Longitude":"-68.61240","Snowdepth":"10.000","Units":"in","Rept_Date":"2019-12-07 12"},"coordinates":[6718,7207]},{"type":"Point","properties":{"Station_ID":"ELYM5","Station_Nam":"ELY","Latitude":"47.90560","Longitude":"-91.82830","Snowdepth":"10.000","Units":"in","Rept_Date":"2019-12-07 14"},"coordinates":[1270,7622]},{"type":"Point","properties":{"Station_ID":"CT-HR-8","Station_Nam":"NORTH GRANBY 1.3 ENE, CT","Latitude":"42.02440","Longitude":"-72.82070","Snowdepth":"10.000","Units":"in","Rept_Date":"2019-12-07 12"},"coordinates":[5731,3963]},{"type":"Point","properties":{"Station_ID":"AGNW3","Station_Nam":"ARGONNE-1.5 NW","Latitude":"45.67360","Longitude":"-88.90380","Snowdepth":"10.000","Units":"in","Rept_Date":"2019-12-07 13"},"coordinates":[1956,6233]},{"type":"Point","properties":{"Station_ID":"QLP","Station_Nam":"QLP","Latitude":"48.13920","Longitude":"-72.63830","Snowdepth":"9.882","Units":"in","Rept_Date":"2019-12-07 12"},"coordinates":[5774,7767]},{"type":"Point","properties":{"Station_ID":"NY-DT-24","Station_Nam":"RED HOOK 1.2 NNE, NY","Latitude":"42.00967","Longitude":"-73.86419","Snowdepth":"9.800","Units":"in","Rept_Date":"2019-12-07 12"},"coordinates":[5486,3954]},{"type":"Point","properties":{"Station_ID":"ME-YK-28","Station_Nam":"BIDDEFORD 1.5 NNE, ME","Latitude":"43.48679","Longitude":"-70.43470","Snowdepth":"9.800","Units":"in","Rept_Date":"2019-12-07 12"},"coordinates":[6291,4872]},{"type":"Point","properties":{"Station_ID":"ME-FR-22","Station_Nam":"FARMINGTON 4.8 NNW, ME","Latitude":"44.73396","Longitude":"-70.18007","Snowdepth":"9.800","Units":"in","Rept_Date":"2019-12-07 14"},"coordinates":[6350,5648]},{"type":"Point","properties":{"Station_ID":"TRIQ6","Station_Nam":"TRIO LAKE","Latitude":"49.22880","Longitude":"-87.22920","Snowdepth":"9.760","Units":"in","Rept_Date":"2019-12-08 06"},"coordinates":[2349,8445]},{"type":"Point","properties":{"Station_ID":"SVBQ6","Station_Nam":"SAVANT BASE","Latitude":"50.28730","Longitude":"-90.65670","Snowdepth":"9.720","Units":"in","Rept_Date":"2019-12-08 06"},"coordinates":[1545,9103]},{"type":"Point","properties":{"Station_ID":"NY-MG-3","Station_Nam":"HESSVILLE 1.8 WSW, NY","Latitude":"42.86430","Longitude":"-74.72140","Snowdepth":"9.700","Units":"in","Rept_Date":"2019-12-07 13"},"coordinates":[5285,4485]},{"type":"Point","properties":{"Station_ID":"MA-ES-59","Station_Nam":"AMESBURY 1.2 N, MA","Latitude":"42.87322","Longitude":"-70.93020","Snowdepth":"9.700","Units":"in","Rept_Date":"2019-12-07 11"},"coordinates":[6174,4491]},{"type":"Point","properties":{"Station_ID":"QTV","Station_Nam":"QTV","Latitude":"49.66000","Longitude":"-69.35690","Snowdepth":"9.528","Units":"in","Rept_Date":"2019-12-07 12"},"coordinates":[6544,8713]},{"type":"Point","properties":{"Station_ID":"NY-OT-29","Station_Nam":"NEW BERLIN 1.5 NE, NY","Latitude":"42.63689","Longitude":"-75.31090","Snowdepth":"9.500","Units":"in","Rept_Date":"2019-12-07 13"},"coordinates":[5146,4344]},{"type":"Point","properties":{"Station_ID":"NY-MD-10","Station_Nam":"CAZENOVIA 2.9 SE, NY","Latitude":"42.90003","Longitude":"-75.81140","Snowdepth":"9.500","Units":"in","Rept_Date":"2019-12-07 12"},"coordinates":[5029,4507]},{"type":"Point","properties":{"Station_ID":"NY-DL-25","Station_Nam":"HOBART 4.8 ESE, NY","Latitude":"42.35230","Longitude":"-74.57830","Snowdepth":"9.500","Units":"in","Rept_Date":"2019-12-07 12"},"coordinates":[5318,4167]},{"type":"Point","properties":{"Station_ID":"MN-SL-115","Station_Nam":"COTTON 5.7 ESE, MN","Latitude":"47.15142","Longitude":"-92.35772","Snowdepth":"9.500","Units":"in","Rept_Date":"2019-12-07 14"},"coordinates":[1146,7152]},{"type":"Point","properties":{"Station_ID":"SOCQ6","Station_Nam":"SOCKET LAKE","Latitude":"50.77870","Longitude":"-91.79300","Snowdepth":"9.410","Units":"in","Rept_Date":"2019-12-08 06"},"coordinates":[1278,9409]},{"type":"Point","properties":{"Station_ID":"NY-CR-3","Station_Nam":"WILLET 1.8 E, NY","Latitude":"42.47385","Longitude":"-75.87250","Snowdepth":"9.300","Units":"in","Rept_Date":"2019-12-07 12"},"coordinates":[5014,4242]},{"type":"Point","properties":{"Station_ID":"QLM","Station_Nam":"QLM","Latitude":"48.92030","Longitude":"-70.25280","Snowdepth":"9.173","Units":"in","Rept_Date":"2019-12-07 12"},"coordinates":[6333,8253]},{"type":"Point","properties":{"Station_ID":"QYR","Station_Nam":"QYR","Latitude":"48.87220","Longitude":"-75.61470","Snowdepth":"9.094","Units":"in","Rept_Date":"2019-12-07 12"},"coordinates":[5075,8223]},{"type":"Point","properties":{"Station_ID":"FTHQ6","Station_Nam":"FORT HOPE","Latitude":"51.55820","Longitude":"-87.90510","Snowdepth":"9.020","Units":"in","Rept_Date":"2019-12-08 06"},"coordinates":[2191,9894]},{"type":"Point","properties":{"Station_ID":"ZNOM4","Station_Nam":"NORWAY","Latitude":"45.77810","Longitude":"-87.89560","Snowdepth":"9.000","Units":"in","Rept_Date":"2019-12-07 13"},"coordinates":[2193,6298]},{"type":"Point","properties":{"Station_ID":"WTNM4","Station_Nam":"WATTON 2WSW","Latitude":"46.52660","Longitude":"-88.64240","Snowdepth":"9.000","Units":"in","Rept_Date":"2019-12-07 13"},"coordinates":[2017,6764]},{"type":"Point","properties":{"Station_ID":"WSTN6","Station_Nam":"WESTMORELAND 4 N","Latitude":"43.15950","Longitude":"-75.46110","Snowdepth":"9.000","Units":"in","Rept_Date":"2019-12-07 12"},"coordinates":[5111,4669]},{"type":"Point","properties":{"Station_ID":"WI-DN-1","Station_Nam":"BOYCEVILLE 3.3 N, WI","Latitude":"45.08913","Longitude":"-92.02760","Snowdepth":"9.000","Units":"in","Rept_Date":"2019-12-07 13"},"coordinates":[1223,5869]},{"type":"Point","properties":{"Station_ID":"WI-CH-3","Station_Nam":"CORNELL 4.1 W, WI","Latitude":"45.17024","Longitude":"-91.23610","Snowdepth":"9.000","Units":"in","Rept_Date":"2019-12-07 14"},"coordinates":[1409,5920]},{"type":"Point","properties":{"Station_ID":"WBSN6","Station_Nam":"WEBSTER 2 NE","Latitude":"43.24190","Longitude":"-77.38820","Snowdepth":"9.000","Units":"in","Rept_Date":"2019-12-08 01"},"coordinates":[4659,4720]},{"type":"Point","properties":{"Station_ID":"WASW3","Station_Nam":"WASHINGTON IS","Latitude":"45.35800","Longitude":"-86.89110","Snowdepth":"9.000","Units":"in","Rept_Date":"2019-12-07 13"},"coordinates":[2428,6037]},{"type":"Point","properties":{"Station_ID":"WALN6","Station_Nam":"WALTON 2","Latitude":"42.18470","Longitude":"-75.14550","Snowdepth":"9.000","Units":"in","Rept_Date":"2019-12-07 10"},"coordinates":[5185,4062]},{"type":"Point","properties":{"Station_ID":"VT-OL-12","Station_Nam":"GREENSBORO 3.9 NNE, VT","Latitude":"44.63100","Longitude":"-72.28000","Snowdepth":"9.000","Units":"in","Rept_Date":"2019-12-07 13"},"coordinates":[5858,5584]},{"type":"Point","properties":{"Station_ID":"STIM4","Station_Nam":"ST IGNACE","Latitude":"45.86080","Longitude":"-84.71960","Snowdepth":"9.000","Units":"in","Rept_Date":"2019-12-07 12"},"coordinates":[2938,6349]},{"type":"Point","properties":{"Station_ID":"SHBN6","Station_Nam":"SHERBURNE","Latitude":"42.67730","Longitude":"-75.50660","Snowdepth":"9.000","Units":"in","Rept_Date":"2019-12-07 13"},"coordinates":[5100,4369]},{"type":"Point","properties":{"Station_ID":"ORAN3","Station_Nam":"ORANGE","Latitude":"43.66880","Longitude":"-71.94830","Snowdepth":"9.000","Units":"in","Rept_Date":"2019-12-07 12"},"coordinates":[5935,4986]},{"type":"Point","properties":{"Station_ID":"NY-WN-10","Station_Nam":"WALWORTH 1.7 SW, NY","Latitude":"43.12500","Longitude":"-77.29900","Snowdepth":"9.000","Units":"in","Rept_Date":"2019-12-07 12"},"coordinates":[4680,4647]},{"type":"Point","properties":{"Station_ID":"NY-TG-15","Station_Nam":"BERKSHIRE 1.9 ENE, NY","Latitude":"42.31910","Longitude":"-76.21940","Snowdepth":"9.000","Units":"in","Rept_Date":"2019-12-07 13"},"coordinates":[4933,4146]},{"type":"Point","properties":{"Station_ID":"NY-OG-46","Station_Nam":"BALDWINSVILLE 3.5 NE, NY","Latitude":"43.19506","Longitude":"-76.28830","Snowdepth":"9.000","Units":"in","Rept_Date":"2019-12-07 13"},"coordinates":[4917,4691]},{"type":"Point","properties":{"Station_ID":"NY-OG-12","Station_Nam":"CLAY 4.6 NW, NY","Latitude":"43.20000","Longitude":"-76.26000","Snowdepth":"9.000","Units":"in","Rept_Date":"2019-12-07 14"},"coordinates":[4924,4694]},{"type":"Point","properties":{"Station_ID":"NY-OD-21","Station_Nam":"ROME 4.8 SSE, NY","Latitude":"43.16000","Longitude":"-75.46000","Snowdepth":"9.000","Units":"in","Rept_Date":"2019-12-07 12"},"coordinates":[5111,4669]},{"type":"Point","properties":{"Station_ID":"NY-CR-5","Station_Nam":"MARATHON 1.0 NW, NY","Latitude":"42.45161","Longitude":"-76.04370","Snowdepth":"9.000","Units":"in","Rept_Date":"2019-12-07 12"},"coordinates":[4974,4228]},{"type":"Point","properties":{"Station_ID":"NH-SL-3","Station_Nam":"WEST UNITY 0.7 WSW, NH","Latitude":"43.28652","Longitude":"-72.32970","Snowdepth":"9.000","Units":"in","Rept_Date":"2019-12-07 12"},"coordinates":[5846,4748]},{"type":"Point","properties":{"Station_ID":"NH-MR-4","Station_Nam":"BOW 1.6 NW, NH","Latitude":"43.14994","Longitude":"-71.55650","Snowdepth":"9.000","Units":"in","Rept_Date":"2019-12-07 12"},"coordinates":[6027,4663]},{"type":"Point","properties":{"Station_ID":"NFKC3","Station_Nam":"NORFOLK","Latitude":"41.97250","Longitude":"-73.22080","Snowdepth":"9.000","Units":"in","Rept_Date":"2019-12-07 13"},"coordinates":[5637,3930]},{"type":"Point","properties":{"Station_ID":"MI-MC-4","Station_Nam":"ST. IGNACE 0.5SE, MI","Latitude":"45.86057","Longitude":"-84.71980","Snowdepth":"9.000","Units":"in","Rept_Date":"2019-12-07 12"},"coordinates":[2938,6349]},{"type":"Point","properties":{"Station_ID":"MI-AT-6","Station_Nam":"MANCELONA 0.5 ESE, MI","Latitude":"44.89981","Longitude":"-85.05100","Snowdepth":"9.000","Units":"in","Rept_Date":"2019-12-07 13"},"coordinates":[2860,5752]},{"type":"Point","properties":{"Station_ID":"MECN6","Station_Nam":"MECKLENBURG 4 SW","Latitude":"42.44220","Longitude":"-76.75740","Snowdepth":"9.000","Units":"in","Rept_Date":"2019-12-07 12"},"coordinates":[4807,4223]},{"type":"Point","properties":{"Station_ID":"ME-SM-10","Station_Nam":"NORTH NEW PORTLAND 0.3 WSW, ME","Latitude":"44.92353","Longitude":"-70.02788","Snowdepth":"9.000","Units":"in","Rept_Date":"2019-12-07 12"},"coordinates":[6386,5766]},{"type":"Point","properties":{"Station_ID":"MA-MD-51","Station_Nam":"MAYNARD 0.7 ESE, MA","Latitude":"42.42027","Longitude":"-71.44484","Snowdepth":"9.000","Units":"in","Rept_Date":"2019-12-07 12"},"coordinates":[6054,4209]},{"type":"Point","properties":{"Station_ID":"MA-MD-158","Station_Nam":"SHERBORN 1.1 NW, MA","Latitude":"42.24460","Longitude":"-71.38130","Snowdepth":"9.000","Units":"in","Rept_Date":"2019-12-07 11"},"coordinates":[6069,4100]},{"type":"Point","properties":{"Station_ID":"MA-MD-12","Station_Nam":"ACTON 1.3 SW, MA","Latitude":"42.46746","Longitude":"-71.48200","Snowdepth":"9.000","Units":"in","Rept_Date":"2019-12-07 12"},"coordinates":[6045,4238]},{"type":"Point","properties":{"Station_ID":"LLLM3","Station_Nam":"LOWELL","Latitude":"42.64090","Longitude":"-71.36370","Snowdepth":"9.000","Units":"in","Rept_Date":"2019-12-07 11"},"coordinates":[6073,4346]},{"type":"Point","properties":{"Station_ID":"JKMM1","Station_Nam":"JACKMAN","Latitude":"45.62600","Longitude":"-70.24600","Snowdepth":"9.000","Units":"in","Rept_Date":"2019-12-07 12"},"coordinates":[6335,6203]},{"type":"Point","properties":{"Station_ID":"FLDM5","Station_Nam":"FLOODWOOD,MN","Latitude":"47.00000","Longitude":"-92.91670","Snowdepth":"9.000","Units":"in","Rept_Date":"2019-12-07 14"},"coordinates":[1014,7058]},{"type":"Point","properties":{"Station_ID":"ESDN6","Station_Nam":"EAST SIDNEY","Latitude":"42.33290","Longitude":"-75.22960","Snowdepth":"9.000","Units":"in","Rept_Date":"2019-12-07 14"},"coordinates":[5165,4155]},{"type":"Point","properties":{"Station_ID":"DTVM4","Station_Nam":"DETOUR VILLAGE","Latitude":"45.99830","Longitude":"-83.90130","Snowdepth":"9.000","Units":"in","Rept_Date":"2019-12-07 13"},"coordinates":[3130,6435]},{"type":"Point","properties":{"Station_ID":"CORV1","Station_Nam":"CORINTH","Latitude":"44.00690","Longitude":"-72.31940","Snowdepth":"9.000","Units":"in","Rept_Date":"2019-12-07 12"},"coordinates":[5848,5196]},{"type":"Point","properties":{"Station_ID":"BALW3","Station_Nam":"BALDWIN","Latitude":"44.96330","Longitude":"-92.39050","Snowdepth":"9.000","Units":"in","Rept_Date":"2019-12-07 13"},"coordinates":[1138,5791]},{"type":"Point","properties":{"Station_ID":"APXM4","Station_Nam":"GAYLORD 9SSW","Latitude":"44.90720","Longitude":"-84.71880","Snowdepth":"9.000","Units":"in","Rept_Date":"2019-12-08 05"},"coordinates":[2938,5756]},{"type":"Point","properties":{"Station_ID":"AHRM3","Station_Nam":"AMHERST","Latitude":"42.38610","Longitude":"-72.53750","Snowdepth":"9.000","Units":"in","Rept_Date":"2019-12-07 12"},"coordinates":[5797,4188]},{"type":"Point","properties":{"Station_ID":"QGA","Station_Nam":"QGA","Latitude":"47.25640","Longitude":"-73.73810","Snowdepth":"8.740","Units":"in","Rept_Date":"2019-12-07 12"},"coordinates":[5515,7218]},{"type":"Point","properties":{"Station_ID":"VT-WH-17","Station_Nam":"ROCKINGHAM 1.1 NNE, VT","Latitude":"43.20388","Longitude":"-72.48222","Snowdepth":"8.500","Units":"in","Rept_Date":"2019-12-07 13"},"coordinates":[5810,4696]},{"type":"Point","properties":{"Station_ID":"MN-CW-22","Station_Nam":"FORT RIPLEY 0.8 N, MN","Latitude":"46.18089","Longitude":"-94.36510","Snowdepth":"8.500","Units":"in","Rept_Date":"2019-12-07 13"},"coordinates":[674,6549]},{"type":"Point","properties":{"Station_ID":"MA-WR-18","Station_Nam":"NORTHBOROUGH 0.6 SSE, MA","Latitude":"42.30367","Longitude":"-71.64620","Snowdepth":"8.500","Units":"in","Rept_Date":"2019-12-07 14"},"coordinates":[6006,4136]},{"type":"Point","properties":{"Station_ID":"MA-WR-1","Station_Nam":"MILFORD 2.3 NNW, MA","Latitude":"42.17904","Longitude":"-71.53390","Snowdepth":"8.500","Units":"in","Rept_Date":"2019-12-07 12"},"coordinates":[6033,4059]},{"type":"Point","properties":{"Station_ID":"MA-MD-89","Station_Nam":"SUDBURY 3.6 W, MA","Latitude":"42.36394","Longitude":"-71.47012","Snowdepth":"8.500","Units":"in","Rept_Date":"2019-12-07 12"},"coordinates":[6048,4174]},{"type":"Point","properties":{"Station_ID":"CAN-ON-232","Station_Nam":"MILFORD 0.1 NNE - QUINTE CONSERVATION, CAN","Latitude":"43.93499","Longitude":"-77.09098","Snowdepth":"8.300","Units":"in","Rept_Date":"2019-12-07 13"},"coordinates":[4729,5151]},{"type":"Point","properties":{"Station_ID":"CAN-NB-98","Station_Nam":"HOYT 4.2 S, CAN","Latitude":"45.54763","Longitude":"-66.55440","Snowdepth":"8.300","Units":"in","Rept_Date":"2019-12-07 11"},"coordinates":[7201,6155]},{"type":"Point","properties":{"Station_ID":"MN-CW-8","Station_Nam":"BRAINERD 11.5 E, MN","Latitude":"46.38556","Longitude":"-93.95720","Snowdepth":"8.200","Units":"in","Rept_Date":"2019-12-07 14"},"coordinates":[770,6676]},{"type":"Point","properties":{"Station_ID":"WI-DR-5","Station_Nam":"ELLISON BAY 2.2 E, WI","Latitude":"45.25750","Longitude":"-87.02670","Snowdepth":"8.000","Units":"in","Rept_Date":"2019-12-07 13"},"coordinates":[2397,5974]},{"type":"Point","properties":{"Station_ID":"WI-BR-2","Station_Nam":"CHETEK 2.0 SE, WI","Latitude":"45.29427","Longitude":"-91.62470","Snowdepth":"8.000","Units":"in","Rept_Date":"2019-12-07 13"},"coordinates":[1318,5997]},{"type":"Point","properties":{"Station_ID":"VT-WS-19","Station_Nam":"WATERBURY 3.0 NW, VT","Latitude":"44.36060","Longitude":"-72.80770","Snowdepth":"8.000","Units":"in","Rept_Date":"2019-12-07 11"},"coordinates":[5734,5416]},{"type":"Point","properties":{"Station_ID":"VT-WS-10","Station_Nam":"NORTHFIELD 1.5 N, VT","Latitude":"44.16986","Longitude":"-72.65200","Snowdepth":"8.000","Units":"in","Rept_Date":"2019-12-07 12"},"coordinates":[5770,5297]},{"type":"Point","properties":{"Station_ID":"TOPM1","Station_Nam":"TOPSFIELD","Latitude":"45.43470","Longitude":"-67.72020","Snowdepth":"8.000","Units":"in","Rept_Date":"2019-12-07 12"},"coordinates":[6928,6084]},{"type":"Point","properties":{"Station_ID":"SFVC3","Station_Nam":"STAFFORDVILLE","Latitude":"41.99840","Longitude":"-72.26060","Snowdepth":"8.000","Units":"in","Rept_Date":"2019-12-07 10"},"coordinates":[5862,3946]},{"type":"Point","properties":{"Station_ID":"SAUW3","Station_Nam":"WAUSAU WSAW TV","Latitude":"44.94630","Longitude":"-89.62220","Snowdepth":"8.000","Units":"in","Rept_Date":"2019-12-08 05"},"coordinates":[1788,5781]},{"type":"Point","properties":{"Station_ID":"RHRW3","Station_Nam":"RHINELANDER WJFW TV-12","Latitude":"45.62220","Longitude":"-89.41000","Snowdepth":"8.000","Units":"in","Rept_Date":"2019-12-08 04"},"coordinates":[1837,6201]},{"type":"Point","properties":{"Station_ID":"RHI","Station_Nam":"RHINELANDER-ONEIDA COUNTY AIRPORT","Latitude":"45.63080","Longitude":"-89.46530","Snowdepth":"8.000","Units":"in","Rept_Date":"2019-12-07 12"},"coordinates":[1824,6206]},{"type":"Point","properties":{"Station_ID":"PTBN3","Station_Nam":"DAM WITHIN","Latitude":"45.05000","Longitude":"-71.38330","Snowdepth":"8.000","Units":"in","Rept_Date":"2019-12-07 12"},"coordinates":[6068,5845]},{"type":"Point","properties":{"Station_ID":"PLEP1","Station_Nam":"PLEASANT MOUNT 1 W","Latitude":"41.73940","Longitude":"-75.44650","Snowdepth":"8.000","Units":"in","Rept_Date":"2019-12-07 12"},"coordinates":[5114,3785]},{"type":"Point","properties":{"Station_ID":"NY-WS-8","Station_Nam":"GRANVILLE 9.5 SW, NY","Latitude":"43.31163","Longitude":"-73.39613","Snowdepth":"8.000","Units":"in","Rept_Date":"2019-12-07 13"},"coordinates":[5596,4764]},{"type":"Point","properties":{"Station_ID":"NY-UL-16","Station_Nam":"ROSENDALE VILLAGE 1.8 WNW, NY","Latitude":"41.86083","Longitude":"-74.10750","Snowdepth":"8.000","Units":"in","Rept_Date":"2019-12-07 12"},"coordinates":[5429,3861]},{"type":"Point","properties":{"Station_ID":"NY-TM-5","Station_Nam":"FREEVILLE 1.5 NE, NY","Latitude":"42.52530","Longitude":"-76.32180","Snowdepth":"8.000","Units":"in","Rept_Date":"2019-12-07 12"},"coordinates":[4909,4274]},{"type":"Point","properties":{"Station_ID":"NY-TM-27","Station_Nam":"GROTON 3.2 SSW, NY","Latitude":"42.54725","Longitude":"-76.39960","Snowdepth":"8.000","Units":"in","Rept_Date":"2019-12-07 12"},"coordinates":[4891,4288]},{"type":"Point","properties":{"Station_ID":"NY-OD-42","Station_Nam":"WHITESBORO 2.3 SW, NY","Latitude":"43.10017","Longitude":"-75.32940","Snowdepth":"8.000","Units":"in","Rept_Date":"2019-12-07 12"},"coordinates":[5142,4632]},{"type":"Point","properties":{"Station_ID":"NY-FK-9","Station_Nam":"GABRIELS 1.3 SE, NY","Latitude":"44.41934","Longitude":"-74.16194","Snowdepth":"8.000","Units":"in","Rept_Date":"2019-12-07 12"},"coordinates":[5416,5453]},{"type":"Point","properties":{"Station_ID":"NY-FK-7","Station_Nam":"SARANAC LAKE 6.2 N, NY","Latitude":"44.41359","Longitude":"-74.15211","Snowdepth":"8.000","Units":"in","Rept_Date":"2019-12-07 13"},"coordinates":[5418,5449]},{"type":"Point","properties":{"Station_ID":"NY-DT-37","Station_Nam":"RHINEBECK 3.4 N, NY","Latitude":"41.97735","Longitude":"-73.90559","Snowdepth":"8.000","Units":"in","Rept_Date":"2019-12-07 11"},"coordinates":[5476,3933]},{"type":"Point","properties":{"Station_ID":"NY-BM-34","Station_Nam":"VESTAL 3.2 E, NY","Latitude":"42.08258","Longitude":"-75.99120","Snowdepth":"8.000","Units":"in","Rept_Date":"2019-12-07 12"},"coordinates":[4987,3999]},{"type":"Point","properties":{"Station_ID":"NUNV1","Station_Nam":"NORTH UNDERHILL","Latitude":"44.58760","Longitude":"-72.92150","Snowdepth":"8.000","Units":"in","Rept_Date":"2019-12-07 12"},"coordinates":[5707,5557]},{"type":"Point","properties":{"Station_ID":"NTHM3","Station_Nam":"NORTHBRIDGE 2","Latitude":"42.11500","Longitude":"-71.67600","Snowdepth":"8.000","Units":"in","Rept_Date":"2019-12-07 12"},"coordinates":[5999,4019]},{"type":"Point","properties":{"Station_ID":"NH-MR-6","Station_Nam":"DANBURY 2.2 ESE, NH","Latitude":"43.52000","Longitude":"-71.81900","Snowdepth":"8.000","Units":"in","Rept_Date":"2019-12-07 13"},"coordinates":[5966,4893]},{"type":"Point","properties":{"Station_ID":"NH-MR-25","Station_Nam":"CHICHESTER 2.7 SSW, NH","Latitude":"43.21150","Longitude":"-71.41430","Snowdepth":"8.000","Units":"in","Rept_Date":"2019-12-07 12"},"coordinates":[6061,4701]},{"type":"Point","properties":{"Station_ID":"MN-SL-108","Station_Nam":"IRON JUNCTION 3.4 NNW, MN","Latitude":"47.46150","Longitude":"-92.63130","Snowdepth":"8.000","Units":"in","Rept_Date":"2019-12-07 13"},"coordinates":[1081,7345]},{"type":"Point","properties":{"Station_ID":"MN-IT-23","Station_Nam":"BOVEY 13.4 N, MN","Latitude":"47.48855","Longitude":"-93.43497","Snowdepth":"8.000","Units":"in","Rept_Date":"2019-12-07 13"},"coordinates":[893,7362]},{"type":"Point","properties":{"Station_ID":"MN-CY-20","Station_Nam":"HAWLEY 5.2 WNW, MN","Latitude":"46.91652","Longitude":"-96.41147","Snowdepth":"8.000","Units":"in","Rept_Date":"2019-12-07 13"},"coordinates":[194,7006]},{"type":"Point","properties":{"Station_ID":"MN-BK-6","Station_Nam":"LAKE PARK 6.0 S, MN","Latitude":"46.79850","Longitude":"-96.12180","Snowdepth":"8.000","Units":"in","Rept_Date":"2019-12-07 13"},"coordinates":[262,6933]},{"type":"Point","properties":{"Station_ID":"MA-WR-42","Station_Nam":"NORTHBOROUGH 2.3 N, MA","Latitude":"42.34535","Longitude":"-71.64390","Snowdepth":"8.000","Units":"in","Rept_Date":"2019-12-07 12"},"coordinates":[6007,4162]},{"type":"Point","properties":{"Station_ID":"MA-MD-52","Station_Nam":"LEXINGTON 0.6 SW, MA","Latitude":"42.43983","Longitude":"-71.24047","Snowdepth":"8.000","Units":"in","Rept_Date":"2019-12-07 12"},"coordinates":[6102,4221]},{"type":"Point","properties":{"Station_ID":"LWMM3","Station_Nam":"LAWRENCE","Latitude":"42.69930","Longitude":"-71.16590","Snowdepth":"8.000","Units":"in","Rept_Date":"2019-12-07 12"},"coordinates":[6119,4383]},{"type":"Point","properties":{"Station_ID":"LUCW3","Station_Nam":"LUCK","Latitude":"45.57330","Longitude":"-92.48520","Snowdepth":"8.000","Units":"in","Rept_Date":"2019-12-07 15"},"coordinates":[1116,6171]},{"type":"Point","properties":{"Station_ID":"LEIM5","Station_Nam":"ORR 3E","Latitude":"48.05810","Longitude":"-92.75220","Snowdepth":"8.000","Units":"in","Rept_Date":"2019-12-07 12"},"coordinates":[1053,7716]},{"type":"Point","properties":{"Station_ID":"KSYR","Station_Nam":"SYRACUSE HANCOCK INTERNATIONAL  AIRPORT","Latitude":"43.11666","Longitude":"-76.10000","Snowdepth":"8.000","Units":"in","Rept_Date":"2019-12-08 06"},"coordinates":[4961,4642]},{"type":"Point","properties":{"Station_ID":"KGFK","Station_Nam":"GRAND FORKS INTERNATIONAL","Latitude":"47.95000","Longitude":"-97.18333","Snowdepth":"8.000","Units":"in","Rept_Date":"2019-12-08 06"},"coordinates":[13,7649]},{"type":"Point","properties":{"Station_ID":"KBDL","Station_Nam":"BRADLEY INTERNATIONAL AIRPORT","Latitude":"41.93333","Longitude":"-72.68333","Snowdepth":"8.000","Units":"in","Rept_Date":"2019-12-08 00"},"coordinates":[5763,3906]},{"type":"Point","properties":{"Station_ID":"JOHV1","Station_Nam":"JOHNSON 2 N","Latitude":"44.65790","Longitude":"-72.67850","Snowdepth":"8.000","Units":"in","Rept_Date":"2019-12-07 12"},"coordinates":[5764,5601]},{"type":"Point","properties":{"Station_ID":"JEFN3","Station_Nam":"JEFFERSON","Latitude":"44.41690","Longitude":"-71.50080","Snowdepth":"8.000","Units":"in","Rept_Date":"2019-12-07 12"},"coordinates":[6040,5451]},{"type":"Point","properties":{"Station_ID":"HGHN4","Station_Nam":"HIGHLAND LAKES 1SW","Latitude":"41.16330","Longitude":"-74.45930","Snowdepth":"8.000","Units":"in","Rept_Date":"2019-12-07 10"},"coordinates":[5346,3427]},{"type":"Point","properties":{"Station_ID":"HANN3","Station_Nam":"HANOVER","Latitude":"43.70520","Longitude":"-72.28550","Snowdepth":"8.000","Units":"in","Rept_Date":"2019-12-07 10"},"coordinates":[5856,5008]},{"type":"Point","properties":{"Station_ID":"GRBM5","Station_Nam":"GRAND RAPIDS 12N","Latitude":"47.39800","Longitude":"-93.51330","Snowdepth":"8.000","Units":"in","Rept_Date":"2019-12-07 13"},"coordinates":[874,7306]},{"type":"Point","properties":{"Station_ID":"GNEN6","Station_Nam":"GREENE","Latitude":"42.32440","Longitude":"-75.77170","Snowdepth":"8.000","Units":"in","Rept_Date":"2019-12-07 13"},"coordinates":[5038,4149]},{"type":"Point","properties":{"Station_ID":"GFK","Station_Nam":"GRAND FORKS INTERNATIONAL AIRPORT","Latitude":"47.94920","Longitude":"-97.17610","Snowdepth":"8.000","Units":"in","Rept_Date":"2019-12-08 00"},"coordinates":[15,7649]},{"type":"Point","properties":{"Station_ID":"FISW3","Station_Nam":"FISH CREEK 1 E WWTP","Latitude":"45.12420","Longitude":"-87.22920","Snowdepth":"8.000","Units":"in","Rept_Date":"2019-12-07 14"},"coordinates":[2349,5891]},{"type":"Point","properties":{"Station_ID":"DURM1","Station_Nam":"DURHAM","Latitude":"43.99960","Longitude":"-70.09630","Snowdepth":"8.000","Units":"in","Rept_Date":"2019-12-07 12"},"coordinates":[6370,5192]},{"type":"Point","properties":{"Station_ID":"CT-TL-2","Station_Nam":"STAFFORDVILLE 0.4 NNW, CT","Latitude":"41.99874","Longitude":"-72.26100","Snowdepth":"8.000","Units":"in","Rept_Date":"2019-12-07 11"},"coordinates":[5862,3947]},{"type":"Point","properties":{"Station_ID":"CT-LT-9","Station_Nam":"NEW HARTFORD CENTER 3.2 SW, CT","Latitude":"41.84170","Longitude":"-73.00920","Snowdepth":"8.000","Units":"in","Rept_Date":"2019-12-07 12"},"coordinates":[5686,3849]},{"type":"Point","properties":{"Station_ID":"BGMN6","Station_Nam":"BINGHAMTON WFO","Latitude":"42.21160","Longitude":"-75.98580","Snowdepth":"8.000","Units":"in","Rept_Date":"2019-12-08 05"},"coordinates":[4988,4079]},{"type":"Point","properties":{"Station_ID":"BAKC3","Station_Nam":"BAKERSVILLE","Latitude":"41.84180","Longitude":"-73.00850","Snowdepth":"8.000","Units":"in","Rept_Date":"2019-12-07 12"},"coordinates":[5687,3849]},{"type":"Point","properties":{"Station_ID":"AUW","Station_Nam":"WAUSAU MUNICIPAL AIRPORT","Latitude":"44.92580","Longitude":"-89.62560","Snowdepth":"8.000","Units":"in","Rept_Date":"2019-12-07 12"},"coordinates":[1787,5768]},{"type":"Point","properties":{"Station_ID":"ANDM1","Station_Nam":"ANDOVER 2","Latitude":"44.65300","Longitude":"-70.79410","Snowdepth":"8.000","Units":"in","Rept_Date":"2019-12-07 12"},"coordinates":[6206,5598]},{"type":"Point","properties":{"Station_ID":"QIQ","Station_Nam":"QIQ","Latitude":"49.82390","Longitude":"-68.54310","Snowdepth":"7.992","Units":"in","Rept_Date":"2019-12-07 12"},"coordinates":[6735,8815]},{"type":"Point","properties":{"Station_ID":"CATQ6","Station_Nam":"CAT LAKE","Latitude":"51.72690","Longitude":"-91.82210","Snowdepth":"7.870","Units":"in","Rept_Date":"2019-12-08 06"},"coordinates":[1271,9999]},{"type":"Point","properties":{"Station_ID":"WI-CH-7","Station_Nam":"CHIPPEWA FALLS 1.2 E, WI","Latitude":"44.92920","Longitude":"-91.36730","Snowdepth":"7.500","Units":"in","Rept_Date":"2019-12-07 13"},"coordinates":[1378,5770]},{"type":"Point","properties":{"Station_ID":"VT-WR-2","Station_Nam":"POMFRET 2.6 N, VT","Latitude":"43.74230","Longitude":"-72.52550","Snowdepth":"7.500","Units":"in","Rept_Date":"2019-12-07 12"},"coordinates":[5800,5031]},{"type":"Point","properties":{"Station_ID":"VT-OL-1","Station_Nam":"WESTFIELD 0.7 WNW, VT","Latitude":"44.89160","Longitude":"-72.44350","Snowdepth":"7.500","Units":"in","Rept_Date":"2019-12-07 12"},"coordinates":[5819,5746]},{"type":"Point","properties":{"Station_ID":"VT-CH-4","Station_Nam":"UNDERHILL 4.4 NNE, VT","Latitude":"44.58774","Longitude":"-72.92250","Snowdepth":"7.500","Units":"in","Rept_Date":"2019-12-07 12"},"coordinates":[5707,5557]},{"type":"Point","properties":{"Station_ID":"VT-CH-11","Station_Nam":"UNDERHILL 5.1 NNE, VT","Latitude":"44.59811","Longitude":"-72.91880","Snowdepth":"7.500","Units":"in","Rept_Date":"2019-12-07 11"},"coordinates":[5708,5564]},{"type":"Point","properties":{"Station_ID":"VT-AD-24","Station_Nam":"MIDDLEBURY 0.3 N, VT","Latitude":"44.01808","Longitude":"-73.16844","Snowdepth":"7.500","Units":"in","Rept_Date":"2019-12-07 09"},"coordinates":[5649,5203]},{"type":"Point","properties":{"Station_ID":"NY-WN-18","Station_Nam":"MACEDON 2.6 ESE, NY","Latitude":"43.05200","Longitude":"-77.25700","Snowdepth":"7.500","Units":"in","Rept_Date":"2019-12-07 11"},"coordinates":[4690,4602]},{"type":"Point","properties":{"Station_ID":"NY-TG-5","Station_Nam":"BERKSHIRE 2.0 N, NY","Latitude":"42.33463","Longitude":"-76.18990","Snowdepth":"7.500","Units":"in","Rept_Date":"2019-12-07 13"},"coordinates":[4940,4156]},{"type":"Point","properties":{"Station_ID":"NY-OS-20","Station_Nam":"FULTON 0.2 W, NY","Latitude":"43.31650","Longitude":"-76.41850","Snowdepth":"7.500","Units":"in","Rept_Date":"2019-12-07 13"},"coordinates":[4886,4767]},{"type":"Point","properties":{"Station_ID":"NY-OG-72","Station_Nam":"LIVERPOOL 4.5 N, NY","Latitude":"43.17016","Longitude":"-76.22385","Snowdepth":"7.500","Units":"in","Rept_Date":"2019-12-07 13"},"coordinates":[4932,4675]},{"type":"Point","properties":{"Station_ID":"NY-OG-71","Station_Nam":"LIVERPOOL 6.1 NNW, NY","Latitude":"43.18876","Longitude":"-76.25193","Snowdepth":"7.500","Units":"in","Rept_Date":"2019-12-07 11"},"coordinates":[4925,4687]},{"type":"Point","properties":{"Station_ID":"NY-CY-8","Station_Nam":"AUBURN 8.3 SSE, NY","Latitude":"42.82869","Longitude":"-76.48670","Snowdepth":"7.500","Units":"in","Rept_Date":"2019-12-07 11"},"coordinates":[4870,4463]},{"type":"Point","properties":{"Station_ID":"NY-BM-14","Station_Nam":"WHITNEY POINT 1.7 SSE, NY","Latitude":"42.30837","Longitude":"-75.95690","Snowdepth":"7.500","Units":"in","Rept_Date":"2019-12-07 13"},"coordinates":[4995,4139]},{"type":"Point","properties":{"Station_ID":"MN-WK-5","Station_Nam":"WOLVERTON 1.1 ENE, MN","Latitude":"46.56920","Longitude":"-96.71540","Snowdepth":"7.500","Units":"in","Rept_Date":"2019-12-07 13"},"coordinates":[123,6790]},{"type":"Point","properties":{"Station_ID":"MI-OT-16","Station_Nam":"GAYLORD 2.2 SSE, MI","Latitude":"44.99441","Longitude":"-84.65820","Snowdepth":"7.500","Units":"in","Rept_Date":"2019-12-07 11"},"coordinates":[2953,5810]},{"type":"Point","properties":{"Station_ID":"MI-CX-7","Station_Nam":"EAST JORDAN 2.1 NNW, MI","Latitude":"45.18639","Longitude":"-85.14750","Snowdepth":"7.500","Units":"in","Rept_Date":"2019-12-07 12"},"coordinates":[2838,5930]},{"type":"Point","properties":{"Station_ID":"ME-YK-5","Station_Nam":"KENNEBUNK 1.8 WNW, ME","Latitude":"43.39320","Longitude":"-70.58060","Snowdepth":"7.500","Units":"in","Rept_Date":"2019-12-07 12"},"coordinates":[6256,4814]},{"type":"Point","properties":{"Station_ID":"MA-ES-41","Station_Nam":"DANVERS 0.8 ESE, MA","Latitude":"42.56849","Longitude":"-70.93526","Snowdepth":"7.500","Units":"in","Rept_Date":"2019-12-07 14"},"coordinates":[6173,4301]},{"type":"Point","properties":{"Station_ID":"ME-CM-54","Station_Nam":"WINDHAM 3.9 NW, ME","Latitude":"43.85787","Longitude":"-70.46200","Snowdepth":"7.300","Units":"in","Rept_Date":"2019-12-07 12"},"coordinates":[6284,5103]},{"type":"Point","properties":{"Station_ID":"QMA","Station_Nam":"QMA","Latitude":"50.10330","Longitude":"-70.47190","Snowdepth":"7.126","Units":"in","Rept_Date":"2019-12-07 12"},"coordinates":[6282,8989]},{"type":"Point","properties":{"Station_ID":"WYON6","Station_Nam":"WYOMING 3W","Latitude":"42.82060","Longitude":"-78.14810","Snowdepth":"7.000","Units":"in","Rept_Date":"2019-12-07 12"},"coordinates":[4480,4458]},{"type":"Point","properties":{"Station_ID":"WRSN6","Station_Nam":"WARSAW 6SW","Latitude":"42.68550","Longitude":"-78.22020","Snowdepth":"7.000","Units":"in","Rept_Date":"2019-12-07 12"},"coordinates":[4463,4374]},{"type":"Point","properties":{"Station_ID":"WNDM1","Station_Nam":"WINDHAM 2NW","Latitude":"43.85670","Longitude":"-70.46630","Snowdepth":"7.000","Units":"in","Rept_Date":"2019-12-07 12"},"coordinates":[6283,5103]},{"type":"Point","properties":{"Station_ID":"WI-EC-23","Station_Nam":"EAU CLAIRE 3.7 S, WI","Latitude":"44.76858","Longitude":"-91.49898","Snowdepth":"7.000","Units":"in","Rept_Date":"2019-12-07 19"},"coordinates":[1347,5670]},{"type":"Point","properties":{"Station_ID":"VT-WS-15","Station_Nam":"EAST CALAIS 1.5 SW, VT","Latitude":"44.35523","Longitude":"-72.45540","Snowdepth":"7.000","Units":"in","Rept_Date":"2019-12-07 12"},"coordinates":[5816,5413]},{"type":"Point","properties":{"Station_ID":"VT-OG-11","Station_Nam":"VERSHIRE 1.5 ESE, VT","Latitude":"43.96138","Longitude":"-72.29777","Snowdepth":"7.000","Units":"in","Rept_Date":"2019-12-07 13"},"coordinates":[5853,5168]},{"type":"Point","properties":{"Station_ID":"SUXN4","Station_Nam":"SUSSEX 3 WNW","Latitude":"41.20000","Longitude":"-74.60000","Snowdepth":"7.000","Units":"in","Rept_Date":"2019-12-07 12"},"coordinates":[5313,3450]},{"type":"Point","properties":{"Station_ID":"SSMM4","Station_Nam":"SAULT STE MARIE","Latitude":"46.48660","Longitude":"-84.40250","Snowdepth":"7.000","Units":"in","Rept_Date":"2019-12-07 13"},"coordinates":[3013,6739]},{"type":"Point","properties":{"Station_ID":"SIBI4","Station_Nam":"SIBLEY","Latitude":"43.40470","Longitude":"-95.74830","Snowdepth":"7.000","Units":"in","Rept_Date":"2019-12-07 13"},"coordinates":[350,4821]},{"type":"Point","properties":{"Station_ID":"SHHW3","Station_Nam":"SHAWANO 2SSW","Latitude":"44.76310","Longitude":"-88.61830","Snowdepth":"7.000","Units":"in","Rept_Date":"2019-12-07 14"},"coordinates":[2023,5667]},{"type":"Point","properties":{"Station_ID":"RRLW3","Station_Nam":"MERRILL,WI","Latitude":"45.17860","Longitude":"-89.66170","Snowdepth":"7.000","Units":"in","Rept_Date":"2019-12-07 14"},"coordinates":[1778,5925]},{"type":"Point","properties":{"Station_ID":"OTTM5","Station_Nam":"OTTERTAIL,MN","Latitude":"46.41670","Longitude":"-95.56670","Snowdepth":"7.000","Units":"in","Rept_Date":"2019-12-07 13"},"coordinates":[392,6695]},{"type":"Point","properties":{"Station_ID":"NY-UL-23","Station_Nam":"WEST HURLEY 0.1 S, NY","Latitude":"42.00455","Longitude":"-74.11094","Snowdepth":"7.000","Units":"in","Rept_Date":"2019-12-07 12"},"coordinates":[5428,3950]},{"type":"Point","properties":{"Station_ID":"NY-OS-15","Station_Nam":"MINETTO 0.1 SE, NY","Latitude":"43.39771","Longitude":"-76.47960","Snowdepth":"7.000","Units":"in","Rept_Date":"2019-12-07 12"},"coordinates":[4872,4817]},{"type":"Point","properties":{"Station_ID":"NY-MR-23","Station_Nam":"ROCHESTER 5.0 WNW, NY","Latitude":"43.20356","Longitude":"-77.70310","Snowdepth":"7.000","Units":"in","Rept_Date":"2019-12-07 12"},"coordinates":[4585,4696]},{"type":"Point","properties":{"Station_ID":"NSKN6","Station_Nam":"NISKAYUNA","Latitude":"42.79580","Longitude":"-73.87670","Snowdepth":"7.000","Units":"in","Rept_Date":"2019-12-07 12"},"coordinates":[5483,4443]},{"type":"Point","properties":{"Station_ID":"NOHM5","Station_Nam":"NORTHOME","Latitude":"47.83590","Longitude":"-94.25550","Snowdepth":"7.000","Units":"in","Rept_Date":"2019-12-07 13"},"coordinates":[700,7578]},{"type":"Point","properties":{"Station_ID":"NJ-SS-54","Station_Nam":"SPARTA TWP 3.6 SSW, NJ","Latitude":"41.00503","Longitude":"-74.66358","Snowdepth":"7.000","Units":"in","Rept_Date":"2019-12-07 11"},"coordinates":[5298,3328]},{"type":"Point","properties":{"Station_ID":"NH-MR-63","Station_Nam":"SUTTON MILLS 0.1 ENE, NH","Latitude":"43.33522","Longitude":"-71.95126","Snowdepth":"7.000","Units":"in","Rept_Date":"2019-12-07 12"},"coordinates":[5935,4778]},{"type":"Point","properties":{"Station_ID":"NCKN6","Station_Nam":"NORTH CREEK 5 SE","Latitude":"43.66110","Longitude":"-73.89690","Snowdepth":"7.000","Units":"in","Rept_Date":"2019-12-07 12"},"coordinates":[5478,4981]},{"type":"Point","properties":{"Station_ID":"MWN","Station_Nam":"MOUNT WASHINGTON","Latitude":"44.26670","Longitude":"-71.30000","Snowdepth":"7.000","Units":"in","Rept_Date":"2019-12-08 05"},"coordinates":[6088,5358]},{"type":"Point","properties":{"Station_ID":"MRAM5","Station_Nam":"MORA","Latitude":"45.87760","Longitude":"-93.31470","Snowdepth":"7.000","Units":"in","Rept_Date":"2019-12-07 13"},"coordinates":[921,6360]},{"type":"Point","properties":{"Station_ID":"MN-DK-53","Station_Nam":"LAKEVILLE 3.8 ENE, MN","Latitude":"44.70423","Longitude":"-93.18460","Snowdepth":"7.000","Units":"in","Rept_Date":"2019-12-07 14"},"coordinates":[951,5630]},{"type":"Point","properties":{"Station_ID":"MN-CY-1","Station_Nam":"MOORHEAD 2.0 N, MN","Latitude":"46.88766","Longitude":"-96.74800","Snowdepth":"7.000","Units":"in","Rept_Date":"2019-12-07 13"},"coordinates":[115,6988]},{"type":"Point","properties":{"Station_ID":"MIDM3","Station_Nam":"MIDDLETON","Latitude":"42.59340","Longitude":"-71.01870","Snowdepth":"7.000","Units":"in","Rept_Date":"2019-12-07 15"},"coordinates":[6154,4317]},{"type":"Point","properties":{"Station_ID":"MEDW3","Station_Nam":"MEDFORD","Latitude":"45.13080","Longitude":"-90.34390","Snowdepth":"7.000","Units":"in","Rept_Date":"2019-12-07 14"},"coordinates":[1618,5895]},{"type":"Point","properties":{"Station_ID":"ME-YK-65","Station_Nam":"NORTH BERWICK 5.3 W, ME","Latitude":"43.29801","Longitude":"-70.83956","Snowdepth":"7.000","Units":"in","Rept_Date":"2019-12-07 13"},"coordinates":[6196,4755]},{"type":"Point","properties":{"Station_ID":"ME-SG-1","Station_Nam":"BATH 1.1 WSW, ME","Latitude":"43.93063","Longitude":"-69.85730","Snowdepth":"7.000","Units":"in","Rept_Date":"2019-12-07 12"},"coordinates":[6426,5149]},{"type":"Point","properties":{"Station_ID":"ME-LN-21","Station_Nam":"WESTPORT ISLAND 2.2 SSW, ME","Latitude":"43.88806","Longitude":"-69.70890","Snowdepth":"7.000","Units":"in","Rept_Date":"2019-12-07 13"},"coordinates":[6461,5122]},{"type":"Point","properties":{"Station_ID":"ME-CM-3","Station_Nam":"NEW GLOUCESTER 3.0 SE, ME","Latitude":"43.92372","Longitude":"-70.25790","Snowdepth":"7.000","Units":"in","Rept_Date":"2019-12-07 12"},"coordinates":[6332,5144]},{"type":"Point","properties":{"Station_ID":"ME-CM-128","Station_Nam":"SOUTH PORTLAND 1.6 S, ME","Latitude":"43.60900","Longitude":"-70.28600","Snowdepth":"7.000","Units":"in","Rept_Date":"2019-12-07 12"},"coordinates":[6326,4949]},{"type":"Point","properties":{"Station_ID":"ME-CM-125","Station_Nam":"CUMBERLAND CENTER 4.4 NW, ME","Latitude":"43.84640","Longitude":"-70.31340","Snowdepth":"7.000","Units":"in","Rept_Date":"2019-12-07 12"},"coordinates":[6319,5096]},{"type":"Point","properties":{"Station_ID":"MA-MD-7","Station_Nam":"WINCHESTER 0.7 SE, MA","Latitude":"42.44594","Longitude":"-71.13580","Snowdepth":"7.000","Units":"in","Rept_Date":"2019-12-07 12"},"coordinates":[6126,4225]},{"type":"Point","properties":{"Station_ID":"LNGM5","Station_Nam":"LONG PRAIRIE","Latitude":"45.96460","Longitude":"-94.88920","Snowdepth":"7.000","Units":"in","Rept_Date":"2019-12-07 12"},"coordinates":[551,6414]},{"type":"Point","properties":{"Station_ID":"LEWM4","Station_Nam":"LEWISTON 3W","Latitude":"44.88210","Longitude":"-84.36540","Snowdepth":"7.000","Units":"in","Rept_Date":"2019-12-07 13"},"coordinates":[3021,5741]},{"type":"Point","properties":{"Station_ID":"KMWN","Station_Nam":"MOUNT WASHINGTON","Latitude":"44.26666","Longitude":"-71.30000","Snowdepth":"7.000","Units":"in","Rept_Date":"2019-12-08 06"},"coordinates":[6088,5358]},{"type":"Point","properties":{"Station_ID":"HOLM1","Station_Nam":"HOLLIS","Latitude":"43.64750","Longitude":"-70.67490","Snowdepth":"7.000","Units":"in","Rept_Date":"2019-12-07 12"},"coordinates":[6234,4972]},{"type":"Point","properties":{"Station_ID":"FDRN8","Station_Nam":"FARGO 3S","Latitude":"46.82930","Longitude":"-96.79620","Snowdepth":"7.000","Units":"in","Rept_Date":"2019-12-08 03"},"coordinates":[104,6952]},{"type":"Point","properties":{"Station_ID":"FAR","Station_Nam":"HECTOR INTERNATIONAL ARPT","Latitude":"46.91560","Longitude":"-96.81440","Snowdepth":"7.000","Units":"in","Rept_Date":"2019-12-08 00"},"coordinates":[100,7006]},