{"type":"Topology","objects":{"snowdepth_geo":{"type":"GeometryCollection","geometries":[{"type":"Point","coordinates":[-72.8154,44.5248],"properties":{"Station_ID":"MMNV1","Station_Nam":"MT. MANSFIELD","Latitude":"44.52480","Longitude":"-72.81540","Snowdepth":"87.000","Units":"in","Rept_Date":"2025-04-18 20"}},{"type":"Point","coordinates":[-86.62,46.4258],"properties":{"Station_ID":"PRKM4","Station_Nam":"MUNISING EAST","Latitude":"46.42580","Longitude":"-86.62000","Snowdepth":"76.500","Units":"in","Rept_Date":"2025-04-19 06"}},{"type":"Point","coordinates":[-69.6747,50.7925],"properties":{"Station_ID":"CQOU","Station_Nam":"CQOU","Latitude":"50.79250","Longitude":"-69.67470","Snowdepth":"35.472","Units":"in","Rept_Date":"2025-04-18 12"}},{"type":"Point","coordinates":[-67.1394,51.1114],"properties":{"Station_ID":"CQGD","Station_Nam":"CQGD","Latitude":"51.11140","Longitude":"-67.13940","Snowdepth":"33.701","Units":"in","Rept_Date":"2025-04-18 12"}},{"type":"Point","coordinates":[-71.2833,44.2613],"properties":{"Station_ID":"HTLN3","Station_Nam":"HERMIT LAKE SNOWPLOT","Latitude":"44.26130","Longitude":"-71.28330","Snowdepth":"31.000","Units":"in","Rept_Date":"2025-04-18 09"}},{"type":"Point","coordinates":[-86.6625,46.4121],"properties":{"Station_ID":"MNSM4","Station_Nam":"MUNISING","Latitude":"46.41210","Longitude":"-86.66250","Snowdepth":"30.000","Units":"in","Rept_Date":"2025-04-18 11"}},{"type":"Point","coordinates":[-68.8236,50.6617],"properties":{"Station_ID":"CMLZ","Station_Nam":"CMLZ","Latitude":"50.66170","Longitude":"-68.82360","Snowdepth":"29.764","Units":"in","Rept_Date":"2025-04-18 12"}},{"type":"Point","coordinates":[-88.6717,47.0416],"properties":{"Station_ID":"PDLM4","Station_Nam":"PAINESDALE","Latitude":"47.04160","Longitude":"-88.67170","Snowdepth":"26.000","Units":"in","Rept_Date":"2025-04-18 12"}},{"type":"Point","coordinates":[-69.3569,49.66],"properties":{"Station_ID":"CQTV","Station_Nam":"CQTV","Latitude":"49.66000","Longitude":"-69.35690","Snowdepth":"24.488","Units":"in","Rept_Date":"2025-04-18 12"}},{"type":"Point","coordinates":[-71.1955,44.2594],"properties":{"Station_ID":"CRNN3","Station_Nam":"CARTER NOTCH","Latitude":"44.25940","Longitude":"-71.19550","Snowdepth":"24.000","Units":"in","Rept_Date":"2025-04-18 11"}},{"type":"Point","coordinates":[-71.7031,44.1382],"properties":{"Station_ID":"LLHN3","Station_Nam":"LONESOME LAKE HUT","Latitude":"44.13820","Longitude":"-71.70310","Snowdepth":"23.000","Units":"in","Rept_Date":"2025-04-18 11"}},{"type":"Point","coordinates":[-67.6264,49.6472],"properties":{"Station_ID":"CQGT","Station_Nam":"CQGT","Latitude":"49.64720","Longitude":"-67.62640","Snowdepth":"22.913","Units":"in","Rept_Date":"2025-04-18 12"}},{"type":"Point","coordinates":[-74.2064,48.855],"properties":{"Station_ID":"CQGO","Station_Nam":"CQGO","Latitude":"48.85500","Longitude":"-74.20640","Snowdepth":"21.968","Units":"in","Rept_Date":"2025-04-18 12"}},{"type":"Point","coordinates":[-71.4944,44.1959],"properties":{"Station_ID":"ZFHN3","Station_Nam":"ZEALAND FALLS HUT","Latitude":"44.19590","Longitude":"-71.49440","Snowdepth":"21.000","Units":"in","Rept_Date":"2025-04-18 11"}},{"type":"Point","coordinates":[-70.0806,51.3283],"properties":{"Station_ID":"CQCX","Station_Nam":"CQCX","Latitude":"51.32830","Longitude":"-70.08060","Snowdepth":"20.787","Units":"in","Rept_Date":"2025-04-18 12"}},{"type":"Point","coordinates":[-87.2292,49.2288],"properties":{"Station_ID":"TRIQ6","Station_Nam":"TRIO LAKE","Latitude":"49.22880","Longitude":"-87.22920","Snowdepth":"20.710","Units":"in","Rept_Date":"2025-04-19 06"}},{"type":"Point","coordinates":[-82.5757,48.526],"properties":{"Station_ID":"AUDQ6","Station_Nam":"AUDEN","Latitude":"48.52600","Longitude":"-82.57570","Snowdepth":"20.670","Units":"in","Rept_Date":"2025-04-19 06"}},{"type":"Point","coordinates":[-66.13279,47.90803],"properties":{"Station_ID":"CAN-NB-50","Station_Nam":"DOYLEVILLE 2.4 WNW, CAN","Latitude":"47.90803","Longitude":"-66.13279","Snowdepth":"19.500","Units":"in","Rept_Date":"2025-04-18 12"}},{"type":"Point","coordinates":[-75.1,50.7236],"properties":{"Station_ID":"CQLB","Station_Nam":"CQLB","Latitude":"50.72360","Longitude":"-75.10000","Snowdepth":"18.858","Units":"in","Rept_Date":"2025-04-18 12"}},{"type":"Point","coordinates":[-70.2528,48.9203],"properties":{"Station_ID":"CQLM","Station_Nam":"CQLM","Latitude":"48.92030","Longitude":"-70.25280","Snowdepth":"18.425","Units":"in","Rept_Date":"2025-04-18 12"}},{"type":"Point","coordinates":[-88.2077,46.5573],"properties":{"Station_ID":"MI-BG-3","Station_Nam":"THREE LAKES, MI","Latitude":"46.55730","Longitude":"-88.20770","Snowdepth":"17.500","Units":"in","Rept_Date":"2025-04-18 12"}},{"type":"Point","coordinates":[-70.4719,50.1033],"properties":{"Station_ID":"CQMA","Station_Nam":"CQMA","Latitude":"50.10330","Longitude":"-70.47190","Snowdepth":"16.260","Units":"in","Rept_Date":"2025-04-18 12"}},{"type":"Point","coordinates":[-88.5795,47.1364],"properties":{"Station_ID":"QNCM4","Station_Nam":"QUINCY HILL","Latitude":"47.13640","Longitude":"-88.57950","Snowdepth":"16.000","Units":"in","Rept_Date":"2025-04-18 11"}},{"type":"Point","coordinates":[-76.5983,47.8275],"properties":{"Station_ID":"CQCU","Station_Nam":"CQCU","Latitude":"47.82750","Longitude":"-76.59830","Snowdepth":"15.472","Units":"in","Rept_Date":"2025-04-18 12"}},{"type":"Point","coordinates":[-87.7644,49.1989],"properties":{"Station_ID":"DVLQ6","Station_Nam":"DEVIOUS LAKE","Latitude":"49.19890","Longitude":"-87.76440","Snowdepth":"15.120","Units":"in","Rept_Date":"2025-04-19 06"}},{"type":"Point","coordinates":[-66.9111,51.5217],"properties":{"Station_ID":"CMFU","Station_Nam":"CMFU","Latitude":"51.52170","Longitude":"-66.91110","Snowdepth":"15.079","Units":"in","Rept_Date":"2025-04-18 12"}},{"type":"Point","coordinates":[-68.8406,51.2833],"properties":{"Station_ID":"CMRL","Station_Nam":"CMRL","Latitude":"51.28330","Longitude":"-68.84060","Snowdepth":"14.291","Units":"in","Rept_Date":"2025-04-18 12"}},{"type":"Point","coordinates":[-87.8582,50.7668],"properties":{"Station_ID":"OGIQ6","Station_Nam":"OGOKI CAMP","Latitude":"50.76680","Longitude":"-87.85820","Snowdepth":"14.250","Units":"in","Rept_Date":"2025-04-19 06"}},{"type":"Point","coordinates":[-86.6594,49.0695],"properties":{"Station_ID":"PTLQ6","Station_Nam":"PORTAGE LAKE","Latitude":"49.06950","Longitude":"-86.65940","Snowdepth":"13.940","Units":"in","Rept_Date":"2025-04-19 06"}},{"type":"Point","coordinates":[-74.4039,50.8328],"properties":{"Station_ID":"CQFT","Station_Nam":"CQFT","Latitude":"50.83280","Longitude":"-74.40390","Snowdepth":"13.465","Units":"in","Rept_Date":"2025-04-18 12"}},{"type":"Point","coordinates":[-91.793,50.7787],"properties":{"Station_ID":"SOCQ6","Station_Nam":"SOCKET LAKE","Latitude":"50.77870","Longitude":"-91.79300","Snowdepth":"12.200","Units":"in","Rept_Date":"2025-04-19 06"}},{"type":"Point","coordinates":[-72.2824,44.1944],"properties":{"Station_ID":"VT-CL-3","Station_Nam":"GROTON 4.4 WSW, VT","Latitude":"44.19440","Longitude":"-72.28240","Snowdepth":"11.500","Units":"in","Rept_Date":"2025-04-18 10"}},{"type":"Point","coordinates":[-73.8067,47.8461],"properties":{"Station_ID":"CQWE","Station_Nam":"CQWE","Latitude":"47.84610","Longitude":"-73.80670","Snowdepth":"11.299","Units":"in","Rept_Date":"2025-04-18 12"}},{"type":"Point","coordinates":[-88.5294,47.10774],"properties":{"Station_ID":"MI-HG-1","Station_Nam":"HOUGHTON 1.6 ESE, MI","Latitude":"47.10774","Longitude":"-88.52940","Snowdepth":"11.000","Units":"in","Rept_Date":"2025-04-18 12"}},{"type":"Point","coordinates":[-88.417,47.2752],"properties":{"Station_ID":"KSGM4","Station_Nam":"KEARSARGE","Latitude":"47.27520","Longitude":"-88.41700","Snowdepth":"11.000","Units":"in","Rept_Date":"2025-04-18 11"}},{"type":"Point","coordinates":[-88.3333,46.65],"properties":{"Station_ID":"HERM4","Station_Nam":"HERMAN,MI","Latitude":"46.65000","Longitude":"-88.33330","Snowdepth":"11.000","Units":"in","Rept_Date":"2025-04-18 12"}},{"type":"Point","coordinates":[-90.6567,50.2873],"properties":{"Station_ID":"SVBQ6","Station_Nam":"SAVANT BASE","Latitude":"50.28730","Longitude":"-90.65670","Snowdepth":"10.830","Units":"in","Rept_Date":"2025-04-19 06"}},{"type":"Point","coordinates":[-76.1453,38.91833],"properties":{"Station_ID":"007MD_MADIS","Station_Nam":"WYE MILLS 4 WSW","Latitude":"38.91833","Longitude":"-76.14530","Snowdepth":"10.750","Units":"in","Rept_Date":"2025-04-19 06"}},{"type":"Point","coordinates":[-68.5431,49.8239],"properties":{"Station_ID":"CQIQ","Station_Nam":"CQIQ","Latitude":"49.82390","Longitude":"-68.54310","Snowdepth":"9.331","Units":"in","Rept_Date":"2025-04-18 12"}},{"type":"Point","coordinates":[-72.5719,51.0578],"properties":{"Station_ID":"CQTM","Station_Nam":"CQTM","Latitude":"51.05780","Longitude":"-72.57190","Snowdepth":"9.055","Units":"in","Rept_Date":"2025-04-18 12"}},{"type":"Point","coordinates":[-86.95857,46.5029],"properties":{"Station_ID":"MI-AG-8","Station_Nam":"AU TRAIN 7.8 NW, MI","Latitude":"46.50290","Longitude":"-86.95857","Snowdepth":"8.500","Units":"in","Rept_Date":"2025-04-18 13"}},{"type":"Point","coordinates":[-71.3093,44.3326],"properties":{"Station_ID":"GKBN3","Station_Nam":"GRAY KNOB","Latitude":"44.33260","Longitude":"-71.30930","Snowdepth":"8.000","Units":"in","Rept_Date":"2025-04-18 10"}},{"type":"Point","coordinates":[-88.7038,49.19],"properties":{"Station_ID":"NONQ6","Station_Nam":"NONWATIN","Latitude":"49.19000","Longitude":"-88.70380","Snowdepth":"7.800","Units":"in","Rept_Date":"2025-04-19 06"}},{"type":"Point","coordinates":[-89.1799,49.5995],"properties":{"Station_ID":"KABQ6","Station_Nam":"CAB LAKE","Latitude":"49.59950","Longitude":"-89.17990","Snowdepth":"7.600","Units":"in","Rept_Date":"2025-04-19 06"}},{"type":"Point","coordinates":[-86.9375,50.6386],"properties":{"Station_ID":"ANAQ6","Station_Nam":"ANACONDA","Latitude":"50.63860","Longitude":"-86.93750","Snowdepth":"7.520","Units":"in","Rept_Date":"2025-04-18 20"}},{"type":"Point","coordinates":[-88.6926,47.13156],"properties":{"Station_ID":"MI-HG-21","Station_Nam":"ATLANTIC MINE 3.9 NW, MI","Latitude":"47.13156","Longitude":"-88.69260","Snowdepth":"7.500","Units":"in","Rept_Date":"2025-04-18 11"}},{"type":"Point","coordinates":[-73.7381,47.2564],"properties":{"Station_ID":"CQGA","Station_Nam":"CQGA","Latitude":"47.25640","Longitude":"-73.73810","Snowdepth":"6.693","Units":"in","Rept_Date":"2025-04-18 12"}},{"type":"Point","coordinates":[-87.4503,46.28397],"properties":{"Station_ID":"61591_MADIS","Station_Nam":"GWINN 0.7 SW, MI","Latitude":"46.28397","Longitude":"-87.45030","Snowdepth":"6.500","Units":"in","Rept_Date":"2025-04-18 13"}},{"type":"Point","coordinates":[-71.3,44.2667],"properties":{"Station_ID":"MWN","Station_Nam":"MOUNT WASHINGTON","Latitude":"44.26670","Longitude":"-71.30000","Snowdepth":"6.000","Units":"in","Rept_Date":"2025-04-18 12"}},{"type":"Point","coordinates":[-90.30508,47.8062],"properties":{"Station_ID":"MN-CK-29","Station_Nam":"GRAND MARAIS 3.8 NNE, MN","Latitude":"47.80620","Longitude":"-90.30508","Snowdepth":"6.000","Units":"in","Rept_Date":"2025-04-18 12"}},{"type":"Point","coordinates":[-72.2011,51.4528],"properties":{"Station_ID":"CQCO","Station_Nam":"CQCO","Latitude":"51.45280","Longitude":"-72.20110","Snowdepth":"5.984","Units":"in","Rept_Date":"2025-04-18 12"}},{"type":"Point","coordinates":[-87.9051,51.5582],"properties":{"Station_ID":"FTHQ6","Station_Nam":"FORT HOPE","Latitude":"51.55820","Longitude":"-87.90510","Snowdepth":"5.750","Units":"in","Rept_Date":"2025-04-19 06"}},{"type":"Point","coordinates":[-90.87444,48.14388],"properties":{"Station_ID":"MN-CK-56","Station_Nam":"GRAND MARAIS 36.2 NW, MN","Latitude":"48.14388","Longitude":"-90.87444","Snowdepth":"5.500","Units":"in","Rept_Date":"2025-04-18 12"}},{"type":"Point","coordinates":[-87.45705,46.47288],"properties":{"Station_ID":"MI-MQ-30","Station_Nam":"MARQUETTE 6.1 SSW, MI","Latitude":"46.47288","Longitude":"-87.45705","Snowdepth":"5.500","Units":"in","Rept_Date":"2025-04-18 12"}},{"type":"Point","coordinates":[-71.3,44.26666],"properties":{"Station_ID":"KMWN","Station_Nam":"MOUNT WASHINGTON","Latitude":"44.26666","Longitude":"-71.30000","Snowdepth":"5.000","Units":"in","Rept_Date":"2025-04-19 06"}},{"type":"Point","coordinates":[-75.845,49.2906],"properties":{"Station_ID":"CQMD","Station_Nam":"CQMD","Latitude":"49.29060","Longitude":"-75.84500","Snowdepth":"4.882","Units":"in","Rept_Date":"2025-04-18 12"}},{"type":"Point","coordinates":[-73.4594,48.4889],"properties":{"Station_ID":"CQWG","Station_Nam":"CQWG","Latitude":"48.48890","Longitude":"-73.45940","Snowdepth":"4.016","Units":"in","Rept_Date":"2025-04-18 12"}},{"type":"Point","coordinates":[-75.6992,38.17779],"properties":{"Station_ID":"011MD_MADIS","Station_Nam":"PRINCESS ANNE 2 S","Latitude":"38.17779","Longitude":"-75.69920","Snowdepth":"3.740","Units":"in","Rept_Date":"2025-04-19 06"}},{"type":"Point","coordinates":[-91.4716,48.7067],"properties":{"Station_ID":"ATIQ6","Station_Nam":"ATIKOKAN","Latitude":"48.70670","Longitude":"-91.47160","Snowdepth":"3.620","Units":"in","Rept_Date":"2025-04-19 06"}},{"type":"Point","coordinates":[-91.8221,51.7269],"properties":{"Station_ID":"CATQ6","Station_Nam":"CAT LAKE","Latitude":"51.72690","Longitude":"-91.82210","Snowdepth":"2.760","Units":"in","Rept_Date":"2025-04-19 06"}},{"type":"Point","coordinates":[-73.9228,50.2708],"properties":{"Station_ID":"CQLI","Station_Nam":"CQLI","Latitude":"50.27080","Longitude":"-73.92280","Snowdepth":"2.638","Units":"in","Rept_Date":"2025-04-18 12"}},{"type":"Point","coordinates":[-76.8431,38.59709],"properties":{"Station_ID":"010MD_MADIS","Station_Nam":"WALDORF 4 ESE","Latitude":"38.59709","Longitude":"-76.84310","Snowdepth":"2.320","Units":"in","Rept_Date":"2025-04-19 06"}},{"type":"Point","coordinates":[-76.6234,39.39474],"properties":{"Station_ID":"013MD_MADIS","Station_Nam":"TOWSON 1 WSW","Latitude":"39.39474","Longitude":"-76.62340","Snowdepth":"2.050","Units":"in","Rept_Date":"2025-04-19 06"}},{"type":"Point","coordinates":[-87.5492,46.5314],"properties":{"Station_ID":"MQT","Station_Nam":"MARQUETTE, MI","Latitude":"46.53140","Longitude":"-87.54920","Snowdepth":"2.000","Units":"in","Rept_Date":"2025-04-19 00"}},{"type":"Point","coordinates":[-71.4127,44.2196],"properties":{"Station_ID":"CAWN3","Station_Nam":"CRAWFORD NOTCH","Latitude":"44.21960","Longitude":"-71.41270","Snowdepth":"2.000","Units":"in","Rept_Date":"2025-04-18 11"}},{"type":"Point","coordinates":[-88.854,46.8944],"properties":{"Station_ID":"57011_MADIS","Station_Nam":"TWIN LAKES 0.2 SW, MI","Latitude":"46.89440","Longitude":"-88.85400","Snowdepth":"2.000","Units":"in","Rept_Date":"2025-04-18 12"}},{"type":"Point","coordinates":[-91.86862,47.88254],"properties":{"Station_ID":"MN-SL-328","Station_Nam":"ELY 1.8 SSW, MN","Latitude":"47.88254","Longitude":"-91.86862","Snowdepth":"1.500","Units":"in","Rept_Date":"2025-04-18 12"}},{"type":"Point","coordinates":[-84.4025,46.4866],"properties":{"Station_ID":"SSMM4","Station_Nam":"SAULT STE MARIE","Latitude":"46.48660","Longitude":"-84.40250","Snowdepth":"1.000","Units":"in","Rept_Date":"2025-04-18 11"}},{"type":"Point","coordinates":[-72.8333,44.5333],"properties":{"Station_ID":"MMSV1","Station_Nam":"MOUNT MANSFIELD","Latitude":"44.53330","Longitude":"-72.83330","Snowdepth":"1.000","Units":"in","Rept_Date":"2025-04-19 06"}},{"type":"Point","coordinates":[-90.08287,46.54936],"properties":{"Station_ID":"MI-GG-11","Station_Nam":"IRONWOOD 7.3 NNE, MI","Latitude":"46.54936","Longitude":"-90.08287","Snowdepth":"1.000","Units":"in","Rept_Date":"2025-04-18 12"}},{"type":"Point","coordinates":[-84.31971,46.48933],"properties":{"Station_ID":"MI-CP-14","Station_Nam":"SAULT STE. MARIE 2.2 E, MI","Latitude":"46.48933","Longitude":"-84.31971","Snowdepth":"1.000","Units":"in","Rept_Date":"2025-04-18 11"}},{"type":"Point","coordinates":[-96.2667,47.7167],"properties":{"Station_ID":"GLRM5","Station_Nam":"GLACIAL RIDGE","Latitude":"47.71670","Longitude":"-96.26670","Snowdepth":"1.000","Units":"in","Rept_Date":"2025-04-19 06"}},{"type":"Point","coordinates":[-84.4026,46.4867],"properties":{"Station_ID":"ANJM4","Station_Nam":"SNOW PAID OBSERVER FOR KANJ","Latitude":"46.48670","Longitude":"-84.40260","Snowdepth":"1.000","Units":"in","Rept_Date":"2025-04-18 12"}}]}},"arcs":[],"bbox":[-96.2667,38.17779,-66.13279,51.7269]}
