{"type":"Topology","objects":{"snowdepth_geo":{"type":"GeometryCollection","name":"snowdepth","crs":{"type":"name","properties":{"name":"urn:ogc:def:crs:OGC:1.3:CRS84"}},"geometries":[{"type":"Point","properties":{"Station_ID":"MMSV1","Station_Nam":"MOUNT MANSFIELD","Latitude":"44.53330","Longitude":"-72.83330","Snowdepth":"84.000","Units":"in","Rept_Date":"2019-12-25 05"},"coordinates":[5728,4785]},{"type":"Point","properties":{"Station_ID":"PRKM4","Station_Nam":"MUNISING EAST","Latitude":"46.42580","Longitude":"-86.62000","Snowdepth":"76.500","Units":"in","Rept_Date":"2019-12-25 06"},"coordinates":[2492,6157]},{"type":"Point","properties":{"Station_ID":"OGIQ6","Station_Nam":"OGOKI CAMP","Latitude":"50.76680","Longitude":"-87.85820","Snowdepth":"61.100","Units":"in","Rept_Date":"2019-12-25 06"},"coordinates":[2202,9303]},{"type":"Point","properties":{"Station_ID":"DVLQ6","Station_Nam":"DEVIOUS LAKE","Latitude":"49.19890","Longitude":"-87.76440","Snowdepth":"43.460","Units":"in","Rept_Date":"2019-12-25 06"},"coordinates":[2224,8167]},{"type":"Point","properties":{"Station_ID":"HURW3","Station_Nam":"HURLEY","Latitude":"46.46250","Longitude":"-90.19550","Snowdepth":"32.000","Units":"in","Rept_Date":"2019-12-24 14"},"coordinates":[1653,6183]},{"type":"Point","properties":{"Station_ID":"PDLM4","Station_Nam":"PAINESDALE","Latitude":"47.04160","Longitude":"-88.67170","Snowdepth":"31.000","Units":"in","Rept_Date":"2019-12-24 13"},"coordinates":[2011,6603]},{"type":"Point","properties":{"Station_ID":"HTLN3","Station_Nam":"HERMIT LAKE SNOWPLOT","Latitude":"44.26130","Longitude":"-71.28330","Snowdepth":"26.000","Units":"in","Rept_Date":"2019-12-24 10"},"coordinates":[6092,4588]},{"type":"Point","properties":{"Station_ID":"MI-BG-3","Station_Nam":"L'ANSE 17.8 SE, MI","Latitude":"46.55730","Longitude":"-88.20770","Snowdepth":"25.000","Units":"in","Rept_Date":"2019-12-24 13"},"coordinates":[2119,6252]},{"type":"Point","properties":{"Station_ID":"LVDW3","Station_Nam":"LAC VIEUX DESERT","Latitude":"46.12110","Longitude":"-89.07580","Snowdepth":"25.000","Units":"in","Rept_Date":"2019-12-24 15"},"coordinates":[1916,5936]},{"type":"Point","properties":{"Station_ID":"IWOM4","Station_Nam":"IRONWOOD#2","Latitude":"46.46520","Longitude":"-90.13820","Snowdepth":"24.000","Units":"in","Rept_Date":"2019-12-24 13"},"coordinates":[1666,6185]},{"type":"Point","properties":{"Station_ID":"IBLM5","Station_Nam":"ISABELLA 14W","Latitude":"47.59360","Longitude":"-91.65140","Snowdepth":"24.000","Units":"in","Rept_Date":"2019-12-24 15"},"coordinates":[1311,7003]},{"type":"Point","properties":{"Station_ID":"WLFM5","Station_Nam":"WOLF RIDGE ENVIRON LEARNING CENTER","Latitude":"47.38240","Longitude":"-91.19730","Snowdepth":"23.000","Units":"in","Rept_Date":"2019-12-24 13"},"coordinates":[1418,6850]},{"type":"Point","properties":{"Station_ID":"MQT","Station_Nam":"MARQUETTE, MI","Latitude":"46.53140","Longitude":"-87.54920","Snowdepth":"23.000","Units":"in","Rept_Date":"2019-12-25 06"},"coordinates":[2274,6233]},{"type":"Point","properties":{"Station_ID":"WTRW3","Station_Nam":"WINTER","Latitude":"45.79920","Longitude":"-90.99470","Snowdepth":"22.000","Units":"in","Rept_Date":"2019-12-24 15"},"coordinates":[1465,5702]},{"type":"Point","properties":{"Station_ID":"WRSM5","Station_Nam":"WRENSHALL","Latitude":"46.61550","Longitude":"-92.38380","Snowdepth":"22.000","Units":"in","Rept_Date":"2019-12-24 14"},"coordinates":[1139,6294]},{"type":"Point","properties":{"Station_ID":"WI-IR-3","Station_Nam":"PENCE 0.1 E, WI","Latitude":"46.41555","Longitude":"-90.27013","Snowdepth":"22.000","Units":"in","Rept_Date":"2019-12-24 13"},"coordinates":[1635,6149]},{"type":"Point","properties":{"Station_ID":"QNCM4","Station_Nam":"QUINCY HILL","Latitude":"47.13640","Longitude":"-88.57950","Snowdepth":"22.000","Units":"in","Rept_Date":"2019-12-24 12"},"coordinates":[2032,6672]},{"type":"Point","properties":{"Station_ID":"WRPW3","Station_Nam":"WATER PURIFICATION PLANT","Latitude":"44.38800","Longitude":"-89.80550","Snowdepth":"20.000","Units":"in","Rept_Date":"2019-12-24 12"},"coordinates":[1744,4680]},{"type":"Point","properties":{"Station_ID":"WI-WB-2","Station_Nam":"STONE LAKE 2.0 NW, WI","Latitude":"45.85960","Longitude":"-91.57710","Snowdepth":"20.000","Units":"in","Rept_Date":"2019-12-24 13"},"coordinates":[1329,5746]},{"type":"Point","properties":{"Station_ID":"WI-FL-3","Station_Nam":"FLORENCE 0.7 ESE, WI","Latitude":"45.91760","Longitude":"-88.23900","Snowdepth":"20.000","Units":"in","Rept_Date":"2019-12-24 11"},"coordinates":[2112,5788]},{"type":"Point","properties":{"Station_ID":"KISM4","Station_Nam":"K.I. SAWYER WWTP","Latitude":"46.33410","Longitude":"-87.37790","Snowdepth":"20.000","Units":"in","Rept_Date":"2019-12-24 13"},"coordinates":[2314,6090]},{"type":"Point","properties":{"Station_ID":"ILIM5","Station_Nam":"ISLAND LAKE","Latitude":"47.02400","Longitude":"-92.07000","Snowdepth":"20.000","Units":"in","Rept_Date":"2019-12-24 15"},"coordinates":[1213,6590]},{"type":"Point","properties":{"Station_ID":"STGW3","Station_Nam":"ST GERMAIN","Latitude":"45.91550","Longitude":"-89.48940","Snowdepth":"19.000","Units":"in","Rept_Date":"2019-12-24 12"},"coordinates":[1819,5787]},{"type":"Point","properties":{"Station_ID":"PDGM4","Station_Nam":"PAULDING","Latitude":"46.39760","Longitude":"-89.17940","Snowdepth":"19.000","Units":"in","Rept_Date":"2019-12-24 13"},"coordinates":[1891,6136]},{"type":"Point","properties":{"Station_ID":"NY-JF-30","Station_Nam":"WEST CARTHAGE 0.3 ENE, NY","Latitude":"43.97493","Longitude":"-75.61640","Snowdepth":"19.000","Units":"in","Rept_Date":"2019-12-24 12"},"coordinates":[5075,4380]},{"type":"Point","properties":{"Station_ID":"MNSM4","Station_Nam":"MUNISING","Latitude":"46.41210","Longitude":"-86.66250","Snowdepth":"19.000","Units":"in","Rept_Date":"2019-12-24 11"},"coordinates":[2482,6147]},{"type":"Point","properties":{"Station_ID":"MN-SL-18","Station_Nam":"DULUTH 1.4 NNW, MN","Latitude":"46.80321","Longitude":"-92.11240","Snowdepth":"19.000","Units":"in","Rept_Date":"2019-12-24 14"},"coordinates":[1203,6430]},{"type":"Point","properties":{"Station_ID":"LNOW3","Station_Nam":"LAND O LAKES","Latitude":"46.19000","Longitude":"-89.45700","Snowdepth":"19.000","Units":"in","Rept_Date":"2019-12-24 13"},"coordinates":[1826,5986]},{"type":"Point","properties":{"Station_ID":"HVCN3","Station_Nam":"HARVARD CABIN SNOWPLOT","Latitude":"44.26630","Longitude":"-71.27790","Snowdepth":"19.000","Units":"in","Rept_Date":"2019-12-24 11"},"coordinates":[6093,4591]},{"type":"Point","properties":{"Station_ID":"DLHM5","Station_Nam":"DULUTH NWS","Latitude":"46.83680","Longitude":"-92.21080","Snowdepth":"19.000","Units":"in","Rept_Date":"2019-12-25 06"},"coordinates":[1180,6454]},{"type":"Point","properties":{"Station_ID":"DLH","Station_Nam":"DULUTH, MN","Latitude":"46.83690","Longitude":"-92.21030","Snowdepth":"19.000","Units":"in","Rept_Date":"2019-12-25 00"},"coordinates":[1180,6455]},{"type":"Point","properties":{"Station_ID":"WI-VL-9","Station_Nam":"LAND O' LAKES 11.7 W, WI","Latitude":"46.19023","Longitude":"-89.45790","Snowdepth":"18.500","Units":"in","Rept_Date":"2019-12-24 13"},"coordinates":[1826,5986]},{"type":"Point","properties":{"Station_ID":"WI-BY-14","Station_Nam":"ASHLAND 9.8 W, WI","Latitude":"46.59742","Longitude":"-91.07856","Snowdepth":"18.500","Units":"in","Rept_Date":"2019-12-24 12"},"coordinates":[1446,6281]},{"type":"Point","properties":{"Station_ID":"WI-BY-1","Station_Nam":"BAYFIELD 8.8 N, WI","Latitude":"46.93855","Longitude":"-90.83490","Snowdepth":"18.000","Units":"in","Rept_Date":"2019-12-24 13"},"coordinates":[1503,6528]},{"type":"Point","properties":{"Station_ID":"MMNV1","Station_Nam":"MT. MANSFIELD","Latitude":"44.52480","Longitude":"-72.81540","Snowdepth":"18.000","Units":"in","Rept_Date":"2019-12-24 21"},"coordinates":[5732,4779]},{"type":"Point","properties":{"Station_ID":"WI-DG-16","Station_Nam":"POPLAR 2.0 E, WI","Latitude":"46.58390","Longitude":"-91.74620","Snowdepth":"17.500","Units":"in","Rept_Date":"2019-12-24 13"},"coordinates":[1289,6271]},{"type":"Point","properties":{"Station_ID":"WI-BY-2","Station_Nam":"MELLEN 18.6 SW, WI","Latitude":"46.16937","Longitude":"-90.98090","Snowdepth":"17.000","Units":"in","Rept_Date":"2019-12-24 13"},"coordinates":[1469,5971]},{"type":"Point","properties":{"Station_ID":"WI-AS-4","Station_Nam":"ASHLAND 0.5 WNW, WI","Latitude":"46.58240","Longitude":"-90.88390","Snowdepth":"17.000","Units":"in","Rept_Date":"2019-12-24 13"},"coordinates":[1491,6270]},{"type":"Point","properties":{"Station_ID":"HERM4","Station_Nam":"HERMAN,MI","Latitude":"46.65000","Longitude":"-88.33330","Snowdepth":"17.000","Units":"in","Rept_Date":"2019-12-24 13"},"coordinates":[2090,6319]},{"type":"Point","properties":{"Station_ID":"EVRW3","Station_Nam":"EAGLE RIVER-4 E","Latitude":"45.91890","Longitude":"-89.15280","Snowdepth":"17.000","Units":"in","Rept_Date":"2019-12-24 12"},"coordinates":[1898,5789]},{"type":"Point","properties":{"Station_ID":"CRVW3","Station_Nam":"CRIVITZ HIGH FALLS","Latitude":"45.35750","Longitude":"-88.19190","Snowdepth":"17.000","Units":"in","Rept_Date":"2019-12-24 13"},"coordinates":[2123,5382]},{"type":"Point","properties":{"Station_ID":"CMKW3","Station_Nam":"CLAM LAKE 4W","Latitude":"46.16940","Longitude":"-90.98080","Snowdepth":"17.000","Units":"in","Rept_Date":"2019-12-24 13"},"coordinates":[1469,5971]},{"type":"Point","properties":{"Station_ID":"AWXW3","Station_Nam":"ASHLAND","Latitude":"46.58240","Longitude":"-90.88390","Snowdepth":"17.000","Units":"in","Rept_Date":"2019-12-24 13"},"coordinates":[1491,6270]},{"type":"Point","properties":{"Station_ID":"WI-VL-14","Station_Nam":"BOULDER JUNCTION 1.4 NE, WI","Latitude":"46.12840","Longitude":"-89.62470","Snowdepth":"16.000","Units":"in","Rept_Date":"2019-12-24 14"},"coordinates":[1787,5941]},{"type":"Point","properties":{"Station_ID":"WI-BY-6","Station_Nam":"BARNES 2.2 S, WI","Latitude":"46.30264","Longitude":"-91.50320","Snowdepth":"16.000","Units":"in","Rept_Date":"2019-12-24 13"},"coordinates":[1346,6067]},{"type":"Point","properties":{"Station_ID":"SUAW3","Station_Nam":"SUAMICO","Latitude":"44.60190","Longitude":"-88.09780","Snowdepth":"16.000","Units":"in","Rept_Date":"2019-12-24 12"},"coordinates":[2145,4835]},{"type":"Point","properties":{"Station_ID":"MI-MQ-19","Station_Nam":"ISHPEMING 7.2 SW, MI","Latitude":"46.40550","Longitude":"-87.75670","Snowdepth":"16.000","Units":"in","Rept_Date":"2019-12-24 11"},"coordinates":[2225,6142]},{"type":"Point","properties":{"Station_ID":"IRMM4","Station_Nam":"WWTP","Latitude":"46.46670","Longitude":"-90.18330","Snowdepth":"16.000","Units":"in","Rept_Date":"2019-12-24 13"},"coordinates":[1656,6186]},{"type":"Point","properties":{"Station_ID":"GGRM4","Station_Nam":"GREEN GARDEN NO.2","Latitude":"46.45330","Longitude":"-87.30380","Snowdepth":"16.000","Units":"in","Rept_Date":"2019-12-24 13"},"coordinates":[2332,6177]},{"type":"Point","properties":{"Station_ID":"EGRW3","Station_Nam":"EAGLE RIVER-SOUTH","Latitude":"45.91360","Longitude":"-89.24360","Snowdepth":"16.000","Units":"in","Rept_Date":"2019-12-24 13"},"coordinates":[1876,5785]},{"type":"Point","properties":{"Station_ID":"ASTW3","Station_Nam":"ATHELSTANE","Latitude":"45.42500","Longitude":"-88.05750","Snowdepth":"16.000","Units":"in","Rept_Date":"2019-12-24 12"},"coordinates":[2155,5431]},{"type":"Point","properties":{"Station_ID":"MN-SL-15","Station_Nam":"CHISHOLM 0.4 WSW, MN","Latitude":"47.48557","Longitude":"-92.88690","Snowdepth":"15.500","Units":"in","Rept_Date":"2019-12-24 13"},"coordinates":[1021,6925]},{"type":"Point","properties":{"Station_ID":"RHIW3","Station_Nam":"RHINELANDER","Latitude":"45.59860","Longitude":"-89.45080","Snowdepth":"15.000","Units":"in","Rept_Date":"2019-12-24 13"},"coordinates":[1828,5557]},{"type":"Point","properties":{"Station_ID":"MI-HG-1","Station_Nam":"HOUGHTON 1.6 ESE, MI","Latitude":"47.10774","Longitude":"-88.52940","Snowdepth":"15.000","Units":"in","Rept_Date":"2019-12-24 13"},"coordinates":[2044,6651]},{"type":"Point","properties":{"Station_ID":"COUW3","Station_Nam":"COUDERAY,WI","Latitude":"45.86670","Longitude":"-91.45000","Snowdepth":"15.000","Units":"in","Rept_Date":"2019-12-24 22"},"coordinates":[1359,5751]},{"type":"Point","properties":{"Station_ID":"CLGM5","Station_Nam":"COLLEGEVILLE ST JOHN","Latitude":"45.57940","Longitude":"-94.39200","Snowdepth":"15.000","Units":"in","Rept_Date":"2019-12-25 00"},"coordinates":[668,5543]},{"type":"Point","properties":{"Station_ID":"AURW3","Station_Nam":"AURORA","Latitude":"45.77000","Longitude":"-88.11810","Snowdepth":"15.000","Units":"in","Rept_Date":"2019-12-24 13"},"coordinates":[2141,5681]},{"type":"Point","properties":{"Station_ID":"PTLQ6","Station_Nam":"PORTAGE LAKE","Latitude":"49.06950","Longitude":"-86.65940","Snowdepth":"14.570","Units":"in","Rept_Date":"2019-12-25 06"},"coordinates":[2483,8073]},{"type":"Point","properties":{"Station_ID":"WI-ON-8","Station_Nam":"HAZELHURST 2.1 SSE, WI","Latitude":"45.78186","Longitude":"-89.70330","Snowdepth":"14.500","Units":"in","Rept_Date":"2019-12-24 13"},"coordinates":[1768,5690]},{"type":"Point","properties":{"Station_ID":"WTRM4","Station_Nam":"WATERSMEET 12WSW","Latitude":"46.22310","Longitude":"-89.40850","Snowdepth":"14.000","Units":"in","Rept_Date":"2019-12-24 12"},"coordinates":[1838,6010]},{"type":"Point","properties":{"Station_ID":"WI-RS-1","Station_Nam":"LADYSMITH 2.8 WNW, WI","Latitude":"45.48180","Longitude":"-91.14680","Snowdepth":"14.000","Units":"in","Rept_Date":"2019-12-24 13"},"coordinates":[1430,5472]},{"type":"Point","properties":{"Station_ID":"WI-PR-2","Station_Nam":"BUTTERNUT 5.9 SW, WI","Latitude":"45.96501","Longitude":"-90.59750","Snowdepth":"14.000","Units":"in","Rept_Date":"2019-12-24 12"},"coordinates":[1559,5823]},{"type":"Point","properties":{"Station_ID":"WI-AS-6","Station_Nam":"ODANAH 1.6 E, WI","Latitude":"46.60462","Longitude":"-90.64920","Snowdepth":"14.000","Units":"in","Rept_Date":"2019-12-24 13"},"coordinates":[1546,6286]},{"type":"Point","properties":{"Station_ID":"CNNW3","Station_Nam":"CRANDON","Latitude":"45.55110","Longitude":"-88.89830","Snowdepth":"14.000","Units":"in","Rept_Date":"2019-12-24 12"},"coordinates":[1957,5523]},{"type":"Point","properties":{"Station_ID":"AVTW3","Station_Nam":"ARBOR VITAE-JOHNSON LAKE","Latitude":"45.89940","Longitude":"-89.72670","Snowdepth":"14.000","Units":"in","Rept_Date":"2019-12-24 12"},"coordinates":[1763,5775]},{"type":"Point","properties":{"Station_ID":"AROM4","Station_Nam":"ARNOLD,MI","Latitude":"46.06670","Longitude":"-87.48330","Snowdepth":"14.000","Units":"in","Rept_Date":"2019-12-24 13"},"coordinates":[2290,5896]},{"type":"Point","properties":{"Station_ID":"WI-SR-5","Station_Nam":"HAYWARD 9.7 NE, WI","Latitude":"46.12030","Longitude":"-91.35370","Snowdepth":"13.500","Units":"in","Rept_Date":"2019-12-24 14"},"coordinates":[1381,5935]},{"type":"Point","properties":{"Station_ID":"SVBQ6","Station_Nam":"SAVANT BASE","Latitude":"50.28730","Longitude":"-90.65670","Snowdepth":"13.270","Units":"in","Rept_Date":"2019-12-25 06"},"coordinates":[1545,8956]},{"type":"Point","properties":{"Station_ID":"WILW3","Station_Nam":"RESERVOIR","Latitude":"45.70000","Longitude":"-89.83330","Snowdepth":"13.000","Units":"in","Rept_Date":"2019-12-24 12"},"coordinates":[1738,5631]},{"type":"Point","properties":{"Station_ID":"WI-PR-8","Station_Nam":"PHILLIPS 0.4 SSW, WI","Latitude":"45.69086","Longitude":"-90.40200","Snowdepth":"13.000","Units":"in","Rept_Date":"2019-12-24 13"},"coordinates":[1605,5624]},{"type":"Point","properties":{"Station_ID":"WI-BT-14","Station_Nam":"OAKLAND 9.0 ENE, WI","Latitude":"45.95184","Longitude":"-92.21653","Snowdepth":"13.000","Units":"in","Rept_Date":"2019-12-24 13"},"coordinates":[1179,5813]},{"type":"Point","properties":{"Station_ID":"TOHM5","Station_Nam":"TWO HARBORS WWTP","Latitude":"47.01760","Longitude":"-91.66480","Snowdepth":"13.000","Units":"in","Rept_Date":"2019-12-24 13"},"coordinates":[1308,6586]},{"type":"Point","properties":{"Station_ID":"TOGM5","Station_Nam":"CELINA 2E","Latitude":"47.86630","Longitude":"-93.02660","Snowdepth":"13.000","Units":"in","Rept_Date":"2019-12-24 14"},"coordinates":[989,7201]},{"type":"Point","properties":{"Station_ID":"RARM4","Station_Nam":"RAPID RIVER 1 SW","Latitude":"45.91500","Longitude":"-86.98800","Snowdepth":"13.000","Units":"in","Rept_Date":"2019-12-24 12"},"coordinates":[2406,5786]},{"type":"Point","properties":{"Station_ID":"MN-AT-5","Station_Nam":"TAMARACK 1.4 SW, MN","Latitude":"46.63760","Longitude":"-93.14554","Snowdepth":"13.000","Units":"in","Rept_Date":"2019-12-24 13"},"coordinates":[961,6310]},{"type":"Point","properties":{"Station_ID":"LTMW3","Station_Nam":"LAKE TOMAHAWK 2 SE","Latitude":"45.80750","Longitude":"-89.55830","Snowdepth":"13.000","Units":"in","Rept_Date":"2019-12-24 12"},"coordinates":[1803,5708]},{"type":"Point","properties":{"Station_ID":"IMNM4","Station_Nam":"IRON MOUTAIN 5N","Latitude":"45.87580","Longitude":"-88.04030","Snowdepth":"13.000","Units":"in","Rept_Date":"2019-12-24 13"},"coordinates":[2159,5758]},{"type":"Point","properties":{"Station_ID":"COVM4","Station_Nam":"COVINGTON","Latitude":"46.55880","Longitude":"-88.54190","Snowdepth":"13.000","Units":"in","Rept_Date":"2019-12-24 13"},"coordinates":[2041,6253]},{"type":"Point","properties":{"Station_ID":"AUDQ6","Station_Nam":"AUDEN","Latitude":"48.52600","Longitude":"-82.57570","Snowdepth":"12.760","Units":"in","Rept_Date":"2019-12-25 06"},"coordinates":[3441,7679]},{"type":"Point","properties":{"Station_ID":"MN-IT-23","Station_Nam":"BOVEY 13.4 N, MN","Latitude":"47.48855","Longitude":"-93.43497","Snowdepth":"12.500","Units":"in","Rept_Date":"2019-12-24 13"},"coordinates":[893,6927]},{"type":"Point","properties":{"Station_ID":"ZNOM4","Station_Nam":"NORWAY","Latitude":"45.77810","Longitude":"-87.89560","Snowdepth":"12.000","Units":"in","Rept_Date":"2019-12-25 01"},"coordinates":[2193,5687]},{"type":"Point","properties":{"Station_ID":"WRIM5","Station_Nam":"WRIGHT 3E","Latitude":"46.68040","Longitude":"-92.95420","Snowdepth":"12.000","Units":"in","Rept_Date":"2019-12-24 12"},"coordinates":[1006,6341]},{"type":"Point","properties":{"Station_ID":"WI-PR-6","Station_Nam":"PHILLIPS 1.3 S, WI","Latitude":"45.67677","Longitude":"-90.39543","Snowdepth":"12.000","Units":"in","Rept_Date":"2019-12-24 12"},"coordinates":[1606,5614]},{"type":"Point","properties":{"Station_ID":"TAKW3","Station_Nam":"RICE RESERVOIR NO. 2","Latitude":"45.53770","Longitude":"-89.73220","Snowdepth":"12.000","Units":"in","Rept_Date":"2019-12-24 13"},"coordinates":[1762,5513]},{"type":"Point","properties":{"Station_ID":"STMM4","Station_Nam":"STAMBAUGH 2SSE","Latitude":"46.05550","Longitude":"-88.62780","Snowdepth":"12.000","Units":"in","Rept_Date":"2019-12-24 13"},"coordinates":[2021,5888]},{"type":"Point","properties":{"Station_ID":"NCFM4","Station_Nam":"NEWBERRY CORRECTIONAL FACILITY","Latitude":"46.32850","Longitude":"-85.50360","Snowdepth":"12.000","Units":"in","Rept_Date":"2019-12-24 14"},"coordinates":[2754,6086]},{"type":"Point","properties":{"Station_ID":"MN49YOQ4","Station_Nam":"WRIGHT 3.9 NW","Latitude":"46.70182","Longitude":"-93.07461","Snowdepth":"12.000","Units":"in","Rept_Date":"2019-12-24 12"},"coordinates":[977,6357]},{"type":"Point","properties":{"Station_ID":"JCBM4","Station_Nam":"JACOBSVILLE","Latitude":"47.00830","Longitude":"-88.43180","Snowdepth":"12.000","Units":"in","Rept_Date":"2019-12-24 12"},"coordinates":[2067,6579]},{"type":"Point","properties":{"Station_ID":"BRAM5","Station_Nam":"BRAINERD","Latitude":"46.34320","Longitude":"-94.20900","Snowdepth":"12.000","Units":"in","Rept_Date":"2019-12-24 13"},"coordinates":[711,6097]},{"type":"Point","properties":{"Station_ID":"AGNW3","Station_Nam":"ARGONNE-1.5 NW","Latitude":"45.67360","Longitude":"-88.90380","Snowdepth":"12.000","Units":"in","Rept_Date":"2019-12-24 13"},"coordinates":[1956,5611]},{"type":"Point","properties":{"Station_ID":"TRIQ6","Station_Nam":"TRIO LAKE","Latitude":"49.22880","Longitude":"-87.22920","Snowdepth":"11.810","Units":"in","Rept_Date":"2019-12-25 06"},"coordinates":[2349,8188]},{"type":"Point","properties":{"Station_ID":"WI-ON-6","Station_Nam":"RHINELANDER 5.2 N, WI","Latitude":"45.71388","Longitude":"-89.42150","Snowdepth":"11.500","Units":"in","Rept_Date":"2019-12-24 14"},"coordinates":[1835,5641]},{"type":"Point","properties":{"Station_ID":"MN-SL-139","Station_Nam":"DULUTH 1.2 SE, MN","Latitude":"46.77000","Longitude":"-92.08826","Snowdepth":"11.500","Units":"in","Rept_Date":"2019-12-24 12"},"coordinates":[1209,6406]},{"type":"Point","properties":{"Station_ID":"MN-SL-108","Station_Nam":"IRON JUNCTION 3.4 NNW, MN","Latitude":"47.46150","Longitude":"-92.63130","Snowdepth":"11.500","Units":"in","Rept_Date":"2019-12-24 12"},"coordinates":[1081,6907]},{"type":"Point","properties":{"Station_ID":"MN-IT-11","Station_Nam":"NASHWAUK 11.5 N, MN","Latitude":"47.54496","Longitude":"-93.19420","Snowdepth":"11.500","Units":"in","Rept_Date":"2019-12-24 10"},"coordinates":[949,6968]},{"type":"Point","properties":{"Station_ID":"SOCQ6","Station_Nam":"SOCKET LAKE","Latitude":"50.77870","Longitude":"-91.79300","Snowdepth":"11.060","Units":"in","Rept_Date":"2019-12-25 06"},"coordinates":[1278,9312]},{"type":"Point","properties":{"Station_ID":"WTNM4","Station_Nam":"WATTON 2WSW","Latitude":"46.52660","Longitude":"-88.64240","Snowdepth":"11.000","Units":"in","Rept_Date":"2019-12-24 13"},"coordinates":[2017,6230]},{"type":"Point","properties":{"Station_ID":"WLKW3","Station_Nam":"WHITE LAKE 1 SE","Latitude":"45.14520","Longitude":"-88.74160","Snowdepth":"11.000","Units":"in","Rept_Date":"2019-12-24 14"},"coordinates":[1994,5228]},{"type":"Point","properties":{"Station_ID":"WI-BR-2","Station_Nam":"CHETEK 2.0 SE, WI","Latitude":"45.29427","Longitude":"-91.62470","Snowdepth":"11.000","Units":"in","Rept_Date":"2019-12-24 13"},"coordinates":[1318,5336]},{"type":"Point","properties":{"Station_ID":"RRVM4","Station_Nam":"RAPID RIVER 9S","Latitude":"45.78750","Longitude":"-86.93920","Snowdepth":"11.000","Units":"in","Rept_Date":"2019-12-24 15"},"coordinates":[2417,5694]},{"type":"Point","properties":{"Station_ID":"MRQM4","Station_Nam":"MARQUETTE WFP","Latitude":"46.54580","Longitude":"-87.37950","Snowdepth":"11.000","Units":"in","Rept_Date":"2019-12-24 13"},"coordinates":[2314,6244]},{"type":"Point","properties":{"Station_ID":"MQRW3","Station_Nam":"MINOCQUA","Latitude":"45.88630","Longitude":"-89.73220","Snowdepth":"11.000","Units":"in","Rept_Date":"2019-12-24 12"},"coordinates":[1762,5766]},{"type":"Point","properties":{"Station_ID":"MLLW3","Station_Nam":"MERRILL 8W","Latitude":"45.17810","Longitude":"-89.84810","Snowdepth":"11.000","Units":"in","Rept_Date":"2019-12-24 12"},"coordinates":[1735,5252]},{"type":"Point","properties":{"Station_ID":"ELYM5","Station_Nam":"ELY","Latitude":"47.90560","Longitude":"-91.82830","Snowdepth":"11.000","Units":"in","Rept_Date":"2019-12-24 14"},"coordinates":[1270,7229]},{"type":"Point","properties":{"Station_ID":"CLKM4","Station_Nam":"CLARKSBURG","Latitude":"46.49910","Longitude":"-87.84500","Snowdepth":"11.000","Units":"in","Rept_Date":"2019-12-24 12"},"coordinates":[2205,6210]},{"type":"Point","properties":{"Station_ID":"CBLW3","Station_Nam":"CUMBERLAND","Latitude":"45.53310","Longitude":"-92.02260","Snowdepth":"11.000","Units":"in","Rept_Date":"2019-12-24 13"},"coordinates":[1224,5510]},{"type":"Point","properties":{"Station_ID":"CAN-ON-245","Station_Nam":"PHELPSTON 3.1 ESE, CAN","Latitude":"44.50564","Longitude":"-79.81035","Snowdepth":"11.000","Units":"in","Rept_Date":"2019-12-24 15"},"coordinates":[4090,4765]},{"type":"Point","properties":{"Station_ID":"ABGW3","Station_Nam":"AMBERG 9 E","Latitude":"45.48250","Longitude":"-87.81190","Snowdepth":"11.000","Units":"in","Rept_Date":"2019-12-24 12"},"coordinates":[2212,5473]},{"type":"Point","properties":{"Station_ID":"WI-LN-2","Station_Nam":"MERRILL 7.0 W, WI","Latitude":"45.17746","Longitude":"-89.84820","Snowdepth":"10.500","Units":"in","Rept_Date":"2019-12-24 12"},"coordinates":[1734,5252]},{"type":"Point","properties":{"Station_ID":"MN-CW-8","Station_Nam":"BRAINERD 11.5 E, MN","Latitude":"46.38556","Longitude":"-93.95720","Snowdepth":"10.500","Units":"in","Rept_Date":"2019-12-24 14"},"coordinates":[770,6127]},{"type":"Point","properties":{"Station_ID":"MN-BK-6","Station_Nam":"LAKE PARK 6.0 S, MN","Latitude":"46.79850","Longitude":"-96.12180","Snowdepth":"10.500","Units":"in","Rept_Date":"2019-12-24 13"},"coordinates":[262,6427]},{"type":"Point","properties":{"Station_ID":"WI-MT-14","Station_Nam":"MOSINEE 2.7 WSW, WI","Latitude":"44.77240","Longitude":"-89.73441","Snowdepth":"10.000","Units":"in","Rept_Date":"2019-12-24 13"},"coordinates":[1761,4958]},{"type":"Point","properties":{"Station_ID":"WI-EC-23","Station_Nam":"EAU CLAIRE 3.7 S, WI","Latitude":"44.76858","Longitude":"-91.49898","Snowdepth":"10.000","Units":"in","Rept_Date":"2019-12-24 15"},"coordinates":[1347,4955]},{"type":"Point","properties":{"Station_ID":"WI-CH-7","Station_Nam":"CHIPPEWA FALLS 1.2 E, WI","Latitude":"44.92920","Longitude":"-91.36730","Snowdepth":"10.000","Units":"in","Rept_Date":"2019-12-24 13"},"coordinates":[1378,5072]},{"type":"Point","properties":{"Station_ID":"SULW3","Station_Nam":"SUMMIT LAKE","Latitude":"45.37880","Longitude":"-89.19410","Snowdepth":"10.000","Units":"in","Rept_Date":"2019-12-24 11"},"coordinates":[1888,5398]},{"type":"Point","properties":{"Station_ID":"RRLW3","Station_Nam":"MERRILL,WI","Latitude":"45.17860","Longitude":"-89.66170","Snowdepth":"10.000","Units":"in","Rept_Date":"2019-12-24 14"},"coordinates":[1778,5253]},{"type":"Point","properties":{"Station_ID":"RHLW3","Station_Nam":"RHINELANDER 4NE","Latitude":"45.65270","Longitude":"-89.30740","Snowdepth":"10.000","Units":"in","Rept_Date":"2019-12-24 12"},"coordinates":[1861,5596]},{"type":"Point","properties":{"Station_ID":"RHI","Station_Nam":"RHINELANDER-ONEIDA COUNTY AIRPORT","Latitude":"45.63080","Longitude":"-89.46530","Snowdepth":"10.000","Units":"in","Rept_Date":"2019-12-24 12"},"coordinates":[1824,5580]},{"type":"Point","properties":{"Station_ID":"NYMM5","Station_Nam":"NEW YORK MILLS","Latitude":"46.50920","Longitude":"-95.37990","Snowdepth":"10.000","Units":"in","Rept_Date":"2019-12-24 13"},"coordinates":[436,6217]},{"type":"Point","properties":{"Station_ID":"NOHM5","Station_Nam":"NORTHOME","Latitude":"47.83590","Longitude":"-94.25550","Snowdepth":"10.000","Units":"in","Rept_Date":"2019-12-24 13"},"coordinates":[700,7179]},{"type":"Point","properties":{"Station_ID":"NH-CS-10","Station_Nam":"RANDOLPH 1.4 NE, NH","Latitude":"44.38824","Longitude":"-71.26950","Snowdepth":"10.000","Units":"in","Rept_Date":"2019-12-24 12"},"coordinates":[6095,4680]},{"type":"Point","properties":{"Station_ID":"MN-CW-22","Station_Nam":"FORT RIPLEY 0.8 N, MN","Latitude":"46.18089","Longitude":"-94.36510","Snowdepth":"10.000","Units":"in","Rept_Date":"2019-12-24 13"},"coordinates":[674,5979]},{"type":"Point","properties":{"Station_ID":"MIEM4","Station_Nam":"MICHIGAMME 3WNW","Latitude":"46.54530","Longitude":"-88.18000","Snowdepth":"10.000","Units":"in","Rept_Date":"2019-12-24 13"},"coordinates":[2126,6243]},{"type":"Point","properties":{"Station_ID":"MI-DL-4","Station_Nam":"GLADSTONE 2.1 SW, MI","Latitude":"45.83218","Longitude":"-87.05727","Snowdepth":"10.000","Units":"in","Rept_Date":"2019-12-24 12"},"coordinates":[2389,5726]},{"type":"Point","properties":{"Station_ID":"MEDW3","Station_Nam":"MEDFORD","Latitude":"45.13080","Longitude":"-90.34390","Snowdepth":"10.000","Units":"in","Rept_Date":"2019-12-24 14"},"coordinates":[1618,5218]},{"type":"Point","properties":{"Station_ID":"LEIM5","Station_Nam":"ORR 3E","Latitude":"48.05810","Longitude":"-92.75220","Snowdepth":"10.000","Units":"in","Rept_Date":"2019-12-24 12"},"coordinates":[1053,7340]},{"type":"Point","properties":{"Station_ID":"ESAM4","Station_Nam":"ESCANABA","Latitude":"45.74380","Longitude":"-87.04060","Snowdepth":"10.000","Units":"in","Rept_Date":"2019-12-24 12"},"coordinates":[2393,5662]},{"type":"Point","properties":{"Station_ID":"CSLM5","Station_Nam":"CASS LAKE,MN","Latitude":"47.38470","Longitude":"-94.61470","Snowdepth":"10.000","Units":"in","Rept_Date":"2019-12-24 14"},"coordinates":[616,6852]},{"type":"Point","properties":{"Station_ID":"BALW3","Station_Nam":"BALDWIN","Latitude":"44.96330","Longitude":"-92.39050","Snowdepth":"10.000","Units":"in","Rept_Date":"2019-12-24 13"},"coordinates":[1138,5097]},{"type":"Point","properties":{"Station_ID":"KABQ6","Station_Nam":"CAB LAKE","Latitude":"49.59950","Longitude":"-89.17990","Snowdepth":"9.650","Units":"in","Rept_Date":"2019-12-25 06"},"coordinates":[1891,8457]},{"type":"Point","properties":{"Station_ID":"CATQ6","Station_Nam":"CAT LAKE","Latitude":"51.72690","Longitude":"-91.82210","Snowdepth":"9.530","Units":"in","Rept_Date":"2019-12-25 06"},"coordinates":[1271,9999]},{"type":"Point","properties":{"Station_ID":"WI-DN-15","Station_Nam":"MENOMONIE 0.9 NW, WI","Latitude":"44.89832","Longitude":"-91.92398","Snowdepth":"9.500","Units":"in","Rept_Date":"2019-12-24 14"},"coordinates":[1247,5049]},{"type":"Point","properties":{"Station_ID":"MN-CW-29","Station_Nam":"BRAINERD 7.7 SSE, MN","Latitude":"46.24996","Longitude":"-94.14576","Snowdepth":"9.500","Units":"in","Rept_Date":"2019-12-24 13"},"coordinates":[726,6029]},{"type":"Point","properties":{"Station_ID":"MA-MD-47","Station_Nam":"WEST TOWNSEND 0.5 W, MA","Latitude":"42.67623","Longitude":"-71.74983","Snowdepth":"9.500","Units":"in","Rept_Date":"2019-12-24 11"},"coordinates":[5982,3439]},{"type":"Point","properties":{"Station_ID":"WUNW3","Station_Nam":"WAUSAU-NORTHEAST","Latitude":"44.97310","Longitude":"-89.61690","Snowdepth":"9.000","Units":"in","Rept_Date":"2019-12-24 13"},"coordinates":[1789,5104]},{"type":"Point","properties":{"Station_ID":"WI-CH-3","Station_Nam":"CORNELL 4.1 W, WI","Latitude":"45.17024","Longitude":"-91.23610","Snowdepth":"9.000","Units":"in","Rept_Date":"2019-12-24 14"},"coordinates":[1409,5247]},{"type":"Point","properties":{"Station_ID":"WASW3","Station_Nam":"WASHINGTON IS","Latitude":"45.35800","Longitude":"-86.89110","Snowdepth":"9.000","Units":"in","Rept_Date":"2019-12-24 13"},"coordinates":[2428,5383]},{"type":"Point","properties":{"Station_ID":"STRW3","Station_Nam":"STRATFORD 1NW","Latitude":"44.81750","Longitude":"-90.08990","Snowdepth":"9.000","Units":"in","Rept_Date":"2019-12-24 13"},"coordinates":[1678,4991]},{"type":"Point","properties":{"Station_ID":"SSMM4","Station_Nam":"SAULT STE MARIE","Latitude":"46.48660","Longitude":"-84.40250","Snowdepth":"9.000","Units":"in","Rept_Date":"2019-12-24 13"},"coordinates":[3013,6201]},{"type":"Point","properties":{"Station_ID":"SAUW3","Station_Nam":"WAUSAU WSAW TV","Latitude":"44.94630","Longitude":"-89.62220","Snowdepth":"9.000","Units":"in","Rept_Date":"2019-12-24 22"},"coordinates":[1788,5084]},{"type":"Point","properties":{"Station_ID":"RHRW3","Station_Nam":"RHINELANDER WJFW TV-12","Latitude":"45.62220","Longitude":"-89.41000","Snowdepth":"9.000","Units":"in","Rept_Date":"2019-12-25 04"},"coordinates":[1837,5574]},{"type":"Point","properties":{"Station_ID":"MRAM5","Station_Nam":"MORA","Latitude":"45.87760","Longitude":"-93.31470","Snowdepth":"9.000","Units":"in","Rept_Date":"2019-12-24 13"},"coordinates":[921,5759]},{"type":"Point","properties":{"Station_ID":"MOOM5","Station_Nam":"MOOSE LAKE,MN","Latitude":"46.45000","Longitude":"-92.75780","Snowdepth":"9.000","Units":"in","Rept_Date":"2019-12-25 06"},"coordinates":[1052,6174]},{"type":"Point","properties":{"Station_ID":"MN-SR-29","Station_Nam":"ALBANY 3.8 S, MN","Latitude":"45.57441","Longitude":"-94.55543","Snowdepth":"9.000","Units":"in","Rept_Date":"2019-12-24 13"},"coordinates":[630,5539]},{"type":"Point","properties":{"Station_ID":"MN-IT-7","Station_Nam":"GRAND RAPIDS 6.2 SSW, MN","Latitude":"47.13687","Longitude":"-93.56660","Snowdepth":"9.000","Units":"in","Rept_Date":"2019-12-24 12"},"coordinates":[862,6672]},{"type":"Point","properties":{"Station_ID":"MN-IT-17","Station_Nam":"GRAND RAPIDS 6.1 N, MN","Latitude":"47.31165","Longitude":"-93.55036","Snowdepth":"9.000","Units":"in","Rept_Date":"2019-12-24 13"},"coordinates":[866,6799]},{"type":"Point","properties":{"Station_ID":"MN-CK-6","Station_Nam":"GRAND MARAIS 4.4 W, MN","Latitude":"47.74865","Longitude":"-90.43760","Snowdepth":"9.000","Units":"in","Rept_Date":"2019-12-24 13"},"coordinates":[1596,7115]},{"type":"Point","properties":{"Station_ID":"LUCW3","Station_Nam":"LUCK","Latitude":"45.57330","Longitude":"-92.48520","Snowdepth":"9.000","Units":"in","Rept_Date":"2019-12-24 17"},"coordinates":[1116,5539]},{"type":"Point","properties":{"Station_ID":"ISEM5","Station_Nam":"ISLE 12N","Latitude":"46.31970","Longitude":"-93.50140","Snowdepth":"9.000","Units":"in","Rept_Date":"2019-12-24 14"},"coordinates":[877,6080]},{"type":"Point","properties":{"Station_ID":"EPTW3","Station_Nam":"EAU PLEINE TENDER","Latitude":"44.77220","Longitude":"-89.76720","Snowdepth":"9.000","Units":"in","Rept_Date":"2019-12-24 13"},"coordinates":[1753,4958]},{"type":"Point","properties":{"Station_ID":"CBVM1","Station_Nam":"CARRABASSETT VALLEY","Latitude":"45.08040","Longitude":"-70.30310","Snowdepth":"9.000","Units":"in","Rept_Date":"2019-12-24 12"},"coordinates":[6322,5181]},{"type":"Point","properties":{"Station_ID":"BREW3","Station_Nam":"SURING","Latitude":"44.99580","Longitude":"-88.37860","Snowdepth":"9.000","Units":"in","Rept_Date":"2019-12-24 12"},"coordinates":[2079,5120]},{"type":"Point","properties":{"Station_ID":"AVLV1","Station_Nam":"AVERILL","Latitude":"45.00570","Longitude":"-71.69030","Snowdepth":"9.000","Units":"in","Rept_Date":"2019-12-24 13"},"coordinates":[5996,5127]},{"type":"Point","properties":{"Station_ID":"AUW","Station_Nam":"WAUSAU MUNICIPAL AIRPORT","Latitude":"44.92580","Longitude":"-89.62560","Snowdepth":"9.000","Units":"in","Rept_Date":"2019-12-24 12"},"coordinates":[1787,5069]},{"type":"Point","properties":{"Station_ID":"ANJM4","Station_Nam":"SNOW PAID OBSERVER FOR KANJ","Latitude":"46.48670","Longitude":"-84.40260","Snowdepth":"9.000","Units":"in","Rept_Date":"2019-12-24 18"},"coordinates":[3013,6201]},{"type":"Point","properties":{"Station_ID":"ANJ","Station_Nam":"SAULT STE MARIE","Latitude":"46.46670","Longitude":"-84.36670","Snowdepth":"9.000","Units":"in","Rept_Date":"2019-12-25 00"},"coordinates":[3021,6186]},{"type":"Point","properties":{"Station_ID":"MN-IT-1","Station_Nam":"GRAND RAPIDS 2.0 E, MN","Latitude":"47.22266","Longitude":"-93.49600","Snowdepth":"8.500","Units":"in","Rept_Date":"2019-12-24 12"},"coordinates":[878,6734]},{"type":"Point","properties":{"Station_ID":"WI-PC-5","Station_Nam":"RIVER FALLS 1.2 SSW, WI","Latitude":"44.84032","Longitude":"-92.63500","Snowdepth":"8.000","Units":"in","Rept_Date":"2019-12-24 13"},"coordinates":[1080,5007]},{"type":"Point","properties":{"Station_ID":"OWEW3","Station_Nam":"OWEN 1E","Latitude":"44.94610","Longitude":"-90.55170","Snowdepth":"8.000","Units":"in","Rept_Date":"2019-12-24 13"},"coordinates":[1569,5084]},{"type":"Point","properties":{"Station_ID":"OTTM5","Station_Nam":"OTTERTAIL,MN","Latitude":"46.41670","Longitude":"-95.56670","Snowdepth":"8.000","Units":"in","Rept_Date":"2019-12-24 12"},"coordinates":[392,6150]},{"type":"Point","properties":{"Station_ID":"NY-HR-18","Station_Nam":"SALISBURY CENTER 1.8 NW, NY","Latitude":"43.16260","Longitude":"-74.80880","Snowdepth":"8.000","Units":"in","Rept_Date":"2019-12-24 11"},"coordinates":[5264,3791]},{"type":"Point","properties":{"Station_ID":"NY-ER-166","Station_Nam":"BOSTON 2.5 NE, NY","Latitude":"42.65480","Longitude":"-78.70300","Snowdepth":"8.000","Units":"in","Rept_Date":"2019-12-24 12"},"coordinates":[4350,3423]},{"type":"Point","properties":{"Station_ID":"ND-CS-25","Station_Nam":"FARGO 2.1 N, ND","Latitude":"46.90816","Longitude":"-96.77937","Snowdepth":"8.000","Units":"in","Rept_Date":"2019-12-24 14"},"coordinates":[108,6506]},{"type":"Point","properties":{"Station_ID":"MRAM4","Station_Nam":"MORAN","Latitude":"45.99030","Longitude":"-84.83610","Snowdepth":"8.000","Units":"in","Rept_Date":"2019-12-24 13"},"coordinates":[2911,5841]},{"type":"Point","properties":{"Station_ID":"MNMQO9OI","Station_Nam":"OTTERTAIL 1.5 WNW","Latitude":"46.43378","Longitude":"-95.58416","Snowdepth":"8.000","Units":"in","Rept_Date":"2019-12-24 11"},"coordinates":[388,6162]},{"type":"Point","properties":{"Station_ID":"MN-SH-10","Station_Nam":"BIG LAKE 5.6 NNE, MN","Latitude":"45.41409","Longitude":"-93.69190","Snowdepth":"8.000","Units":"in","Rept_Date":"2019-12-24 13"},"coordinates":[832,5423]},{"type":"Point","properties":{"Station_ID":"MN-MR-4","Station_Nam":"LITTLE FALLS 1.2 SW, MN","Latitude":"45.96886","Longitude":"-94.37720","Snowdepth":"8.000","Units":"in","Rept_Date":"2019-12-24 13"},"coordinates":[672,5825]},{"type":"Point","properties":{"Station_ID":"MN-MR-13","Station_Nam":"LITTLE FALLS 8.0 NE, MN","Latitude":"46.06785","Longitude":"-94.24789","Snowdepth":"8.000","Units":"in","Rept_Date":"2019-12-24 13"},"coordinates":[702,5897]},{"type":"Point","properties":{"Station_ID":"MN-BM-15","Station_Nam":"BEMIDJI 7.8 ENE, MN","Latitude":"47.52043","Longitude":"-94.72121","Snowdepth":"8.000","Units":"in","Rept_Date":"2019-12-24 13"},"coordinates":[591,6950]},{"type":"Point","properties":{"Station_ID":"MN-AA-76","Station_Nam":"NOWTHEN 2.9 SSE, MN","Latitude":"45.30360","Longitude":"-93.42620","Snowdepth":"8.000","Units":"in","Rept_Date":"2019-12-24 13"},"coordinates":[895,5343]},{"type":"Point","properties":{"Station_ID":"MLCM5","Station_Nam":"MILACA","Latitude":"45.75320","Longitude":"-93.66170","Snowdepth":"8.000","Units":"in","Rept_Date":"2019-12-24 13"},"coordinates":[839,5669]},{"type":"Point","properties":{"Station_ID":"MCLN8","Station_Nam":"MC LEOD,ND","Latitude":"46.40250","Longitude":"-97.23810","Snowdepth":"8.000","Units":"in","Rept_Date":"2019-12-24 13"},"coordinates":[0,6140]},{"type":"Point","properties":{"Station_ID":"LNGM5","Station_Nam":"LONG PRAIRIE","Latitude":"45.96460","Longitude":"-94.88920","Snowdepth":"8.000","Units":"in","Rept_Date":"2019-12-24 12"},"coordinates":[551,5822]},{"type":"Point","properties":{"Station_ID":"KGFK","Station_Nam":"GRAND FORKS INTERNATIONAL","Latitude":"47.95000","Longitude":"-97.18333","Snowdepth":"8.000","Units":"in","Rept_Date":"2019-12-25 06"},"coordinates":[13,7261]},{"type":"Point","properties":{"Station_ID":"GRBM5","Station_Nam":"GRAND RAPIDS 12N","Latitude":"47.39800","Longitude":"-93.51330","Snowdepth":"8.000","Units":"in","Rept_Date":"2019-12-24 12"},"coordinates":[874,6861]},{"type":"Point","properties":{"Station_ID":"GFK","Station_Nam":"GRAND FORKS INTERNATIONAL AIRPORT","Latitude":"47.94920","Longitude":"-97.17610","Snowdepth":"8.000","Units":"in","Rept_Date":"2019-12-25 00"},"coordinates":[15,7261]},{"type":"Point","properties":{"Station_ID":"EAU","Station_Nam":"CHIPPEWA VALLEY REGIONAL AIRPORT","Latitude":"44.86650","Longitude":"-91.48790","Snowdepth":"8.000","Units":"in","Rept_Date":"2019-12-25 00"},"coordinates":[1350,5026]},{"type":"Point","properties":{"Station_ID":"DTVM4","Station_Nam":"DETOUR VILLAGE","Latitude":"45.99830","Longitude":"-83.90130","Snowdepth":"8.000","Units":"in","Rept_Date":"2019-12-24 13"},"coordinates":[3130,5847]},{"type":"Point","properties":{"Station_ID":"FTHQ6","Station_Nam":"FORT HOPE","Latitude":"51.55820","Longitude":"-87.90510","Snowdepth":"7.910","Units":"in","Rept_Date":"2019-12-25 06"},"coordinates":[2191,9877]},{"type":"Point","properties":{"Station_ID":"CAN-ON-757","Station_Nam":"SAULT STE. MARIE 2.8 ESE - GLFC, CAN","Latitude":"46.50300","Longitude":"-84.30300","Snowdepth":"7.700","Units":"in","Rept_Date":"2019-12-24 13"},"coordinates":[3036,6213]},{"type":"Point","properties":{"Station_ID":"MN-BK-10","Station_Nam":"DETROIT LAKES 5.7 N, MN","Latitude":"46.88666","Longitude":"-95.84444","Snowdepth":"7.500","Units":"in","Rept_Date":"2019-12-24 10"},"coordinates":[327,6491]},{"type":"Point","properties":{"Station_ID":"MI-CX-7","Station_Nam":"EAST JORDAN 2.1 NNW, MI","Latitude":"45.18639","Longitude":"-85.14750","Snowdepth":"7.500","Units":"in","Rept_Date":"2019-12-24 13"},"coordinates":[2838,5258]},{"type":"Point","properties":{"Station_ID":"ME-AR-18","Station_Nam":"NEW SWEDEN 4.9 NNW, ME","Latitude":"47.01080","Longitude":"-68.14390","Snowdepth":"7.500","Units":"in","Rept_Date":"2019-12-24 12"},"coordinates":[6828,6581]},{"type":"Point","properties":{"Station_ID":"SHHW3","Station_Nam":"SHAWANO 2SSW","Latitude":"44.76310","Longitude":"-88.61830","Snowdepth":"7.000","Units":"in","Rept_Date":"2019-12-24 14"},"coordinates":[2023,4951]},{"type":"Point","properties":{"Station_ID":"RSTW3","Station_Nam":"ROSHOLT","Latitude":"44.62710","Longitude":"-89.30600","Snowdepth":"7.000","Units":"in","Rept_Date":"2019-12-24 13"},"coordinates":[1862,4853]},{"type":"Point","properties":{"Station_ID":"RGNM1","Station_Nam":"RANGELEY 2NW","Latitude":"44.98940","Longitude":"-70.67220","Snowdepth":"7.000","Units":"in","Rept_Date":"2019-12-24 11"},"coordinates":[6235,5115]},{"type":"Point","properties":{"Station_ID":"RCEM5","Station_Nam":"RICE","Latitude":"45.75760","Longitude":"-94.20720","Snowdepth":"7.000","Units":"in","Rept_Date":"2019-12-24 13"},"coordinates":[711,5672]},{"type":"Point","properties":{"Station_ID":"RANM1","Station_Nam":"RANGELEY,ME","Latitude":"44.96670","Longitude":"-70.65000","Snowdepth":"7.000","Units":"in","Rept_Date":"2019-12-24 11"},"coordinates":[6240,5099]},{"type":"Point","properties":{"Station_ID":"OCON6","Station_Nam":"OSCEOLA","Latitude":"43.49910","Longitude":"-75.71210","Snowdepth":"7.000","Units":"in","Rept_Date":"2019-12-24 12"},"coordinates":[5052,4035]},{"type":"Point","properties":{"Station_ID":"NY-ER-77","Station_Nam":"COLDEN 2.4 ENE, NY","Latitude":"42.65088","Longitude":"-78.61060","Snowdepth":"7.000","Units":"in","Rept_Date":"2019-12-24 13"},"coordinates":[4372,3420]},{"type":"Point","properties":{"Station_ID":"MN228YHJ","Station_Nam":"RICE 2.8 ESE","Latitude":"45.73609","Longitude":"-94.17230","Snowdepth":"7.000","Units":"in","Rept_Date":"2019-12-24 13"},"coordinates":[720,5657]},{"type":"Point","properties":{"Station_ID":"MN-MC-16","Station_Nam":"HUTCHINSON 0.1 ENE, MN","Latitude":"44.88633","Longitude":"-94.37503","Snowdepth":"7.000","Units":"in","Rept_Date":"2019-12-24 13"},"coordinates":[672,5041]},{"type":"Point","properties":{"Station_ID":"MN-BN-7","Station_Nam":"SAINT CLOUD 1.1 NE, MN","Latitude":"45.56440","Longitude":"-94.12310","Snowdepth":"7.000","Units":"in","Rept_Date":"2019-12-24 13"},"coordinates":[731,5532]},{"type":"Point","properties":{"Station_ID":"MI-CP-7","Station_Nam":"DRUMMOND 2.9 NE, MI","Latitude":"46.05329","Longitude":"-83.69060","Snowdepth":"7.000","Units":"in","Rept_Date":"2019-12-24 14"},"coordinates":[3180,5887]},{"type":"Point","properties":{"Station_ID":"MI-CP-14","Station_Nam":"SAULT STE. MARIE 2.2 E, MI","Latitude":"46.48933","Longitude":"-84.31971","Snowdepth":"7.000","Units":"in","Rept_Date":"2019-12-24 12"},"coordinates":[3032,6203]},{"type":"Point","properties":{"Station_ID":"ME-FR-2","Station_Nam":"TEMPLE 1.8 W, ME","Latitude":"44.68329","Longitude":"-70.26420","Snowdepth":"7.000","Units":"in","Rept_Date":"2019-12-24 11"},"coordinates":[6331,4894]},{"type":"Point","properties":{"Station_ID":"LPLN6","Station_Nam":"LAKE PLACID 2 S","Latitude":"44.30420","Longitude":"-73.98390","Snowdepth":"7.000","Units":"in","Rept_Date":"2019-12-24 13"},"coordinates":[5458,4619]},{"type":"Point","properties":{"Station_ID":"LBKV1","Station_Nam":"LYE BROOK","Latitude":"43.05000","Longitude":"-73.03330","Snowdepth":"7.000","Units":"in","Rept_Date":"2019-12-25 06"},"coordinates":[5681,3710]},{"type":"Point","properties":{"Station_ID":"KIMM5","Station_Nam":"KIMBALL 3N","Latitude":"45.35330","Longitude":"-94.30560","Snowdepth":"7.000","Units":"in","Rept_Date":"2019-12-24 12"},"coordinates":[688,5379]},{"type":"Point","properties":{"Station_ID":"KABM5","Station_Nam":"KABETOGAMA LAKE VISITOR CTR","Latitude":"48.40880","Longitude":"-93.04840","Snowdepth":"7.000","Units":"in","Rept_Date":"2019-12-24 13"},"coordinates":[983,7594]},{"type":"Point","properties":{"Station_ID":"IFSM5","Station_Nam":"INTERNATIONAL FALLS SNOW","Latitude":"48.57780","Longitude":"-93.39640","Snowdepth":"7.000","Units":"in","Rept_Date":"2019-12-25 06"},"coordinates":[902,7716]},{"type":"Point","properties":{"Station_ID":"HGHN6","Station_Nam":"HIGHMARKET","Latitude":"43.57520","Longitude":"-75.52070","Snowdepth":"7.000","Units":"in","Rept_Date":"2019-12-24 11"},"coordinates":[5097,4090]},{"type":"Point","properties":{"Station_ID":"GRFN8","Station_Nam":"UNIVERSITY","Latitude":"47.93330","Longitude":"-97.08330","Snowdepth":"7.000","Units":"in","Rept_Date":"2019-12-25 06"},"coordinates":[36,7249]},{"type":"Point","properties":{"Station_ID":"EJNM4","Station_Nam":"EAST JORDAN 2NW","Latitude":"45.18630","Longitude":"-85.14770","Snowdepth":"7.000","Units":"in","Rept_Date":"2019-12-24 13"},"coordinates":[2838,5258]},{"type":"Point","properties":{"Station_ID":"COKM5","Station_Nam":"COOK","Latitude":"47.85060","Longitude":"-92.69250","Snowdepth":"7.000","Units":"in","Rept_Date":"2019-12-24 12"},"coordinates":[1067,7189]},{"type":"Point","properties":{"Station_ID":"BMRW3","Station_Nam":"BLOOMER","Latitude":"45.09070","Longitude":"-91.48640","Snowdepth":"7.000","Units":"in","Rept_Date":"2019-12-24 14"},"coordinates":[1350,5189]},{"type":"Point","properties":{"Station_ID":"WI-PT-8","Station_Nam":"RUDOLPH 2.1 NNE, WI","Latitude":"44.52553","Longitude":"-89.78677","Snowdepth":"6.500","Units":"in","Rept_Date":"2019-12-24 11"},"coordinates":[1749,4779]},{"type":"Point","properties":{"Station_ID":"VT-OL-1","Station_Nam":"WESTFIELD 0.7 WNW, VT","Latitude":"44.89160","Longitude":"-72.44350","Snowdepth":"6.500","Units":"in","Rept_Date":"2019-12-24 12"},"coordinates":[5819,5045]},{"type":"Point","properties":{"Station_ID":"MN-MK-12","Station_Nam":"WATKINS 3.2 WSW, MN","Latitude":"45.30107","Longitude":"-94.47460","Snowdepth":"6.500","Units":"in","Rept_Date":"2019-12-24 15"},"coordinates":[649,5341]},{"type":"Point","properties":{"Station_ID":"WMRM5","Station_Nam":"WILLMAR 5N","Latitude":"45.19010","Longitude":"-95.05860","Snowdepth":"6.000","Units":"in","Rept_Date":"2019-12-24 12"},"coordinates":[512,5261]},{"type":"Point","properties":{"Station_ID":"WDOM5","Station_Nam":"WINDOM","Latitude":"43.87700","Longitude":"-95.11590","Snowdepth":"6.000","Units":"in","Rept_Date":"2019-12-24 14"},"coordinates":[498,4309]},{"type":"Point","properties":{"Station_ID":"SBNM5","Station_Nam":"SABIN","Latitude":"46.77690","Longitude":"-96.65610","Snowdepth":"6.000","Units":"in","Rept_Date":"2019-12-24 14"},"coordinates":[137,6411]},{"type":"Point","properties":{"Station_ID":"ROWM3","Station_Nam":"ROWE 3NE","Latitude":"42.73500","Longitude":"-72.86920","Snowdepth":"6.000","Units":"in","Rept_Date":"2019-12-24 12"},"coordinates":[5719,3481]},{"type":"Point","properties":{"Station_ID":"RFDM5","Station_Nam":"ROCKFORD","Latitude":"45.08960","Longitude":"-93.73990","Snowdepth":"6.000","Units":"in","Rept_Date":"2019-12-24 13"},"coordinates":[821,5188]},{"type":"Point","properties":{"Station_ID":"PSHW3","Station_Nam":"PESHTIGO","Latitude":"45.02810","Longitude":"-87.73560","Snowdepth":"6.000","Units":"in","Rept_Date":"2019-12-24 13"},"coordinates":[2230,5143]},{"type":"Point","properties":{"Station_ID":"PELW3","Station_Nam":"PELLA 3SE","Latitude":"44.73580","Longitude":"-88.73780","Snowdepth":"6.000","Units":"in","Rept_Date":"2019-12-24 11"},"coordinates":[1995,4932]},{"type":"Point","properties":{"Station_ID":"PEKN6","Station_Nam":"PECK LAKE","Latitude":"43.11500","Longitude":"-74.42360","Snowdepth":"6.000","Units":"in","Rept_Date":"2019-12-24 12"},"coordinates":[5355,3757]},{"type":"Point","properties":{"Station_ID":"NY-SR-22","Station_Nam":"GREENFIELD CENTER 1.6 W, NY","Latitude":"43.12684","Longitude":"-73.87860","Snowdepth":"6.000","Units":"in","Rept_Date":"2019-12-24 14"},"coordinates":[5482,3765]},{"type":"Point","properties":{"Station_ID":"MTQM4","Station_Nam":"MANISTIQUE WWTP","Latitude":"45.95120","Longitude":"-86.25130","Snowdepth":"6.000","Units":"in","Rept_Date":"2019-12-24 12"},"coordinates":[2579,5813]},{"type":"Point","properties":{"Station_ID":"MSP","Station_Nam":"MINNEAPOLIS-ST PAUL INTL AP","Latitude":"44.88310","Longitude":"-93.22890","Snowdepth":"6.000","Units":"in","Rept_Date":"2019-12-25 00"},"coordinates":[941,5038]},{"type":"Point","properties":{"Station_ID":"MRIW3","Station_Nam":"MARINETTE","Latitude":"45.09830","Longitude":"-87.62360","Snowdepth":"6.000","Units":"in","Rept_Date":"2019-12-24 13"},"coordinates":[2257,5194]},{"type":"Point","properties":{"Station_ID":"MN-HN-78","Station_Nam":"RICHFIELD 1.9 WNW, MN","Latitude":"44.89129","Longitude":"-93.31410","Snowdepth":"6.000","Units":"in","Rept_Date":"2019-12-24 11"},"coordinates":[921,5044]},{"type":"Point","properties":{"Station_ID":"MN-DK-73","Station_Nam":"LAKEVILLE 2.6 NNE, MN","Latitude":"44.71250","Longitude":"-93.23043","Snowdepth":"6.000","Units":"in","Rept_Date":"2019-12-24 13"},"coordinates":[941,4915]},{"type":"Point","properties":{"Station_ID":"MN-DK-70","Station_Nam":"EAGAN 2.0 NNW, MN","Latitude":"44.84322","Longitude":"-93.17899","Snowdepth":"6.000","Units":"in","Rept_Date":"2019-12-24 16"},"coordinates":[953,5009]},{"type":"Point","properties":{"Station_ID":"MI-OT-16","Station_Nam":"GAYLORD 2.2 SSE, MI","Latitude":"44.99441","Longitude":"-84.65820","Snowdepth":"6.000","Units":"in","Rept_Date":"2019-12-24 12"},"coordinates":[2953,5119]},{"type":"Point","properties":{"Station_ID":"KMSP","Station_Nam":"MINNEAPOLIS-ST PAUL INTERNATIONAL","Latitude":"44.86666","Longitude":"-93.21666","Snowdepth":"6.000","Units":"in","Rept_Date":"2019-12-25 06"},"coordinates":[944,5026]},{"type":"Point","properties":{"Station_ID":"INL","Station_Nam":"FALLS INTERNATIONAL ARPT","Latitude":"48.56640","Longitude":"-93.40310","Snowdepth":"6.000","Units":"in","Rept_Date":"2019-12-25 00"},"coordinates":[900,7708]},{"type":"Point","properties":{"Station_ID":"INDM5","Station_Nam":"INDUS,MN","Latitude":"48.61670","Longitude":"-93.90000","Snowdepth":"6.000","Units":"in","Rept_Date":"2019-12-24 14"},"coordinates":[784,7745]},{"type":"Point","properties":{"Station_ID":"GHMN3","Station_Nam":"PINKHAM NOTCH","Latitude":"44.25800","Longitude":"-71.25250","Snowdepth":"6.000","Units":"in","Rept_Date":"2019-12-24 11"},"coordinates":[6099,4585]},{"type":"Point","properties":{"Station_ID":"FDRN8","Station_Nam":"FARGO 3S","Latitude":"46.82930","Longitude":"-96.79620","Snowdepth":"6.000","Units":"in","Rept_Date":"2019-12-25 06"},"coordinates":[104,6449]},{"type":"Point","properties":{"Station_ID":"FAR","Station_Nam":"HECTOR INTERNATIONAL ARPT","Latitude":"46.91560","Longitude":"-96.81440","Snowdepth":"6.000","Units":"in","Rept_Date":"2019-12-25 00"},"coordinates":[100,6512]},{"type":"Point","properties":{"Station_ID":"ETTW3","Station_Nam":"ETTRICK 4WNW","Latitude":"44.19000","Longitude":"-91.34240","Snowdepth":"6.000","Units":"in","Rept_Date":"2019-12-24 15"},"coordinates":[1384,4536]},{"type":"Point","properties":{"Station_ID":"DFXM1","Station_Nam":"DOVER-FOXCROFT","Latitude":"45.18720","Longitude":"-69.18350","Snowdepth":"6.000","Units":"in","Rept_Date":"2019-12-24 12"},"coordinates":[6584,5259]},{"type":"Point","properties":{"Station_ID":"BRDM1","Station_Nam":"BRIDGEWATER","Latitude":"46.42870","Longitude":"-67.84370","Snowdepth":"6.000","Units":"in","Rept_Date":"2019-12-24 23"},"coordinates":[6899,6159]},{"type":"Point","properties":{"Station_ID":"MN-WG-33","Station_Nam":"COTTAGE GROVE 1.6 NNW, MN","Latitude":"44.83821","Longitude":"-92.93590","Snowdepth":"5.500","Units":"in","Rept_Date":"2019-12-24 13"},"coordinates":[1010,5006]},{"type":"Point","properties":{"Station_ID":"MN-RM-54","Station_Nam":"SAINT PAUL 5.1 SW, MN","Latitude":"44.90390","Longitude":"-93.18820","Snowdepth":"5.500","Units":"in","Rept_Date":"2019-12-24 13"},"coordinates":[951,5053]},{"type":"Point","properties":{"Station_ID":"WI-PK-4","Station_Nam":"DRESSER 6.1 ESE, WI","Latitude":"45.32436","Longitude":"-92.52080","Snowdepth":"5.000","Units":"in","Rept_Date":"2019-12-24 14"},"coordinates":[1107,5358]},{"type":"Point","properties":{"Station_ID":"WI-PC-10","Station_Nam":"RIVER FALLS 1.4 S, WI","Latitude":"44.83580","Longitude":"-92.62100","Snowdepth":"5.000","Units":"in","Rept_Date":"2019-12-24 13"},"coordinates":[1084,5004]},{"type":"Point","properties":{"Station_ID":"WABM5","Station_Nam":"WABASHA","Latitude":"44.38500","Longitude":"-92.04860","Snowdepth":"5.000","Units":"in","Rept_Date":"2019-12-24 13"},"coordinates":[1218,4677]},{"type":"Point","properties":{"Station_ID":"VT-WS-10","Station_Nam":"NORTHFIELD 1.5 N, VT","Latitude":"44.16986","Longitude":"-72.65200","Snowdepth":"5.000","Units":"in","Rept_Date":"2019-12-24 12"},"coordinates":[5770,4521]},{"type":"Point","properties":{"Station_ID":"VT-WH-29","Station_Nam":"BRATTLEBORO 0.7 S, VT","Latitude":"42.84030","Longitude":"-72.55580","Snowdepth":"5.000","Units":"in","Rept_Date":"2019-12-24 12"},"coordinates":[5793,3558]},{"type":"Point","properties":{"Station_ID":"VT-OL-12","Station_Nam":"GREENSBORO 3.9 NNE, VT","Latitude":"44.63100","Longitude":"-72.28000","Snowdepth":"5.000","Units":"in","Rept_Date":"2019-12-24 13"},"coordinates":[5858,4856]},{"type":"Point","properties":{"Station_ID":"STIM5","Station_Nam":"STILLWATER 2SW","Latitude":"45.04540","Longitude":"-92.85220","Snowdepth":"5.000","Units":"in","Rept_Date":"2019-12-24 14"},"coordinates":[1029,5156]},{"type":"Point","properties":{"Station_ID":"STIM4","Station_Nam":"ST IGNACE","Latitude":"45.86080","Longitude":"-84.71960","Snowdepth":"5.000","Units":"in","Rept_Date":"2019-12-24 12"},"coordinates":[2938,5747]},{"type":"Point","properties":{"Station_ID":"STC","Station_Nam":"ST. CLOUD REGIONAL AIRPORT","Latitude":"45.54330","Longitude":"-94.05140","Snowdepth":"5.000","Units":"in","Rept_Date":"2019-12-25 00"},"coordinates":[748,5517]},{"type":"Point","properties":{"Station_ID":"SCSM5","Station_Nam":"ST CLOUD STATE","Latitude":"45.55100","Longitude":"-94.14950","Snowdepth":"5.000","Units":"in","Rept_Date":"2019-12-24 12"},"coordinates":[725,5523]},{"type":"Point","properties":{"Station_ID":"NY-CR-5","Station_Nam":"MARATHON 1.0 NW, NY","Latitude":"42.45161","Longitude":"-76.04370","Snowdepth":"5.000","Units":"in","Rept_Date":"2019-12-24 12"},"coordinates":[4974,3276]},{"type":"Point","properties":{"Station_ID":"NY-AB-54","Station_Nam":"ALTAMONT 2.9 SW, NY","Latitude":"42.68182","Longitude":"-74.08326","Snowdepth":"5.000","Units":"in","Rept_Date":"2019-12-24 12"},"coordinates":[5434,3443]},{"type":"Point","properties":{"Station_ID":"NH-CS-4","Station_Nam":"PITTSBURG 6.1 NE, NH","Latitude":"45.11060","Longitude":"-71.29760","Snowdepth":"5.000","Units":"in","Rept_Date":"2019-12-24 12"},"coordinates":[6088,5203]},{"type":"Point","properties":{"Station_ID":"NALN6","Station_Nam":"CATTARAUGUS","Latitude":"42.32450","Longitude":"-78.86700","Snowdepth":"5.000","Units":"in","Rept_Date":"2019-12-24 13"},"coordinates":[4312,3184]},{"type":"Point","properties":{"Station_ID":"MXON6","Station_Nam":"MEXICO","Latitude":"43.43830","Longitude":"-76.26560","Snowdepth":"5.000","Units":"in","Rept_Date":"2019-12-24 12"},"coordinates":[4922,3991]},{"type":"Point","properties":{"Station_ID":"MRLV1","Station_Nam":"MARLBORO","Latitude":"42.86000","Longitude":"-72.72000","Snowdepth":"5.000","Units":"in","Rept_Date":"2019-12-24 13"},"coordinates":[5754,3572]},{"type":"Point","properties":{"Station_ID":"MPXM5","Station_Nam":"CHANHASSEN WSFO","Latitude":"44.84960","Longitude":"-93.56440","Snowdepth":"5.000","Units":"in","Rept_Date":"2019-12-25 06"},"coordinates":[862,5014]},{"type":"Point","properties":{"Station_ID":"MNMC0BBE","Station_Nam":"BRECKENRIDGE 3.1 E","Latitude":"46.25468","Longitude":"-96.52093","Snowdepth":"5.000","Units":"in","Rept_Date":"2019-12-24 11"},"coordinates":[168,6033]},{"type":"Point","properties":{"Station_ID":"MNG0GYSN","Station_Nam":"LONSDALE 1.1 SSW","Latitude":"44.46445","Longitude":"-93.43293","Snowdepth":"5.000","Units":"in","Rept_Date":"2019-12-24 12"},"coordinates":[893,4735]},{"type":"Point","properties":{"Station_ID":"MN-SV-4","Station_Nam":"DONNELLY 2.9 NW, MN","Latitude":"45.71649","Longitude":"-96.06043","Snowdepth":"5.000","Units":"in","Rept_Date":"2019-12-24 14"},"coordinates":[277,5642]},{"type":"Point","properties":{"Station_ID":"MN-RM-2","Station_Nam":"NORTH SAINT PAUL 1.0 NNW, MN","Latitude":"45.02629","Longitude":"-93.00790","Snowdepth":"5.000","Units":"in","Rept_Date":"2019-12-24 12"},"coordinates":[993,5142]},{"type":"Point","properties":{"Station_ID":"MN-RC-1","Station_Nam":"MONTGOMERY 3.2 ENE, MN","Latitude":"44.46400","Longitude":"-93.51980","Snowdepth":"5.000","Units":"in","Rept_Date":"2019-12-24 12"},"coordinates":[873,4735]},{"type":"Point","properties":{"Station_ID":"MN-PK-15","Station_Nam":"MENTOR 2.5 SSW, MN","Latitude":"47.66625","Longitude":"-96.17328","Snowdepth":"5.000","Units":"in","Rept_Date":"2019-12-24 13"},"coordinates":[250,7056]},{"type":"Point","properties":{"Station_ID":"MN-GH-28","Station_Nam":"CANNON FALLS 0.5 SE, MN","Latitude":"44.50866","Longitude":"-92.89526","Snowdepth":"5.000","Units":"in","Rept_Date":"2019-12-24 14"},"coordinates":[1019,4767]},{"type":"Point","properties":{"Station_ID":"MI-OT-4","Station_Nam":"GAYLORD 1.7 WNW, MI","Latitude":"45.03280","Longitude":"-84.71090","Snowdepth":"5.000","Units":"in","Rept_Date":"2019-12-24 13"},"coordinates":[2940,5147]},{"type":"Point","properties":{"Station_ID":"ME-PN-45","Station_Nam":"MILLINOCKET 2.7 ESE, ME","Latitude":"45.65002","Longitude":"-68.64472","Snowdepth":"5.000","Units":"in","Rept_Date":"2019-12-24 13"},"coordinates":[6711,5594]},{"type":"Point","properties":{"Station_ID":"ME-FR-4","Station_Nam":"NEW SHARON 2.0 NW, ME","Latitude":"44.66582","Longitude":"-70.02720","Snowdepth":"5.000","Units":"in","Rept_Date":"2019-12-24 12"},"coordinates":[6386,4881]},{"type":"Point","properties":{"Station_ID":"ME-AR-15","Station_Nam":"PRESQUE ISLE 1.3 WSW, ME","Latitude":"46.67960","Longitude":"-68.01270","Snowdepth":"5.000","Units":"in","Rept_Date":"2019-12-24 12"},"coordinates":[6859,6341]},{"type":"Point","properties":{"Station_ID":"LGRN8","Station_Nam":"LIDGERWOOD,ND","Latitude":"46.06670","Longitude":"-97.16670","Snowdepth":"5.000","Units":"in","Rept_Date":"2019-12-24 13"},"coordinates":[17,5896]},{"type":"Point","properties":{"Station_ID":"LACN3","Station_Nam":"LACONIA","Latitude":"43.53010","Longitude":"-71.46260","Snowdepth":"5.000","Units":"in","Rept_Date":"2019-12-24 10"},"coordinates":[6049,4058]},{"type":"Point","properties":{"Station_ID":"JOHV1","Station_Nam":"JOHNSON 2 N","Latitude":"44.65790","Longitude":"-72.67850","Snowdepth":"5.000","Units":"in","Rept_Date":"2019-12-24 12"},"coordinates":[5764,4875]},{"type":"Point","properties":{"Station_ID":"GAYM4","Station_Nam":"GAYLORD","Latitude":"45.03320","Longitude":"-84.71130","Snowdepth":"5.000","Units":"in","Rept_Date":"2019-12-24 13"},"coordinates":[2940,5147]},{"type":"Point","properties":{"Station_ID":"EPMW3","Station_Nam":"EPHRAIM-1 NE WWTP","Latitude":"45.17080","Longitude":"-87.15360","Snowdepth":"5.000","Units":"in","Rept_Date":"2019-12-24 13"},"coordinates":[2367,5247]},{"type":"Point","properties":{"Station_ID":"DRDW3","Station_Nam":"DURAND","Latitude":"44.61970","Longitude":"-91.97950","Snowdepth":"5.000","Units":"in","Rept_Date":"2019-12-24 14"},"coordinates":[1234,4847]},{"type":"Point","properties":{"Station_ID":"CORV1","Station_Nam":"CORINTH","Latitude":"44.00690","Longitude":"-72.31940","Snowdepth":"5.000","Units":"in","Rept_Date":"2019-12-24 12"},"coordinates":[5848,4403]},{"type":"Point","properties":{"Station_ID":"BKEM5","Station_Nam":"BRECKENRIDGE 4NE","Latitude":"46.30470","Longitude":"-96.52170","Snowdepth":"5.000","Units":"in","Rept_Date":"2019-12-24 11"},"coordinates":[168,6069]},{"type":"Point","properties":{"Station_ID":"APXM4","Station_Nam":"GAYLORD 9SSW","Latitude":"44.90720","Longitude":"-84.71880","Snowdepth":"5.000","Units":"in","Rept_Date":"2019-12-25 06"},"coordinates":[2938,5056]},{"type":"Point","properties":{"Station_ID":"ALTM5","Station_Nam":"ALTURA 5W","Latitude":"44.06330","Longitude":"-92.03970","Snowdepth":"5.000","Units":"in","Rept_Date":"2019-12-24 13"},"coordinates":[1220,4444]},{"type":"Point","properties":{"Station_ID":"WI-BN-6","Station_Nam":"SUAMICO 4.4 WNW, WI","Latitude":"44.66111","Longitude":"-88.11780","Snowdepth":"4.700","Units":"in","Rept_Date":"2019-12-24 13"},"coordinates":[2141,4877]},{"type":"Point","properties":{"Station_ID":"NY-SR-29","Station_Nam":"CLIFTON PARK 2.7 S, NY","Latitude":"42.82126","Longitude":"-73.78545","Snowdepth":"4.700","Units":"in","Rept_Date":"2019-12-24 11"},"coordinates":[5504,3544]},{"type":"Point","properties":{"Station_ID":"VT-CL-40","Station_Nam":"LYNDONVILLE 4.2 NNW, VT","Latitude":"44.59440","Longitude":"-72.02389","Snowdepth":"4.500","Units":"in","Rept_Date":"2019-12-24 12"},"coordinates":[5918,4829]},{"type":"Point","properties":{"Station_ID":"NY-TG-15","Station_Nam":"BERKSHIRE 1.9 ENE, NY","Latitude":"42.31910","Longitude":"-76.21940","Snowdepth":"4.500","Units":"in","Rept_Date":"2019-12-24 13"},"coordinates":[4933,3180]},{"type":"Point","properties":{"Station_ID":"NY-OG-61","Station_Nam":"SKANEATELES 0.8 NNW, NY","Latitude":"42.95538","Longitude":"-76.43362","Snowdepth":"4.500","Units":"in","Rept_Date":"2019-12-24 12"},"coordinates":[4883,3641]},{"type":"Point","properties":{"Station_ID":"NY-CT-22","Station_Nam":"FRANKLINVILLE 0.5 NNE, NY","Latitude":"42.34166","Longitude":"-78.45280","Snowdepth":"4.500","Units":"in","Rept_Date":"2019-12-24 12"},"coordinates":[4409,3196]},{"type":"Point","properties":{"Station_ID":"MI-MC-4","Station_Nam":"ST. IGNACE 0.5SE, MI","Latitude":"45.86057","Longitude":"-84.71980","Snowdepth":"4.500","Units":"in","Rept_Date":"2019-12-24 12"},"coordinates":[2938,5747]},{"type":"Point","properties":{"Station_ID":"MA-FR-13","Station_Nam":"CONWAY 2.9 NW, MA","Latitude":"42.54419","Longitude":"-72.72743","Snowdepth":"4.500","Units":"in","Rept_Date":"2019-12-24 12"},"coordinates":[5753,3343]},{"type":"Point","properties":{"Station_ID":"CAN-ON-491","Station_Nam":"MILVERTON 1.1 ESE- CANWARN, CAN","Latitude":"43.56074","Longitude":"-80.90887","Snowdepth":"4.500","Units":"in","Rept_Date":"2019-12-24 11"},"coordinates":[3832,4080]},{"type":"Point","properties":{"Station_ID":"CAN-NB-105","Station_Nam":"SISSON BROOK 3.8 E, CAN","Latitude":"46.98305","Longitude":"-67.32532","Snowdepth":"4.500","Units":"in","Rept_Date":"2019-12-24 12"},"coordinates":[7020,6561]},{"type":"Point","properties":{"Station_ID":"ME-FR-22","Station_Nam":"FARMINGTON 4.8 NNW, ME","Latitude":"44.73396","Longitude":"-70.18007","Snowdepth":"4.300","Units":"in","Rept_Date":"2019-12-24 14"},"coordinates":[6350,4930]},{"type":"Point","properties":{"Station_ID":"WNNM5","Station_Nam":"WINNEBAGO","Latitude":"43.76920","Longitude":"-94.18730","Snowdepth":"4.000","Units":"in","Rept_Date":"2019-12-24 14"},"coordinates":[716,4231]},{"type":"Point","properties":{"Station_ID":"WDSV1","Station_Nam":"WOODSTOCK","Latitude":"43.63030","Longitude":"-72.50720","Snowdepth":"4.000","Units":"in","Rept_Date":"2019-12-24 13"},"coordinates":[5804,4130]},{"type":"Point","properties":{"Station_ID":"VT-WS-30","Station_Nam":"WOODBURY 3.4 NNW, VT","Latitude":"44.48825","Longitude":"-72.43258","Snowdepth":"4.000","Units":"in","Rept_Date":"2019-12-24 12"},"coordinates":[5822,4752]},{"type":"Point","properties":{"Station_ID":"VT-OL-5","Station_Nam":"DERBY CENTER 1.8 NW, VT","Latitude":"44.97200","Longitude":"-72.14780","Snowdepth":"4.000","Units":"in","Rept_Date":"2019-12-24 12"},"coordinates":[5889,5103]},{"type":"Point","properties":{"Station_ID":"VT-OG-11","Station_Nam":"VERSHIRE 1.5 ESE, VT","Latitude":"43.96138","Longitude":"-72.29777","Snowdepth":"4.000","Units":"in","Rept_Date":"2019-12-24 10"},"coordinates":[5853,4370]},{"type":"Point","properties":{"Station_ID":"VT-ES-3","Station_Nam":"LUNENBURG 2.3 NNW, VT","Latitude":"44.49324","Longitude":"-71.70446","Snowdepth":"4.000","Units":"in","Rept_Date":"2019-12-24 11"},"coordinates":[5993,4756]},{"type":"Point","properties":{"Station_ID":"VANM1","Station_Nam":"VAN BUREN","Latitude":"47.16600","Longitude":"-67.93900","Snowdepth":"4.000","Units":"in","Rept_Date":"2019-12-24 13"},"coordinates":[6876,6693]},{"type":"Point","properties":{"Station_ID":"THLM5","Station_Nam":"THEILMAN 1SSW","Latitude":"44.28130","Longitude":"-92.19430","Snowdepth":"4.000","Units":"in","Rept_Date":"2019-12-24 13"},"coordinates":[1184,4602]},{"type":"Point","properties":{"Station_ID":"SUTV1","Station_Nam":"SUTTON","Latitude":"44.61220","Longitude":"-72.04810","Snowdepth":"4.000","Units":"in","Rept_Date":"2019-12-24 13"},"coordinates":[5912,4842]},{"type":"Point","properties":{"Station_ID":"SHHN6","Station_Nam":"SCHOHARIE VILLAGE","Latitude":"42.66500","Longitude":"-74.30360","Snowdepth":"4.000","Units":"in","Rept_Date":"2019-12-24 12"},"coordinates":[5383,3431]},{"type":"Point","properties":{"Station_ID":"RWGM5","Station_Nam":"RED WING","Latitude":"44.57120","Longitude":"-92.52830","Snowdepth":"4.000","Units":"in","Rept_Date":"2019-12-24 14"},"coordinates":[1105,4812]},{"type":"Point","properties":{"Station_ID":"ROBW3","Station_Nam":"ROBERTS WWTP","Latitude":"44.97070","Longitude":"-92.56200","Snowdepth":"4.000","Units":"in","Rept_Date":"2019-12-24 14"},"coordinates":[1098,5102]},{"type":"Point","properties":{"Station_ID":"PBAN8","Station_Nam":"SITE 1-3MI.N","Latitude":"48.97420","Longitude":"-97.23860","Snowdepth":"4.000","Units":"in","Rept_Date":"2019-12-24 13"},"coordinates":[0,8004]},{"type":"Point","properties":{"Station_ID":"NY-ER-63","Station_Nam":"GLENWOOD 1.5 SE, NY","Latitude":"42.60195","Longitude":"-78.63910","Snowdepth":"4.000","Units":"in","Rept_Date":"2019-12-24 13"},"coordinates":[4365,3385]},{"type":"Point","properties":{"Station_ID":"NUMN3","Station_Nam":"NORTHUMBERLAND","Latitude":"44.52830","Longitude":"-71.50440","Snowdepth":"4.000","Units":"in","Rept_Date":"2019-12-24 13"},"coordinates":[6040,4781]},{"type":"Point","properties":{"Station_ID":"NUMM5","Station_Nam":"NEW ULM 3SE","Latitude":"44.29450","Longitude":"-94.40840","Snowdepth":"4.000","Units":"in","Rept_Date":"2019-12-24 12"},"coordinates":[664,4612]},{"type":"Point","properties":{"Station_ID":"NSFN3","Station_Nam":"NORTH STRATFORD","Latitude":"44.68190","Longitude":"-71.58570","Snowdepth":"4.000","Units":"in","Rept_Date":"2019-12-24 12"},"coordinates":[6021,4893]},{"type":"Point","properties":{"Station_ID":"NH-MR-45","Station_Nam":"NORTHFIELD 2.8 E, NH","Latitude":"43.43945","Longitude":"-71.53730","Snowdepth":"4.000","Units":"in","Rept_Date":"2019-12-24 12"},"coordinates":[6032,3992]},{"type":"Point","properties":{"Station_ID":"NCKN6","Station_Nam":"NORTH CREEK 5 SE","Latitude":"43.66110","Longitude":"-73.89690","Snowdepth":"4.000","Units":"in","Rept_Date":"2019-12-24 12"},"coordinates":[5478,4153]},{"type":"Point","properties":{"Station_ID":"MNF74YNU","Station_Nam":"NEW ULM 3.3 ESE","Latitude":"44.29029","Longitude":"-94.40196","Snowdepth":"4.000","Units":"in","Rept_Date":"2019-12-24 12"},"coordinates":[666,4609]},{"type":"Point","properties":{"Station_ID":"MNE9SLWI","Station_Nam":"LEAVENWORTH 5.4 S","Latitude":"44.14481","Longitude":"-94.78882","Snowdepth":"4.000","Units":"in","Rept_Date":"2019-12-24 13"},"coordinates":[575,4503]},{"type":"Point","properties":{"Station_ID":"MN7M8EBJ","Station_Nam":"LUTSEN 15.7 NNW","Latitude":"47.85324","Longitude":"-89.92908","Snowdepth":"4.000","Units":"in","Rept_Date":"2019-12-24 14"},"coordinates":[1715,7191]},{"type":"Point","properties":{"Station_ID":"MN-SE-2","Station_Nam":"OWATONNA 0.8 E, MN","Latitude":"44.09170","Longitude":"-93.21380","Snowdepth":"4.000","Units":"in","Rept_Date":"2019-12-24 13"},"coordinates":[945,4465]},{"type":"Point","properties":{"Station_ID":"MN-MW-8","Station_Nam":"AUSTIN 2.4 W, MN","Latitude":"43.67190","Longitude":"-93.02280","Snowdepth":"4.000","Units":"in","Rept_Date":"2019-12-24 13"},"coordinates":[989,4160]},{"type":"Point","properties":{"Station_ID":"MN-HN-31","Station_Nam":"MAPLE GROVE 1.0 NNE, MN","Latitude":"45.12261","Longitude":"-93.45790","Snowdepth":"4.000","Units":"in","Rept_Date":"2019-12-24 15"},"coordinates":[887,5212]},{"type":"Point","properties":{"Station_ID":"MN-BW-8","Station_Nam":"COMFREY 6.5 ENE, MN","Latitude":"44.15109","Longitude":"-94.78516","Snowdepth":"4.000","Units":"in","Rept_Date":"2019-12-24 14"},"coordinates":[576,4508]},{"type":"Point","properties":{"Station_ID":"MALN6","Station_Nam":"MALONE","Latitude":"44.84180","Longitude":"-74.30600","Snowdepth":"4.000","Units":"in","Rept_Date":"2019-12-24 12"},"coordinates":[5382,5008]},{"type":"Point","properties":{"Station_ID":"LILM1","Station_Nam":"LILLE","Latitude":"47.27770","Longitude":"-68.10520","Snowdepth":"4.000","Units":"in","Rept_Date":"2019-12-24 12"},"coordinates":[6837,6774]},{"type":"Point","properties":{"Station_ID":"LBRM5","Station_Nam":"LAKE BRONSON DAM","Latitude":"48.72410","Longitude":"-96.62180","Snowdepth":"4.000","Units":"in","Rept_Date":"2019-12-24 14"},"coordinates":[145,7822]},{"type":"Point","properties":{"Station_ID":"JEFN3","Station_Nam":"JEFFERSON","Latitude":"44.41690","Longitude":"-71.50080","Snowdepth":"4.000","Units":"in","Rept_Date":"2019-12-24 12"},"coordinates":[6040,4700]},{"type":"Point","properties":{"Station_ID":"ISLV1","Station_Nam":"ISLAND POND","Latitude":"44.81280","Longitude":"-71.89020","Snowdepth":"4.000","Units":"in","Rept_Date":"2019-12-24 15"},"coordinates":[5949,4987]},{"type":"Point","properties":{"Station_ID":"INDN6","Station_Nam":"INDIAN LAKE","Latitude":"43.75500","Longitude":"-74.27560","Snowdepth":"4.000","Units":"in","Rept_Date":"2019-12-24 13"},"coordinates":[5389,4221]},{"type":"Point","properties":{"Station_ID":"HVJP1","Station_Nam":"HIDDEN VALLEY COOP","Latitude":"40.04200","Longitude":"-79.25660","Snowdepth":"4.000","Units":"in","Rept_Date":"2019-12-24 13"},"coordinates":[4220,1529]},{"type":"Point","properties":{"Station_ID":"HSTM5","Station_Nam":"HASTINGS DAM 2","Latitude":"44.75970","Longitude":"-92.86890","Snowdepth":"4.000","Units":"in","Rept_Date":"2019-12-24 12"},"coordinates":[1026,4949]},{"type":"Point","properties":{"Station_ID":"HRTM1","Station_Nam":"HARTFORD","Latitude":"44.37440","Longitude":"-70.31620","Snowdepth":"4.000","Units":"in","Rept_Date":"2019-12-24 12"},"coordinates":[6318,4670]},{"type":"Point","properties":{"Station_ID":"GILV1","Station_Nam":"GILMAN","Latitude":"44.41120","Longitude":"-71.71860","Snowdepth":"4.000","Units":"in","Rept_Date":"2019-12-24 12"},"coordinates":[5989,4696]},{"type":"Point","properties":{"Station_ID":"FRKN6","Station_Nam":"FRANKLINVILLE","Latitude":"42.32960","Longitude":"-78.46330","Snowdepth":"4.000","Units":"in","Rept_Date":"2019-12-24 12"},"coordinates":[4406,3188]},{"type":"Point","properties":{"Station_ID":"ELWW3","Station_Nam":"ELLSWORTH 1E","Latitude":"44.73030","Longitude":"-92.45860","Snowdepth":"4.000","Units":"in","Rept_Date":"2019-12-24 13"},"coordinates":[1122,4928]},{"type":"Point","properties":{"Station_ID":"EGNM5","Station_Nam":"ELGIN 2SSW","Latitude":"44.09700","Longitude":"-92.27010","Snowdepth":"4.000","Units":"in","Rept_Date":"2019-12-24 13"},"coordinates":[1166,4469]},{"type":"Point","properties":{"Station_ID":"DLSN6","Station_Nam":"DELANSON 2NE","Latitude":"42.76720","Longitude":"-74.17110","Snowdepth":"4.000","Units":"in","Rept_Date":"2019-12-24 12"},"coordinates":[5414,3505]},{"type":"Point","properties":{"Station_ID":"CORM1","Station_Nam":"CORINNA","Latitude":"44.91980","Longitude":"-69.24180","Snowdepth":"4.000","Units":"in","Rept_Date":"2019-12-24 17"},"coordinates":[6571,5065]},{"type":"Point","properties":{"Station_ID":"CON","Station_Nam":"CONCORD MUNI ARPT","Latitude":"43.20280","Longitude":"-71.50220","Snowdepth":"4.000","Units":"in","Rept_Date":"2019-12-24 12"},"coordinates":[6040,3820]},{"type":"Point","properties":{"Station_ID":"CODN6","Station_Nam":"COLDEN","Latitude":"42.64720","Longitude":"-78.71110","Snowdepth":"4.000","Units":"in","Rept_Date":"2019-12-24 12"},"coordinates":[4348,3418]},{"type":"Point","properties":{"Station_ID":"CNTW3","Station_Nam":"CLINTONVILLE","Latitude":"44.62270","Longitude":"-88.74830","Snowdepth":"4.000","Units":"in","Rept_Date":"2019-12-24 13"},"coordinates":[1993,4850]},{"type":"Point","properties":{"Station_ID":"CNRM1","Station_Nam":"CONNOR TWP","Latitude":"46.95830","Longitude":"-68.03330","Snowdepth":"4.000","Units":"in","Rept_Date":"2019-12-24 12"},"coordinates":[6854,6543]},{"type":"Point","properties":{"Station_ID":"CARM1","Station_Nam":"CARIBOU WFO","Latitude":"46.86810","Longitude":"-68.01250","Snowdepth":"4.000","Units":"in","Rept_Date":"2019-12-25 05"},"coordinates":[6859,6477]},{"type":"Point","properties":{"Station_ID":"CAR","Station_Nam":"CARIBOU, ME","Latitude":"46.86830","Longitude":"-68.01360","Snowdepth":"4.000","Units":"in","Rept_Date":"2019-12-24 12"},"coordinates":[6859,6477]},{"type":"Point","properties":{"Station_ID":"CAN-NS-74","Station_Nam":"BADDECK FORKS 2.5 E, CAN","Latitude":"46.18550","Longitude":"-60.73426","Snowdepth":"4.000","Units":"in","Rept_Date":"2019-12-24 11"},"coordinates":[8567,5982]},{"type":"Point","properties":{"Station_ID":"BWNM5","Station_Nam":"BROWNTON WWTP","Latitude":"44.73350","Longitude":"-94.34180","Snowdepth":"4.000","Units":"in","Rept_Date":"2019-12-24 14"},"coordinates":[680,4930]},{"type":"Point","properties":{"Station_ID":"ARTM5","Station_Nam":"ARTICHOKE LAKE 1 E","Latitude":"45.38560","Longitude":"-96.12570","Snowdepth":"4.000","Units":"in","Rept_Date":"2019-12-25 00"},"coordinates":[261,5403]},{"type":"Point","properties":{"Station_ID":"CAN-ON-132","Station_Nam":"ORANGEVILLE 5.1 SSW - CANWARN, CAN","Latitude":"43.87372","Longitude":"-80.13428","Snowdepth":"3.900","Units":"in","Rept_Date":"2019-12-24 14"},"coordinates":[4014,4307]},{"type":"Point","properties":{"Station_ID":"VT-OL-9","Station_Nam":"GREENSBORO 2.1 NNW, VT","Latitude":"44.60528","Longitude":"-72.30940","Snowdepth":"3.500","Units":"in","Rept_Date":"2019-12-24 12"},"coordinates":[5851,4837]},{"type":"Point","properties":{"Station_ID":"SD-CD-30","Station_Nam":"WATERTOWN 2.3 E, SD","Latitude":"44.91604","Longitude":"-97.11925","Snowdepth":"3.500","Units":"in","Rept_Date":"2019-12-24 14"},"coordinates":[28,5062]},{"type":"Point","properties":{"Station_ID":"NY-TM-18","Station_Nam":"EAST ITHACA 4.7 E, NY","Latitude":"42.41910","Longitude":"-76.37330","Snowdepth":"3.500","Units":"in","Rept_Date":"2019-12-24 12"},"coordinates":[4897,3252]},{"type":"Point","properties":{"Station_ID":"NY-OT-11","Station_Nam":"HARTWICK, NY","Latitude":"42.65990","Longitude":"-75.05000","Snowdepth":"3.500","Units":"in","Rept_Date":"2019-12-24 13"},"coordinates":[5208,3427]},{"type":"Point","properties":{"Station_ID":"NY-OS-15","Station_Nam":"MINETTO 0.1 SE, NY","Latitude":"43.39771","Longitude":"-76.47960","Snowdepth":"3.500","Units":"in","Rept_Date":"2019-12-24 13"},"coordinates":[4872,3962]},{"type":"Point","properties":{"Station_ID":"NH-MR-60","Station_Nam":"SOUTH SUTTON 1.3 SE, NH","Latitude":"43.29531","Longitude":"-71.90238","Snowdepth":"3.500","Units":"in","Rept_Date":"2019-12-24 13"},"coordinates":[5946,3888]},{"type":"Point","properties":{"Station_ID":"NH-MR-4","Station_Nam":"BOW 1.6 NW, NH","Latitude":"43.14994","Longitude":"-71.55650","Snowdepth":"3.500","Units":"in","Rept_Date":"2019-12-24 12"},"coordinates":[6027,3782]},{"type":"Point","properties":{"Station_ID":"NH-GR-47","Station_Nam":"LITTLETON 7.3 W, NH","Latitude":"44.31847","Longitude":"-71.91086","Snowdepth":"3.500","Units":"in","Rept_Date":"2019-12-24 13"},"coordinates":[5944,4629]},{"type":"Point","properties":{"Station_ID":"CAN-PE-19","Station_Nam":"CHARLOTTETOWN 6.5 NNW, CAN","Latitude":"46.29235","Longitude":"-63.17271","Snowdepth":"3.500","Units":"in","Rept_Date":"2019-12-24 12"},"coordinates":[7995,6060]},{"type":"Point","properties":{"Station_ID":"CAN-NS-39","Station_Nam":"ST. ANNS 2.8 NW, CA","Latitude":"46.25082","Longitude":"-60.64340","Snowdepth":"3.500","Units":"in","Rept_Date":"2019-12-24 13"},"coordinates":[8589,6030]},{"type":"Point","properties":{"Station_ID":"NY-SC-27","Station_Nam":"NISKAYUNA 2.9 SSE, NY","Latitude":"42.77911","Longitude":"-73.87242","Snowdepth":"3.200","Units":"in","Rept_Date":"2019-12-24 12"},"coordinates":[5484,3513]},{"type":"Point","properties":{"Station_ID":"WRUM5","Station_Nam":"WARROAD 4W","Latitude":"48.89600","Longitude":"-95.40700","Snowdepth":"3.000","Units":"in","Rept_Date":"2019-12-25 04"},"coordinates":[430,7947]},{"type":"Point","properties":{"Station_ID":"WRSN6","Station_Nam":"WARSAW 6SW","Latitude":"42.68550","Longitude":"-78.22020","Snowdepth":"3.000","Units":"in","Rept_Date":"2019-12-24 12"},"coordinates":[4463,3445]},{"type":"Point","properties":{"Station_ID":"WRNM5","Station_Nam":"WORTHINGTON,MN","Latitude":"43.65440","Longitude":"-95.57920","Snowdepth":"3.000","Units":"in","Rept_Date":"2019-12-24 13"},"coordinates":[389,4148]},{"type":"Point","properties":{"Station_ID":"WNDP1","Station_Nam":"WINDBER COUNTY CLUB","Latitude":"40.28780","Longitude":"-78.77530","Snowdepth":"3.000","Units":"in","Rept_Date":"2019-12-24 12"},"coordinates":[4333,1708]},{"type":"Point","properties":{"Station_ID":"WLKM5","Station_Nam":"AH-GWAH-CHING","Latitude":"47.15000","Longitude":"-94.65000","Snowdepth":"3.000","Units":"in","Rept_Date":"2019-12-24 11"},"coordinates":[608,6682]},{"type":"Point","properties":{"Station_ID":"WHTM5","Station_Nam":"WHEATON,MN","Latitude":"45.80000","Longitude":"-96.48330","Snowdepth":"3.000","Units":"in","Rept_Date":"2019-12-24 14"},"coordinates":[177,5703]},{"type":"Point","properties":{"Station_ID":"WENN3","Station_Nam":"P.O. BOX 197 WENTWORTH, NH","Latitude":"43.95190","Longitude":"-71.91560","Snowdepth":"3.000","Units":"in","Rept_Date":"2019-12-24 12"},"coordinates":[5943,4363]},{"type":"Point","properties":{"Station_ID":"VT-WR-2","Station_Nam":"POMFRET 2.6 N, VT","Latitude":"43.74230","Longitude":"-72.52550","Snowdepth":"3.000","Units":"in","Rept_Date":"2019-12-24 12"},"coordinates":[5800,4211]},{"type":"Point","properties":{"Station_ID":"VT-OL-2","Station_Nam":"BARTON 3.0 ENE, VT","Latitude":"44.75863","Longitude":"-72.11680","Snowdepth":"3.000","Units":"in","Rept_Date":"2019-12-24 12"},"coordinates":[5896,4948]},{"type":"Point","properties":{"Station_ID":"VT-LM-7","Station_Nam":"HYDE PARK 2.9 NE, VT","Latitude":"44.62080","Longitude":"-72.57250","Snowdepth":"3.000","Units":"in","Rept_Date":"2019-12-24 13"},"coordinates":[5789,4848]},{"type":"Point","properties":{"Station_ID":"VT-CL-23","Station_Nam":"RYEGATE 1.5 N, VT","Latitude":"44.23024","Longitude":"-72.10523","Snowdepth":"3.000","Units":"in","Rept_Date":"2019-12-24 12"},"coordinates":[5899,4565]},{"type":"Point","properties":{"Station_ID":"VT-CL-18","Station_Nam":"WHEELOCK 1.6 S, VT","Latitude":"44.56491","Longitude":"-72.08830","Snowdepth":"3.000","Units":"in","Rept_Date":"2019-12-24 12"},"coordinates":[5903,4808]},{"type":"Point","properties":{"Station_ID":"VT-CH-4","Station_Nam":"UNDERHILL 4.4 NNE, VT","Latitude":"44.58774","Longitude":"-72.92250","Snowdepth":"3.000","Units":"in","Rept_Date":"2019-12-24 12"},"coordinates":[5707,4824]},{"type":"Point","properties":{"Station_ID":"VT-BN-3","Station_Nam":"LANDGROVE 1.1 NNE, VT","Latitude":"43.29092","Longitude":"-72.83260","Snowdepth":"3.000","Units":"in","Rept_Date":"2019-12-24 11"},"coordinates":[5728,3884]},{"type":"Point","properties":{"Station_ID":"TSVP1","Station_Nam":"TITUSVILLE,PA","Latitude":"41.63330","Longitude":"-79.70000","Snowdepth":"3.000","Units":"in","Rept_Date":"2019-12-24 12"},"coordinates":[4116,2683]},{"type":"Point","properties":{"Station_ID":"TOPN6","Station_Nam":"TUPPER LAKE SUNMOUNT","Latitude":"44.23070","Longitude":"-74.43820","Snowdepth":"3.000","Units":"in","Rept_Date":"2019-12-24 12"},"coordinates":[5351,4566]},{"type":"Point","properties":{"Station_ID":"SANI4","Station_Nam":"ST ANSGAR","Latitude":"43.38170","Longitude":"-92.92320","Snowdepth":"3.000","Units":"in","Rept_Date":"2019-12-24 12"},"coordinates":[1013,3950]},{"type":"Point","properties":{"Station_ID":"RUHN6","Station_Nam":"RUSHFORD","Latitude":"42.42610","Longitude":"-78.19220","Snowdepth":"3.000","Units":"in","Rept_Date":"2019-12-24 13"},"coordinates":[4470,3257]},{"type":"Point","properties":{"Station_ID":"PTBN3","Station_Nam":"DAM WITHIN","Latitude":"45.05000","Longitude":"-71.38330","Snowdepth":"3.000","Units":"in","Rept_Date":"2019-12-24 12"},"coordinates":[6068,5159]},{"type":"Point","properties":{"Station_ID":"PLFV1","Station_Nam":"PLAINFIELD","Latitude":"44.27610","Longitude":"-72.41500","Snowdepth":"3.000","Units":"in","Rept_Date":"2019-12-24 12"},"coordinates":[5826,4598]},{"type":"Point","properties":{"Station_ID":"PLEP1","Station_Nam":"PLEASANT MOUNT 1 W","Latitude":"41.73940","Longitude":"-75.44650","Snowdepth":"3.000","Units":"in","Rept_Date":"2019-12-24 13"},"coordinates":[5114,2760]},{"type":"Point","properties":{"Station_ID":"NY-SR-4","Station_Nam":"SARATOGA SPRINGS 0.5 S, NY","Latitude":"43.06032","Longitude":"-73.78010","Snowdepth":"3.000","Units":"in","Rept_Date":"2019-12-24 11"},"coordinates":[5506,3717]},{"type":"Point","properties":{"Station_ID":"NY-SC-16","Station_Nam":"NISKAYUNA 2.0 N, NY","Latitude":"42.84645","Longitude":"-73.89920","Snowdepth":"3.000","Units":"in","Rept_Date":"2019-12-24 12"},"coordinates":[5478,3562]},{"type":"Point","properties":{"Station_ID":"NY-RN-24","Station_Nam":"NASSAU 4.2 ESE, NY","Latitude":"42.49091","Longitude":"-73.53462","Snowdepth":"3.000","Units":"in","Rept_Date":"2019-12-24 13"},"coordinates":[5563,3304]},{"type":"Point","properties":{"Station_ID":"NY-OT-29","Station_Nam":"NEW BERLIN 1.5 NE, NY","Latitude":"42.63689","Longitude":"-75.31090","Snowdepth":"3.000","Units":"in","Rept_Date":"2019-12-24 13"},"coordinates":[5146,3410]},{"type":"Point","properties":{"Station_ID":"NY-HR-16","Station_Nam":"ILION 0.7 WSW, NY","Latitude":"43.00880","Longitude":"-75.05390","Snowdepth":"3.000","Units":"in","Rept_Date":"2019-12-24 12"},"coordinates":[5207,3680]},{"type":"Point","properties":{"Station_ID":"NY-FK-9","Station_Nam":"GABRIELS 1.3 SE, NY","Latitude":"44.41934","Longitude":"-74.16194","Snowdepth":"3.000","Units":"in","Rept_Date":"2019-12-24 12"},"coordinates":[5416,4702]},{"type":"Point","properties":{"Station_ID":"NY-ER-65","Station_Nam":"BOSTON 1.5 NE, NY","Latitude":"42.65470","Longitude":"-78.72010","Snowdepth":"3.000","Units":"in","Rept_Date":"2019-12-24 13"},"coordinates":[4346,3423]},{"type":"Point","properties":{"Station_ID":"NY-ER-158","Station_Nam":"EAST AURORA 2.7 SSE, NY","Latitude":"42.72936","Longitude":"-78.60561","Snowdepth":"3.000","Units":"in","Rept_Date":"2019-12-24 12"},"coordinates":[4373,3477]},{"type":"Point","properties":{"Station_ID":"NY-CQ-39","Station_Nam":"GERRY 0.8 N, NY","Latitude":"42.20500","Longitude":"-79.24700","Snowdepth":"3.000","Units":"in","Rept_Date":"2019-12-24 13"},"coordinates":[4223,3097]},{"type":"Point","properties":{"Station_ID":"NY-CN-9","Station_Nam":"NORWICH 5.4 W, NY","Latitude":"42.53356","Longitude":"-75.63060","Snowdepth":"3.000","Units":"in","Rept_Date":"2019-12-24 12"},"coordinates":[5071,3335]},{"type":"Point","properties":{"Station_ID":"NUNV1","Station_Nam":"NORTH UNDERHILL","Latitude":"44.58760","Longitude":"-72.92150","Snowdepth":"3.000","Units":"in","Rept_Date":"2019-12-24 12"},"coordinates":[5707,4824]},{"type":"Point","properties":{"Station_ID":"NSKN6","Station_Nam":"NISKAYUNA","Latitude":"42.79580","Longitude":"-73.87670","Snowdepth":"3.000","Units":"in","Rept_Date":"2019-12-24 12"},"coordinates":[5483,3525]},{"type":"Point","properties":{"Station_ID":"NPTV1","Station_Nam":"NEWPORT","Latitude":"44.94900","Longitude":"-72.19120","Snowdepth":"3.000","Units":"in","Rept_Date":"2019-12-24 12"},"coordinates":[5878,5086]},{"type":"Point","properties":{"Station_ID":"NH-GR-49","Station_Nam":"PLYMOUTH 3.7 N, NH","Latitude":"43.79048","Longitude":"-71.68413","Snowdepth":"3.000","Units":"in","Rept_Date":"2019-12-24 12"},"coordinates":[5997,4246]},{"type":"Point","properties":{"Station_ID":"NH-CS-7","Station_Nam":"LANCASTER 0.5 N, NH","Latitude":"44.49611","Longitude":"-71.57640","Snowdepth":"3.000","Units":"in","Rept_Date":"2019-12-24 12"},"coordinates":[6023,4758]},{"type":"Point","properties":{"Station_ID":"MWN","Station_Nam":"MOUNT WASHINGTON","Latitude":"44.26670","Longitude":"-71.30000","Snowdepth":"3.000","Units":"in","Rept_Date":"2019-12-25 05"},"coordinates":[6088,4592]},{"type":"Point","properties":{"Station_ID":"MSCM5","Station_Nam":"MINNESOTA CITY","Latitude":"44.16000","Longitude":"-91.81220","Snowdepth":"3.000","Units":"in","Rept_Date":"2019-12-24 14"},"coordinates":[1274,4514]},{"type":"Point","properties":{"Station_ID":"MNP0GYWA","Station_Nam":"WALKER 2.0 SSE","Latitude":"47.07505","Longitude":"-94.56757","Snowdepth":"3.000","Units":"in","Rept_Date":"2019-12-24 11"},"coordinates":[627,6627]},{"type":"Point","properties":{"Station_ID":"MN0HS1SL","Station_Nam":"NORTH SAINT PAUL 1.6 NW","Latitude":"45.02800","Longitude":"-93.01506","Snowdepth":"3.000","Units":"in","Rept_Date":"2019-12-24 13"},"coordinates":[991,5143]},{"type":"Point","properties":{"Station_ID":"MN-WG-74","Station_Nam":"OAKDALE 0.4 S, MN","Latitude":"44.98208","Longitude":"-92.96510","Snowdepth":"3.000","Units":"in","Rept_Date":"2019-12-24 13"},"coordinates":[1003,5110]},{"type":"Point","properties":{"Station_ID":"MN-RM-63","Station_Nam":"NORTH SAINT PAUL 1.0 NW, MN","Latitude":"45.02410","Longitude":"-93.01400","Snowdepth":"3.000","Units":"in","Rept_Date":"2019-12-24 13"},"coordinates":[991,5141]},{"type":"Point","properties":{"Station_ID":"MLBS2","Station_Nam":"MILBANK","Latitude":"45.22040","Longitude":"-96.62530","Snowdepth":"3.000","Units":"in","Rept_Date":"2019-12-24 13"},"coordinates":[144,5283]},{"type":"Point","properties":{"Station_ID":"MIAM5","Station_Nam":"MILAN 1NW","Latitude":"45.12190","Longitude":"-95.92690","Snowdepth":"3.000","Units":"in","Rept_Date":"2019-12-25 00"},"coordinates":[308,5211]},{"type":"Point","properties":{"Station_ID":"MI-BZ-1","Station_Nam":"BENZONIA 5.3 S, MI","Latitude":"44.53976","Longitude":"-86.10650","Snowdepth":"3.000","Units":"in","Rept_Date":"2019-12-24 14"},"coordinates":[2613,4790]},{"type":"Point","properties":{"Station_ID":"MECN6","Station_Nam":"MECKLENBURG 4 SW","Latitude":"42.44220","Longitude":"-76.75740","Snowdepth":"3.000","Units":"in","Rept_Date":"2019-12-24 12"},"coordinates":[4807,3269]},{"type":"Point","properties":{"Station_ID":"ME-PN-47","Station_Nam":"MILFORD 0.8 SSW, ME","Latitude":"44.94108","Longitude":"-68.64154","Snowdepth":"3.000","Units":"in","Rept_Date":"2019-12-24 12"},"coordinates":[6712,5080]},{"type":"Point","properties":{"Station_ID":"ME-PN-43","Station_Nam":"ORONO 0.9 NE, ME","Latitude":"44.89261","Longitude":"-68.66903","Snowdepth":"3.000","Units":"in","Rept_Date":"2019-12-24 15"},"coordinates":[6705,5045]},{"type":"Point","properties":{"Station_ID":"MA-FR-17","Station_Nam":"BUCKLAND 1.8 ESE, MA","Latitude":"42.58900","Longitude":"-72.75110","Snowdepth":"3.000","Units":"in","Rept_Date":"2019-12-24 13"},"coordinates":[5747,3376]},{"type":"Point","properties":{"Station_ID":"LTVN6","Station_Nam":"LITTLE VALLEY","Latitude":"42.24730","Longitude":"-78.81250","Snowdepth":"3.000","Units":"in","Rept_Date":"2019-12-24 12"},"coordinates":[4324,3128]},{"type":"Point","properties":{"Station_ID":"LNKM1","Station_Nam":"LINCOLN SANITARY DISTRICT/WTP","Latitude":"45.37520","Longitude":"-68.50820","Snowdepth":"3.000","Units":"in","Rept_Date":"2019-12-24 12"},"coordinates":[6743,5395]},{"type":"Point","properties":{"Station_ID":"LNCM1","Station_Nam":"LINCOLN WATER DISTRICT","Latitude":"45.32410","Longitude":"-68.58300","Snowdepth":"3.000","Units":"in","Rept_Date":"2019-12-24 13"},"coordinates":[6725,5358]},{"type":"Point","properties":{"Station_ID":"LMLI4","Station_Nam":"LAKE MILLS,IA","Latitude":"43.40000","Longitude":"-93.53330","Snowdepth":"3.000","Units":"in","Rept_Date":"2019-12-24 13"},"coordinates":[870,3963]},{"type":"Point","properties":{"Station_ID":"LAMM5","Station_Nam":"LAMBERTON SW RESEARCH AND OUTREACH CENTER","Latitude":"44.23950","Longitude":"-95.31520","Snowdepth":"3.000","Units":"in","Rept_Date":"2019-12-24 14"},"coordinates":[451,4572]},{"type":"Point","properties":{"Station_ID":"KZAP1","Station_Nam":"KINZUA","Latitude":"41.90060","Longitude":"-79.11860","Snowdepth":"3.000","Units":"in","Rept_Date":"2019-12-24 12"},"coordinates":[4253,2877]},{"type":"Point","properties":{"Station_ID":"KSEM4","Station_Nam":"KALKASKA 11SE","Latitude":"44.58970","Longitude":"-85.04860","Snowdepth":"3.000","Units":"in","Rept_Date":"2019-12-24 13"},"coordinates":[2861,4826]},{"type":"Point","properties":{"Station_ID":"KMWN","Station_Nam":"MOUNT WASHINGTON","Latitude":"44.26666","Longitude":"-71.30000","Snowdepth":"3.000","Units":"in","Rept_Date":"2019-12-25 06"},"coordinates":[6088,4592]},{"type":"Point","properties":{"Station_ID":"KEEN3","Station_Nam":"KEENE","Latitude":"42.93900","Longitude":"-72.32470","Snowdepth":"3.000","Units":"in","Rept_Date":"2019-12-24 11"},"coordinates":[5847,3629]},{"type":"Point","properties":{"Station_ID":"JWTN6","Station_Nam":"EAST JEWETT","Latitude":"42.23430","Longitude":"-74.14430","Snowdepth":"3.000","Units":"in","Rept_Date":"2019-12-24 11"},"coordinates":[5420,3118]},{"type":"Point","properties":{"Station_ID":"JEFV1","Station_Nam":"JEFFERSONVILLE","Latitude":"44.58430","Longitude":"-72.78700","Snowdepth":"3.000","Units":"in","Rept_Date":"2019-12-24 12"},"coordinates":[5739,4822]},{"type":"Point","properties":{"Station_ID":"JAPN3","Station_Nam":"JAFFREY SILVER RANCH AIRPARK","Latitude":"42.80880","Longitude":"-72.00530","Snowdepth":"3.000","Units":"in","Rept_Date":"2019-12-24 12"},"coordinates":[5922,3535]},{"type":"Point","properties":{"Station_ID":"HRLN6","Station_Nam":"HORNELL ALMOND DAM","Latitude":"42.34880","Longitude":"-77.70440","Snowdepth":"3.000","Units":"in","Rept_Date":"2019-12-24 12"},"coordinates":[4585,3201]},{"type":"Point","properties":{"Station_ID":"HOLM1","Station_Nam":"HOLLIS","Latitude":"43.64750","Longitude":"-70.67490","Snowdepth":"3.000","Units":"in","Rept_Date":"2019-12-24 12"},"coordinates":[6234,4143]},{"type":"Point","properties":{"Station_ID":"HMYM1","Station_Nam":"HARMONY","Latitude":"44.94660","Longitude":"-69.54560","Snowdepth":"3.000","Units":"in","Rept_Date":"2019-12-24 12"},"coordinates":[6499,5084]},{"type":"Point","properties":{"Station_ID":"GSFP1","Station_Nam":"INEZ NORTH SLOPE SNOW","Latitude":"41.70000","Longitude":"-78.06670","Snowdepth":"3.000","Units":"in","Rept_Date":"2019-12-24 11"},"coordinates":[4500,2731]},{"type":"Point","properties":{"Station_ID":"GFDN6","Station_Nam":"CHASES LAKE","Latitude":"43.75920","Longitude":"-75.29980","Snowdepth":"3.000","Units":"in","Rept_Date":"2019-12-24 11"},"coordinates":[5149,4224]},{"type":"Point","properties":{"Station_ID":"FBTM5","Station_Nam":"FARIBAULT","Latitude":"44.30920","Longitude":"-93.26600","Snowdepth":"3.000","Units":"in","Rept_Date":"2019-12-24 13"},"coordinates":[932,4622]},{"type":"Point","properties":{"Station_ID":"ESDN6","Station_Nam":"EAST SIDNEY","Latitude":"42.33290","Longitude":"-75.22960","Snowdepth":"3.000","Units":"in","Rept_Date":"2019-12-24 14"},"coordinates":[5165,3190]},{"type":"Point","properties":{"Station_ID":"DHMM1","Station_Nam":"DEDHAM","Latitude":"44.67880","Longitude":"-68.63560","Snowdepth":"3.000","Units":"in","Rept_Date":"2019-12-24 12"},"coordinates":[6713,4890]},{"type":"Point","properties":{"Station_ID":"DELN6","Station_Nam":"DELHI 2 SE","Latitude":"42.25580","Longitude":"-74.91270","Snowdepth":"3.000","Units":"in","Rept_Date":"2019-12-24 13"},"coordinates":[5240,3134]},{"type":"Point","properties":{"Station_ID":"CVWP1","Station_Nam":"CHANDLER VALLEY 1SE","Latitude":"41.93010","Longitude":"-79.29700","Snowdepth":"3.000","Units":"in","Rept_Date":"2019-12-24 12"},"coordinates":[4211,2898]},{"type":"Point","properties":{"Station_ID":"CORN6","Station_Nam":"CORNING","Latitude":"42.13410","Longitude":"-77.06910","Snowdepth":"3.000","Units":"in","Rept_Date":"2019-12-24 12"},"coordinates":[4734,3046]},{"type":"Point","properties":{"Station_ID":"CHES2","Station_Nam":"CHESTER 2N","Latitude":"43.92830","Longitude":"-96.93160","Snowdepth":"3.000","Units":"in","Rept_Date":"2019-12-24 13"},"coordinates":[72,4346]},{"type":"Point","properties":{"Station_ID":"CAN-ON-452","Station_Nam":"CHATSWORTH 1.8 ENE - GSCA, CAN","Latitude":"44.46118","Longitude":"-80.87506","Snowdepth":"3.000","Units":"in","Rept_Date":"2019-12-24 12"},"coordinates":[3840,4733]},{"type":"Point","properties":{"Station_ID":"BGR","Station_Nam":"BANGOR INTERNATIONAL AIRPORT","Latitude":"44.79780","Longitude":"-68.81840","Snowdepth":"3.000","Units":"in","Rept_Date":"2019-12-24 12"},"coordinates":[6670,4977]},{"type":"Point","properties":{"Station_ID":"BDFP1","Station_Nam":"BRADFORD,PA","Latitude":"41.95000","Longitude":"-78.73330","Snowdepth":"3.000","Units":"in","Rept_Date":"2019-12-24 13"},"coordinates":[4343,2912]},{"type":"Point","properties":{"Station_ID":"AUBN6","Station_Nam":"AUBURN","Latitude":"42.93270","Longitude":"-76.54470","Snowdepth":"3.000","Units":"in","Rept_Date":"2019-12-24 12"},"coordinates":[4857,3625]},{"type":"Point","properties":{"Station_ID":"ANGN6","Station_Nam":"ANGELICA","Latitude":"42.31080","Longitude":"-78.02300","Snowdepth":"3.000","Units":"in","Rept_Date":"2019-12-24 12"},"coordinates":[4510,3174]},{"type":"Point","properties":{"Station_ID":"ALMW3","Station_Nam":"ALMA DAM 4","Latitude":"44.32710","Longitude":"-91.91940","Snowdepth":"3.000","Units":"in","Rept_Date":"2019-12-24 14"},"coordinates":[1248,4635]},{"type":"Point","properties":{"Station_ID":"ABNM3","Station_Nam":"ASHBURNHAM NORTH","Latitude":"42.66170","Longitude":"-71.93590","Snowdepth":"3.000","Units":"in","Rept_Date":"2019-12-24 12"},"coordinates":[5938,3428]},{"type":"Point","properties":{"Station_ID":"CAN-ON-92","Station_Nam":"DUNROBIN 1.9 W - MVCA, CAN","Latitude":"45.42318","Longitude":"-76.04525","Snowdepth":"2.900","Units":"in","Rept_Date":"2019-12-24 12"},"coordinates":[4974,5430]},{"type":"Point","properties":{"Station_ID":"NH-MR-55","Station_Nam":"CANTERBURY 2.5 SSW, NH","Latitude":"43.30277","Longitude":"-71.57893","Snowdepth":"2.600","Units":"in","Rept_Date":"2019-12-24 13"},"coordinates":[6022,3893]},{"type":"Point","properties":{"Station_ID":"WI-WN-9","Station_Nam":"NEENAH 1.1 ENE, WI","Latitude":"44.17370","Longitude":"-88.45130","Snowdepth":"2.500","Units":"in","Rept_Date":"2019-12-24 13"},"coordinates":[2062,4524]},{"type":"Point","properties":{"Station_ID":"WI-WD-2","Station_Nam":"WISCONSIN RAPIDS 4.6 SSE, WI","Latitude":"44.33823","Longitude":"-89.78200","Snowdepth":"2.500","Units":"in","Rept_Date":"2019-12-24 14"},"coordinates":[1750,4643]},{"type":"Point","properties":{"Station_ID":"WI-OG-12","Station_Nam":"KAUKAUNA 1.5 SW, WI","Latitude":"44.26062","Longitude":"-88.28590","Snowdepth":"2.500","Units":"in","Rept_Date":"2019-12-24 12"},"coordinates":[2101,4587]},{"type":"Point","properties":{"Station_ID":"WI-BN-14","Station_Nam":"GREEN BAY 3.8 SSE, WI","Latitude":"44.46772","Longitude":"-87.97350","Snowdepth":"2.500","Units":"in","Rept_Date":"2019-12-24 13"},"coordinates":[2174,4737]},{"type":"Point","properties":{"Station_ID":"VT-WH-26","Station_Nam":"WESTMINSTER 5.5 NW, VT","Latitude":"43.12572","Longitude":"-72.53419","Snowdepth":"2.500","Units":"in","Rept_Date":"2019-12-24 12"},"coordinates":[5798,3765]},{"type":"Point","properties":{"Station_ID":"VT-LM-1","Station_Nam":"STOWE 0.2 SW, VT","Latitude":"44.46399","Longitude":"-72.69070","Snowdepth":"2.500","Units":"in","Rept_Date":"2019-12-24 12"},"coordinates":[5761,4735]},{"type":"Point","properties":{"Station_ID":"VT-AD-20","Station_Nam":"HANCOCK 0.3 S, VT","Latitude":"43.92166","Longitude":"-72.84042","Snowdepth":"2.500","Units":"in","Rept_Date":"2019-12-24 12"},"coordinates":[5726,4342]},{"type":"Point","properties":{"Station_ID":"RDKP1","Station_Nam":"BLUE KNOB SP SNOW","Latitude":"40.25000","Longitude":"-78.58330","Snowdepth":"2.500","Units":"in","Rept_Date":"2019-12-24 13"},"coordinates":[4378,1680]},{"type":"Point","properties":{"Station_ID":"PA-FR-2","Station_Nam":"MARIENVILLE 5.3 W, PA","Latitude":"41.45710","Longitude":"-79.18150","Snowdepth":"2.500","Units":"in","Rept_Date":"2019-12-24 11"},"coordinates":[4238,2555]},{"type":"Point","properties":{"Station_ID":"NY-TM-42","Station_Nam":"ITHACA 6.4 E, NY","Latitude":"42.43350","Longitude":"-76.37860","Snowdepth":"2.500","Units":"in","Rept_Date":"2019-12-24 12"},"coordinates":[4896,3263]},{"type":"Point","properties":{"Station_ID":"NY-RN-1","Station_Nam":"AVERILL PARK 0.9 WNW, NY","Latitude":"42.63910","Longitude":"-73.56980","Snowdepth":"2.500","Units":"in","Rept_Date":"2019-12-24 13"},"coordinates":[5555,3412]},{"type":"Point","properties":{"Station_ID":"NY-OG-10","Station_Nam":"CAMILLUS 1.0 W, NY","Latitude":"43.03962","Longitude":"-76.32830","Snowdepth":"2.500","Units":"in","Rept_Date":"2019-12-24 12"},"coordinates":[4908,3702]},{"type":"Point","properties":{"Station_ID":"NY-CR-1","Station_Nam":"FREETOWN 1.0 NE, NY","Latitude":"42.53299","Longitude":"-76.02111","Snowdepth":"2.500","Units":"in","Rept_Date":"2019-12-24 12"},"coordinates":[4980,3335]},{"type":"Point","properties":{"Station_ID":"NY-BM-14","Station_Nam":"WHITNEY POINT 1.7 SSE, NY","Latitude":"42.30837","Longitude":"-75.95690","Snowdepth":"2.500","Units":"in","Rept_Date":"2019-12-24 12"},"coordinates":[4995,3172]},{"type":"Point","properties":{"Station_ID":"NH-MR-41","Station_Nam":"NEWBURY 1.6 NW, NH","Latitude":"43.33667","Longitude":"-72.06060","Snowdepth":"2.500","Units":"in","Rept_Date":"2019-12-24 12"},"coordinates":[5909,3917]},{"type":"Point","properties":{"Station_ID":"NH-CR-11","Station_Nam":"NORTH CONWAY 1.4 SSW, NH","Latitude":"44.03556","Longitude":"-71.14010","Snowdepth":"2.500","Units":"in","Rept_Date":"2019-12-24 12"},"coordinates":[6125,4424]},{"type":"Point","properties":{"Station_ID":"NH-BK-2","Station_Nam":"BELMONT 1.7 SW, NH","Latitude":"43.43556","Longitude":"-71.50690","Snowdepth":"2.500","Units":"in","Rept_Date":"2019-12-24 12"},"coordinates":[6039,3989]},{"type":"Point","properties":{"Station_ID":"NH-BK-1","Station_Nam":"TILTON NORTHFIELD 3.3 NE, NH","Latitude":"43.48000","Longitude":"-71.55000","Snowdepth":"2.500","Units":"in","Rept_Date":"2019-12-24 12"},"coordinates":[6029,4021]},{"type":"Point","properties":{"Station_ID":"ME-YK-3","Station_Nam":"HOLLIS CENTER 5.4 NW, ME","Latitude":"43.64750","Longitude":"-70.67510","Snowdepth":"2.500","Units":"in","Rept_Date":"2019-12-24 12"},"coordinates":[6234,4143]},{"type":"Point","properties":{"Station_ID":"MA-HS-26","Station_Nam":"EASTHAMPTON 0.5 SW, MA","Latitude":"42.26110","Longitude":"-72.68920","Snowdepth":"2.500","Units":"in","Rept_Date":"2019-12-24 12"},"coordinates":[5762,3138]},{"type":"Point","properties":{"Station_ID":"CAN-ON-5","Station_Nam":"OWEN SOUND 1.5 NW - GSCA, CAN","Latitude":"44.57837","Longitude":"-80.95461","Snowdepth":"2.500","Units":"in","Rept_Date":"2019-12-24 13"},"coordinates":[3822,4818]},{"type":"Point","properties":{"Station_ID":"CAN-NS-103","Station_Nam":"TRAFALGAR 4.9 WSW, CAN","Latitude":"45.26217","Longitude":"-62.72285","Snowdepth":"2.500","Units":"in","Rept_Date":"2019-12-24 11"},"coordinates":[8101,5313]},{"type":"Point","properties":{"Station_ID":"CAN-NB-2","Station_Nam":"GRAFTON 2.7 NNE, CA","Latitude":"46.17062","Longitude":"-67.55330","Snowdepth":"2.500","Units":"in","Rept_Date":"2019-12-24 11"},"coordinates":[6967,5972]},{"type":"Point","properties":{"Station_ID":"CAN-QC-47","Station_Nam":"SAINTE-FOY 1.8 ENE, CAN","Latitude":"46.76934","Longitude":"-71.27124","Snowdepth":"2.400","Units":"in","Rept_Date":"2019-12-24 12"},"coordinates":[6094,6406]},