{"type":"Topology","objects":{"snowdepth_geo":{"type":"GeometryCollection","name":"snowdepth","crs":{"type":"name","properties":{"name":"urn:ogc:def:crs:OGC:1.3:CRS84"}},"geometries":[{"type":"Point","properties":{"Station_ID":"PRKM4","Station_Nam":"MUNISING EAST","Latitude":"46.42580","Longitude":"-86.62000","Snowdepth":"76.500","Units":"in","Rept_Date":"2020-03-23 06"},"coordinates":[2492,5556]},{"type":"Point","properties":{"Station_ID":"HTLN3","Station_Nam":"HERMIT LAKE SNOWPLOT","Latitude":"44.26130","Longitude":"-71.28330","Snowdepth":"62.000","Units":"in","Rept_Date":"2020-03-22 09"},"coordinates":[6092,3742]},{"type":"Point","properties":{"Station_ID":"OGIQ6","Station_Nam":"OGOKI CAMP","Latitude":"50.76680","Longitude":"-87.85820","Snowdepth":"61.100","Units":"in","Rept_Date":"2020-03-23 06"},"coordinates":[2202,9194]},{"type":"Point","properties":{"Station_ID":"GLRM5","Station_Nam":"GLACIAL RIDGE","Latitude":"47.71670","Longitude":"-96.26670","Snowdepth":"55.000","Units":"in","Rept_Date":"2020-03-23 03"},"coordinates":[228,6638]},{"type":"Point","properties":{"Station_ID":"CNTP1","Station_Nam":"CANTON","Latitude":"41.65160","Longitude":"-76.84630","Snowdepth":"55.000","Units":"in","Rept_Date":"2020-03-22 12"},"coordinates":[4786,1555]},{"type":"Point","properties":{"Station_ID":"PDLM4","Station_Nam":"PAINESDALE","Latitude":"47.04160","Longitude":"-88.67170","Snowdepth":"48.000","Units":"in","Rept_Date":"2020-03-22 12"},"coordinates":[2011,6072]},{"type":"Point","properties":{"Station_ID":"AUDQ6","Station_Nam":"AUDEN","Latitude":"48.52600","Longitude":"-82.57570","Snowdepth":"47.640","Units":"in","Rept_Date":"2020-03-23 06"},"coordinates":[3441,7316]},{"type":"Point","properties":{"Station_ID":"DVLQ6","Station_Nam":"DEVIOUS LAKE","Latitude":"49.19890","Longitude":"-87.76440","Snowdepth":"43.460","Units":"in","Rept_Date":"2020-03-23 06"},"coordinates":[2224,7880]},{"type":"Point","properties":{"Station_ID":"GMSM4","Station_Nam":"GRAND MARAIS 10S","Latitude":"46.50940","Longitude":"-85.96310","Snowdepth":"41.000","Units":"in","Rept_Date":"2020-03-22 11"},"coordinates":[2646,5626]},{"type":"Point","properties":{"Station_ID":"MNSM4","Station_Nam":"MUNISING","Latitude":"46.41210","Longitude":"-86.66250","Snowdepth":"37.000","Units":"in","Rept_Date":"2020-03-22 10"},"coordinates":[2482,5545]},{"type":"Point","properties":{"Station_ID":"PTLQ6","Station_Nam":"PORTAGE LAKE","Latitude":"49.06950","Longitude":"-86.65940","Snowdepth":"35.120","Units":"in","Rept_Date":"2020-03-23 06"},"coordinates":[2483,7772]},{"type":"Point","properties":{"Station_ID":"WLFM5","Station_Nam":"WOLF RIDGE ENVIRON LEARNING CENTER","Latitude":"47.38240","Longitude":"-91.19730","Snowdepth":"35.000","Units":"in","Rept_Date":"2020-03-22 12"},"coordinates":[1418,6358]},{"type":"Point","properties":{"Station_ID":"KSGM4","Station_Nam":"KEARSARGE","Latitude":"47.27520","Longitude":"-88.41700","Snowdepth":"35.000","Units":"in","Rept_Date":"2020-03-22 12"},"coordinates":[2070,6268]},{"type":"Point","properties":{"Station_ID":"CAN-NS-39","Station_Nam":"ST. ANNS 2.8 NW, CA","Latitude":"46.25082","Longitude":"-60.64340","Snowdepth":"35.000","Units":"in","Rept_Date":"2020-03-22 12"},"coordinates":[8589,5409]},{"type":"Point","properties":{"Station_ID":"ME-AR-18","Station_Nam":"NEW SWEDEN 4.9 NNW, ME","Latitude":"47.01080","Longitude":"-68.14390","Snowdepth":"33.500","Units":"in","Rept_Date":"2020-03-22 12"},"coordinates":[6828,6046]},{"type":"Point","properties":{"Station_ID":"QNCM4","Station_Nam":"QUINCY HILL","Latitude":"47.13640","Longitude":"-88.57950","Snowdepth":"33.000","Units":"in","Rept_Date":"2020-03-22 11"},"coordinates":[2032,6152]},{"type":"Point","properties":{"Station_ID":"MQT","Station_Nam":"MARQUETTE, MI","Latitude":"46.53140","Longitude":"-87.54920","Snowdepth":"32.000","Units":"in","Rept_Date":"2020-03-23 06"},"coordinates":[2274,5645]},{"type":"Point","properties":{"Station_ID":"MI-BG-3","Station_Nam":"L'ANSE 17.8 SE, MI","Latitude":"46.55730","Longitude":"-88.20770","Snowdepth":"32.000","Units":"in","Rept_Date":"2020-03-22 13"},"coordinates":[2119,5666]},{"type":"Point","properties":{"Station_ID":"TWOM5","Station_Nam":"TWO HARBORS,MN","Latitude":"47.12580","Longitude":"-91.70750","Snowdepth":"31.000","Units":"in","Rept_Date":"2020-03-23 00"},"coordinates":[1298,6143]},{"type":"Point","properties":{"Station_ID":"HERM4","Station_Nam":"HERMAN,MI","Latitude":"46.65000","Longitude":"-88.33330","Snowdepth":"31.000","Units":"in","Rept_Date":"2020-03-22 12"},"coordinates":[2090,5744]},{"type":"Point","properties":{"Station_ID":"CAN-QC-47","Station_Nam":"SAINTE-FOY 1.8 ENE, CAN","Latitude":"46.76934","Longitude":"-71.27124","Snowdepth":"30.700","Units":"in","Rept_Date":"2020-03-22 12"},"coordinates":[6094,5844]},{"type":"Point","properties":{"Station_ID":"CAN-NB-105","Station_Nam":"SISSON BROOK 3.8 E, CAN","Latitude":"46.98305","Longitude":"-67.32532","Snowdepth":"30.700","Units":"in","Rept_Date":"2020-03-22 12"},"coordinates":[7020,6023]},{"type":"Point","properties":{"Station_ID":"TRIQ6","Station_Nam":"TRIO LAKE","Latitude":"49.22880","Longitude":"-87.22920","Snowdepth":"29.840","Units":"in","Rept_Date":"2020-03-23 06"},"coordinates":[2349,7905]},{"type":"Point","properties":{"Station_ID":"STEM4","Station_Nam":"STEUBEN","Latitude":"46.18530","Longitude":"-86.46410","Snowdepth":"29.000","Units":"in","Rept_Date":"2020-03-22 13"},"coordinates":[2529,5354]},{"type":"Point","properties":{"Station_ID":"IBLM5","Station_Nam":"ISABELLA 14W","Latitude":"47.59360","Longitude":"-91.65140","Snowdepth":"29.000","Units":"in","Rept_Date":"2020-03-22 14"},"coordinates":[1311,6535]},{"type":"Point","properties":{"Station_ID":"CAN-NB-13","Station_Nam":"BATHURST 3.8 NW, CAN","Latitude":"47.64212","Longitude":"-65.68756","Snowdepth":"28.500","Units":"in","Rept_Date":"2020-03-22 11"},"coordinates":[7405,6575]},{"type":"Point","properties":{"Station_ID":"CAN-NL-82","Station_Nam":"GANDER 2.7 NW, CAN","Latitude":"48.97737","Longitude":"-54.63396","Snowdepth":"28.300","Units":"in","Rept_Date":"2020-03-22 10"},"coordinates":[9999,7695]},{"type":"Point","properties":{"Station_ID":"SVBQ6","Station_Nam":"SAVANT BASE","Latitude":"50.28730","Longitude":"-90.65670","Snowdepth":"27.870","Units":"in","Rept_Date":"2020-03-23 06"},"coordinates":[1545,8792]},{"type":"Point","properties":{"Station_ID":"VANM1","Station_Nam":"VAN BUREN","Latitude":"47.16600","Longitude":"-67.93900","Snowdepth":"27.000","Units":"in","Rept_Date":"2020-03-22 11"},"coordinates":[6876,6176]},{"type":"Point","properties":{"Station_ID":"CARM1","Station_Nam":"CARIBOU WFO","Latitude":"46.86810","Longitude":"-68.01250","Snowdepth":"27.000","Units":"in","Rept_Date":"2020-03-23 04"},"coordinates":[6859,5927]},{"type":"Point","properties":{"Station_ID":"CAR","Station_Nam":"CARIBOU, ME","Latitude":"46.86830","Longitude":"-68.01360","Snowdepth":"27.000","Units":"in","Rept_Date":"2020-03-22 12"},"coordinates":[6859,5927]},{"type":"Point","properties":{"Station_ID":"CAN-NB-11","Station_Nam":"MIRAMICHI 3.3 S, CAN","Latitude":"46.99343","Longitude":"-65.50690","Snowdepth":"26.500","Units":"in","Rept_Date":"2020-03-22 12"},"coordinates":[7447,6032]},{"type":"Point","properties":{"Station_ID":"FISM1","Station_Nam":"FORT KENT COOP","Latitude":"47.23850","Longitude":"-68.61240","Snowdepth":"26.000","Units":"in","Rept_Date":"2020-03-22 11"},"coordinates":[6718,6237]},{"type":"Point","properties":{"Station_ID":"KABQ6","Station_Nam":"CAB LAKE","Latitude":"49.59950","Longitude":"-89.17990","Snowdepth":"24.570","Units":"in","Rept_Date":"2020-03-23 06"},"coordinates":[1891,8216]},{"type":"Point","properties":{"Station_ID":"SOCQ6","Station_Nam":"SOCKET LAKE","Latitude":"50.77870","Longitude":"-91.79300","Snowdepth":"24.530","Units":"in","Rept_Date":"2020-03-23 06"},"coordinates":[1278,9204]},{"type":"Point","properties":{"Station_ID":"MN-CK-18","Station_Nam":"GRAND MARAIS 4.4 WSW, MN","Latitude":"47.74462","Longitude":"-90.43796","Snowdepth":"23.500","Units":"in","Rept_Date":"2020-03-22 13"},"coordinates":[1596,6661]},{"type":"Point","properties":{"Station_ID":"KABM5","Station_Nam":"KABETOGAMA LAKE VISITOR CTR","Latitude":"48.40880","Longitude":"-93.04840","Snowdepth":"23.000","Units":"in","Rept_Date":"2020-03-22 12"},"coordinates":[983,7218]},{"type":"Point","properties":{"Station_ID":"WRPW3","Station_Nam":"WATER PURIFICATION PLANT","Latitude":"44.38800","Longitude":"-89.80550","Snowdepth":"22.000","Units":"in","Rept_Date":"2020-03-22 11"},"coordinates":[1744,3848]},{"type":"Point","properties":{"Station_ID":"NWCM4","Station_Nam":"NEWBERRY CITY","Latitude":"46.35720","Longitude":"-85.51780","Snowdepth":"22.000","Units":"in","Rept_Date":"2020-03-22 11"},"coordinates":[2751,5499]},{"type":"Point","properties":{"Station_ID":"CAN-NB-96","Station_Nam":"SAINT-IGNACE 2.6 NE, CAN","Latitude":"46.71424","Longitude":"-65.05609","Snowdepth":"22.000","Units":"in","Rept_Date":"2020-03-22 11"},"coordinates":[7553,5798]},{"type":"Point","properties":{"Station_ID":"WI-VL-10","Station_Nam":"LAND O LAKES 4.3 WNW, WI","Latitude":"46.17440","Longitude":"-89.30380","Snowdepth":"21.500","Units":"in","Rept_Date":"2020-03-22 13"},"coordinates":[1862,5345]},{"type":"Point","properties":{"Station_ID":"CATQ6","Station_Nam":"CAT LAKE","Latitude":"51.72690","Longitude":"-91.82210","Snowdepth":"21.220","Units":"in","Rept_Date":"2020-03-23 06"},"coordinates":[1271,9999]},{"type":"Point","properties":{"Station_ID":"WI-VL-9","Station_Nam":"LAND O' LAKES 11.7 W, WI","Latitude":"46.19023","Longitude":"-89.45790","Snowdepth":"21.000","Units":"in","Rept_Date":"2020-03-22 13"},"coordinates":[1826,5359]},{"type":"Point","properties":{"Station_ID":"MN-IT-10","Station_Nam":"DEER RIVER 3.7 W, MN","Latitude":"47.33564","Longitude":"-93.87514","Snowdepth":"21.000","Units":"in","Rept_Date":"2020-03-22 14"},"coordinates":[789,6319]},{"type":"Point","properties":{"Station_ID":"LNOW3","Station_Nam":"LAND O LAKES","Latitude":"46.19000","Longitude":"-89.45700","Snowdepth":"21.000","Units":"in","Rept_Date":"2020-03-22 12"},"coordinates":[1826,5358]},{"type":"Point","properties":{"Station_ID":"CAN-NB-89","Station_Nam":"MEMRAMCOOK 4.0 W, CAN","Latitude":"46.01133","Longitude":"-64.60244","Snowdepth":"20.900","Units":"in","Rept_Date":"2020-03-22 13"},"coordinates":[7659,5209]},{"type":"Point","properties":{"Station_ID":"SUAW3","Station_Nam":"SUAMICO","Latitude":"44.60190","Longitude":"-88.09780","Snowdepth":"20.000","Units":"in","Rept_Date":"2020-03-22 11"},"coordinates":[2145,4027]},{"type":"Point","properties":{"Station_ID":"MN-IT-23","Station_Nam":"BOVEY 13.4 N, MN","Latitude":"47.48855","Longitude":"-93.43497","Snowdepth":"20.000","Units":"in","Rept_Date":"2020-03-22 13"},"coordinates":[893,6447]},{"type":"Point","properties":{"Station_ID":"IWOM4","Station_Nam":"IRONWOOD#2","Latitude":"46.46520","Longitude":"-90.13820","Snowdepth":"20.000","Units":"in","Rept_Date":"2020-03-22 12"},"coordinates":[1666,5589]},{"type":"Point","properties":{"Station_ID":"INL","Station_Nam":"FALLS INTERNATIONAL ARPT","Latitude":"48.56640","Longitude":"-93.40310","Snowdepth":"20.000","Units":"in","Rept_Date":"2020-03-23 00"},"coordinates":[900,7350]},{"type":"Point","properties":{"Station_ID":"IFSM5","Station_Nam":"INTERNATIONAL FALLS SNOW","Latitude":"48.57780","Longitude":"-93.39640","Snowdepth":"20.000","Units":"in","Rept_Date":"2020-03-23 06"},"coordinates":[902,7360]},{"type":"Point","properties":{"Station_ID":"HURW3","Station_Nam":"HURLEY","Latitude":"46.46250","Longitude":"-90.19550","Snowdepth":"20.000","Units":"in","Rept_Date":"2020-03-22 13"},"coordinates":[1653,5587]},{"type":"Point","properties":{"Station_ID":"EVRW3","Station_Nam":"EAGLE RIVER-4 E","Latitude":"45.91890","Longitude":"-89.15280","Snowdepth":"20.000","Units":"in","Rept_Date":"2020-03-22 13"},"coordinates":[1898,5131]},{"type":"Point","properties":{"Station_ID":"CRVW3","Station_Nam":"CRIVITZ HIGH FALLS","Latitude":"45.35750","Longitude":"-88.19190","Snowdepth":"20.000","Units":"in","Rept_Date":"2020-03-22 12"},"coordinates":[2123,4661]},{"type":"Point","properties":{"Station_ID":"SSMM4","Station_Nam":"SAULT STE MARIE","Latitude":"46.48660","Longitude":"-84.40250","Snowdepth":"19.000","Units":"in","Rept_Date":"2020-03-22 12"},"coordinates":[3013,5607]},{"type":"Point","properties":{"Station_ID":"LILM1","Station_Nam":"LILLE","Latitude":"47.27770","Longitude":"-68.10520","Snowdepth":"19.000","Units":"in","Rept_Date":"2020-03-22 11"},"coordinates":[6837,6270]},{"type":"Point","properties":{"Station_ID":"GLDM4","Station_Nam":"GLADSTONE NO. 2","Latitude":"45.84330","Longitude":"-87.03910","Snowdepth":"19.000","Units":"in","Rept_Date":"2020-03-22 11"},"coordinates":[2394,5068]},{"type":"Point","properties":{"Station_ID":"ELYM5","Station_Nam":"ELY","Latitude":"47.90560","Longitude":"-91.82830","Snowdepth":"19.000","Units":"in","Rept_Date":"2020-03-22 13"},"coordinates":[1270,6796]},{"type":"Point","properties":{"Station_ID":"BRAM1","Station_Nam":"BRASSUA DAM","Latitude":"45.66020","Longitude":"-69.81190","Snowdepth":"19.000","Units":"in","Rept_Date":"2020-03-22 11"},"coordinates":[6437,4914]},{"type":"Point","properties":{"Station_ID":"BBEM4","Station_Nam":"BIG BAY 9SW","Latitude":"46.74620","Longitude":"-87.88160","Snowdepth":"19.000","Units":"in","Rept_Date":"2020-03-22 12"},"coordinates":[2196,5825]},{"type":"Point","properties":{"Station_ID":"ANJM4","Station_Nam":"SNOW PAID OBSERVER FOR KANJ","Latitude":"46.48670","Longitude":"-84.40260","Snowdepth":"19.000","Units":"in","Rept_Date":"2020-03-22 12"},"coordinates":[3013,5607]},{"type":"Point","properties":{"Station_ID":"ANJ","Station_Nam":"SAULT STE MARIE","Latitude":"46.46670","Longitude":"-84.36670","Snowdepth":"19.000","Units":"in","Rept_Date":"2020-03-23 00"},"coordinates":[3021,5590]},{"type":"Point","properties":{"Station_ID":"WTNM4","Station_Nam":"WATTON 2WSW","Latitude":"46.52660","Longitude":"-88.64240","Snowdepth":"18.000","Units":"in","Rept_Date":"2020-03-22 12"},"coordinates":[2017,5641]},{"type":"Point","properties":{"Station_ID":"RLWM5","Station_Nam":"CAMP NORRIS DNR","Latitude":"48.61000","Longitude":"-95.18170","Snowdepth":"18.000","Units":"in","Rept_Date":"2020-03-22 14"},"coordinates":[483,7387]},{"type":"Point","properties":{"Station_ID":"MNV905PW","Station_Nam":"ROOSEVELT 5.3 N","Latitude":"48.87933","Longitude":"-95.08224","Snowdepth":"18.000","Units":"in","Rept_Date":"2020-03-22 12"},"coordinates":[506,7612]},{"type":"Point","properties":{"Station_ID":"MIEM4","Station_Nam":"MICHIGAMME 3WNW","Latitude":"46.54530","Longitude":"-88.18000","Snowdepth":"18.000","Units":"in","Rept_Date":"2020-03-22 12"},"coordinates":[2126,5656]},{"type":"Point","properties":{"Station_ID":"LVDW3","Station_Nam":"LAC VIEUX DESERT","Latitude":"46.12110","Longitude":"-89.07580","Snowdepth":"18.000","Units":"in","Rept_Date":"2020-03-22 13"},"coordinates":[1916,5301]},{"type":"Point","properties":{"Station_ID":"IRMM4","Station_Nam":"WWTP","Latitude":"46.46670","Longitude":"-90.18330","Snowdepth":"18.000","Units":"in","Rept_Date":"2020-03-22 12"},"coordinates":[1656,5590]},{"type":"Point","properties":{"Station_ID":"EMBM5","Station_Nam":"EMBARASS,MN","Latitude":"47.65810","Longitude":"-92.19580","Snowdepth":"18.000","Units":"in","Rept_Date":"2020-03-22 12"},"coordinates":[1184,6589]},{"type":"Point","properties":{"Station_ID":"BRDM1","Station_Nam":"BRIDGEWATER","Latitude":"46.42870","Longitude":"-67.84370","Snowdepth":"18.000","Units":"in","Rept_Date":"2020-03-22 22"},"coordinates":[6899,5558]},{"type":"Point","properties":{"Station_ID":"BABM5","Station_Nam":"BABBITT","Latitude":"47.71210","Longitude":"-91.95330","Snowdepth":"18.000","Units":"in","Rept_Date":"2020-03-22 12"},"coordinates":[1240,6634]},{"type":"Point","properties":{"Station_ID":"WI-VL-14","Station_Nam":"BOULDER JUNCTION 1.4 NE, WI","Latitude":"46.12840","Longitude":"-89.62470","Snowdepth":"17.500","Units":"in","Rept_Date":"2020-03-22 13"},"coordinates":[1787,5307]},{"type":"Point","properties":{"Station_ID":"WI-BY-2","Station_Nam":"MELLEN 18.6 SW, WI","Latitude":"46.16937","Longitude":"-90.98090","Snowdepth":"17.000","Units":"in","Rept_Date":"2020-03-22 13"},"coordinates":[1469,5341]},{"type":"Point","properties":{"Station_ID":"STGW3","Station_Nam":"ST GERMAIN","Latitude":"45.91550","Longitude":"-89.48940","Snowdepth":"17.000","Units":"in","Rept_Date":"2020-03-22 11"},"coordinates":[1819,5128]},{"type":"Point","properties":{"Station_ID":"RKWM1","Station_Nam":"MOOSEHEAD LAKE","Latitude":"45.58330","Longitude":"-69.71670","Snowdepth":"17.000","Units":"in","Rept_Date":"2020-03-22 11"},"coordinates":[6459,4850]},{"type":"Point","properties":{"Station_ID":"RGNM1","Station_Nam":"RANGELEY 2NW","Latitude":"44.98940","Longitude":"-70.67220","Snowdepth":"17.000","Units":"in","Rept_Date":"2020-03-22 14"},"coordinates":[6235,4352]},{"type":"Point","properties":{"Station_ID":"LEIM5","Station_Nam":"ORR 3E","Latitude":"48.05810","Longitude":"-92.75220","Snowdepth":"17.000","Units":"in","Rept_Date":"2020-03-22 11"},"coordinates":[1053,6924]},{"type":"Point","properties":{"Station_ID":"GGRM4","Station_Nam":"GREEN GARDEN NO.2","Latitude":"46.45330","Longitude":"-87.30380","Snowdepth":"17.000","Units":"in","Rept_Date":"2020-03-22 13"},"coordinates":[2332,5579]},{"type":"Point","properties":{"Station_ID":"DLH","Station_Nam":"DULUTH, MN","Latitude":"46.83690","Longitude":"-92.21030","Snowdepth":"17.000","Units":"in","Rept_Date":"2020-03-23 00"},"coordinates":[1180,5901]},{"type":"Point","properties":{"Station_ID":"DFXM1","Station_Nam":"DOVER-FOXCROFT","Latitude":"45.18720","Longitude":"-69.18350","Snowdepth":"17.000","Units":"in","Rept_Date":"2020-03-22 11"},"coordinates":[6584,4518]},{"type":"Point","properties":{"Station_ID":"CMKW3","Station_Nam":"CLAM LAKE 4W","Latitude":"46.16940","Longitude":"-90.98080","Snowdepth":"17.000","Units":"in","Rept_Date":"2020-03-22 12"},"coordinates":[1469,5341]},{"type":"Point","properties":{"Station_ID":"BGBM4","Station_Nam":"BIG BAY 1NW","Latitude":"46.83250","Longitude":"-87.75040","Snowdepth":"17.000","Units":"in","Rept_Date":"2020-03-22 12"},"coordinates":[2227,5897]},{"type":"Point","properties":{"Station_ID":"MN-SL-15","Station_Nam":"CHISHOLM 0.4 WSW, MN","Latitude":"47.48557","Longitude":"-92.88690","Snowdepth":"16.500","Units":"in","Rept_Date":"2020-03-22 13"},"coordinates":[1021,6444]},{"type":"Point","properties":{"Station_ID":"WI-BY-22","Station_Nam":"MASON 11.5 WNW, WI","Latitude":"46.50198","Longitude":"-91.28339","Snowdepth":"16.000","Units":"in","Rept_Date":"2020-03-22 14"},"coordinates":[1398,5620]},{"type":"Point","properties":{"Station_ID":"TOGM5","Station_Nam":"CELINA 2E","Latitude":"47.86630","Longitude":"-93.02660","Snowdepth":"16.000","Units":"in","Rept_Date":"2020-03-22 13"},"coordinates":[989,6763]},{"type":"Point","properties":{"Station_ID":"THRM5","Station_Nam":"THORHULT,MN","Latitude":"48.21670","Longitude":"-95.25000","Snowdepth":"16.000","Units":"in","Rept_Date":"2020-03-22 22"},"coordinates":[467,7057]},{"type":"Point","properties":{"Station_ID":"PHEW3","Station_Nam":"PHELPS","Latitude":"46.06630","Longitude":"-89.07520","Snowdepth":"16.000","Units":"in","Rept_Date":"2020-03-22 12"},"coordinates":[1916,5255]},{"type":"Point","properties":{"Station_ID":"MN-SL-105","Station_Nam":"DULUTH 11.8 NNE, MN","Latitude":"46.94680","Longitude":"-92.03925","Snowdepth":"16.000","Units":"in","Rept_Date":"2020-03-22 13"},"coordinates":[1220,5993]},{"type":"Point","properties":{"Station_ID":"MN-IT-7","Station_Nam":"GRAND RAPIDS 6.2 SSW, MN","Latitude":"47.13687","Longitude":"-93.56660","Snowdepth":"16.000","Units":"in","Rept_Date":"2020-03-22 12"},"coordinates":[862,6152]},{"type":"Point","properties":{"Station_ID":"MI-GG-4","Station_Nam":"WATERSMEET 5.0 SE, MI","Latitude":"46.20333","Longitude":"-89.13170","Snowdepth":"16.000","Units":"in","Rept_Date":"2020-03-22 14"},"coordinates":[1903,5370]},{"type":"Point","properties":{"Station_ID":"DLHM5","Station_Nam":"DULUTH NWS","Latitude":"46.83680","Longitude":"-92.21080","Snowdepth":"16.000","Units":"in","Rept_Date":"2020-03-23 06"},"coordinates":[1180,5900]},{"type":"Point","properties":{"Station_ID":"COKM5","Station_Nam":"COOK","Latitude":"47.85060","Longitude":"-92.69250","Snowdepth":"16.000","Units":"in","Rept_Date":"2020-03-22 11"},"coordinates":[1067,6750]},{"type":"Point","properties":{"Station_ID":"CAN-NB-18","Station_Nam":"MCLEOD HILL 1.1 ENE, CA","Latitude":"46.02725","Longitude":"-66.67460","Snowdepth":"16.000","Units":"in","Rept_Date":"2020-03-22 12"},"coordinates":[7173,5222]},{"type":"Point","properties":{"Station_ID":"VT-CL-3","Station_Nam":"GROTON 4.4 WSW, VT","Latitude":"44.19440","Longitude":"-72.28240","Snowdepth":"15.500","Units":"in","Rept_Date":"2020-03-22 11"},"coordinates":[5857,3686]},{"type":"Point","properties":{"Station_ID":"MI-CP-14","Station_Nam":"SAULT STE. MARIE 2.2 E, MI","Latitude":"46.48933","Longitude":"-84.31971","Snowdepth":"15.500","Units":"in","Rept_Date":"2020-03-22 13"},"coordinates":[3032,5609]},{"type":"Point","properties":{"Station_ID":"WRSM5","Station_Nam":"WRENSHALL","Latitude":"46.61550","Longitude":"-92.38380","Snowdepth":"15.000","Units":"in","Rept_Date":"2020-03-22 13"},"coordinates":[1139,5715]},{"type":"Point","properties":{"Station_ID":"WI-IR-3","Station_Nam":"PENCE 0.1 E, WI","Latitude":"46.41555","Longitude":"-90.27013","Snowdepth":"15.000","Units":"in","Rept_Date":"2020-03-22 13"},"coordinates":[1635,5547]},{"type":"Point","properties":{"Station_ID":"VT-OL-12","Station_Nam":"GREENSBORO 3.9 NNE, VT","Latitude":"44.63100","Longitude":"-72.28000","Snowdepth":"15.000","Units":"in","Rept_Date":"2020-03-22 13"},"coordinates":[5858,4052]},{"type":"Point","properties":{"Station_ID":"MN-SL-108","Station_Nam":"IRON JUNCTION 3.4 NNW, MN","Latitude":"47.46150","Longitude":"-92.63130","Snowdepth":"15.000","Units":"in","Rept_Date":"2020-03-22 13"},"coordinates":[1081,6424]},{"type":"Point","properties":{"Station_ID":"MN-IT-1","Station_Nam":"GRAND RAPIDS 2.0 E, MN","Latitude":"47.22266","Longitude":"-93.49600","Snowdepth":"15.000","Units":"in","Rept_Date":"2020-03-22 14"},"coordinates":[878,6224]},{"type":"Point","properties":{"Station_ID":"MN-CK-6","Station_Nam":"GRAND MARAIS 4.4 W, MN","Latitude":"47.74865","Longitude":"-90.43760","Snowdepth":"15.000","Units":"in","Rept_Date":"2020-03-22 13"},"coordinates":[1596,6665]},{"type":"Point","properties":{"Station_ID":"CLKM4","Station_Nam":"CLARKSBURG","Latitude":"46.49910","Longitude":"-87.84500","Snowdepth":"15.000","Units":"in","Rept_Date":"2020-03-22 11"},"coordinates":[2205,5617]},{"type":"Point","properties":{"Station_ID":"BNDM5","Station_Nam":"ELY 25E","Latitude":"47.97190","Longitude":"-91.44860","Snowdepth":"15.000","Units":"in","Rept_Date":"2020-03-22 12"},"coordinates":[1359,6852]},{"type":"Point","properties":{"Station_ID":"MN-BK-6","Station_Nam":"LAKE PARK 6.0 S, MN","Latitude":"46.79850","Longitude":"-96.12180","Snowdepth":"14.500","Units":"in","Rept_Date":"2020-03-22 13"},"coordinates":[262,5868]},{"type":"Point","properties":{"Station_ID":"FTHQ6","Station_Nam":"FORT HOPE","Latitude":"51.55820","Longitude":"-87.90510","Snowdepth":"14.450","Units":"in","Rept_Date":"2020-03-23 06"},"coordinates":[2191,9858]},{"type":"Point","properties":{"Station_ID":"CAN-ON-526","Station_Nam":"HILTON BEACH 0.7 SW - MNRF, CAN","Latitude":"46.25357","Longitude":"-83.90014","Snowdepth":"14.200","Units":"in","Rept_Date":"2020-03-22 12"},"coordinates":[3130,5412]},{"type":"Point","properties":{"Station_ID":"WI-DG-20","Station_Nam":"SOLON SPRINGS 1.2 W, WI","Latitude":"46.35217","Longitude":"-91.84405","Snowdepth":"14.000","Units":"in","Rept_Date":"2020-03-22 13"},"coordinates":[1266,5494]},{"type":"Point","properties":{"Station_ID":"WI-BY-14","Station_Nam":"ASHLAND 9.8 W, WI","Latitude":"46.59742","Longitude":"-91.07856","Snowdepth":"14.000","Units":"in","Rept_Date":"2020-03-22 13"},"coordinates":[1446,5700]},{"type":"Point","properties":{"Station_ID":"JCBM4","Station_Nam":"JACOBSVILLE","Latitude":"47.00830","Longitude":"-88.43180","Snowdepth":"14.000","Units":"in","Rept_Date":"2020-03-22 11"},"coordinates":[2067,6044]},{"type":"Point","properties":{"Station_ID":"AVTW3","Station_Nam":"ARBOR VITAE-JOHNSON LAKE","Latitude":"45.89940","Longitude":"-89.72670","Snowdepth":"14.000","Units":"in","Rept_Date":"2020-03-22 11"},"coordinates":[1763,5115]},{"type":"Point","properties":{"Station_ID":"CAN-PE-19","Station_Nam":"CHARLOTTETOWN 6.5 NNW, CAN","Latitude":"46.29235","Longitude":"-63.17271","Snowdepth":"13.400","Units":"in","Rept_Date":"2020-03-22 12"},"coordinates":[7995,5444]},{"type":"Point","properties":{"Station_ID":"WRUM5","Station_Nam":"WARROAD 4W","Latitude":"48.89600","Longitude":"-95.40700","Snowdepth":"13.000","Units":"in","Rept_Date":"2020-03-23 03"},"coordinates":[430,7626]},{"type":"Point","properties":{"Station_ID":"NH-CS-10","Station_Nam":"RANDOLPH 1.4 NE, NH","Latitude":"44.38824","Longitude":"-71.26950","Snowdepth":"13.000","Units":"in","Rept_Date":"2020-03-22 12"},"coordinates":[6095,3848]},{"type":"Point","properties":{"Station_ID":"MAIW3","Station_Nam":"MADELINE ISLAND","Latitude":"46.78330","Longitude":"-90.76670","Snowdepth":"13.000","Units":"in","Rept_Date":"2020-03-22 13"},"coordinates":[1519,5856]},{"type":"Point","properties":{"Station_ID":"GHMN3","Station_Nam":"PINKHAM NOTCH","Latitude":"44.25800","Longitude":"-71.25250","Snowdepth":"13.000","Units":"in","Rept_Date":"2020-03-22 09"},"coordinates":[6099,3739]},{"type":"Point","properties":{"Station_ID":"CAN-NS-60","Station_Nam":"SYDNEY FORKS, CAN","Latitude":"46.05645","Longitude":"-60.31510","Snowdepth":"13.000","Units":"in","Rept_Date":"2020-03-22 12"},"coordinates":[8666,5246]},{"type":"Point","properties":{"Station_ID":"CAN-NS-103","Station_Nam":"TRAFALGAR 4.9 WSW, CAN","Latitude":"45.26217","Longitude":"-62.72285","Snowdepth":"13.000","Units":"in","Rept_Date":"2020-03-22 12"},"coordinates":[8101,4581]},{"type":"Point","properties":{"Station_ID":"CAN-ON-757","Station_Nam":"SAULT STE. MARIE 2.8 ESE - GLFC, CAN","Latitude":"46.50300","Longitude":"-84.30300","Snowdepth":"12.300","Units":"in","Rept_Date":"2020-03-22 13"},"coordinates":[3036,5621]},{"type":"Point","properties":{"Station_ID":"CAN-NB-64","Station_Nam":"KESWICK RIDGE 4.0 SE, CAN","Latitude":"45.97014","Longitude":"-66.85538","Snowdepth":"12.200","Units":"in","Rept_Date":"2020-03-22 14"},"coordinates":[7131,5174]},{"type":"Point","properties":{"Station_ID":"ZNOM4","Station_Nam":"NORWAY","Latitude":"45.77810","Longitude":"-87.89560","Snowdepth":"12.000","Units":"in","Rept_Date":"2020-03-23 00"},"coordinates":[2193,5013]},{"type":"Point","properties":{"Station_ID":"WTRM4","Station_Nam":"WATERSMEET 12WSW","Latitude":"46.22310","Longitude":"-89.40850","Snowdepth":"12.000","Units":"in","Rept_Date":"2020-03-22 11"},"coordinates":[1838,5386]},{"type":"Point","properties":{"Station_ID":"WI-BY-1","Station_Nam":"BAYFIELD 8.8 N, WI","Latitude":"46.93855","Longitude":"-90.83490","Snowdepth":"12.000","Units":"in","Rept_Date":"2020-03-22 13"},"coordinates":[1503,5986]},{"type":"Point","properties":{"Station_ID":"MN7M8EBJ","Station_Nam":"LUTSEN 15.7 NNW","Latitude":"47.85324","Longitude":"-89.92908","Snowdepth":"12.000","Units":"in","Rept_Date":"2020-03-22 13"},"coordinates":[1715,6752]},{"type":"Point","properties":{"Station_ID":"MI-DL-1","Station_Nam":"GARDEN CORNERS 0.8 NW, MI","Latitude":"45.89815","Longitude":"-86.54850","Snowdepth":"12.000","Units":"in","Rept_Date":"2020-03-22 13"},"coordinates":[2509,5114]},{"type":"Point","properties":{"Station_ID":"JKMM1","Station_Nam":"JACKMAN","Latitude":"45.62600","Longitude":"-70.24600","Snowdepth":"12.000","Units":"in","Rept_Date":"2020-03-22 11"},"coordinates":[6335,4886]},{"type":"Point","properties":{"Station_ID":"GRBM5","Station_Nam":"GRAND RAPIDS 12N","Latitude":"47.39800","Longitude":"-93.51330","Snowdepth":"12.000","Units":"in","Rept_Date":"2020-03-22 12"},"coordinates":[874,6371]},{"type":"Point","properties":{"Station_ID":"GDCM4","Station_Nam":"GARDEN CORNERS","Latitude":"45.89830","Longitude":"-86.54850","Snowdepth":"12.000","Units":"in","Rept_Date":"2020-03-22 12"},"coordinates":[2509,5114]},{"type":"Point","properties":{"Station_ID":"AURW3","Station_Nam":"AURORA","Latitude":"45.77000","Longitude":"-88.11810","Snowdepth":"12.000","Units":"in","Rept_Date":"2020-03-22 12"},"coordinates":[2141,5006]},{"type":"Point","properties":{"Station_ID":"AGNW3","Station_Nam":"ARGONNE-1.5 NW","Latitude":"45.67360","Longitude":"-88.90380","Snowdepth":"12.000","Units":"in","Rept_Date":"2020-03-22 12"},"coordinates":[1956,4926]},{"type":"Point","properties":{"Station_ID":"SUTV1","Station_Nam":"SUTTON","Latitude":"44.61220","Longitude":"-72.04810","Snowdepth":"11.000","Units":"in","Rept_Date":"2020-03-22 12"},"coordinates":[5912,4036]},{"type":"Point","properties":{"Station_ID":"MN2EOYHJ","Station_Nam":"OGILVIE 5.6 N","Latitude":"45.91288","Longitude":"-93.42259","Snowdepth":"11.000","Units":"in","Rept_Date":"2020-03-22 13"},"coordinates":[896,5126]},{"type":"Point","properties":{"Station_ID":"KINM1","Station_Nam":"KINGFIELD","Latitude":"44.95950","Longitude":"-70.17530","Snowdepth":"11.000","Units":"in","Rept_Date":"2020-03-22 11"},"coordinates":[6352,4327]},{"type":"Point","properties":{"Station_ID":"GRFN8","Station_Nam":"UNIVERSITY","Latitude":"47.93330","Longitude":"-97.08330","Snowdepth":"11.000","Units":"in","Rept_Date":"2020-03-23 05"},"coordinates":[36,6819]},{"type":"Point","properties":{"Station_ID":"COTM5","Station_Nam":"COTTON","Latitude":"47.16870","Longitude":"-92.46290","Snowdepth":"11.000","Units":"in","Rept_Date":"2020-03-22 15"},"coordinates":[1121,6179]},{"type":"Point","properties":{"Station_ID":"CAN-PE-3","Station_Nam":"WELLINGTON 1.6 NE, CA","Latitude":"46.46672","Longitude":"-63.98920","Snowdepth":"11.000","Units":"in","Rept_Date":"2020-03-22 11"},"coordinates":[7803,5590]},{"type":"Point","properties":{"Station_ID":"WI-ON-6","Station_Nam":"RHINELANDER 5.2 N, WI","Latitude":"45.71388","Longitude":"-89.42150","Snowdepth":"10.500","Units":"in","Rept_Date":"2020-03-22 14"},"coordinates":[1835,4959]},{"type":"Point","properties":{"Station_ID":"NH-CR-15","Station_Nam":"JACKSON 3.7 NW, NH","Latitude":"44.19069","Longitude":"-71.22598","Snowdepth":"10.500","Units":"in","Rept_Date":"2020-03-22 12"},"coordinates":[6105,3683]},{"type":"Point","properties":{"Station_ID":"MN-PK-15","Station_Nam":"MENTOR 2.5 SSW, MN","Latitude":"47.66625","Longitude":"-96.17328","Snowdepth":"10.500","Units":"in","Rept_Date":"2020-03-22 14"},"coordinates":[250,6596]},{"type":"Point","properties":{"Station_ID":"WI-SR-1","Station_Nam":"HAYWARD 9.2 NNE, WI","Latitude":"46.13255","Longitude":"-91.40500","Snowdepth":"10.000","Units":"in","Rept_Date":"2020-03-22 12"},"coordinates":[1369,5310]},{"type":"Point","properties":{"Station_ID":"VT-BN-12","Station_Nam":"STAMFORD 5.0 NNE, VT","Latitude":"42.82000","Longitude":"-73.02000","Snowdepth":"10.000","Units":"in","Rept_Date":"2020-03-22 21"},"coordinates":[5684,2534]},{"type":"Point","properties":{"Station_ID":"RANM1","Station_Nam":"RANGELEY","Latitude":"44.98910","Longitude":"-70.67190","Snowdepth":"10.000","Units":"in","Rept_Date":"2020-03-22 14"},"coordinates":[6235,4352]},{"type":"Point","properties":{"Station_ID":"PBAN8","Station_Nam":"SITE 1-3MI.N","Latitude":"48.97420","Longitude":"-97.23860","Snowdepth":"10.000","Units":"in","Rept_Date":"2020-03-22 13"},"coordinates":[0,7692]},{"type":"Point","properties":{"Station_ID":"MWN","Station_Nam":"MOUNT WASHINGTON","Latitude":"44.26670","Longitude":"-71.30000","Snowdepth":"10.000","Units":"in","Rept_Date":"2020-03-23 04"},"coordinates":[6088,3746]},{"type":"Point","properties":{"Station_ID":"MRAM4","Station_Nam":"MORAN","Latitude":"45.99030","Longitude":"-84.83610","Snowdepth":"10.000","Units":"in","Rept_Date":"2020-03-22 12"},"coordinates":[2911,5191]},{"type":"Point","properties":{"Station_ID":"MN-BK-10","Station_Nam":"DETROIT LAKES 5.7 N, MN","Latitude":"46.88666","Longitude":"-95.84444","Snowdepth":"10.000","Units":"in","Rept_Date":"2020-03-22 10"},"coordinates":[327,5942]},{"type":"Point","properties":{"Station_ID":"MI-DL-4","Station_Nam":"GLADSTONE 2.1 SW, MI","Latitude":"45.83218","Longitude":"-87.05727","Snowdepth":"10.000","Units":"in","Rept_Date":"2020-03-22 12"},"coordinates":[2389,5058]},{"type":"Point","properties":{"Station_ID":"ME-FR-4","Station_Nam":"NEW SHARON 2.0 NW, ME","Latitude":"44.66582","Longitude":"-70.02720","Snowdepth":"10.000","Units":"in","Rept_Date":"2020-03-22 12"},"coordinates":[6386,4081]},{"type":"Point","properties":{"Station_ID":"KMWN","Station_Nam":"MOUNT WASHINGTON","Latitude":"44.26666","Longitude":"-71.30000","Snowdepth":"10.000","Units":"in","Rept_Date":"2020-03-23 06"},"coordinates":[6088,3746]},{"type":"Point","properties":{"Station_ID":"AVLV1","Station_Nam":"AVERILL","Latitude":"45.00570","Longitude":"-71.69030","Snowdepth":"10.000","Units":"in","Rept_Date":"2020-03-22 12"},"coordinates":[5996,4366]},{"type":"Point","properties":{"Station_ID":"MN-CW-22","Station_Nam":"FORT RIPLEY 0.8 N, MN","Latitude":"46.18089","Longitude":"-94.36510","Snowdepth":"9.500","Units":"in","Rept_Date":"2020-03-22 13"},"coordinates":[674,5351]},{"type":"Point","properties":{"Station_ID":"CAN-NB-97","Station_Nam":"NEW MARYLAND 0.6 NW, CAN","Latitude":"45.90112","Longitude":"-66.68739","Snowdepth":"9.400","Units":"in","Rept_Date":"2020-03-22 12"},"coordinates":[7170,5116]},{"type":"Point","properties":{"Station_ID":"WI-SR-5","Station_Nam":"HAYWARD 9.7 NE, WI","Latitude":"46.12030","Longitude":"-91.35370","Snowdepth":"9.000","Units":"in","Rept_Date":"2020-03-22 14"},"coordinates":[1381,5300]},{"type":"Point","properties":{"Station_ID":"VT-ES-1","Station_Nam":"GRANBY 1.4 NW, VT","Latitude":"44.58330","Longitude":"-71.77870","Snowdepth":"9.000","Units":"in","Rept_Date":"2020-03-22 14"},"coordinates":[5975,4012]},{"type":"Point","properties":{"Station_ID":"RHIW3","Station_Nam":"RHINELANDER","Latitude":"45.59860","Longitude":"-89.45080","Snowdepth":"9.000","Units":"in","Rept_Date":"2020-03-22 12"},"coordinates":[1828,4863]},{"type":"Point","properties":{"Station_ID":"MN-AT-5","Station_Nam":"TAMARACK 1.4 SW, MN","Latitude":"46.63760","Longitude":"-93.14554","Snowdepth":"9.000","Units":"in","Rept_Date":"2020-03-22 11"},"coordinates":[961,5734]},{"type":"Point","properties":{"Station_ID":"MI-OT-17","Station_Nam":"GAYLORD 4.1 S, MI","Latitude":"44.96388","Longitude":"-84.68467","Snowdepth":"9.000","Units":"in","Rept_Date":"2020-03-22 12"},"coordinates":[2946,4331]},{"type":"Point","properties":{"Station_ID":"MI-OT-16","Station_Nam":"GAYLORD 2.2 SSE, MI","Latitude":"44.99441","Longitude":"-84.65820","Snowdepth":"9.000","Units":"in","Rept_Date":"2020-03-22 13"},"coordinates":[2953,4356]},{"type":"Point","properties":{"Station_ID":"LPLN6","Station_Nam":"LAKE PLACID 2 S","Latitude":"44.30420","Longitude":"-73.98390","Snowdepth":"9.000","Units":"in","Rept_Date":"2020-03-22 12"},"coordinates":[5458,3778]},{"type":"Point","properties":{"Station_ID":"EGRW3","Station_Nam":"EAGLE RIVER-SOUTH","Latitude":"45.91360","Longitude":"-89.24360","Snowdepth":"9.000","Units":"in","Rept_Date":"2020-03-22 12"},"coordinates":[1876,5127]},{"type":"Point","properties":{"Station_ID":"BTLN3","Station_Nam":"BARTLETT","Latitude":"44.08380","Longitude":"-71.29340","Snowdepth":"9.000","Units":"in","Rept_Date":"2020-03-22 11"},"coordinates":[6089,3593]},{"type":"Point","properties":{"Station_ID":"BRUM5","Station_Nam":"BRUNO,MN","Latitude":"46.28330","Longitude":"-92.50000","Snowdepth":"9.000","Units":"in","Rept_Date":"2020-03-22 13"},"coordinates":[1112,5437]},{"type":"Point","properties":{"Station_ID":"ASTW3","Station_Nam":"ATHELSTANE","Latitude":"45.42500","Longitude":"-88.05750","Snowdepth":"9.000","Units":"in","Rept_Date":"2020-03-22 11"},"coordinates":[2155,4717]},{"type":"Point","properties":{"Station_ID":"ME-OX-2","Station_Nam":"HARTFORD 1.4 N, ME","Latitude":"44.39318","Longitude":"-70.34760","Snowdepth":"8.500","Units":"in","Rept_Date":"2020-03-22 12"},"coordinates":[6311,3852]},{"type":"Point","properties":{"Station_ID":"CAN-PE-7","Station_Nam":"MORELL 1.4 NNW, CA","Latitude":"46.42741","Longitude":"-62.70870","Snowdepth":"8.500","Units":"in","Rept_Date":"2020-03-22 11"},"coordinates":[8104,5557]},{"type":"Point","properties":{"Station_ID":"STMM4","Station_Nam":"STAMBAUGH 2SSE","Latitude":"46.05550","Longitude":"-88.62780","Snowdepth":"8.000","Units":"in","Rept_Date":"2020-03-22 12"},"coordinates":[2021,5246]},{"type":"Point","properties":{"Station_ID":"MWTM1","Station_Nam":"MILLINOCKET WWTP","Latitude":"45.64030","Longitude":"-68.67480","Snowdepth":"8.000","Units":"in","Rept_Date":"2020-03-22 11"},"coordinates":[6704,4898]},{"type":"Point","properties":{"Station_ID":"LBKV1","Station_Nam":"LYE BROOK","Latitude":"43.05000","Longitude":"-73.03330","Snowdepth":"8.000","Units":"in","Rept_Date":"2020-03-23 06"},"coordinates":[5681,2727]},{"type":"Point","properties":{"Station_ID":"GFK","Station_Nam":"GRAND FORKS INTERNATIONAL AIRPORT","Latitude":"47.94920","Longitude":"-97.17610","Snowdepth":"8.000","Units":"in","Rept_Date":"2020-03-23 00"},"coordinates":[15,6833]},{"type":"Point","properties":{"Station_ID":"CORV1","Station_Nam":"CORINTH","Latitude":"44.00690","Longitude":"-72.31940","Snowdepth":"8.000","Units":"in","Rept_Date":"2020-03-22 11"},"coordinates":[5848,3529]},{"type":"Point","properties":{"Station_ID":"CAN-ON-245","Station_Nam":"PHELPSTON 3.1 ESE, CAN","Latitude":"44.50564","Longitude":"-79.81035","Snowdepth":"8.000","Units":"in","Rept_Date":"2020-03-22 11"},"coordinates":[4090,3947]},{"type":"Point","properties":{"Station_ID":"BREW3","Station_Nam":"SURING","Latitude":"44.99580","Longitude":"-88.37860","Snowdepth":"8.000","Units":"in","Rept_Date":"2020-03-22 13"},"coordinates":[2079,4358]},{"type":"Point","properties":{"Station_ID":"BRAM5","Station_Nam":"BRAINERD","Latitude":"46.34320","Longitude":"-94.20900","Snowdepth":"8.000","Units":"in","Rept_Date":"2020-03-22 12"},"coordinates":[711,5487]},{"type":"Point","properties":{"Station_ID":"BAGM4","Station_Nam":"BARAGA 7NW","Latitude":"46.82100","Longitude":"-88.60590","Snowdepth":"8.000","Units":"in","Rept_Date":"2020-03-22 12"},"coordinates":[2026,5887]},{"type":"Point","properties":{"Station_ID":"WI-BN-6","Station_Nam":"SUAMICO 4.4 WNW, WI","Latitude":"44.66111","Longitude":"-88.11780","Snowdepth":"7.700","Units":"in","Rept_Date":"2020-03-22 13"},"coordinates":[2141,4077]},{"type":"Point","properties":{"Station_ID":"ME-FR-22","Station_Nam":"FARMINGTON 4.8 NNW, ME","Latitude":"44.73396","Longitude":"-70.18007","Snowdepth":"7.500","Units":"in","Rept_Date":"2020-03-22 14"},"coordinates":[6350,4138]},{"type":"Point","properties":{"Station_ID":"CAN-NB-1","Station_Nam":"FREDERICTON 4.0 SSE, CA","Latitude":"45.92897","Longitude":"-66.62830","Snowdepth":"7.500","Units":"in","Rept_Date":"2020-03-22 12"},"coordinates":[7184,5140]},{"type":"Point","properties":{"Station_ID":"TOPM1","Station_Nam":"TOPSFIELD","Latitude":"45.43470","Longitude":"-67.72020","Snowdepth":"7.000","Units":"in","Rept_Date":"2020-03-22 11"},"coordinates":[6928,4725]},{"type":"Point","properties":{"Station_ID":"MI-OT-4","Station_Nam":"GAYLORD 1.7 WNW, MI","Latitude":"45.03280","Longitude":"-84.71090","Snowdepth":"7.000","Units":"in","Rept_Date":"2020-03-22 13"},"coordinates":[2940,4389]},{"type":"Point","properties":{"Station_ID":"GAYM4","Station_Nam":"GAYLORD","Latitude":"45.03320","Longitude":"-84.71130","Snowdepth":"7.000","Units":"in","Rept_Date":"2020-03-22 12"},"coordinates":[2940,4389]},{"type":"Point","properties":{"Station_ID":"AROM4","Station_Nam":"ARNOLD,MI","Latitude":"46.06670","Longitude":"-87.48330","Snowdepth":"7.000","Units":"in","Rept_Date":"2020-03-22 12"},"coordinates":[2290,5255]},{"type":"Point","properties":{"Station_ID":"NH-GR-49","Station_Nam":"PLYMOUTH 3.7 N, NH","Latitude":"43.79048","Longitude":"-71.68413","Snowdepth":"6.500","Units":"in","Rept_Date":"2020-03-22 12"},"coordinates":[5997,3347]},{"type":"Point","properties":{"Station_ID":"WLKW3","Station_Nam":"WHITE LAKE 1 SE","Latitude":"45.14520","Longitude":"-88.74160","Snowdepth":"6.000","Units":"in","Rept_Date":"2020-03-22 13"},"coordinates":[1994,4483]},{"type":"Point","properties":{"Station_ID":"WILW3","Station_Nam":"RESERVOIR","Latitude":"45.70000","Longitude":"-89.83330","Snowdepth":"6.000","Units":"in","Rept_Date":"2020-03-22 11"},"coordinates":[1738,4948]},{"type":"Point","properties":{"Station_ID":"WI-WB-2","Station_Nam":"STONE LAKE 2.0 NW, WI","Latitude":"45.85960","Longitude":"-91.57710","Snowdepth":"6.000","Units":"in","Rept_Date":"2020-03-22 13"},"coordinates":[1329,5081]},{"type":"Point","properties":{"Station_ID":"WI-PR-6","Station_Nam":"PHILLIPS 1.3 S, WI","Latitude":"45.67677","Longitude":"-90.39543","Snowdepth":"6.000","Units":"in","Rept_Date":"2020-03-22 12"},"coordinates":[1606,4928]},{"type":"Point","properties":{"Station_ID":"VT-ES-3","Station_Nam":"LUNENBURG 2.3 NNW, VT","Latitude":"44.49324","Longitude":"-71.70446","Snowdepth":"6.000","Units":"in","Rept_Date":"2020-03-22 12"},"coordinates":[5993,3936]},{"type":"Point","properties":{"Station_ID":"RHRW3","Station_Nam":"RHINELANDER WJFW TV-12","Latitude":"45.62220","Longitude":"-89.41000","Snowdepth":"6.000","Units":"in","Rept_Date":"2020-03-23 03"},"coordinates":[1837,4883]},{"type":"Point","properties":{"Station_ID":"RHI","Station_Nam":"RHINELANDER-ONEIDA COUNTY AIRPORT","Latitude":"45.63080","Longitude":"-89.46530","Snowdepth":"6.000","Units":"in","Rept_Date":"2020-03-22 12"},"coordinates":[1824,4890]},{"type":"Point","properties":{"Station_ID":"OTTM5","Station_Nam":"OTTERTAIL,MN","Latitude":"46.41670","Longitude":"-95.56670","Snowdepth":"6.000","Units":"in","Rept_Date":"2020-03-22 13"},"coordinates":[392,5548]},{"type":"Point","properties":{"Station_ID":"NUMN3","Station_Nam":"NORTHUMBERLAND","Latitude":"44.52830","Longitude":"-71.50440","Snowdepth":"6.000","Units":"in","Rept_Date":"2020-03-22 12"},"coordinates":[6040,3966]},{"type":"Point","properties":{"Station_ID":"NH-CR-26","Station_Nam":"CENTER SANDWICH 4.9 E, NH","Latitude":"43.80976","Longitude":"-71.34150","Snowdepth":"6.000","Units":"in","Rept_Date":"2020-03-22 11"},"coordinates":[6078,3363]},{"type":"Point","properties":{"Station_ID":"ND-CS-25","Station_Nam":"FARGO 2.1 N, ND","Latitude":"46.90816","Longitude":"-96.77937","Snowdepth":"6.000","Units":"in","Rept_Date":"2020-03-22 14"},"coordinates":[108,5960]},{"type":"Point","properties":{"Station_ID":"INDN6","Station_Nam":"INDIAN LAKE","Latitude":"43.75500","Longitude":"-74.27560","Snowdepth":"6.000","Units":"in","Rept_Date":"2020-03-22 13"},"coordinates":[5389,3318]},{"type":"Point","properties":{"Station_ID":"ESGM1","Station_Nam":"EAST SANGERVILLE","Latitude":"45.13690","Longitude":"-69.28060","Snowdepth":"6.000","Units":"in","Rept_Date":"2020-03-22 11"},"coordinates":[6562,4476]},{"type":"Point","properties":{"Station_ID":"ESDN3","Station_Nam":"EAST SANDWICH","Latitude":"43.80990","Longitude":"-71.34250","Snowdepth":"6.000","Units":"in","Rept_Date":"2020-03-22 10"},"coordinates":[6078,3364]},{"type":"Point","properties":{"Station_ID":"EJNM4","Station_Nam":"EAST JORDAN 2NW","Latitude":"45.18630","Longitude":"-85.14770","Snowdepth":"6.000","Units":"in","Rept_Date":"2020-03-22 12"},"coordinates":[2838,4517]},{"type":"Point","properties":{"Station_ID":"COUW3","Station_Nam":"COUDERAY,WI","Latitude":"45.86670","Longitude":"-91.45000","Snowdepth":"6.000","Units":"in","Rept_Date":"2020-03-22 21"},"coordinates":[1359,5087]},{"type":"Point","properties":{"Station_ID":"BFHW3","Station_Nam":"BAYFIELD FISH HATCHERY","Latitude":"46.78670","Longitude":"-90.86420","Snowdepth":"6.000","Units":"in","Rept_Date":"2020-03-22 13"},"coordinates":[1496,5858]},{"type":"Point","properties":{"Station_ID":"VT-OL-9","Station_Nam":"GREENSBORO 2.1 NNW, VT","Latitude":"44.60528","Longitude":"-72.30940","Snowdepth":"5.500","Units":"in","Rept_Date":"2020-03-22 12"},"coordinates":[5851,4030]},{"type":"Point","properties":{"Station_ID":"MI-CX-7","Station_Nam":"EAST JORDAN 2.1 NNW, MI","Latitude":"45.18639","Longitude":"-85.14750","Snowdepth":"5.500","Units":"in","Rept_Date":"2020-03-22 13"},"coordinates":[2838,4517]},{"type":"Point","properties":{"Station_ID":"MI-CP-7","Station_Nam":"DRUMMOND 2.9 NE, MI","Latitude":"46.05329","Longitude":"-83.69060","Snowdepth":"5.500","Units":"in","Rept_Date":"2020-03-22 14"},"coordinates":[3180,5244]},{"type":"Point","properties":{"Station_ID":"CAN-NB-16","Station_Nam":"DORCHESTER 1.0 SSE, CAN","Latitude":"45.89160","Longitude":"-64.51269","Snowdepth":"5.500","Units":"in","Rept_Date":"2020-03-22 12"},"coordinates":[7681,5108]},{"type":"Point","properties":{"Station_ID":"WRIM5","Station_Nam":"WRIGHT 3E","Latitude":"46.68040","Longitude":"-92.95420","Snowdepth":"5.000","Units":"in","Rept_Date":"2020-03-22 11"},"coordinates":[1006,5769]},{"type":"Point","properties":{"Station_ID":"WI-RS-1","Station_Nam":"LADYSMITH 2.8 WNW, WI","Latitude":"45.48180","Longitude":"-91.14680","Snowdepth":"5.000","Units":"in","Rept_Date":"2020-03-22 13"},"coordinates":[1430,4765]},{"type":"Point","properties":{"Station_ID":"VT-WS-15","Station_Nam":"EAST CALAIS 1.5 SW, VT","Latitude":"44.35523","Longitude":"-72.45540","Snowdepth":"5.000","Units":"in","Rept_Date":"2020-03-22 12"},"coordinates":[5816,3821]},{"type":"Point","properties":{"Station_ID":"VT-CL-18","Station_Nam":"WHEELOCK 1.6 S, VT","Latitude":"44.56491","Longitude":"-72.08830","Snowdepth":"5.000","Units":"in","Rept_Date":"2020-03-22 12"},"coordinates":[5903,3996]},{"type":"Point","properties":{"Station_ID":"VT-BN-3","Station_Nam":"LANDGROVE 1.1 NNE, VT","Latitude":"43.29092","Longitude":"-72.83260","Snowdepth":"5.000","Units":"in","Rept_Date":"2020-03-22 12"},"coordinates":[5728,2929]},{"type":"Point","properties":{"Station_ID":"RRVM4","Station_Nam":"RAPID RIVER 9S","Latitude":"45.78750","Longitude":"-86.93920","Snowdepth":"5.000","Units":"in","Rept_Date":"2020-03-22 14"},"coordinates":[2417,5021]},{"type":"Point","properties":{"Station_ID":"RHLW3","Station_Nam":"RHINELANDER 4NE","Latitude":"45.65270","Longitude":"-89.30740","Snowdepth":"5.000","Units":"in","Rept_Date":"2020-03-22 11"},"coordinates":[1861,4908]},{"type":"Point","properties":{"Station_ID":"NH-CR-11","Station_Nam":"NORTH CONWAY 1.4 SSW, NH","Latitude":"44.03556","Longitude":"-71.14010","Snowdepth":"5.000","Units":"in","Rept_Date":"2020-03-22 12"},"coordinates":[6125,3553]},{"type":"Point","properties":{"Station_ID":"ND-CS-1","Station_Nam":"WEST FARGO 3.8 SSE, ND","Latitude":"46.82750","Longitude":"-96.85280","Snowdepth":"5.000","Units":"in","Rept_Date":"2020-03-22 13"},"coordinates":[91,5893]},{"type":"Point","properties":{"Station_ID":"MRQM4","Station_Nam":"MARQUETTE WFP","Latitude":"46.54580","Longitude":"-87.37950","Snowdepth":"5.000","Units":"in","Rept_Date":"2020-03-22 12"},"coordinates":[2314,5657]},{"type":"Point","properties":{"Station_ID":"MQRW3","Station_Nam":"MINOCQUA","Latitude":"45.88630","Longitude":"-89.73220","Snowdepth":"5.000","Units":"in","Rept_Date":"2020-03-22 11"},"coordinates":[1762,5104]},{"type":"Point","properties":{"Station_ID":"MN76ACVS","Station_Nam":"GRAND MARAIS 3.0 WNW","Latitude":"47.76602","Longitude":"-90.26427","Snowdepth":"5.000","Units":"in","Rept_Date":"2020-03-22 12"},"coordinates":[1637,6679]},{"type":"Point","properties":{"Station_ID":"LNGM5","Station_Nam":"LONG PRAIRIE","Latitude":"45.96460","Longitude":"-94.88920","Snowdepth":"5.000","Units":"in","Rept_Date":"2020-03-22 11"},"coordinates":[551,5169]},{"type":"Point","properties":{"Station_ID":"KSEM4","Station_Nam":"KALKASKA 11SE","Latitude":"44.58970","Longitude":"-85.04860","Snowdepth":"5.000","Units":"in","Rept_Date":"2020-03-22 12"},"coordinates":[2861,4017]},{"type":"Point","properties":{"Station_ID":"FDRN8","Station_Nam":"FARGO 3S","Latitude":"46.82930","Longitude":"-96.79620","Snowdepth":"5.000","Units":"in","Rept_Date":"2020-03-23 00"},"coordinates":[104,5894]},{"type":"Point","properties":{"Station_ID":"FAR","Station_Nam":"HECTOR INTERNATIONAL ARPT","Latitude":"46.91560","Longitude":"-96.81440","Snowdepth":"5.000","Units":"in","Rept_Date":"2020-03-23 00"},"coordinates":[100,5967]},{"type":"Point","properties":{"Station_ID":"CAN-ON-92","Station_Nam":"DUNROBIN 1.9 W - MVCA, CAN","Latitude":"45.42318","Longitude":"-76.04525","Snowdepth":"5.000","Units":"in","Rept_Date":"2020-03-22 12"},"coordinates":[4974,4716]},{"type":"Point","properties":{"Station_ID":"BRLN3","Station_Nam":"BERLIN","Latitude":"44.45350","Longitude":"-71.18540","Snowdepth":"5.000","Units":"in","Rept_Date":"2020-03-22 11"},"coordinates":[6115,3903]},{"type":"Point","properties":{"Station_ID":"VT-OL-1","Station_Nam":"WESTFIELD 0.7 WNW, VT","Latitude":"44.89160","Longitude":"-72.44350","Snowdepth":"4.500","Units":"in","Rept_Date":"2020-03-22 12"},"coordinates":[5819,4270]},{"type":"Point","properties":{"Station_ID":"WI-TY-2","Station_Nam":"SHELDON 8.1 ENE, WI","Latitude":"45.35598","Longitude":"-90.80296","Snowdepth":"4.000","Units":"in","Rept_Date":"2020-03-22 13"},"coordinates":[1510,4659]},{"type":"Point","properties":{"Station_ID":"WI-PR-8","Station_Nam":"PHILLIPS 0.4 SSW, WI","Latitude":"45.69086","Longitude":"-90.40200","Snowdepth":"4.000","Units":"in","Rept_Date":"2020-03-22 13"},"coordinates":[1605,4940]},{"type":"Point","properties":{"Station_ID":"WI-BT-14","Station_Nam":"OAKLAND 9.0 ENE, WI","Latitude":"45.95184","Longitude":"-92.21653","Snowdepth":"4.000","Units":"in","Rept_Date":"2020-03-22 13"},"coordinates":[1179,5159]},{"type":"Point","properties":{"Station_ID":"SULW3","Station_Nam":"SUMMIT LAKE","Latitude":"45.37880","Longitude":"-89.19410","Snowdepth":"4.000","Units":"in","Rept_Date":"2020-03-22 10"},"coordinates":[1888,4679]},{"type":"Point","properties":{"Station_ID":"SRAW3","Station_Nam":"SARONA","Latitude":"45.80250","Longitude":"-91.86700","Snowdepth":"4.000","Units":"in","Rept_Date":"2020-03-22 13"},"coordinates":[1261,5034]},{"type":"Point","properties":{"Station_ID":"SBNM5","Station_Nam":"SABIN","Latitude":"46.77690","Longitude":"-96.65610","Snowdepth":"4.000","Units":"in","Rept_Date":"2020-03-22 12"},"coordinates":[137,5850]},{"type":"Point","properties":{"Station_ID":"RLKW3","Station_Nam":"REST LAKE","Latitude":"46.12220","Longitude":"-89.87720","Snowdepth":"4.000","Units":"in","Rept_Date":"2020-03-22 13"},"coordinates":[1728,5302]},{"type":"Point","properties":{"Station_ID":"PQI","Station_Nam":"NORTHERN MAINE REGIONAL AIRPORT","Latitude":"46.68890","Longitude":"-68.04470","Snowdepth":"4.000","Units":"in","Rept_Date":"2020-03-22 12"},"coordinates":[6852,5777]},{"type":"Point","properties":{"Station_ID":"PARM4","Station_Nam":"PARENT BAY","Latitude":"45.79610","Longitude":"-86.40110","Snowdepth":"4.000","Units":"in","Rept_Date":"2020-03-22 14"},"coordinates":[2543,5028]},{"type":"Point","properties":{"Station_ID":"NCBN6","Station_Nam":"NEWCOMB","Latitude":"43.97070","Longitude":"-74.22200","Snowdepth":"4.000","Units":"in","Rept_Date":"2020-03-22 12"},"coordinates":[5402,3498]},{"type":"Point","properties":{"Station_ID":"MCLN8","Station_Nam":"MC LEOD,ND","Latitude":"46.40250","Longitude":"-97.23810","Snowdepth":"4.000","Units":"in","Rept_Date":"2020-03-22 13"},"coordinates":[0,5536]},{"type":"Point","properties":{"Station_ID":"LOTI2","Station_Nam":"ROMEOVILLE WFO","Latitude":"41.60440","Longitude":"-88.08580","Snowdepth":"4.000","Units":"in","Rept_Date":"2020-03-23 06"},"coordinates":[2148,1515]},{"type":"Point","properties":{"Station_ID":"ISLV1","Station_Nam":"ISLAND POND","Latitude":"44.81280","Longitude":"-71.89020","Snowdepth":"4.000","Units":"in","Rept_Date":"2020-03-22 14"},"coordinates":[5949,4204]},{"type":"Point","properties":{"Station_ID":"HMYM1","Station_Nam":"HARMONY","Latitude":"44.94660","Longitude":"-69.54560","Snowdepth":"4.000","Units":"in","Rept_Date":"2020-03-22 11"},"coordinates":[6499,4316]},{"type":"Point","properties":{"Station_ID":"FLDM5","Station_Nam":"FLOODWOOD,MN","Latitude":"47.00000","Longitude":"-92.91670","Snowdepth":"4.000","Units":"in","Rept_Date":"2020-03-22 13"},"coordinates":[1014,6037]},{"type":"Point","properties":{"Station_ID":"CLGM5","Station_Nam":"COLLEGEVILLE ST JOHN","Latitude":"45.57940","Longitude":"-94.39200","Snowdepth":"4.000","Units":"in","Rept_Date":"2020-03-22 23"},"coordinates":[668,4847]},{"type":"Point","properties":{"Station_ID":"APXM4","Station_Nam":"GAYLORD 9SSW","Latitude":"44.90720","Longitude":"-84.71880","Snowdepth":"4.000","Units":"in","Rept_Date":"2020-03-23 06"},"coordinates":[2938,4283]},{"type":"Point","properties":{"Station_ID":"CAN-NS-163","Station_Nam":"SYDNEY MINES 2.2 WNW, CAN","Latitude":"46.24851","Longitude":"-60.25161","Snowdepth":"3.900","Units":"in","Rept_Date":"2020-03-22 12"},"coordinates":[8681,5407]},{"type":"Point","properties":{"Station_ID":"VT-WR-2","Station_Nam":"POMFRET 2.6 N, VT","Latitude":"43.74230","Longitude":"-72.52550","Snowdepth":"3.500","Units":"in","Rept_Date":"2020-03-22 12"},"coordinates":[5800,3307]},{"type":"Point","properties":{"Station_ID":"CAN-NB-98","Station_Nam":"HOYT 4.2 S, CAN","Latitude":"45.54763","Longitude":"-66.55440","Snowdepth":"3.500","Units":"in","Rept_Date":"2020-03-22 11"},"coordinates":[7201,4820]},{"type":"Point","properties":{"Station_ID":"RFDM1","Station_Nam":"RUMFORD 7SW","Latitude":"44.49470","Longitude":"-70.65640","Snowdepth":"3.000","Units":"in","Rept_Date":"2020-03-22 12"},"coordinates":[6239,3938]},{"type":"Point","properties":{"Station_ID":"RCKI2","Station_Nam":"MISSISSIPPI RIVER","Latitude":"41.51670","Longitude":"-90.56670","Snowdepth":"3.000","Units":"in","Rept_Date":"2020-03-23 05"},"coordinates":[1566,1442]},{"type":"Point","properties":{"Station_ID":"PERV1","Station_Nam":"PERU","Latitude":"43.26670","Longitude":"-72.90000","Snowdepth":"3.000","Units":"in","Rept_Date":"2020-03-22 11"},"coordinates":[5712,2908]},{"type":"Point","properties":{"Station_ID":"MTQM4","Station_Nam":"MANISTIQUE WWTP","Latitude":"45.95120","Longitude":"-86.25130","Snowdepth":"3.000","Units":"in","Rept_Date":"2020-03-22 11"},"coordinates":[2579,5158]},{"type":"Point","properties":{"Station_ID":"MN-MR-4","Station_Nam":"LITTLE FALLS 1.2 SW, MN","Latitude":"45.96886","Longitude":"-94.37720","Snowdepth":"3.000","Units":"in","Rept_Date":"2020-03-22 12"},"coordinates":[672,5173]},{"type":"Point","properties":{"Station_ID":"MDWI2","Station_Nam":"BURBANK,IL","Latitude":"41.73330","Longitude":"-87.76670","Snowdepth":"3.000","Units":"in","Rept_Date":"2020-03-23 05"},"coordinates":[2223,1623]},{"type":"Point","properties":{"Station_ID":"LNCM1","Station_Nam":"LINCOLN WATER DISTRICT","Latitude":"45.32410","Longitude":"-68.58300","Snowdepth":"3.000","Units":"in","Rept_Date":"2020-03-22 11"},"coordinates":[6725,4633]},{"type":"Point","properties":{"Station_ID":"DVNI4","Station_Nam":"DAVENPORT WFO","Latitude":"41.61170","Longitude":"-90.58160","Snowdepth":"3.000","Units":"in","Rept_Date":"2020-03-23 06"},"coordinates":[1562,1521]},{"type":"Point","properties":{"Station_ID":"AWXW3","Station_Nam":"ASHLAND","Latitude":"46.58240","Longitude":"-90.88390","Snowdepth":"3.000","Units":"in","Rept_Date":"2020-03-22 12"},"coordinates":[1491,5687]},{"type":"Point","properties":{"Station_ID":"WI-AS-4","Station_Nam":"ASHLAND 0.5 WNW, WI","Latitude":"46.58240","Longitude":"-90.88390","Snowdepth":"2.500","Units":"in","Rept_Date":"2020-03-22 13"},"coordinates":[1491,5687]},{"type":"Point","properties":{"Station_ID":"NH-MR-60","Station_Nam":"SOUTH SUTTON 1.3 SE, NH","Latitude":"43.29531","Longitude":"-71.90238","Snowdepth":"2.500","Units":"in","Rept_Date":"2020-03-22 13"},"coordinates":[5946,2932]},{"type":"Point","properties":{"Station_ID":"NH-CR-27","Station_Nam":"TAMWORTH 0.4 NNW, NH","Latitude":"43.86449","Longitude":"-71.26610","Snowdepth":"2.500","Units":"in","Rept_Date":"2020-03-22 12"},"coordinates":[6096,3409]},{"type":"Point","properties":{"Station_ID":"MN-RK-5","Station_Nam":"HILLS 0.2 NW, MN","Latitude":"43.52960","Longitude":"-96.36146","Snowdepth":"2.500","Units":"in","Rept_Date":"2020-03-22 14"},"coordinates":[206,3129]},{"type":"Point","properties":{"Station_ID":"MN-MR-13","Station_Nam":"LITTLE FALLS 8.0 NE, MN","Latitude":"46.06785","Longitude":"-94.24789","Snowdepth":"2.500","Units":"in","Rept_Date":"2020-03-22 13"},"coordinates":[702,5256]},{"type":"Point","properties":{"Station_ID":"CAN-PE-10","Station_Nam":"NEW LONDON 1.6 ENE, CA","Latitude":"46.46985","Longitude":"-63.49200","Snowdepth":"2.400","Units":"in","Rept_Date":"2020-03-22 12"},"coordinates":[7920,5593]},{"type":"Point","properties":{"Station_ID":"WRNM5","Station_Nam":"WORTHINGTON,MN","Latitude":"43.65440","Longitude":"-95.57920","Snowdepth":"2.000","Units":"in","Rept_Date":"2020-03-22 12"},"coordinates":[389,3233]},{"type":"Point","properties":{"Station_ID":"TMWN3","Station_Nam":"TAMWORTH 4","Latitude":"43.86390","Longitude":"-71.26610","Snowdepth":"2.000","Units":"in","Rept_Date":"2020-03-22 11"},"coordinates":[6096,3409]},{"type":"Point","properties":{"Station_ID":"SUXI4","Station_Nam":"SNOW PAID FOR KSUX","Latitude":"42.40530","Longitude":"-96.36000","Snowdepth":"2.000","Units":"in","Rept_Date":"2020-03-22 11"},"coordinates":[206,2186]},{"type":"Point","properties":{"Station_ID":"SUX","Station_Nam":"SIOUX GATEWAY AIRPORT","Latitude":"42.40390","Longitude":"-96.38330","Snowdepth":"2.000","Units":"in","Rept_Date":"2020-03-22 12"},"coordinates":[201,2185]},{"type":"Point","properties":{"Station_ID":"SD-MH-1","Station_Nam":"SIOUX FALLS 5.0 SE ARPT, SD","Latitude":"43.52360","Longitude":"-96.66780","Snowdepth":"2.000","Units":"in","Rept_Date":"2020-03-22 13"},"coordinates":[134,3124]},{"type":"Point","properties":{"Station_ID":"PEKN6","Station_Nam":"PECK LAKE","Latitude":"43.11500","Longitude":"-74.42360","Snowdepth":"2.000","Units":"in","Rept_Date":"2020-03-22 11"},"coordinates":[5355,2781]},{"type":"Point","properties":{"Station_ID":"NY-ES-11","Station_Nam":"VERMONTVILLE 2.8 S, NY","Latitude":"44.41205","Longitude":"-74.06760","Snowdepth":"2.000","Units":"in","Rept_Date":"2020-03-22 12"},"coordinates":[5438,3868]},{"type":"Point","properties":{"Station_ID":"MYOM4","Station_Nam":"MIO WWTP","Latitude":"44.64660","Longitude":"-84.11580","Snowdepth":"2.000","Units":"in","Rept_Date":"2020-03-22 12"},"coordinates":[3080,4065]},{"type":"Point","properties":{"Station_ID":"MN-SH-10","Station_Nam":"BIG LAKE 5.6 NNE, MN","Latitude":"45.41409","Longitude":"-93.69190","Snowdepth":"2.000","Units":"in","Rept_Date":"2020-03-22 13"},"coordinates":[832,4708]},{"type":"Point","properties":{"Station_ID":"MI-BZ-1","Station_Nam":"BENZONIA 5.3 S, MI","Latitude":"44.53976","Longitude":"-86.10650","Snowdepth":"2.000","Units":"in","Rept_Date":"2020-03-22 14"},"coordinates":[2613,3975]},{"type":"Point","properties":{"Station_ID":"KORD","Station_Nam":"CHICAGO OHARE INTERNATIONAL","Latitude":"41.98333","Longitude":"-87.91666","Snowdepth":"2.000","Units":"in","Rept_Date":"2020-03-23 06"},"coordinates":[2188,1833]},{"type":"Point","properties":{"Station_ID":"IWXI3","Station_Nam":"NORTHERN INDIANA WFO","Latitude":"41.35880","Longitude":"-85.69970","Snowdepth":"2.000","Units":"in","Rept_Date":"2020-03-23 04"},"coordinates":[2708,1309]},{"type":"Point","properties":{"Station_ID":"ISEM5","Station_Nam":"ISLE 12N","Latitude":"46.31970","Longitude":"-93.50140","Snowdepth":"2.000","Units":"in","Rept_Date":"2020-03-22 13"},"coordinates":[877,5467]},{"type":"Point","properties":{"Station_ID":"GINI2","Station_Nam":"GENESEO","Latitude":"41.45110","Longitude":"-90.14870","Snowdepth":"2.000","Units":"in","Rept_Date":"2020-03-23 05"},"coordinates":[1664,1387]},{"type":"Point","properties":{"Station_ID":"FLAM4","Station_Nam":"FIFE LAKE 2WNW","Latitude":"44.58480","Longitude":"-85.36530","Snowdepth":"2.000","Units":"in","Rept_Date":"2020-03-22 11"},"coordinates":[2787,4013]},{"type":"Point","properties":{"Station_ID":"FARM1","Station_Nam":"FARMINGTON","Latitude":"44.68930","Longitude":"-70.15640","Snowdepth":"2.000","Units":"in","Rept_Date":"2020-03-22 12"},"coordinates":[6356,4101]},{"type":"Point","properties":{"Station_ID":"CNNS2","Station_Nam":"CANTON","Latitude":"43.31120","Longitude":"-96.58770","Snowdepth":"2.000","Units":"in","Rept_Date":"2020-03-22 13"},"coordinates":[153,2946]},{"type":"Point","properties":{"Station_ID":"CAN-ON-42","Station_Nam":"VANKLEEK HILL 3.4 S, CA","Latitude":"45.48987","Longitude":"-74.64570","Snowdepth":"2.000","Units":"in","Rept_Date":"2020-03-22 12"},"coordinates":[5302,4772]},{"type":"Point","properties":{"Station_ID":"AUW","Station_Nam":"WAUSAU MUNICIPAL AIRPORT","Latitude":"44.92580","Longitude":"-89.62560","Snowdepth":"2.000","Units":"in","Rept_Date":"2020-03-22 12"},"coordinates":[1787,4299]},{"type":"Point","properties":{"Station_ID":"ALXM5","Station_Nam":"ALEXANDRIA","Latitude":"45.87820","Longitude":"-95.38270","Snowdepth":"2.000","Units":"in","Rept_Date":"2020-03-22 11"},"coordinates":[436,5097]},{"type":"Point","properties":{"Station_ID":"WIDM5","Station_Nam":"WINONA DAM 5A","Latitude":"44.08750","Longitude":"-91.67030","Snowdepth":"1.000","Units":"in","Rept_Date":"2020-03-22 13"},"coordinates":[1307,3596]},{"type":"Point","properties":{"Station_ID":"WI-LN-2","Station_Nam":"MERRILL 7.0 W, WI","Latitude":"45.17746","Longitude":"-89.84820","Snowdepth":"1.000","Units":"in","Rept_Date":"2020-03-22 12"},"coordinates":[1734,4510]},{"type":"Point","properties":{"Station_ID":"WHKM4","Station_Nam":"WHITE LAKE,MI","Latitude":"42.69750","Longitude":"-83.47220","Snowdepth":"1.000","Units":"in","Rept_Date":"2020-03-23 06"},"coordinates":[3231,2431]},{"type":"Point","properties":{"Station_ID":"VT-OL-2","Station_Nam":"BARTON 3.0 ENE, VT","Latitude":"44.75863","Longitude":"-72.11680","Snowdepth":"1.000","Units":"in","Rept_Date":"2020-03-22 12"},"coordinates":[5896,4159]},{"type":"Point","properties":{"Station_ID":"TCMM4","Station_Nam":"TRAVERSE CITY MUNSON","Latitude":"44.76070","Longitude":"-85.64430","Snowdepth":"1.000","Units":"in","Rept_Date":"2020-03-22 10"},"coordinates":[2721,4160]},{"type":"Point","properties":{"Station_ID":"SXGI4","Station_Nam":"ANG BASE","Latitude":"42.39640","Longitude":"-96.37780","Snowdepth":"1.000","Units":"in","Rept_Date":"2020-03-22 11"},"coordinates":[202,2179]},{"type":"Point","properties":{"Station_ID":"STON1","Station_Nam":"STANTON 7NE","Latitude":"42.04130","Longitude":"-97.17470","Snowdepth":"1.000","Units":"in","Rept_Date":"2020-03-22 12"},"coordinates":[15,1881]},{"type":"Point","properties":{"Station_ID":"STOI2","Station_Nam":"STOCKTON 3 NNE","Latitude":"42.40050","Longitude":"-89.99580","Snowdepth":"1.000","Units":"in","Rept_Date":"2020-03-23 02"},"coordinates":[1700,2182]},{"type":"Point","properties":{"Station_ID":"SFDI2","Station_Nam":"SPRINGFIELD #2","Latitude":"39.79670","Longitude":"-89.67700","Snowdepth":"1.000","Units":"in","Rept_Date":"2020-03-23 00"},"coordinates":[1775,0]},{"type":"Point","properties":{"Station_ID":"SD-MH-41","Station_Nam":"SIOUX FALLS 3.9 SW, SD","Latitude":"43.50475","Longitude":"-96.78660","Snowdepth":"1.000","Units":"in","Rept_Date":"2020-03-22 13"},"coordinates":[106,3108]},{"type":"Point","properties":{"Station_ID":"SD-LN-32","Station_Nam":"SIOUX FALLS 3.6 SSE, SD","Latitude":"43.49360","Longitude":"-96.71249","Snowdepth":"1.000","Units":"in","Rept_Date":"2020-03-22 13"},"coordinates":[123,3098]},{"type":"Point","properties":{"Station_ID":"SBSI3","Station_Nam":"SOUTH BEND","Latitude":"41.70050","Longitude":"-86.24870","Snowdepth":"1.000","Units":"in","Rept_Date":"2020-03-23 04"},"coordinates":[2579,1596]},{"type":"Point","properties":{"Station_ID":"SAUW3","Station_Nam":"WAUSAU WSAW TV","Latitude":"44.94630","Longitude":"-89.62220","Snowdepth":"1.000","Units":"in","Rept_Date":"2020-03-23 03"},"coordinates":[1788,4316]},{"type":"Point","properties":{"Station_ID":"RMSI4","Station_Nam":"REMSEN NO. 2","Latitude":"42.81050","Longitude":"-95.97530","Snowdepth":"1.000","Units":"in","Rept_Date":"2020-03-22 16"},"coordinates":[296,2526]},{"type":"Point","properties":{"Station_ID":"RCEM5","Station_Nam":"RICE","Latitude":"45.75760","Longitude":"-94.20720","Snowdepth":"1.000","Units":"in","Rept_Date":"2020-03-22 12"},"coordinates":[711,4996]},{"type":"Point","properties":{"Station_ID":"QCAI2","Station_Nam":"MOLINE SNOW","Latitude":"41.39990","Longitude":"-90.54800","Snowdepth":"1.000","Units":"in","Rept_Date":"2020-03-23 00"},"coordinates":[1570,1344]},{"type":"Point","properties":{"Station_ID":"PSHW3","Station_Nam":"PESHTIGO","Latitude":"45.02810","Longitude":"-87.73560","Snowdepth":"1.000","Units":"in","Rept_Date":"2020-03-22 12"},"coordinates":[2230,4385]},{"type":"Point","properties":{"Station_ID":"PEAI2","Station_Nam":"PEORIA #2 SNOW PAID","Latitude":"40.76270","Longitude":"-89.59960","Snowdepth":"1.000","Units":"in","Rept_Date":"2020-03-23 06"},"coordinates":[1793,810]},{"type":"Point","properties":{"Station_ID":"NWSM1","Station_Nam":"NEW SHARON","Latitude":"44.63520","Longitude":"-70.00020","Snowdepth":"1.000","Units":"in","Rept_Date":"2020-03-22 11"},"coordinates":[6393,4055]},{"type":"Point","properties":{"Station_ID":"NPTM4","Station_Nam":"NORTHPORT 2W","Latitude":"45.13220","Longitude":"-85.64720","Snowdepth":"1.000","Units":"in","Rept_Date":"2020-03-22 12"},"coordinates":[2720,4472]},{"type":"Point","properties":{"Station_ID":"MRAM5","Station_Nam":"MORA","Latitude":"45.87760","Longitude":"-93.31470","Snowdepth":"1.000","Units":"in","Rept_Date":"2020-03-22 12"},"coordinates":[921,5097]},{"type":"Point","properties":{"Station_ID":"MNEY8CTB","Station_Nam":"MIDLAND JUNCTION 2.2 ENE","Latitude":"44.33041","Longitude":"-91.95891","Snowdepth":"1.000","Units":"in","Rept_Date":"2020-03-22 13"},"coordinates":[1239,3800]},{"type":"Point","properties":{"Station_ID":"MN228YHJ","Station_Nam":"RICE 2.8 ESE","Latitude":"45.73609","Longitude":"-94.17230","Snowdepth":"1.000","Units":"in","Rept_Date":"2020-03-22 12"},"coordinates":[720,4978]},{"type":"Point","properties":{"Station_ID":"MLRM5","Station_Nam":"MELROSE","Latitude":"45.67710","Longitude":"-94.80200","Snowdepth":"1.000","Units":"in","Rept_Date":"2020-03-22 12"},"coordinates":[572,4929]},{"type":"Point","properties":{"Station_ID":"MLLW3","Station_Nam":"MERRILL 8W","Latitude":"45.17810","Longitude":"-89.84810","Snowdepth":"1.000","Units":"in","Rept_Date":"2020-03-22 11"},"coordinates":[1735,4510]},{"type":"Point","properties":{"Station_ID":"MLI","Station_Nam":"QUAD CITY INTL","Latitude":"41.44860","Longitude":"-90.50750","Snowdepth":"1.000","Units":"in","Rept_Date":"2020-03-23 00"},"coordinates":[1580,1385]},{"type":"Point","properties":{"Station_ID":"MKNM4","Station_Nam":"MUSKEGON 4 SE","Latitude":"43.18390","Longitude":"-86.20370","Snowdepth":"1.000","Units":"in","Rept_Date":"2020-03-23 06"},"coordinates":[2590,2839]},{"type":"Point","properties":{"Station_ID":"MI-KZ-6","Station_Nam":"WESTERN MICHIGAN UNIVERSITY, MI","Latitude":"42.28300","Longitude":"-85.61500","Snowdepth":"1.000","Units":"in","Rept_Date":"2020-03-23 05"},"coordinates":[2728,2084]},{"type":"Point","properties":{"Station_ID":"LKFM5","Station_Nam":"LAKEFIELD,MN","Latitude":"43.68330","Longitude":"-95.18330","Snowdepth":"1.000","Units":"in","Rept_Date":"2020-03-22 12"},"coordinates":[482,3257]},{"type":"Point","properties":{"Station_ID":"LAKM5","Station_Nam":"LAKE CITY","Latitude":"44.43630","Longitude":"-92.27930","Snowdepth":"1.000","Units":"in","Rept_Date":"2020-03-22 12"},"coordinates":[1164,3889]},{"type":"Point","properties":{"Station_ID":"KMKE","Station_Nam":"GEN MITCHELL INTERNATIONAL  AIRPORT","Latitude":"42.95000","Longitude":"-87.90000","Snowdepth":"1.000","Units":"in","Rept_Date":"2020-03-23 06"},"coordinates":[2192,2643]},{"type":"Point","properties":{"Station_ID":"KGUS","Station_Nam":"GRISSOM AIR FORCE BASE / PERU","Latitude":"40.65000","Longitude":"-86.15000","Snowdepth":"1.000","Units":"in","Rept_Date":"2020-03-23 00"},"coordinates":[2602,715]},{"type":"Point","properties":{"Station_ID":"KFWA","Station_Nam":"FORT WAYNE INTERNATIONAL","Latitude":"41.00000","Longitude":"-85.20000","Snowdepth":"1.000","Units":"in","Rept_Date":"2020-03-23 06"},"coordinates":[2825,1009]},{"type":"Point","properties":{"Station_ID":"KENW3","Station_Nam":"WATER POLLUTION CONTROL PLANT","Latitude":"42.55000","Longitude":"-87.81420","Snowdepth":"1.000","Units":"in","Rept_Date":"2020-03-23 05"},"coordinates":[2212,2308]},{"type":"Point","properties":{"Station_ID":"IWX","Station_Nam":"NORTHERN INDIANA, IN","Latitude":"41.35890","Longitude":"-85.70000","Snowdepth":"1.000","Units":"in","Rept_Date":"2020-03-23 00"},"coordinates":[2708,1309]},{"type":"Point","properties":{"Station_ID":"HRTM1","Station_Nam":"HARTFORD","Latitude":"44.37440","Longitude":"-70.31620","Snowdepth":"1.000","Units":"in","Rept_Date":"2020-03-22 11"},"coordinates":[6318,3837]},{"type":"Point","properties":{"Station_ID":"GSNI3","Station_Nam":"GOSHEN 3SW","Latitude":"41.55750","Longitude":"-85.88250","Snowdepth":"1.000","Units":"in","Rept_Date":"2020-03-22 23"},"coordinates":[2665,1476]},{"type":"Point","properties":{"Station_ID":"GRRM4","Station_Nam":"NWS FORECAST OFFICE GRAND RAPIDS","Latitude":"42.89330","Longitude":"-85.54480","Snowdepth":"1.000","Units":"in","Rept_Date":"2020-03-23 06"},"coordinates":[2744,2595]},{"type":"Point","properties":{"Station_ID":"GLVW3","Station_Nam":"GALESVILLE 1ESE","Latitude":"44.07560","Longitude":"-91.34100","Snowdepth":"1.000","Units":"in","Rept_Date":"2020-03-22 12"},"coordinates":[1384,3586]},{"type":"Point","properties":{"Station_ID":"FWA","Station_Nam":"FORT WAYNE INTERNATIONAL AIRPORT","Latitude":"40.97830","Longitude":"-85.19500","Snowdepth":"1.000","Units":"in","Rept_Date":"2020-03-23 05"},"coordinates":[2827,990]},{"type":"Point","properties":{"Station_ID":"FORM5","Station_Nam":"FOREST LAKE 5NE","Latitude":"45.33170","Longitude":"-92.89820","Snowdepth":"1.000","Units":"in","Rept_Date":"2020-03-22 12"},"coordinates":[1019,4639]},{"type":"Point","properties":{"Station_ID":"FNT","Station_Nam":"FLINT BISHOP INTL AIRPORT","Latitude":"42.96560","Longitude":"-83.74360","Snowdepth":"1.000","Units":"in","Rept_Date":"2020-03-23 06"},"coordinates":[3167,2656]},{"type":"Point","properties":{"Station_ID":"EVYI4","Station_Nam":"EVERLY,IA","Latitude":"43.18330","Longitude":"-95.36670","Snowdepth":"1.000","Units":"in","Rept_Date":"2020-03-22 12"},"coordinates":[439,2838]},{"type":"Point","properties":{"Station_ID":"EPTW3","Station_Nam":"EAU PLEINE TENDER","Latitude":"44.77220","Longitude":"-89.76720","Snowdepth":"1.000","Units":"in","Rept_Date":"2020-03-22 12"},"coordinates":[1753,4170]},{"type":"Point","properties":{"Station_ID":"DVN","Station_Nam":"QUAD CITIES, IA","Latitude":"41.61030","Longitude":"-90.58830","Snowdepth":"1.000","Units":"in","Rept_Date":"2020-03-23 00"},"coordinates":[1561,1520]},{"type":"Point","properties":{"Station_ID":"DUBI4","Station_Nam":"DUBUQUE #3","Latitude":"42.40870","Longitude":"-90.73250","Snowdepth":"1.000","Units":"in","Rept_Date":"2020-03-23 06"},"coordinates":[1527,2189]},{"type":"Point","properties":{"Station_ID":"DTW","Station_Nam":"DETROIT METROPOLITAN","Latitude":"42.21220","Longitude":"-83.35330","Snowdepth":"1.000","Units":"in","Rept_Date":"2020-03-23 06"},"coordinates":[3259,2024]},{"type":"Point","properties":{"Station_ID":"CLNI4","Station_Nam":"CLINTON NO 1","Latitude":"41.79470","Longitude":"-90.26390","Snowdepth":"1.000","Units":"in","Rept_Date":"2020-03-22 23"},"coordinates":[1637,1675]},{"type":"Point","properties":{"Station_ID":"CAN-ON-208","Station_Nam":"PAKENHAM 7.8 NNW, CAN","Latitude":"45.39166","Longitude":"-76.34111","Snowdepth":"1.000","Units":"in","Rept_Date":"2020-03-22 12"},"coordinates":[4904,4689]},{"type":"Point","properties":{"Station_ID":"BKEM5","Station_Nam":"BRECKENRIDGE 4NE","Latitude":"46.30470","Longitude":"-96.52170","Snowdepth":"1.000","Units":"in","Rept_Date":"2020-03-22 12"},"coordinates":[168,5455]},{"type":"Point","properties":{"Station_ID":"BFSW3","Station_Nam":"BIG FALLS-5 NW","Latitude":"44.63980","Longitude":"-89.11330","Snowdepth":"1.000","Units":"in","Rept_Date":"2020-03-22 12"},"coordinates":[1907,4059]},{"type":"Point","properties":{"Station_ID":"ABGW3","Station_Nam":"AMBERG 9 E","Latitude":"45.48250","Longitude":"-87.81190","Snowdepth":"1.000","Units":"in","Rept_Date":"2020-03-22 11"},"coordinates":[2212,4765]}]}},"arcs":[],"transform":{"scale":[0.004260890089008902,0.001193139313931393],"translate":[-97.2386,39.7967]}}