{"type":"Topology","objects":{"snowdepth_geo":{"type":"GeometryCollection","geometries":[{"type":"Point","coordinates":[-86.62,46.4258],"properties":{"Station_ID":"PRKM4","Station_Nam":"MUNISING EAST","Latitude":"46.42580","Longitude":"-86.62000","Snowdepth":"76.500","Units":"in","Rept_Date":"2025-03-21 06"}},{"type":"Point","coordinates":[-72.8154,44.5248],"properties":{"Station_ID":"MMNV1","Station_Nam":"MT. MANSFIELD","Latitude":"44.52480","Longitude":"-72.81540","Snowdepth":"76.000","Units":"in","Rept_Date":"2025-03-20 20"}},{"type":"Point","coordinates":[-86.6625,46.4121],"properties":{"Station_ID":"MNSM4","Station_Nam":"MUNISING","Latitude":"46.41210","Longitude":"-86.66250","Snowdepth":"41.000","Units":"in","Rept_Date":"2025-03-20 11"}},{"type":"Point","coordinates":[-85.6855,46.4461],"properties":{"Station_ID":"56761_MADIS","Station_Nam":"MCMILLAN 7.4 N, MI","Latitude":"46.44610","Longitude":"-85.68550","Snowdepth":"38.000","Units":"in","Rept_Date":"2025-03-20 12"}},{"type":"Point","coordinates":[-69.6747,50.7925],"properties":{"Station_ID":"CQOU","Station_Nam":"CQOU","Latitude":"50.79250","Longitude":"-69.67470","Snowdepth":"37.480","Units":"in","Rept_Date":"2025-03-20 12"}},{"type":"Point","coordinates":[-71.7031,44.1382],"properties":{"Station_ID":"LLHN3","Station_Nam":"LONESOME LAKE HUT","Latitude":"44.13820","Longitude":"-71.70310","Snowdepth":"33.000","Units":"in","Rept_Date":"2025-03-20 11"}},{"type":"Point","coordinates":[-71.2833,44.2613],"properties":{"Station_ID":"HTLN3","Station_Nam":"HERMIT LAKE SNOWPLOT","Latitude":"44.26130","Longitude":"-71.28330","Snowdepth":"33.000","Units":"in","Rept_Date":"2025-03-20 09"}},{"type":"Point","coordinates":[-68.8236,50.6617],"properties":{"Station_ID":"CMLZ","Station_Nam":"CMLZ","Latitude":"50.66170","Longitude":"-68.82360","Snowdepth":"32.559","Units":"in","Rept_Date":"2025-03-20 12"}},{"type":"Point","coordinates":[-67.1394,51.1114],"properties":{"Station_ID":"CQGD","Station_Nam":"CQGD","Latitude":"51.11140","Longitude":"-67.13940","Snowdepth":"31.811","Units":"in","Rept_Date":"2025-03-20 12"}},{"type":"Point","coordinates":[-88.6717,47.0416],"properties":{"Station_ID":"PDLM4","Station_Nam":"PAINESDALE","Latitude":"47.04160","Longitude":"-88.67170","Snowdepth":"31.000","Units":"in","Rept_Date":"2025-03-20 12"}},{"type":"Point","coordinates":[-80.572,37.13063],"properties":{"Station_ID":"VA-RDC-1","Station_Nam":"RADFORD 0.9 WNW, VA","Latitude":"37.13063","Longitude":"-80.57200","Snowdepth":"30.000","Units":"in","Rept_Date":"2025-03-20 10"}},{"type":"Point","coordinates":[-75.1,50.7236],"properties":{"Station_ID":"CQLB","Station_Nam":"CQLB","Latitude":"50.72360","Longitude":"-75.10000","Snowdepth":"29.173","Units":"in","Rept_Date":"2025-03-20 12"}},{"type":"Point","coordinates":[-74.2064,48.855],"properties":{"Station_ID":"CQGO","Station_Nam":"CQGO","Latitude":"48.85500","Longitude":"-74.20640","Snowdepth":"27.283","Units":"in","Rept_Date":"2025-03-20 12"}},{"type":"Point","coordinates":[-69.3569,49.66],"properties":{"Station_ID":"CQTV","Station_Nam":"CQTV","Latitude":"49.66000","Longitude":"-69.35690","Snowdepth":"27.205","Units":"in","Rept_Date":"2025-03-20 12"}},{"type":"Point","coordinates":[-70.0806,51.3283],"properties":{"Station_ID":"CQCX","Station_Nam":"CQCX","Latitude":"51.32830","Longitude":"-70.08060","Snowdepth":"25.709","Units":"in","Rept_Date":"2025-03-20 12"}},{"type":"Point","coordinates":[-74.4039,50.8328],"properties":{"Station_ID":"CQFT","Station_Nam":"CQFT","Latitude":"50.83280","Longitude":"-74.40390","Snowdepth":"25.472","Units":"in","Rept_Date":"2025-03-20 12"}},{"type":"Point","coordinates":[-91.793,50.7787],"properties":{"Station_ID":"SOCQ6","Station_Nam":"SOCKET LAKE","Latitude":"50.77870","Longitude":"-91.79300","Snowdepth":"25.080","Units":"in","Rept_Date":"2025-03-21 06"}},{"type":"Point","coordinates":[-86.6594,49.0695],"properties":{"Station_ID":"PTLQ6","Station_Nam":"PORTAGE LAKE","Latitude":"49.06950","Longitude":"-86.65940","Snowdepth":"24.290","Units":"in","Rept_Date":"2025-03-21 06"}},{"type":"Point","coordinates":[-67.6264,49.6472],"properties":{"Station_ID":"CQGT","Station_Nam":"CQGT","Latitude":"49.64720","Longitude":"-67.62640","Snowdepth":"23.583","Units":"in","Rept_Date":"2025-03-20 12"}},{"type":"Point","coordinates":[-87.2292,49.2288],"properties":{"Station_ID":"TRIQ6","Station_Nam":"TRIO LAKE","Latitude":"49.22880","Longitude":"-87.22920","Snowdepth":"22.560","Units":"in","Rept_Date":"2025-03-21 06"}},{"type":"Point","coordinates":[-82.5757,48.526],"properties":{"Station_ID":"AUDQ6","Station_Nam":"AUDEN","Latitude":"48.52600","Longitude":"-82.57570","Snowdepth":"22.480","Units":"in","Rept_Date":"2025-03-21 06"}},{"type":"Point","coordinates":[-91.8221,51.7269],"properties":{"Station_ID":"CATQ6","Station_Nam":"CAT LAKE","Latitude":"51.72690","Longitude":"-91.82210","Snowdepth":"22.440","Units":"in","Rept_Date":"2025-03-21 06"}},{"type":"Point","coordinates":[-87.7644,49.1989],"properties":{"Station_ID":"DVLQ6","Station_Nam":"DEVIOUS LAKE","Latitude":"49.19890","Longitude":"-87.76440","Snowdepth":"22.010","Units":"in","Rept_Date":"2025-03-21 06"}},{"type":"Point","coordinates":[-71.1955,44.2594],"properties":{"Station_ID":"CRNN3","Station_Nam":"CARTER NOTCH","Latitude":"44.25940","Longitude":"-71.19550","Snowdepth":"22.000","Units":"in","Rept_Date":"2025-03-20 11"}},{"type":"Point","coordinates":[-75.5543,43.6051],"properties":{"Station_ID":"HGHN6","Station_Nam":"HIGHMARKET","Latitude":"43.60510","Longitude":"-75.55430","Snowdepth":"21.000","Units":"in","Rept_Date":"2025-03-20 10"}},{"type":"Point","coordinates":[-84.28515,46.50299],"properties":{"Station_ID":"CAN-ON-915","Station_Nam":"SAULT STE. MARIE 3.9 ESE, CAN","Latitude":"46.50299","Longitude":"-84.28515","Snowdepth":"20.900","Units":"in","Rept_Date":"2025-03-20 12"}},{"type":"Point","coordinates":[-90.6567,50.2873],"properties":{"Station_ID":"SVBQ6","Station_Nam":"SAVANT BASE","Latitude":"50.28730","Longitude":"-90.65670","Snowdepth":"20.590","Units":"in","Rept_Date":"2025-03-21 06"}},{"type":"Point","coordinates":[-74.8088,43.1626],"properties":{"Station_ID":"NY-HR-18","Station_Nam":"SALISBURY CENTER 1.8 NW, NY","Latitude":"43.16260","Longitude":"-74.80880","Snowdepth":"20.500","Units":"in","Rept_Date":"2025-03-20 11"}},{"type":"Point","coordinates":[-87.8582,50.7668],"properties":{"Station_ID":"OGIQ6","Station_Nam":"OGOKI CAMP","Latitude":"50.76680","Longitude":"-87.85820","Snowdepth":"20.160","Units":"in","Rept_Date":"2025-03-21 06"}},{"type":"Point","coordinates":[-72.5719,51.0578],"properties":{"Station_ID":"CQTM","Station_Nam":"CQTM","Latitude":"51.05780","Longitude":"-72.57190","Snowdepth":"20.118","Units":"in","Rept_Date":"2025-03-20 12"}},{"type":"Point","coordinates":[-70.2528,48.9203],"properties":{"Station_ID":"CQLM","Station_Nam":"CQLM","Latitude":"48.92030","Longitude":"-70.25280","Snowdepth":"20.039","Units":"in","Rept_Date":"2025-03-20 12"}},{"type":"Point","coordinates":[-71.4944,44.1959],"properties":{"Station_ID":"ZFHN3","Station_Nam":"ZEALAND FALLS HUT","Latitude":"44.19590","Longitude":"-71.49440","Snowdepth":"20.000","Units":"in","Rept_Date":"2025-03-20 11"}},{"type":"Point","coordinates":[-88.5795,47.1364],"properties":{"Station_ID":"QNCM4","Station_Nam":"QUINCY HILL","Latitude":"47.13640","Longitude":"-88.57950","Snowdepth":"20.000","Units":"in","Rept_Date":"2025-03-20 11"}},{"type":"Point","coordinates":[-88.2077,46.5573],"properties":{"Station_ID":"MI-BG-3","Station_Nam":"THREE LAKES, MI","Latitude":"46.55730","Longitude":"-88.20770","Snowdepth":"20.000","Units":"in","Rept_Date":"2025-03-20 12"}},{"type":"Point","coordinates":[-86.75747,46.27805],"properties":{"Station_ID":"MI-AG-6","Station_Nam":"MUNISING 11.1 SSW, MI","Latitude":"46.27805","Longitude":"-86.75747","Snowdepth":"20.000","Units":"in","Rept_Date":"2025-03-20 11"}},{"type":"Point","coordinates":[-66.13279,47.90803],"properties":{"Station_ID":"CAN-NB-50","Station_Nam":"DOYLEVILLE 2.4 WNW, CAN","Latitude":"47.90803","Longitude":"-66.13279","Snowdepth":"19.700","Units":"in","Rept_Date":"2025-03-20 12"}},{"type":"Point","coordinates":[-84.4025,46.4866],"properties":{"Station_ID":"SSMM4","Station_Nam":"SAULT STE MARIE","Latitude":"46.48660","Longitude":"-84.40250","Snowdepth":"19.000","Units":"in","Rept_Date":"2025-03-20 11"}},{"type":"Point","coordinates":[-84.31971,46.48933],"properties":{"Station_ID":"MI-CP-14","Station_Nam":"SAULT STE. MARIE 2.2 E, MI","Latitude":"46.48933","Longitude":"-84.31971","Snowdepth":"19.000","Units":"in","Rept_Date":"2025-03-20 11"}},{"type":"Point","coordinates":[-88.3333,46.65],"properties":{"Station_ID":"HERM4","Station_Nam":"HERMAN,MI","Latitude":"46.65000","Longitude":"-88.33330","Snowdepth":"19.000","Units":"in","Rept_Date":"2025-03-20 12"}},{"type":"Point","coordinates":[-84.4026,46.4867],"properties":{"Station_ID":"ANJM4","Station_Nam":"SNOW PAID OBSERVER FOR KANJ","Latitude":"46.48670","Longitude":"-84.40260","Snowdepth":"19.000","Units":"in","Rept_Date":"2025-03-20 18"}},{"type":"Point","coordinates":[-94.2577,52.1145],"properties":{"Station_ID":"POPQ6","Station_Nam":"POPLAR HILL","Latitude":"52.11450","Longitude":"-94.25770","Snowdepth":"18.620","Units":"in","Rept_Date":"2025-03-21 06"}},{"type":"Point","coordinates":[-70.4719,50.1033],"properties":{"Station_ID":"CQMA","Station_Nam":"CQMA","Latitude":"50.10330","Longitude":"-70.47190","Snowdepth":"18.268","Units":"in","Rept_Date":"2025-03-20 12"}},{"type":"Point","coordinates":[-72.2011,51.4528],"properties":{"Station_ID":"CQCO","Station_Nam":"CQCO","Latitude":"51.45280","Longitude":"-72.20110","Snowdepth":"17.953","Units":"in","Rept_Date":"2025-03-20 12"}},{"type":"Point","coordinates":[-76.5983,47.8275],"properties":{"Station_ID":"CQCU","Station_Nam":"CQCU","Latitude":"47.82750","Longitude":"-76.59830","Snowdepth":"17.913","Units":"in","Rept_Date":"2025-03-20 12"}},{"type":"Point","coordinates":[-86.651,46.198],"properties":{"Station_ID":"MI-AG-9","Station_Nam":"WETMORE 12.7 S, MI","Latitude":"46.19800","Longitude":"-86.65100","Snowdepth":"17.900","Units":"in","Rept_Date":"2025-03-20 11"}},{"type":"Point","coordinates":[-88.6926,47.13156],"properties":{"Station_ID":"MI-HG-21","Station_Nam":"ATLANTIC MINE 3.9 NW, MI","Latitude":"47.13156","Longitude":"-88.69260","Snowdepth":"17.500","Units":"in","Rept_Date":"2025-03-20 11"}},{"type":"Point","coordinates":[-68.8406,51.2833],"properties":{"Station_ID":"CMRL","Station_Nam":"CMRL","Latitude":"51.28330","Longitude":"-68.84060","Snowdepth":"17.087","Units":"in","Rept_Date":"2025-03-20 12"}},{"type":"Point","coordinates":[-72.2824,44.1944],"properties":{"Station_ID":"VT-CL-3","Station_Nam":"GROTON 4.4 WSW, VT","Latitude":"44.19440","Longitude":"-72.28240","Snowdepth":"17.000","Units":"in","Rept_Date":"2025-03-20 10"}},{"type":"Point","coordinates":[-86.9375,50.6386],"properties":{"Station_ID":"ANAQ6","Station_Nam":"ANACONDA","Latitude":"50.63860","Longitude":"-86.93750","Snowdepth":"16.420","Units":"in","Rept_Date":"2025-03-21 06"}},{"type":"Point","coordinates":[-73.8067,47.8461],"properties":{"Station_ID":"CQWE","Station_Nam":"CQWE","Latitude":"47.84610","Longitude":"-73.80670","Snowdepth":"16.339","Units":"in","Rept_Date":"2025-03-20 12"}},{"type":"Point","coordinates":[-71.27124,46.76934],"properties":{"Station_ID":"CAN-QC-47","Station_Nam":"SAINTE-FOY 1.8 ENE, CAN","Latitude":"46.76934","Longitude":"-71.27124","Snowdepth":"16.100","Units":"in","Rept_Date":"2025-03-20 11"}},{"type":"Point","coordinates":[-86.95857,46.5029],"properties":{"Station_ID":"MI-AG-8","Station_Nam":"AU TRAIN 7.8 NW, MI","Latitude":"46.50290","Longitude":"-86.95857","Snowdepth":"16.000","Units":"in","Rept_Date":"2025-03-20 12"}},{"type":"Point","coordinates":[-70.18007,44.73396],"properties":{"Station_ID":"ME-FR-22","Station_Nam":"FARMINGTON 4.8 NNW, ME","Latitude":"44.73396","Longitude":"-70.18007","Snowdepth":"16.000","Units":"in","Rept_Date":"2025-03-20 13"}},{"type":"Point","coordinates":[-87.9051,51.5582],"properties":{"Station_ID":"FTHQ6","Station_Nam":"FORT HOPE","Latitude":"51.55820","Longitude":"-87.90510","Snowdepth":"15.000","Units":"in","Rept_Date":"2025-03-21 06"}},{"type":"Point","coordinates":[-66.9111,51.5217],"properties":{"Station_ID":"CMFU","Station_Nam":"CMFU","Latitude":"51.52170","Longitude":"-66.91110","Snowdepth":"15.000","Units":"in","Rept_Date":"2025-03-20 12"}},{"type":"Point","coordinates":[-84.303,46.503],"properties":{"Station_ID":"CAN-ON-757","Station_Nam":"SAULT STE. MARIE 2.8 ESE - GLFC, CAN","Latitude":"46.50300","Longitude":"-84.30300","Snowdepth":"14.200","Units":"in","Rept_Date":"2025-03-20 12"}},{"type":"Point","coordinates":[-88.5294,47.10774],"properties":{"Station_ID":"MI-HG-1","Station_Nam":"HOUGHTON 1.6 ESE, MI","Latitude":"47.10774","Longitude":"-88.52940","Snowdepth":"14.000","Units":"in","Rept_Date":"2025-03-20 12"}},{"type":"Point","coordinates":[-75.7124,43.4992],"properties":{"Station_ID":"OCON6","Station_Nam":"OSCEOLA","Latitude":"43.49920","Longitude":"-75.71240","Snowdepth":"13.000","Units":"in","Rept_Date":"2025-03-20 12"}},{"type":"Point","coordinates":[-88.854,46.8944],"properties":{"Station_ID":"57011_MADIS","Station_Nam":"TWIN LAKES 0.2 SW, MI","Latitude":"46.89440","Longitude":"-88.85400","Snowdepth":"13.000","Units":"in","Rept_Date":"2025-03-20 12"}},{"type":"Point","coordinates":[-68.5431,49.8239],"properties":{"Station_ID":"CQIQ","Station_Nam":"CQIQ","Latitude":"49.82390","Longitude":"-68.54310","Snowdepth":"12.992","Units":"in","Rept_Date":"2025-03-20 12"}},{"type":"Point","coordinates":[-73.9228,50.2708],"properties":{"Station_ID":"CQLI","Station_Nam":"CQLI","Latitude":"50.27080","Longitude":"-73.92280","Snowdepth":"12.716","Units":"in","Rept_Date":"2025-03-20 12"}},{"type":"Point","coordinates":[-88.417,47.2752],"properties":{"Station_ID":"KSGM4","Station_Nam":"KEARSARGE","Latitude":"47.27520","Longitude":"-88.41700","Snowdepth":"12.000","Units":"in","Rept_Date":"2025-03-20 12"}},{"type":"Point","coordinates":[-69.8119,45.6602],"properties":{"Station_ID":"BRAM1","Station_Nam":"BRASSUA DAM","Latitude":"45.66020","Longitude":"-69.81190","Snowdepth":"12.000","Units":"in","Rept_Date":"2025-03-20 11"}},{"type":"Point","coordinates":[-89.5475,46.5869],"properties":{"Station_ID":"BERM4","Station_Nam":"BERGLAND DAM","Latitude":"46.58690","Longitude":"-89.54750","Snowdepth":"12.000","Units":"in","Rept_Date":"2025-03-20 12"}},{"type":"Point","coordinates":[-87.8816,46.7462],"properties":{"Station_ID":"BBEM4","Station_Nam":"BIG BAY 9SW","Latitude":"46.74620","Longitude":"-87.88160","Snowdepth":"12.000","Units":"in","Rept_Date":"2025-03-20 12"}},{"type":"Point","coordinates":[-88.7038,49.19],"properties":{"Station_ID":"NONQ6","Station_Nam":"NONWATIN","Latitude":"49.19000","Longitude":"-88.70380","Snowdepth":"11.650","Units":"in","Rept_Date":"2025-03-21 06"}},{"type":"Point","coordinates":[-84.3239,46.1864],"properties":{"Station_ID":"PICM4","Station_Nam":"PICKFORD 3NE","Latitude":"46.18640","Longitude":"-84.32390","Snowdepth":"11.000","Units":"in","Rept_Date":"2025-03-20 22"}},{"type":"Point","coordinates":[-93.216,48.59631],"properties":{"Station_ID":"MN-KC-20","Station_Nam":"INTERNATIONAL FALLS 8.8 E, MN","Latitude":"48.59631","Longitude":"-93.21600","Snowdepth":"11.000","Units":"in","Rept_Date":"2025-03-20 12"}},{"type":"Point","coordinates":[-73.0333,43.05],"properties":{"Station_ID":"LBKV1","Station_Nam":"LYE BROOK","Latitude":"43.05000","Longitude":"-73.03330","Snowdepth":"11.000","Units":"in","Rept_Date":"2025-03-21 06"}},{"type":"Point","coordinates":[-71.4127,44.2196],"properties":{"Station_ID":"CAWN3","Station_Nam":"CRAWFORD NOTCH","Latitude":"44.21960","Longitude":"-71.41270","Snowdepth":"11.000","Units":"in","Rept_Date":"2025-03-20 11"}},{"type":"Point","coordinates":[-87.4503,46.28397],"properties":{"Station_ID":"61591_MADIS","Station_Nam":"GWINN 0.7 SW, MI","Latitude":"46.28397","Longitude":"-87.45030","Snowdepth":"10.500","Units":"in","Rept_Date":"2025-03-20 13"}},{"type":"Point","coordinates":[-73.7381,47.2564],"properties":{"Station_ID":"CQGA","Station_Nam":"CQGA","Latitude":"47.25640","Longitude":"-73.73810","Snowdepth":"10.472","Units":"in","Rept_Date":"2025-03-20 12"}},{"type":"Point","coordinates":[-72.4435,44.8916],"properties":{"Station_ID":"VT-OL-1","Station_Nam":"WESTFIELD 0.7 WNW, VT","Latitude":"44.89160","Longitude":"-72.44350","Snowdepth":"10.000","Units":"in","Rept_Date":"2025-03-20 10"}},{"type":"Point","coordinates":[-69.7167,45.5833],"properties":{"Station_ID":"RKWM1","Station_Nam":"MOOSEHEAD LAKE","Latitude":"45.58330","Longitude":"-69.71670","Snowdepth":"10.000","Units":"in","Rept_Date":"2025-03-20 11"}},{"type":"Point","coordinates":[-90.30508,47.8062],"properties":{"Station_ID":"MN-CK-29","Station_Nam":"GRAND MARAIS 3.8 NNE, MN","Latitude":"47.80620","Longitude":"-90.30508","Snowdepth":"10.000","Units":"in","Rept_Date":"2025-03-20 12"}},{"type":"Point","coordinates":[-72.8333,44.5333],"properties":{"Station_ID":"MMSV1","Station_Nam":"MOUNT MANSFIELD","Latitude":"44.53330","Longitude":"-72.83330","Snowdepth":"10.000","Units":"in","Rept_Date":"2025-03-21 06"}},{"type":"Point","coordinates":[-87.0406,45.7438],"properties":{"Station_ID":"ESAM4","Station_Nam":"ESCANABA","Latitude":"45.74380","Longitude":"-87.04060","Snowdepth":"10.000","Units":"in","Rept_Date":"2025-03-20 11"}},{"type":"Point","coordinates":[-91.4716,48.7067],"properties":{"Station_ID":"ATIQ6","Station_Nam":"ATIKOKAN","Latitude":"48.70670","Longitude":"-91.47160","Snowdepth":"10.000","Units":"in","Rept_Date":"2025-03-21 06"}},{"type":"Point","coordinates":[-89.1799,49.5995],"properties":{"Station_ID":"KABQ6","Station_Nam":"CAB LAKE","Latitude":"49.59950","Longitude":"-89.17990","Snowdepth":"9.960","Units":"in","Rept_Date":"2025-03-21 06"}},{"type":"Point","coordinates":[-94.18397,42.53144],"properties":{"Station_ID":"IA-WB-17","Station_Nam":"FORT DODGE 1.7 NNW, IA","Latitude":"42.53144","Longitude":"-94.18397","Snowdepth":"9.400","Units":"in","Rept_Date":"2025-03-20 12"}},{"type":"Point","coordinates":[-75.845,49.2906],"properties":{"Station_ID":"CQMD","Station_Nam":"CQMD","Latitude":"49.29060","Longitude":"-75.84500","Snowdepth":"9.252","Units":"in","Rept_Date":"2025-03-20 12"}},{"type":"Point","coordinates":[-94.2011,42.5061],"properties":{"Station_ID":"WMTI4","Station_Nam":"FORT DODGE,IA","Latitude":"42.50610","Longitude":"-94.20110","Snowdepth":"9.000","Units":"in","Rept_Date":"2025-03-20 12"}},{"type":"Point","coordinates":[-88.0575,45.425],"properties":{"Station_ID":"ASTW3","Station_Nam":"ATHELSTANE","Latitude":"45.42500","Longitude":"-88.05750","Snowdepth":"9.000","Units":"in","Rept_Date":"2025-03-20 11"}},{"type":"Point","coordinates":[-94.3061,43.0667],"properties":{"Station_ID":"ALGI4","Station_Nam":"ALGONA,IA","Latitude":"43.06670","Longitude":"-94.30610","Snowdepth":"9.000","Units":"in","Rept_Date":"2025-03-20 12"}},{"type":"Point","coordinates":[-91.86862,47.88254],"properties":{"Station_ID":"MN-SL-328","Station_Nam":"ELY 1.8 SSW, MN","Latitude":"47.88254","Longitude":"-91.86862","Snowdepth":"8.500","Units":"in","Rept_Date":"2025-03-20 12"}},{"type":"Point","coordinates":[-68.41194,47.28995],"properties":{"Station_ID":"CAN-NB-134","Station_Nam":"ST. HILAIRE 0.4 W - SAJESS, CAN","Latitude":"47.28995","Longitude":"-68.41194","Snowdepth":"8.500","Units":"in","Rept_Date":"2025-03-20 19"}},{"type":"Point","coordinates":[-91.34249,44.19004],"properties":{"Station_ID":"WI-TR-8","Station_Nam":"ETTRICK 4.0 WNW, WI","Latitude":"44.19004","Longitude":"-91.34249","Snowdepth":"8.000","Units":"in","Rept_Date":"2025-03-20 12"}},{"type":"Point","coordinates":[-88.45639,45.184],"properties":{"Station_ID":"WI-OC-8","Station_Nam":"MOUNTAIN 0.9 E, WI","Latitude":"45.18400","Longitude":"-88.45639","Snowdepth":"8.000","Units":"in","Rept_Date":"2025-03-20 12"}},{"type":"Point","coordinates":[-89.73441,44.7724],"properties":{"Station_ID":"WI-MT-14","Station_Nam":"MOSINEE 2.7 WSW, WI","Latitude":"44.77240","Longitude":"-89.73441","Snowdepth":"8.000","Units":"in","Rept_Date":"2025-03-20 12"}},{"type":"Point","coordinates":[-90.58884,44.10386],"properties":{"Station_ID":"WI-MN-9","Station_Nam":"WARRENS 4.7 WSW, WI","Latitude":"44.10386","Longitude":"-90.58884","Snowdepth":"8.000","Units":"in","Rept_Date":"2025-03-20 12"}},{"type":"Point","coordinates":[-87.11326,45.20296],"properties":{"Station_ID":"WI-DR-6","Station_Nam":"SISTER BAY 1.3 NNE, WI","Latitude":"45.20296","Longitude":"-87.11326","Snowdepth":"8.000","Units":"in","Rept_Date":"2025-03-20 12"}},{"type":"Point","coordinates":[-95.0653,42.8931],"properties":{"Station_ID":"SXRI4","Station_Nam":"SIOUX RAPIDS,IA","Latitude":"42.89310","Longitude":"-95.06530","Snowdepth":"8.000","Units":"in","Rept_Date":"2025-03-20 11"}},{"type":"Point","coordinates":[-71.3415,43.80976],"properties":{"Station_ID":"NH-CR-26","Station_Nam":"CENTER SANDWICH 4.9 E, NH","Latitude":"43.80976","Longitude":"-71.34150","Snowdepth":"8.000","Units":"in","Rept_Date":"2025-03-20 11"}},{"type":"Point","coordinates":[-87.5492,46.5314],"properties":{"Station_ID":"MQT","Station_Nam":"MARQUETTE, MI","Latitude":"46.53140","Longitude":"-87.54920","Snowdepth":"8.000","Units":"in","Rept_Date":"2025-03-21 06"}},{"type":"Point","coordinates":[-91.34024,43.87973],"properties":{"Station_ID":"MN-WN-24","Station_Nam":"LA CRESCENT 4.0 NNW, MN","Latitude":"43.87973","Longitude":"-91.34024","Snowdepth":"8.000","Units":"in","Rept_Date":"2025-03-20 12"}},{"type":"Point","coordinates":[-90.87444,48.14388],"properties":{"Station_ID":"MN-CK-56","Station_Nam":"GRAND MARAIS 36.2 NW, MN","Latitude":"48.14388","Longitude":"-90.87444","Snowdepth":"8.000","Units":"in","Rept_Date":"2025-03-20 12"}},{"type":"Point","coordinates":[-86.28266,45.99042],"properties":{"Station_ID":"MI-SH-1","Station_Nam":"MANISTIQUE 2.7 NW, MI","Latitude":"45.99042","Longitude":"-86.28266","Snowdepth":"8.000","Units":"in","Rept_Date":"2025-03-20 10"}},{"type":"Point","coordinates":[-84.73582,45.86422],"properties":{"Station_ID":"MI-MC-5","Station_Nam":"ST. IGNACE 0.6 WSW, MI","Latitude":"45.86422","Longitude":"-84.73582","Snowdepth":"8.000","Units":"in","Rept_Date":"2025-03-20 11"}},{"type":"Point","coordinates":[-86.5485,45.89815],"properties":{"Station_ID":"MI-DL-1","Station_Nam":"GARDEN CORNERS 0.8 NW, MI","Latitude":"45.89815","Longitude":"-86.54850","Snowdepth":"8.000","Units":"in","Rept_Date":"2025-03-20 12"}},{"type":"Point","coordinates":[-90.3482,44.1746],"properties":{"Station_ID":"MATW3","Station_Nam":"MATHER 3NW","Latitude":"44.17460","Longitude":"-90.34820","Snowdepth":"8.000","Units":"in","Rept_Date":"2025-03-20 12"}},{"type":"Point","coordinates":[-86.5485,45.8983],"properties":{"Station_ID":"GDCM4","Station_Nam":"GARDEN CORNERS","Latitude":"45.89830","Longitude":"-86.54850","Snowdepth":"8.000","Units":"in","Rept_Date":"2025-03-20 12"}},{"type":"Point","coordinates":[-93.6308,43.2839],"properties":{"Station_ID":"FSCI4","Station_Nam":"FOREST CITY,IA","Latitude":"43.28390","Longitude":"-93.63080","Snowdepth":"8.000","Units":"in","Rept_Date":"2025-03-20 12"}},{"type":"Point","coordinates":[-71.3425,43.8099],"properties":{"Station_ID":"ESDN3","Station_Nam":"EAST SANDWICH","Latitude":"43.80990","Longitude":"-71.34250","Snowdepth":"8.000","Units":"in","Rept_Date":"2025-03-20 10"}},{"type":"Point","coordinates":[-87.1536,45.1708],"properties":{"Station_ID":"EPMW3","Station_Nam":"EPHRAIM-1 NE WWTP","Latitude":"45.17080","Longitude":"-87.15360","Snowdepth":"8.000","Units":"in","Rept_Date":"2025-03-20 12"}},{"type":"Point","coordinates":[-90.7952,43.786],"properties":{"Station_ID":"CTNW3","Station_Nam":"CASHTON 3NNW","Latitude":"43.78600","Longitude":"-90.79520","Snowdepth":"8.000","Units":"in","Rept_Date":"2025-03-20 12"}},{"type":"Point","coordinates":[-87.845,46.4991],"properties":{"Station_ID":"CLKM4","Station_Nam":"CLARKSBURG","Latitude":"46.49910","Longitude":"-87.84500","Snowdepth":"8.000","Units":"in","Rept_Date":"2025-03-20 11"}},{"type":"Point","coordinates":[-58.6185,48.55436],"properties":{"Station_ID":"CAN-NL-65","Station_Nam":"KIPPENS 0.7 NE, CA","Latitude":"48.55436","Longitude":"-58.61850","Snowdepth":"8.000","Units":"in","Rept_Date":"2025-03-20 11"}},{"type":"Point","coordinates":[-75.3697,43.4361],"properties":{"Station_ID":"BOON6","Station_Nam":"BOONVILLE 4 SSW","Latitude":"43.43610","Longitude":"-75.36970","Snowdepth":"8.000","Units":"in","Rept_Date":"2025-03-20 11"}},{"type":"Point","coordinates":[-87.8119,45.4825],"properties":{"Station_ID":"ABGW3","Station_Nam":"AMBERG 9 E","Latitude":"45.48250","Longitude":"-87.81190","Snowdepth":"8.000","Units":"in","Rept_Date":"2025-03-20 14"}},{"type":"Point","coordinates":[-91.06834,44.12945],"properties":{"Station_ID":"WI-JK-4","Station_Nam":"MELROSE 3.6 W, WI","Latitude":"44.12945","Longitude":"-91.06834","Snowdepth":"7.500","Units":"in","Rept_Date":"2025-03-20 12"}},{"type":"Point","coordinates":[-87.24702,45.06007],"properties":{"Station_ID":"WI-DR-24","Station_Nam":"EGG HARBOR 2.4 ENE, WI","Latitude":"45.06007","Longitude":"-87.24702","Snowdepth":"7.500","Units":"in","Rept_Date":"2025-03-20 12"}},{"type":"Point","coordinates":[-96.14395,41.3175],"properties":{"Station_ID":"NE-DG-63","Station_Nam":"OMAHA 7.8 WNW, NE","Latitude":"41.31750","Longitude":"-96.14395","Snowdepth":"7.500","Units":"in","Rept_Date":"2025-03-20 12"}},{"type":"Point","coordinates":[-89.09222,44.95139],"properties":{"Station_ID":"WI-SW-13","Station_Nam":"BIRNAMWOOD 5.9 ENE, WI","Latitude":"44.95139","Longitude":"-89.09222","Snowdepth":"7.200","Units":"in","Rept_Date":"2025-03-20 12"}},{"type":"Point","coordinates":[-87.9566,45.3802],"properties":{"Station_ID":"WSKW3","Station_Nam":"WAUSAUKEE","Latitude":"45.38020","Longitude":"-87.95660","Snowdepth":"7.000","Units":"in","Rept_Date":"2025-03-20 13"}},{"type":"Point","coordinates":[-88.7416,45.1452],"properties":{"Station_ID":"WLKW3","Station_Nam":"WHITE LAKE 1 SE","Latitude":"45.14520","Longitude":"-88.74160","Snowdepth":"7.000","Units":"in","Rept_Date":"2025-03-20 13"}},{"type":"Point","coordinates":[-89.54716,44.44225],"properties":{"Station_ID":"WI-PT-23","Station_Nam":"PLOVER 1.4 S, WI","Latitude":"44.44225","Longitude":"-89.54716","Snowdepth":"7.000","Units":"in","Rept_Date":"2025-03-20 12"}},{"type":"Point","coordinates":[-88.01019,45.48772],"properties":{"Station_ID":"WI-MR-3","Station_Nam":"AMBERG 1.3 SW, WI","Latitude":"45.48772","Longitude":"-88.01019","Snowdepth":"7.000","Units":"in","Rept_Date":"2025-03-20 13"}},{"type":"Point","coordinates":[-89.8482,45.17746],"properties":{"Station_ID":"WI-LN-2","Station_Nam":"MERRILL 7.0 W, WI","Latitude":"45.17746","Longitude":"-89.84820","Snowdepth":"7.000","Units":"in","Rept_Date":"2025-03-20 11"}},{"type":"Point","coordinates":[-92.3926,43.6933],"properties":{"Station_ID":"SPGM5","Station_Nam":"SPRING VALLEY","Latitude":"43.69330","Longitude":"-92.39260","Snowdepth":"7.000","Units":"in","Rept_Date":"2025-03-20 12"}},{"type":"Point","coordinates":[-87.3333,44.8667],"properties":{"Station_ID":"SBEW3","Station_Nam":"EXP. FARM","Latitude":"44.86670","Longitude":"-87.33330","Snowdepth":"7.000","Units":"in","Rept_Date":"2025-03-20 12"}},{"type":"Point","coordinates":[-89.5453,44.4428],"properties":{"Station_ID":"PLOW3","Station_Nam":"PLOVER","Latitude":"44.44280","Longitude":"-89.54530","Snowdepth":"7.000","Units":"in","Rept_Date":"2025-03-20 12"}},{"type":"Point","coordinates":[-74.45287,43.4549],"properties":{"Station_ID":"NY-HM-10","Station_Nam":"LAKE PLEASANT 2.3 WSW, NY","Latitude":"43.45490","Longitude":"-74.45287","Snowdepth":"7.000","Units":"in","Rept_Date":"2025-03-20 11"}},{"type":"Point","coordinates":[-71.21556,43.92648],"properties":{"Station_ID":"NH-CR-41","Station_Nam":"ALBANY 2.8 SW, NH","Latitude":"43.92648","Longitude":"-71.21556","Snowdepth":"7.000","Units":"in","Rept_Date":"2025-03-20 12"}},{"type":"Point","coordinates":[-96.2459,41.2003],"properties":{"Station_ID":"NE-DG-55","Station_Nam":"ELKHORN 5.7 S, NE","Latitude":"41.20030","Longitude":"-96.24590","Snowdepth":"7.000","Units":"in","Rept_Date":"2025-03-20 13"}},{"type":"Point","coordinates":[-92.21656,43.87828],"properties":{"Station_ID":"MN-OL-79","Station_Nam":"CHATFIELD 2.7 NNW, MN","Latitude":"43.87828","Longitude":"-92.21656","Snowdepth":"7.000","Units":"in","Rept_Date":"2025-03-20 13"}},{"type":"Point","coordinates":[-92.3065,43.7434],"properties":{"Station_ID":"MN-FM-10","Station_Nam":"WYKOFF 3.1 NW, MN","Latitude":"43.74340","Longitude":"-92.30650","Snowdepth":"7.000","Units":"in","Rept_Date":"2025-03-20 12"}},{"type":"Point","coordinates":[-89.8481,45.1781],"properties":{"Station_ID":"MLLW3","Station_Nam":"MERRILL 8W","Latitude":"45.17810","Longitude":"-89.84810","Snowdepth":"7.000","Units":"in","Rept_Date":"2025-03-20 11"}},{"type":"Point","coordinates":[-90.1333,44.6411],"properties":{"Station_ID":"MFDW3","Station_Nam":"MARSHFIELD EXP FARM","Latitude":"44.64110","Longitude":"-90.13330","Snowdepth":"7.000","Units":"in","Rept_Date":"2025-03-20 12"}},{"type":"Point","coordinates":[-91.7616,43.5241],"properties":{"Station_ID":"MABM5","Station_Nam":"MABEL","Latitude":"43.52410","Longitude":"-91.76160","Snowdepth":"7.000","Units":"in","Rept_Date":"2025-03-20 12"}},{"type":"Point","coordinates":[-96.0505,41.8263],"properties":{"Station_ID":"LSXI4","Station_Nam":"LITTLE SIOUX","Latitude":"41.82630","Longitude":"-96.05050","Snowdepth":"7.000","Units":"in","Rept_Date":"2025-03-20 12"}},{"type":"Point","coordinates":[-74.2756,43.755],"properties":{"Station_ID":"INDN6","Station_Nam":"INDIAN LAKE","Latitude":"43.75500","Longitude":"-74.27560","Snowdepth":"7.000","Units":"in","Rept_Date":"2025-03-20 12"}},{"type":"Point","coordinates":[-95.36284,42.28304],"properties":{"Station_ID":"IA-ID-4","Station_Nam":"ARTHUR 3.7 SSW, IA","Latitude":"42.28304","Longitude":"-95.36284","Snowdepth":"7.000","Units":"in","Rept_Date":"2025-03-20 12"}},{"type":"Point","coordinates":[-96.2474,41.1271],"properties":{"Station_ID":"GRAN1","Station_Nam":"GRETNA","Latitude":"41.12710","Longitude":"-96.24740","Snowdepth":"7.000","Units":"in","Rept_Date":"2025-03-20 13"}},{"type":"Point","coordinates":[-92.5644,43.7074],"properties":{"Station_ID":"GMDM5","Station_Nam":"GRAND MEADOW","Latitude":"43.70740","Longitude":"-92.56440","Snowdepth":"7.000","Units":"in","Rept_Date":"2025-03-20 10"}},{"type":"Point","coordinates":[-87.0391,45.8433],"properties":{"Station_ID":"GLDM4","Station_Nam":"GLADSTONE NO. 2","Latitude":"45.84330","Longitude":"-87.03910","Snowdepth":"7.000","Units":"in","Rept_Date":"2025-03-20 11"}},{"type":"Point","coordinates":[-97.2208,40.6558],"properties":{"Station_ID":"FNDN1","Station_Nam":"FRIEND","Latitude":"40.65580","Longitude":"-97.22080","Snowdepth":"7.000","Units":"in","Rept_Date":"2025-03-20 12"}},{"type":"Point","coordinates":[-87.2292,45.1242],"properties":{"Station_ID":"FISW3","Station_Nam":"FISH CREEK 1 E WWTP","Latitude":"45.12420","Longitude":"-87.22920","Snowdepth":"7.000","Units":"in","Rept_Date":"2025-03-20 14"}},{"type":"Point","coordinates":[-91.5027,43.6309],"properties":{"Station_ID":"CLDM5","Station_Nam":"CALEDONIA","Latitude":"43.63090","Longitude":"-91.50270","Snowdepth":"7.000","Units":"in","Rept_Date":"2025-03-20 11"}},{"type":"Point","coordinates":[-88.9044,44.87],"properties":{"Station_ID":"BOWW3","Station_Nam":"STOCKBRIDGE-MUNSEE RESERVATION","Latitude":"44.87000","Longitude":"-88.90440","Snowdepth":"7.000","Units":"in","Rept_Date":"2025-03-20 12"}},{"type":"Point","coordinates":[-90.8536,44.2904],"properties":{"Station_ID":"BLKW3","Station_Nam":"BLACK RIVER FALLS SEWAGE","Latitude":"44.29040","Longitude":"-90.85360","Snowdepth":"7.000","Units":"in","Rept_Date":"2025-03-20 13"}},{"type":"Point","coordinates":[-89.1133,44.6398],"properties":{"Station_ID":"BFSW3","Station_Nam":"BIG FALLS-5 NW","Latitude":"44.63980","Longitude":"-89.11330","Snowdepth":"7.000","Units":"in","Rept_Date":"2025-03-20 12"}},{"type":"Point","coordinates":[-91.1919,43.8228],"properties":{"Station_ID":"ARX","Station_Nam":"LA CROSSE, WI","Latitude":"43.82280","Longitude":"-91.19190","Snowdepth":"7.000","Units":"in","Rept_Date":"2025-03-21 06"}},{"type":"Point","coordinates":[-89.66528,44.83512],"properties":{"Station_ID":"WI-MT-19","Station_Nam":"EVERGREEN 1.5 WSW, WI","Latitude":"44.83512","Longitude":"-89.66528","Snowdepth":"6.700","Units":"in","Rept_Date":"2025-03-20 12"}},{"type":"Point","coordinates":[-67.32532,46.98305],"properties":{"Station_ID":"CAN-NB-105","Station_Nam":"SISSON BROOK 3.8 E, CAN","Latitude":"46.98305","Longitude":"-67.32532","Snowdepth":"6.700","Units":"in","Rept_Date":"2025-03-20 11"}},{"type":"Point","coordinates":[-89.93526,44.26305],"properties":{"Station_ID":"WI-WD-7","Station_Nam":"NEKOOSA 3.7 SSW, WI","Latitude":"44.26305","Longitude":"-89.93526","Snowdepth":"6.500","Units":"in","Rept_Date":"2025-03-20 12"}},{"type":"Point","coordinates":[-87.05701,45.28323],"properties":{"Station_ID":"WI-DR-27","Station_Nam":"ELLISON BAY 2.1 NNE, WI","Latitude":"45.28323","Longitude":"-87.05701","Snowdepth":"6.500","Units":"in","Rept_Date":"2025-03-20 13"}},{"type":"Point","coordinates":[-97.08981,40.91689],"properties":{"Station_ID":"NE-SW-7","Station_Nam":"SEWARD 0.5 NE, NE","Latitude":"40.91689","Longitude":"-97.08981","Snowdepth":"6.500","Units":"in","Rept_Date":"2025-03-20 12"}},{"type":"Point","coordinates":[-90.9531,43.69991],"properties":{"Station_ID":"53911_MADIS","Station_Nam":"WESTBY 5.8 NW, WI","Latitude":"43.69991","Longitude":"-90.95310","Snowdepth":"6.500","Units":"in","Rept_Date":"2025-03-20 12"}},{"type":"Point","coordinates":[-91.2856,43.7488],"properties":{"Station_ID":"52031_MADIS","Station_Nam":"LA CRESCENT 5.6 S, MN","Latitude":"43.74880","Longitude":"-91.28560","Snowdepth":"6.500","Units":"in","Rept_Date":"2025-03-20 14"}},{"type":"Point","coordinates":[-87.5153,45.69894],"properties":{"Station_ID":"MI-MM-1","Station_Nam":"SPALDING 0.5 NW, MI","Latitude":"45.69894","Longitude":"-87.51530","Snowdepth":"6.400","Units":"in","Rept_Date":"2025-03-20 12"}},{"type":"Point","coordinates":[-90.18387,44.57002],"properties":{"Station_ID":"WI-WD-28","Station_Nam":"MARSHFIELD 6.5 S, WI","Latitude":"44.57002","Longitude":"-90.18387","Snowdepth":"6.200","Units":"in","Rept_Date":"2025-03-20 13"}},{"type":"Point","coordinates":[-87.7349,43.7356],"properties":{"Station_ID":"WI-SB-19","Station_Nam":"SHEBOYGAN 0.7 SSW, WI","Latitude":"43.73560","Longitude":"-87.73490","Snowdepth":"6.000","Units":"in","Rept_Date":"2025-03-20 13"}},{"type":"Point","coordinates":[-91.1815,43.8919],"properties":{"Station_ID":"WI-LC-30","Station_Nam":"ONALASKA 1.9 E, WI","Latitude":"43.89190","Longitude":"-91.18150","Snowdepth":"6.000","Units":"in","Rept_Date":"2025-03-20 12"}},{"type":"Point","coordinates":[-97.0898,40.9169],"properties":{"Station_ID":"SEWN1","Station_Nam":"SEWARD","Latitude":"40.91690","Longitude":"-97.08980","Snowdepth":"6.000","Units":"in","Rept_Date":"2025-03-20 12"}},{"type":"Point","coordinates":[-89.306,44.6271],"properties":{"Station_ID":"RSTW3","Station_Nam":"ROSHOLT","Latitude":"44.62710","Longitude":"-89.30600","Snowdepth":"6.000","Units":"in","Rept_Date":"2025-03-20 12"}},{"type":"Point","coordinates":[-88.7378,44.7358],"properties":{"Station_ID":"PELW3","Station_Nam":"PELLA 3SE","Latitude":"44.73580","Longitude":"-88.73780","Snowdepth":"6.000","Units":"in","Rept_Date":"2025-03-20 10"}},{"type":"Point","coordinates":[-94.2555,47.8359],"properties":{"Station_ID":"NOHM5","Station_Nam":"NORTHOME","Latitude":"47.83590","Longitude":"-94.25550","Snowdepth":"6.000","Units":"in","Rept_Date":"2025-03-20 12"}},{"type":"Point","coordinates":[-71.9767,43.4189],"properties":{"Station_ID":"NLNN3","Station_Nam":"NEW LONDON","Latitude":"43.41890","Longitude":"-71.97670","Snowdepth":"6.000","Units":"in","Rept_Date":"2025-03-20 11"}},{"type":"Point","coordinates":[-96.14612,41.55589],"properties":{"Station_ID":"NE-WS-4","Station_Nam":"BLAIR 0.9 NNW, NE","Latitude":"41.55589","Longitude":"-96.14612","Snowdepth":"6.000","Units":"in","Rept_Date":"2025-03-20 13"}},{"type":"Point","coordinates":[-96.17473,41.32763],"properties":{"Station_ID":"NE-DG-35","Station_Nam":"BENNINGTON 2.9 SSW, NE","Latitude":"41.32763","Longitude":"-96.17473","Snowdepth":"6.000","Units":"in","Rept_Date":"2025-03-20 12"}},{"type":"Point","coordinates":[-96.2245,41.2878],"properties":{"Station_ID":"NE-DG-19","Station_Nam":"ELKHORN 0.7 ENE, NE","Latitude":"41.28780","Longitude":"-96.22450","Snowdepth":"6.000","Units":"in","Rept_Date":"2025-03-20 12"}},{"type":"Point","coordinates":[-96.241,41.29391],"properties":{"Station_ID":"NE-DG-18","Station_Nam":"ELKHORN 0.8 NNW, NE","Latitude":"41.29391","Longitude":"-96.24100","Snowdepth":"6.000","Units":"in","Rept_Date":"2025-03-20 12"}},{"type":"Point","coordinates":[-85.5162,46.3515],"properties":{"Station_ID":"NCFM4","Station_Nam":"NEWBERRY-LUCE COUNTY ROAD COMMISSION","Latitude":"46.35150","Longitude":"-85.51620","Snowdepth":"6.000","Units":"in","Rept_Date":"2025-03-20 12"}},{"type":"Point","coordinates":[-86.2513,45.9512],"properties":{"Station_ID":"MTQM4","Station_Nam":"MANISTIQUE WWTP","Latitude":"45.95120","Longitude":"-86.25130","Snowdepth":"6.000","Units":"in","Rept_Date":"2025-03-20 11"}},{"type":"Point","coordinates":[-88.4939,45.1722],"properties":{"Station_ID":"MOUW3","Station_Nam":"MOUNTAIN 1 SW","Latitude":"45.17220","Longitude":"-88.49390","Snowdepth":"6.000","Units":"in","Rept_Date":"2025-03-20 19"}},{"type":"Point","coordinates":[-94.10155,47.82442],"properties":{"Station_ID":"MN-IT-80","Station_Nam":"NORTHOME 8.4 ESE, MN","Latitude":"47.82442","Longitude":"-94.10155","Snowdepth":"6.000","Units":"in","Rept_Date":"2025-03-20 12"}},{"type":"Point","coordinates":[-91.42908,43.79527],"properties":{"Station_ID":"MN-HS-15","Station_Nam":"LA CRESCENT 6.8 WSW, MN","Latitude":"43.79527","Longitude":"-91.42908","Snowdepth":"6.000","Units":"in","Rept_Date":"2025-03-20 11"}},{"type":"Point","coordinates":[-87.05727,45.83218],"properties":{"Station_ID":"MI-DL-4","Station_Nam":"GLADSTONE 2.1 SW, MI","Latitude":"45.83218","Longitude":"-87.05727","Snowdepth":"6.000","Units":"in","Rept_Date":"2025-03-20 11"}},{"type":"Point","coordinates":[-88.08416,45.82719],"properties":{"Station_ID":"MI-DC-6","Station_Nam":"IRON MOUNTAIN 1.1 W, MI","Latitude":"45.82719","Longitude":"-88.08416","Snowdepth":"6.000","Units":"in","Rept_Date":"2025-03-20 12"}},{"type":"Point","coordinates":[-90.26666,43.93333],"properties":{"Station_ID":"KVOK","Station_Nam":"VOLK / CAMP DOUGLAS","Latitude":"43.93333","Longitude":"-90.26666","Snowdepth":"6.000","Units":"in","Rept_Date":"2025-03-20 12"}},{"type":"Point","coordinates":[-87.3779,46.3341],"properties":{"Station_ID":"KISM4","Station_Nam":"K.I. SAWYER WWTP","Latitude":"46.33410","Longitude":"-87.37790","Snowdepth":"6.000","Units":"in","Rept_Date":"2025-03-20 12"}},{"type":"Point","coordinates":[-93.9,48.6167],"properties":{"Station_ID":"INDM5","Station_Nam":"INDUS,MN","Latitude":"48.61670","Longitude":"-93.90000","Snowdepth":"6.000","Units":"in","Rept_Date":"2025-03-20 13"}},{"type":"Point","coordinates":[-95.61213,41.6603],"properties":{"Station_ID":"IA-HR-20","Station_Nam":"PORTSMOUTH 4.8 W, IA","Latitude":"41.66030","Longitude":"-95.61213","Snowdepth":"6.000","Units":"in","Rept_Date":"2025-03-20 13"}},{"type":"Point","coordinates":[-91.4269,43.7953],"properties":{"Station_ID":"HOKM5","Station_Nam":"HOKAH 4NW","Latitude":"43.79530","Longitude":"-91.42690","Snowdepth":"6.000","Units":"in","Rept_Date":"2025-03-20 12"}},{"type":"Point","coordinates":[-86.21,44.648],"properties":{"Station_ID":"FRKM4","Station_Nam":"FRANKFORT 2NE","Latitude":"44.64800","Longitude":"-86.21000","Snowdepth":"6.000","Units":"in","Rept_Date":"2025-03-20 22"}},{"type":"Point","coordinates":[-96.18116,41.20603],"properties":{"Station_ID":"DOUG059","Station_Nam":"OMAHA 13.2 WSW, NE","Latitude":"41.20603","Longitude":"-96.18116","Snowdepth":"6.000","Units":"in","Rept_Date":"2025-03-20 12"}},{"type":"Point","coordinates":[-88.0856,45.78378],"properties":{"Station_ID":"62681_MADIS","Station_Nam":"AURORA 0.7 E, WI","Latitude":"45.78378","Longitude":"-88.08560","Snowdepth":"6.000","Units":"in","Rept_Date":"2025-03-20 11"}},{"type":"Point","coordinates":[-73.4594,48.4889],"properties":{"Station_ID":"CQWG","Station_Nam":"CQWG","Latitude":"48.48890","Longitude":"-73.45940","Snowdepth":"5.905","Units":"in","Rept_Date":"2025-03-20 12"}},{"type":"Point","coordinates":[-89.84798,44.20533],"properties":{"Station_ID":"WI-AD-5","Station_Nam":"NEKOOSA 8.0 SSE, WI","Latitude":"44.20533","Longitude":"-89.84798","Snowdepth":"5.800","Units":"in","Rept_Date":"2025-03-20 12"}},{"type":"Point","coordinates":[-96.00684,41.29265],"properties":{"Station_ID":"NE-DG-46","Station_Nam":"OMAHA 2.0 N, NE","Latitude":"41.29265","Longitude":"-96.00684","Snowdepth":"5.800","Units":"in","Rept_Date":"2025-03-20 12"}},{"type":"Point","coordinates":[-88.4899,45.17239],"properties":{"Station_ID":"WI-OC-1","Station_Nam":"MOUNTAIN 1.1 SW, WI","Latitude":"45.17239","Longitude":"-88.48990","Snowdepth":"5.500","Units":"in","Rept_Date":"2025-03-20 07"}},{"type":"Point","coordinates":[-89.69321,44.95812],"properties":{"Station_ID":"WI-MT-24","Station_Nam":"WAUSAU 2.4 W, WI","Latitude":"44.95812","Longitude":"-89.69321","Snowdepth":"5.500","Units":"in","Rept_Date":"2025-03-20 13"}},{"type":"Point","coordinates":[-92.4071,43.9929],"properties":{"Station_ID":"MN-OL-99","Station_Nam":"ROCHESTER 3.9 ESE, MN","Latitude":"43.99290","Longitude":"-92.40710","Snowdepth":"5.500","Units":"in","Rept_Date":"2025-03-20 12"}},{"type":"Point","coordinates":[-93.0228,43.6719],"properties":{"Station_ID":"MN-MW-8","Station_Nam":"AUSTIN 2.4 W, MN","Latitude":"43.67190","Longitude":"-93.02280","Snowdepth":"5.500","Units":"in","Rept_Date":"2025-03-20 12"}},{"type":"Point","coordinates":[-90.4436,43.81028],"properties":{"Station_ID":"WI-MN-4","Station_Nam":"WILTON 4.2 E, WI","Latitude":"43.81028","Longitude":"-90.44360","Snowdepth":"5.400","Units":"in","Rept_Date":"2025-03-20 12"}},{"type":"Point","coordinates":[-91.19478,43.67452],"properties":{"Station_ID":"WI-VR-10","Station_Nam":"STODDARD 1.5 NE, WI","Latitude":"43.67452","Longitude":"-91.19478","Snowdepth":"5.200","Units":"in","Rept_Date":"2025-03-20 12"}},{"type":"Point","coordinates":[-92.39991,43.69875],"properties":{"Station_ID":"MN-FM-24","Station_Nam":"SPRING VALLEY 0.9 NNW, MN","Latitude":"43.69875","Longitude":"-92.39991","Snowdepth":"5.200","Units":"in","Rept_Date":"2025-03-20 12"}},{"type":"Point","coordinates":[-89.6169,44.9731],"properties":{"Station_ID":"WUNW3","Station_Nam":"WAUSAU-NORTHEAST","Latitude":"44.97310","Longitude":"-89.61690","Snowdepth":"5.000","Units":"in","Rept_Date":"2025-03-20 11"}},{"type":"Point","coordinates":[-88.6424,46.5266],"properties":{"Station_ID":"WTNM4","Station_Nam":"WATTON 2WSW","Latitude":"46.52660","Longitude":"-88.64240","Snowdepth":"5.000","Units":"in","Rept_Date":"2025-03-20 12"}},{"type":"Point","coordinates":[-89.782,44.33823],"properties":{"Station_ID":"WI-WD-2","Station_Nam":"WISCONSIN RAPIDS 4.6 SSE, WI","Latitude":"44.33823","Longitude":"-89.78200","Snowdepth":"5.000","Units":"in","Rept_Date":"2025-03-20 12"}},{"type":"Point","coordinates":[-89.78677,44.52553],"properties":{"Station_ID":"WI-PT-8","Station_Nam":"RUDOLPH 2.1 NNE, WI","Latitude":"44.52553","Longitude":"-89.78677","Snowdepth":"5.000","Units":"in","Rept_Date":"2025-03-20 10"}},{"type":"Point","coordinates":[-87.5833,44.17617],"properties":{"Station_ID":"WI-MC-4","Station_Nam":"TWO RIVERS 1.4 N, WI","Latitude":"44.17617","Longitude":"-87.58330","Snowdepth":"5.000","Units":"in","Rept_Date":"2025-03-20 12"}},{"type":"Point","coordinates":[-91.2235,43.80902],"properties":{"Station_ID":"WI-LC-28","Station_Nam":"LA CROSSE 1.3 SSE, WI","Latitude":"43.80902","Longitude":"-91.22350","Snowdepth":"5.000","Units":"in","Rept_Date":"2025-03-20 12"}},{"type":"Point","coordinates":[-88.1415,45.89369],"properties":{"Station_ID":"WI-FL-4","Station_Nam":"FLORENCE 5.6 ESE, WI","Latitude":"45.89369","Longitude":"-88.14150","Snowdepth":"5.000","Units":"in","Rept_Date":"2025-03-20 12"}},{"type":"Point","coordinates":[-72.8326,43.29092],"properties":{"Station_ID":"VT-BN-3","Station_Nam":"LANDGROVE 1.1 NNE, VT","Latitude":"43.29092","Longitude":"-72.83260","Snowdepth":"5.000","Units":"in","Rept_Date":"2025-03-20 11"}},{"type":"Point","coordinates":[-90.8756,43.5597],"properties":{"Station_ID":"VQAW3","Station_Nam":"VIROQUA","Latitude":"43.55970","Longitude":"-90.87560","Snowdepth":"5.000","Units":"in","Rept_Date":"2025-03-20 12"}},{"type":"Point","coordinates":[-71.2661,43.8639],"properties":{"Station_ID":"TMWN3","Station_Nam":"TAMWORTH 4","Latitude":"43.86390","Longitude":"-71.26610","Snowdepth":"5.000","Units":"in","Rept_Date":"2025-03-20 11"}},{"type":"Point","coordinates":[-94.25,43.3853],"properties":{"Station_ID":"SWEI4","Station_Nam":"SWEA CITY,IA","Latitude":"43.38530","Longitude":"-94.25000","Snowdepth":"5.000","Units":"in","Rept_Date":"2025-03-20 11"}},{"type":"Point","coordinates":[-89.5855,44.5113],"properties":{"Station_ID":"STPW3","Station_Nam":"STEVENS POINT","Latitude":"44.51130","Longitude":"-89.58550","Snowdepth":"5.000","Units":"in","Rept_Date":"2025-03-20 12"}},{"type":"Point","coordinates":[-88.5839,44.4389],"properties":{"Station_ID":"SHIW3","Station_Nam":"SHIOCTON","Latitude":"44.43890","Longitude":"-88.58390","Snowdepth":"5.000","Units":"in","Rept_Date":"2025-03-20 12"}},{"type":"Point","coordinates":[-88.6183,44.7631],"properties":{"Station_ID":"SHHW3","Station_Nam":"SHAWANO 2SSW","Latitude":"44.76310","Longitude":"-88.61830","Snowdepth":"5.000","Units":"in","Rept_Date":"2025-03-20 13"}},{"type":"Point","coordinates":[-94.9908,42.4239],"properties":{"Station_ID":"SACI4","Station_Nam":"SAC CITY,IA","Latitude":"42.42390","Longitude":"-94.99080","Snowdepth":"5.000","Units":"in","Rept_Date":"2025-03-20 11"}},{"type":"Point","coordinates":[-92.4758,43.9281],"properties":{"Station_ID":"RSRM5","Station_Nam":"ROCHESTER AP 2NE","Latitude":"43.92810","Longitude":"-92.47580","Snowdepth":"5.000","Units":"in","Rept_Date":"2025-03-20 18"}},{"type":"Point","coordinates":[-94.6167,42.4],"properties":{"Station_ID":"RKWI4","Station_Nam":"ROCKWELL CITY,IA","Latitude":"42.40000","Longitude":"-94.61670","Snowdepth":"5.000","Units":"in","Rept_Date":"2025-03-20 17"}},{"type":"Point","coordinates":[-87.7356,45.0281],"properties":{"Station_ID":"PSHW3","Station_Nam":"PESHTIGO","Latitude":"45.02810","Longitude":"-87.73560","Snowdepth":"5.000","Units":"in","Rept_Date":"2025-03-20 12"}},{"type":"Point","coordinates":[-74.4236,43.115],"properties":{"Station_ID":"PEKN6","Station_Nam":"PECK LAKE","Latitude":"43.11500","Longitude":"-74.42360","Snowdepth":"5.000","Units":"in","Rept_Date":"2025-03-20 11"}},{"type":"Point","coordinates":[-71.2661,43.86449],"properties":{"Station_ID":"NH-CR-27","Station_Nam":"TAMWORTH 0.4 NNW, NH","Latitude":"43.86449","Longitude":"-71.26610","Snowdepth":"5.000","Units":"in","Rept_Date":"2025-03-20 11"}},{"type":"Point","coordinates":[-96.224,41.18158],"properties":{"Station_ID":"NE-SY-31","Station_Nam":"GRETNA 3.0 NNE, NE","Latitude":"41.18158","Longitude":"-96.22400","Snowdepth":"5.000","Units":"in","Rept_Date":"2025-03-20 12"}},{"type":"Point","coordinates":[-96.21984,41.17831],"properties":{"Station_ID":"NE-SY-25","Station_Nam":"GRETNA 2.9 NNE, NE","Latitude":"41.17831","Longitude":"-96.21984","Snowdepth":"5.000","Units":"in","Rept_Date":"2025-03-20 13"}},{"type":"Point","coordinates":[-96.6678,40.82411],"properties":{"Station_ID":"NE-LA-52","Station_Nam":"LINCOLN 1.2 ENE, NE","Latitude":"40.82411","Longitude":"-96.66780","Snowdepth":"5.000","Units":"in","Rept_Date":"2025-03-20 12"}},{"type":"Point","coordinates":[-87.6236,45.0983],"properties":{"Station_ID":"MRIW3","Station_Nam":"MARINETTE","Latitude":"45.09830","Longitude":"-87.62360","Snowdepth":"5.000","Units":"in","Rept_Date":"2025-03-20 12"}},{"type":"Point","coordinates":[-84.68467,44.96388],"properties":{"Station_ID":"MI-OT-17","Station_Nam":"GAYLORD 4.1 S, MI","Latitude":"44.96388","Longitude":"-84.68467","Snowdepth":"5.000","Units":"in","Rept_Date":"2025-03-20 11"}},{"type":"Point","coordinates":[-70.0272,44.66582],"properties":{"Station_ID":"ME-FR-4","Station_Nam":"NEW SHARON 2.0 NW, ME","Latitude":"44.66582","Longitude":"-70.02720","Snowdepth":"5.000","Units":"in","Rept_Date":"2025-03-20 11"}},{"type":"Point","coordinates":[-87.505,44.4628],"properties":{"Station_ID":"KKKW3","Station_Nam":"KEWAUNEE","Latitude":"44.46280","Longitude":"-87.50500","Snowdepth":"5.000","Units":"in","Rept_Date":"2025-03-20 12"}},{"type":"Point","coordinates":[-93.0484,48.4088],"properties":{"Station_ID":"KABM5","Station_Nam":"KABETOGAMA","Latitude":"48.40880","Longitude":"-93.04840","Snowdepth":"5.000","Units":"in","Rept_Date":"2025-03-20 12"}},{"type":"Point","coordinates":[-93.3964,48.5778],"properties":{"Station_ID":"IFSM5","Station_Nam":"INTL FALLS SNOW","Latitude":"48.57780","Longitude":"-93.39640","Snowdepth":"5.000","Units":"in","Rept_Date":"2025-03-20 12"}},{"type":"Point","coordinates":[-94.99992,42.4129],"properties":{"Station_ID":"IA-SC-7","Station_Nam":"SAC CITY 0.6 SSW, IA","Latitude":"42.41290","Longitude":"-94.99992","Snowdepth":"5.000","Units":"in","Rept_Date":"2025-03-20 12"}},{"type":"Point","coordinates":[-71.7167,43.9333],"properties":{"Station_ID":"HUBN3","Station_Nam":"HUBBARD BROOK","Latitude":"43.93330","Longitude":"-71.71670","Snowdepth":"5.000","Units":"in","Rept_Date":"2025-03-21 06"}},{"type":"Point","coordinates":[-96.058,42.2839],"properties":{"Station_ID":"HLYI4","Station_Nam":"HORNICK 4 NNE","Latitude":"42.28390","Longitude":"-96.05800","Snowdepth":"5.000","Units":"in","Rept_Date":"2025-03-20 12"}},{"type":"Point","coordinates":[-91.3482,43.7637],"properties":{"Station_ID":"HKHM5","Station_Nam":"HOKAH WWTP","Latitude":"43.76370","Longitude":"-91.34820","Snowdepth":"5.000","Units":"in","Rept_Date":"2025-03-20 16"}},{"type":"Point","coordinates":[-85.5696,46.128],"properties":{"Station_ID":"ENGM4","Station_Nam":"ENGADINE MDOT","Latitude":"46.12800","Longitude":"-85.56960","Snowdepth":"5.000","Units":"in","Rept_Date":"2025-03-20 11"}},{"type":"Point","coordinates":[-92.4433,43.2419],"properties":{"Station_ID":"ELMI4","Station_Nam":"ELMA IOWA","Latitude":"43.24190","Longitude":"-92.44330","Snowdepth":"5.000","Units":"in","Rept_Date":"2025-03-20 12"}},{"type":"Point","coordinates":[-87.7087,43.7184],"properties":{"Station_ID":"COSW3","Station_Nam":"SHEBOYGAN WWTP","Latitude":"43.71840","Longitude":"-87.70870","Snowdepth":"5.000","Units":"in","Rept_Date":"2025-03-20 12"}},{"type":"Point","coordinates":[-88.7483,44.6227],"properties":{"Station_ID":"CNTW3","Station_Nam":"CLINTONVILLE","Latitude":"44.62270","Longitude":"-88.74830","Snowdepth":"5.000","Units":"in","Rept_Date":"2025-03-20 11"}},{"type":"Point","coordinates":[-92.6716,43.0604],"properties":{"Station_ID":"CIYI4","Station_Nam":"CHARLES CITY","Latitude":"43.06040","Longitude":"-92.67160","Snowdepth":"5.000","Units":"in","Rept_Date":"2025-03-20 12"}},{"type":"Point","coordinates":[-86.9167,46.3333],"properties":{"Station_ID":"CEFM4","Station_Nam":"EXPERIMENT FARM #2","Latitude":"46.33330","Longitude":"-86.91670","Snowdepth":"5.000","Units":"in","Rept_Date":"2025-03-20 12"}},{"type":"Point","coordinates":[-94.6167,48.7167],"properties":{"Station_ID":"BAUM5","Station_Nam":"BAUDETTE,MN","Latitude":"48.71670","Longitude":"-94.61670","Snowdepth":"5.000","Units":"in","Rept_Date":"2025-03-20 20"}},{"type":"Point","coordinates":[-89.3464,44.3083],"properties":{"Station_ID":"AMDW3","Station_Nam":"ALMOND-5 NE","Latitude":"44.30830","Longitude":"-89.34640","Snowdepth":"5.000","Units":"in","Rept_Date":"2025-03-20 13"}},{"type":"Point","coordinates":[-74.091,44.40915],"properties":{"Station_ID":"58111_MADIS","Station_Nam":"BLOOMINGDALE 0.2 NW, NY","Latitude":"44.40915","Longitude":"-74.09100","Snowdepth":"5.000","Units":"in","Rept_Date":"2025-03-20 11"}},{"type":"Point","coordinates":[-89.6159,44.97329],"properties":{"Station_ID":"55131_MADIS","Station_Nam":"WAUSAU 1.6 ENE, WI","Latitude":"44.97329","Longitude":"-89.61590","Snowdepth":"5.000","Units":"in","Rept_Date":"2025-03-20 11"}},{"type":"Point","coordinates":[-89.23812,44.17764],"properties":{"Station_ID":"WI-WH-7","Station_Nam":"WILD ROSE 0.5 E, WI","Latitude":"44.17764","Longitude":"-89.23812","Snowdepth":"4.500","Units":"in","Rept_Date":"2025-03-20 10"}},{"type":"Point","coordinates":[-72.6383,48.1392],"properties":{"Station_ID":"CQLP","Station_Nam":"CQLP","Latitude":"48.13920","Longitude":"-72.63830","Snowdepth":"4.213","Units":"in","Rept_Date":"2025-03-20 12"}},{"type":"Point","coordinates":[-87.58465,44.17615],"properties":{"Station_ID":"WI-MC-24","Station_Nam":"TWO RIVERS 1.4 N, WI","Latitude":"44.17615","Longitude":"-87.58465","Snowdepth":"4.200","Units":"in","Rept_Date":"2025-03-20 12"}},{"type":"Point","coordinates":[-88.4513,44.1737],"properties":{"Station_ID":"WI-WN-9","Station_Nam":"NEENAH 1.1 ENE, WI","Latitude":"44.17370","Longitude":"-88.45130","Snowdepth":"4.000","Units":"in","Rept_Date":"2025-03-20 12"}},{"type":"Point","coordinates":[-89.8305,44.3994],"properties":{"Station_ID":"WIRW3","Station_Nam":"WIS RAPIDS GRAND AV B","Latitude":"44.39940","Longitude":"-89.83050","Snowdepth":"4.000","Units":"in","Rept_Date":"2025-03-20 12"}},{"type":"Point","coordinates":[-88.3437,44.2452],"properties":{"Station_ID":"WI-OG-36","Station_Nam":"APPLETON 3.0 ESE, WI","Latitude":"44.24520","Longitude":"-88.34370","Snowdepth":"4.000","Units":"in","Rept_Date":"2025-03-20 11"}},{"type":"Point","coordinates":[-90.27013,46.41555],"properties":{"Station_ID":"WI-IR-3","Station_Nam":"PENCE 0.1 E, WI","Latitude":"46.41555","Longitude":"-90.27013","Snowdepth":"4.000","Units":"in","Rept_Date":"2025-03-20 12"}},{"type":"Point","coordinates":[-90.42463,44.87209],"properties":{"Station_ID":"WI-CK-3","Station_Nam":"COLBY 5.9 WSW, WI","Latitude":"44.87209","Longitude":"-90.42463","Snowdepth":"4.000","Units":"in","Rept_Date":"2025-03-21 00"}},{"type":"Point","coordinates":[-72.39245,44.66338],"properties":{"Station_ID":"VT-OL-26","Station_Nam":"CRAFTSBURY COMMON 0.8 NW, VT","Latitude":"44.66338","Longitude":"-72.39245","Snowdepth":"4.000","Units":"in","Rept_Date":"2025-03-20 11"}},{"type":"Point","coordinates":[-96.36,42.4053],"properties":{"Station_ID":"SUXI4","Station_Nam":"SNOW PAID FOR KSUX","Latitude":"42.40530","Longitude":"-96.36000","Snowdepth":"4.000","Units":"in","Rept_Date":"2025-03-20 11"}},{"type":"Point","coordinates":[-90.0899,44.8175],"properties":{"Station_ID":"STRW3","Station_Nam":"STRATFORD 1NW","Latitude":"44.81750","Longitude":"-90.08990","Snowdepth":"4.000","Units":"in","Rept_Date":"2025-03-20 11"}},{"type":"Point","coordinates":[-90.2892,44.7539],"properties":{"Station_ID":"SPCW3","Station_Nam":"SPENCER-WWTP","Latitude":"44.75390","Longitude":"-90.28920","Snowdepth":"4.000","Units":"in","Rept_Date":"2025-03-20 12"}},{"type":"Point","coordinates":[-92.9232,43.3817],"properties":{"Station_ID":"SANI4","Station_Nam":"ST ANSGAR","Latitude":"43.38170","Longitude":"-92.92320","Snowdepth":"4.000","Units":"in","Rept_Date":"2025-03-20 11"}},{"type":"Point","coordinates":[-89.6617,45.1786],"properties":{"Station_ID":"RRLW3","Station_Nam":"MERRILL,WI","Latitude":"45.17860","Longitude":"-89.66170","Snowdepth":"4.000","Units":"in","Rept_Date":"2025-03-20 13"}},{"type":"Point","coordinates":[-84.9511,45.3612],"properties":{"Station_ID":"PTYM4","Station_Nam":"PETOSKEY NCMC","Latitude":"45.36120","Longitude":"-84.95110","Snowdepth":"4.000","Units":"in","Rept_Date":"2025-03-20 12"}},{"type":"Point","coordinates":[-94.6606,42.7292],"properties":{"Station_ID":"POCI4","Station_Nam":"POCAHONTAS,IA","Latitude":"42.72920","Longitude":"-94.66060","Snowdepth":"4.000","Units":"in","Rept_Date":"2025-03-20 13"}},{"type":"Point","coordinates":[-90.1317,44.4369],"properties":{"Station_ID":"PITW3","Station_Nam":"PITTSVILLE-WWTP","Latitude":"44.43690","Longitude":"-90.13170","Snowdepth":"4.000","Units":"in","Rept_Date":"2025-03-20 12"}},{"type":"Point","coordinates":[-89.0752,46.0663],"properties":{"Station_ID":"PHEW3","Station_Nam":"PHELPS","Latitude":"46.06630","Longitude":"-89.07520","Snowdepth":"4.000","Units":"in","Rept_Date":"2025-03-20 12"}},{"type":"Point","coordinates":[-92.8309,43.2791],"properties":{"Station_ID":"OSAI4","Station_Nam":"OSAGE","Latitude":"43.27910","Longitude":"-92.83090","Snowdepth":"4.000","Units":"in","Rept_Date":"2025-03-20 12"}},{"type":"Point","coordinates":[-87.7996,43.6309],"properties":{"Station_ID":"OOTW3","Station_Nam":"OOSTBURG WWTP","Latitude":"43.63090","Longitude":"-87.79960","Snowdepth":"4.000","Units":"in","Rept_Date":"2025-03-20 12"}},{"type":"Point","coordinates":[-85.6752,44.883],"properties":{"Station_ID":"NWFM4","Station_Nam":"NW MICHIGAN RESEARCH FARM","Latitude":"44.88300","Longitude":"-85.67520","Snowdepth":"4.000","Units":"in","Rept_Date":"2025-03-20 12"}},{"type":"Point","coordinates":[-71.11664,44.02955],"properties":{"Station_ID":"NH-CR-46","Station_Nam":"NORTH CONWAY 1.8 SSE, NH","Latitude":"44.02955","Longitude":"-71.11664","Snowdepth":"4.000","Units":"in","Rept_Date":"2025-03-20 14"}},{"type":"Point","coordinates":[-74.222,43.9707],"properties":{"Station_ID":"NCBN6","Station_Nam":"NEWCOMB","Latitude":"43.97070","Longitude":"-74.22200","Snowdepth":"4.000","Units":"in","Rept_Date":"2025-03-20 11"}},{"type":"Point","coordinates":[-87.9636,44.0042],"properties":{"Station_ID":"NAZW3","Station_Nam":"ST. NAZIANZ-2 W","Latitude":"44.00420","Longitude":"-87.96360","Snowdepth":"4.000","Units":"in","Rept_Date":"2025-03-20 12"}},{"type":"Point","coordinates":[-91.63064,44.04219],"properties":{"Station_ID":"MN-WN-21","Station_Nam":"WINONA 2.0 ESE, MN","Latitude":"44.04219","Longitude":"-91.63064","Snowdepth":"4.000","Units":"in","Rept_Date":"2025-03-20 12"}},{"type":"Point","coordinates":[-92.48862,44.04129],"properties":{"Station_ID":"MN-OL-126","Station_Nam":"ROCHESTER 1.8 NNW, MN","Latitude":"44.04129","Longitude":"-92.48862","Snowdepth":"4.000","Units":"in","Rept_Date":"2025-03-20 13"}},{"type":"Point","coordinates":[-85.1475,45.18639],"properties":{"Station_ID":"MI-CX-7","Station_Nam":"EAST JORDAN 2.1 NNW, MI","Latitude":"45.18639","Longitude":"-85.14750","Snowdepth":"4.000","Units":"in","Rept_Date":"2025-03-20 20"}},{"type":"Point","coordinates":[-86.1065,44.53976],"properties":{"Station_ID":"MI-BZ-1","Station_Nam":"BENZONIA 5.3 S, MI","Latitude":"44.53976","Longitude":"-86.10650","Snowdepth":"4.000","Units":"in","Rept_Date":"2025-03-20 13"}},{"type":"Point","coordinates":[-87.6117,45.111],"properties":{"Station_ID":"MENM4","Station_Nam":"MENOMINEE NO.2","Latitude":"45.11100","Longitude":"-87.61170","Snowdepth":"4.000","Units":"in","Rept_Date":"2025-03-20 13"}},{"type":"Point","coordinates":[-93.1925,43.15],"properties":{"Station_ID":"MCWI4","Station_Nam":"WINNEBAGO RIVER","Latitude":"43.15000","Longitude":"-93.19250","Snowdepth":"4.000","Units":"in","Rept_Date":"2025-03-20 12"}},{"type":"Point","coordinates":[-90.0597,43.7899],"properties":{"Station_ID":"MAUW3","Station_Nam":"MAUSTON 1SE","Latitude":"43.78990","Longitude":"-90.05970","Snowdepth":"4.000","Units":"in","Rept_Date":"2025-03-20 11"}},{"type":"Point","coordinates":[-85.8352,44.855],"properties":{"Station_ID":"MAPM4","Station_Nam":"MAPLE CITY 1E","Latitude":"44.85500","Longitude":"-85.83520","Snowdepth":"4.000","Units":"in","Rept_Date":"2025-03-20 22"}},{"type":"Point","coordinates":[-91.2666,43.8622],"properties":{"Station_ID":"LSNW3","Station_Nam":"LA CROSSE SNOW","Latitude":"43.86220","Longitude":"-91.26660","Snowdepth":"4.000","Units":"in","Rept_Date":"2025-03-20 18"}},{"type":"Point","coordinates":[-91.2725,43.8669],"properties":{"Station_ID":"LCFW3","Station_Nam":"LA CROSSE 4NNW","Latitude":"43.86690","Longitude":"-91.27250","Snowdepth":"4.000","Units":"in","Rept_Date":"2025-03-20 12"}},{"type":"Point","coordinates":[-88.0403,45.8758],"properties":{"Station_ID":"IMNM4","Station_Nam":"IRON MOUTAIN 5N","Latitude":"45.87580","Longitude":"-88.04030","Snowdepth":"4.000","Units":"in","Rept_Date":"2025-03-21 00"}},{"type":"Point","coordinates":[-90.2935,40.91356],"properties":{"Station_ID":"IL-KX-9","Station_Nam":"KNOXVILLE 0.7 NW, IL","Latitude":"40.91356","Longitude":"-90.29350","Snowdepth":"4.000","Units":"in","Rept_Date":"2025-03-20 12"}},{"type":"Point","coordinates":[-87.3547,46.4908],"properties":{"Station_ID":"HRVM4","Station_Nam":"HARVEY","Latitude":"46.49080","Longitude":"-87.35470","Snowdepth":"4.000","Units":"in","Rept_Date":"2025-03-20 10"}},{"type":"Point","coordinates":[-95.9807,39.654],"properties":{"Station_ID":"GOFK1","Station_Nam":"GOFF 3 WSW","Latitude":"39.65400","Longitude":"-95.98070","Snowdepth":"4.000","Units":"in","Rept_Date":"2025-03-20 14"}},{"type":"Point","coordinates":[-89.8308,43.975],"properties":{"Station_ID":"FRSW3","Station_Nam":"FRIENDSHIP","Latitude":"43.97500","Longitude":"-89.83080","Snowdepth":"4.000","Units":"in","Rept_Date":"2025-03-20 12"}},{"type":"Point","coordinates":[-87.3969,44.6978],"properties":{"Station_ID":"FORW3","Station_Nam":"FORESTVILLE-4E","Latitude":"44.69780","Longitude":"-87.39690","Snowdepth":"4.000","Units":"in","Rept_Date":"2025-03-20 13"}},{"type":"Point","coordinates":[-68.6119,47.2386],"properties":{"Station_ID":"FISM1","Station_Nam":"FORT KENT COOP","Latitude":"47.23860","Longitude":"-68.61190","Snowdepth":"4.000","Units":"in","Rept_Date":"2025-03-20 11"}},{"type":"Point","coordinates":[-94.2228,47.2467],"properties":{"Station_ID":"FEDM5","Station_Nam":"LEECH LAKE DAM","Latitude":"47.24670","Longitude":"-94.22280","Snowdepth":"4.000","Units":"in","Rept_Date":"2025-03-20 13"}},{"type":"Point","coordinates":[-85.1477,45.1863],"properties":{"Station_ID":"EJNM4","Station_Nam":"EAST JORDAN 2NW","Latitude":"45.18630","Longitude":"-85.14770","Snowdepth":"4.000","Units":"in","Rept_Date":"2025-03-20 20"}},{"type":"Point","coordinates":[-88.0136,45.2353],"properties":{"Station_ID":"CVZW3","Station_Nam":"WISCONSIN PUBLIC SERVICE","Latitude":"45.23530","Longitude":"-88.01360","Snowdepth":"4.000","Units":"in","Rept_Date":"2025-03-20 14"}},{"type":"Point","coordinates":[-92.6925,47.8506],"properties":{"Station_ID":"COKM5","Station_Nam":"COOK","Latitude":"47.85060","Longitude":"-92.69250","Snowdepth":"4.000","Units":"in","Rept_Date":"2025-03-20 11"}},{"type":"Point","coordinates":[-85.2672,45.3172],"properties":{"Station_ID":"CHRM4","Station_Nam":"CHARLEVOIX","Latitude":"45.31720","Longitude":"-85.26720","Snowdepth":"4.000","Units":"in","Rept_Date":"2025-03-20 12"}},{"type":"Point","coordinates":[-94.0947,43.6237],"properties":{"Station_ID":"BTHM5","Station_Nam":"BLUE EARTH 1S","Latitude":"43.62370","Longitude":"-94.09470","Snowdepth":"4.000","Units":"in","Rept_Date":"2025-03-20 13"}},{"type":"Point","coordinates":[-87.4833,46.0667],"properties":{"Station_ID":"AROM4","Station_Nam":"ARNOLD,MI","Latitude":"46.06670","Longitude":"-87.48330","Snowdepth":"4.000","Units":"in","Rept_Date":"2025-03-20 12"}},{"type":"Point","coordinates":[-89.15,45.1333],"properties":{"Station_ID":"ANTW3","Station_Nam":"ANTIGO,WI","Latitude":"45.13330","Longitude":"-89.15000","Snowdepth":"4.000","Units":"in","Rept_Date":"2025-03-20 13"}},{"type":"Point","coordinates":[-93.3019,43.6064],"properties":{"Station_ID":"ALBM5","Station_Nam":"ALBERT LEA 3 SE","Latitude":"43.60640","Longitude":"-93.30190","Snowdepth":"4.000","Units":"in","Rept_Date":"2025-03-20 13"}},{"type":"Point","coordinates":[-91.63324,44.04338],"properties":{"Station_ID":"MN-WN-23","Station_Nam":"WINONA 1.9 ESE, MN","Latitude":"44.04338","Longitude":"-91.63324","Snowdepth":"3.700","Units":"in","Rept_Date":"2025-03-20 13"}},{"type":"Point","coordinates":[-87.98594,43.74648],"properties":{"Station_ID":"WI-SB-45","Station_Nam":"PLYMOUTH 0.7 W, WI","Latitude":"43.74648","Longitude":"-87.98594","Snowdepth":"3.500","Units":"in","Rept_Date":"2025-03-20 13"}},{"type":"Point","coordinates":[-87.9505,43.54812],"properties":{"Station_ID":"WI-SB-10","Station_Nam":"RANDOM LAKE 0.5 SSE, WI","Latitude":"43.54812","Longitude":"-87.95050","Snowdepth":"3.500","Units":"in","Rept_Date":"2025-03-20 12"}},{"type":"Point","coordinates":[-88.2859,44.26062],"properties":{"Station_ID":"WI-OG-12","Station_Nam":"KAUKAUNA 1.5 SW, WI","Latitude":"44.26062","Longitude":"-88.28590","Snowdepth":"3.500","Units":"in","Rept_Date":"2025-03-20 11"}},{"type":"Point","coordinates":[-89.52332,43.97269],"properties":{"Station_ID":"WI-MQ-7","Station_Nam":"WESTFIELD 6.3 NNW, WI","Latitude":"43.97269","Longitude":"-89.52332","Snowdepth":"3.500","Units":"in","Rept_Date":"2025-03-20 13"}},{"type":"Point","coordinates":[-91.22913,43.88511],"properties":{"Station_ID":"WI-LC-38","Station_Nam":"ONALASKA 0.5 WSW, WI","Latitude":"43.88511","Longitude":"-91.22913","Snowdepth":"3.500","Units":"in","Rept_Date":"2025-03-20 12"}},{"type":"Point","coordinates":[-96.07571,41.17702],"properties":{"Station_ID":"NE-SY-11","Station_Nam":"LA VISTA 2.0 WSW, NE","Latitude":"41.17702","Longitude":"-96.07571","Snowdepth":"3.500","Units":"in","Rept_Date":"2025-03-20 12"}},{"type":"Point","coordinates":[-92.4375,44.03975],"properties":{"Station_ID":"MN-OL-18","Station_Nam":"ROCHESTER 2.6 NE, MN","Latitude":"44.03975","Longitude":"-92.43750","Snowdepth":"3.500","Units":"in","Rept_Date":"2025-03-20 11"}},{"type":"Point","coordinates":[-87.21344,46.33748],"properties":{"Station_ID":"MI-MQ-34","Station_Nam":"SKANDIA 3.0 SSE, MI","Latitude":"46.33748","Longitude":"-87.21344","Snowdepth":"3.500","Units":"in","Rept_Date":"2025-03-20 11"}},{"type":"Point","coordinates":[-84.9754,45.4345],"properties":{"Station_ID":"MI-EM-5","Station_Nam":"HARBOR SPRINGS 0.7 ENE, MI","Latitude":"45.43450","Longitude":"-84.97540","Snowdepth":"3.500","Units":"in","Rept_Date":"2025-03-20 11"}},{"type":"Point","coordinates":[-85.70346,44.64622],"properties":{"Station_ID":"MI-GT-28","Station_Nam":"GRAWN 1.3 SSW, MI","Latitude":"44.64622","Longitude":"-85.70346","Snowdepth":"3.400","Units":"in","Rept_Date":"2025-03-20 11"}},{"type":"Point","coordinates":[-75.6147,48.8722],"properties":{"Station_ID":"CQYR","Station_Nam":"CQYR","Latitude":"48.87220","Longitude":"-75.61470","Snowdepth":"3.307","Units":"in","Rept_Date":"2025-03-20 12"}},{"type":"Point","coordinates":[-87.7664,43.7847],"properties":{"Station_ID":"WI-SB-12","Station_Nam":"SHEBOYGAN 3.2 NW, WI","Latitude":"43.78470","Longitude":"-87.76640","Snowdepth":"3.200","Units":"in","Rept_Date":"2025-03-20 12"}},{"type":"Point","coordinates":[-91.19841,43.11454],"properties":{"Station_ID":"IA-AL-7","Station_Nam":"HARPERS FERRY 6.4 SSW, IA","Latitude":"43.11454","Longitude":"-91.19841","Snowdepth":"3.100","Units":"in","Rept_Date":"2025-03-20 12"}},{"type":"Point","coordinates":[-91.1973,47.3824],"properties":{"Station_ID":"WLFM5","Station_Nam":"WOLF RIDGE ENVIRON LEARNING CENTER","Latitude":"47.38240","Longitude":"-91.19730","Snowdepth":"3.000","Units":"in","Rept_Date":"2025-03-20 12"}},{"type":"Point","coordinates":[-87.80851,43.72198],"properties":{"Station_ID":"WI-SB-41","Station_Nam":"SHEBOYGAN FALLS 0.9 SE, WI","Latitude":"43.72198","Longitude":"-87.80851","Snowdepth":"3.000","Units":"in","Rept_Date":"2025-03-20 12"}},{"type":"Point","coordinates":[-89.71167,44.28201],"properties":{"Station_ID":"WI-PT-25","Station_Nam":"WISCONSIN RAPIDS 9.8 SE, WI","Latitude":"44.28201","Longitude":"-89.71167","Snowdepth":"3.000","Units":"in","Rept_Date":"2025-03-20 12"}},{"type":"Point","coordinates":[-88.0387,43.4286],"properties":{"Station_ID":"WI-OZ-17","Station_Nam":"WEST BEND 7.3 E, WI","Latitude":"43.42860","Longitude":"-88.03870","Snowdepth":"3.000","Units":"in","Rept_Date":"2025-03-20 12"}},{"type":"Point","coordinates":[-87.94202,44.03991],"properties":{"Station_ID":"WI-MC-15","Station_Nam":"VALDERS 3.3 WSW, WI","Latitude":"44.03991","Longitude":"-87.94202","Snowdepth":"3.000","Units":"in","Rept_Date":"2025-03-20 12"}},{"type":"Point","coordinates":[-91.6703,44.0875],"properties":{"Station_ID":"WIDM5","Station_Nam":"WINONA DAM 5A","Latitude":"44.08750","Longitude":"-91.67030","Snowdepth":"3.000","Units":"in","Rept_Date":"2025-03-20 12"}},{"type":"Point","coordinates":[-90.82435,44.81428],"properties":{"Station_ID":"WI-CK-10","Station_Nam":"THORP 10.1 S, WI","Latitude":"44.81428","Longitude":"-90.82435","Snowdepth":"3.000","Units":"in","Rept_Date":"2025-03-20 11"}},{"type":"Point","coordinates":[-87.9735,44.46772],"properties":{"Station_ID":"WI-BN-14","Station_Nam":"GREEN BAY 3.8 SSE, WI","Latitude":"44.46772","Longitude":"-87.97350","Snowdepth":"3.000","Units":"in","Rept_Date":"2025-03-20 12"}},{"type":"Point","coordinates":[-93.8,42.4667],"properties":{"Station_ID":"WEBI4","Station_Nam":"WEBSTER CITY,IA","Latitude":"42.46670","Longitude":"-93.80000","Snowdepth":"3.000","Units":"in","Rept_Date":"2025-03-20 12"}},{"type":"Point","coordinates":[-91.4532,43.3155],"properties":{"Station_ID":"WAUI4","Station_Nam":"WAUKON","Latitude":"43.31550","Longitude":"-91.45320","Snowdepth":"3.000","Units":"in","Rept_Date":"2025-03-20 13"}},{"type":"Point","coordinates":[-72.7483,43.9357],"properties":{"Station_ID":"VT-OG-10","Station_Nam":"BRAINTREE 2.8 SW, VT","Latitude":"43.93570","Longitude":"-72.74830","Snowdepth":"3.000","Units":"in","Rept_Date":"2025-03-20 11"}},{"type":"Point","coordinates":[-73.02,42.82],"properties":{"Station_ID":"VT-BN-12","Station_Nam":"STAMFORD 5.0 NNE, VT","Latitude":"42.82000","Longitude":"-73.02000","Snowdepth":"3.000","Units":"in","Rept_Date":"2025-03-20 20"}},{"type":"Point","coordinates":[-84.4397,45.1702],"properties":{"Station_ID":"VANM4","Station_Nam":"VANDERBILT 11ENE","Latitude":"45.17020","Longitude":"-84.43970","Snowdepth":"3.000","Units":"in","Rept_Date":"2025-03-20 12"}},{"type":"Point","coordinates":[-95.6814,41.3898],"properties":{"Station_ID":"UNDI4","Station_Nam":"UNDERWOOD","Latitude":"41.38980","Longitude":"-95.68140","Snowdepth":"3.000","Units":"in","Rept_Date":"2025-03-20 12"}},{"type":"Point","coordinates":[-91.4378,43.9994],"properties":{"Station_ID":"TREW3","Station_Nam":"DAM 6","Latitude":"43.99940","Longitude":"-91.43780","Snowdepth":"3.000","Units":"in","Rept_Date":"2025-03-20 13"}},{"type":"Point","coordinates":[-85.512,44.7338],"properties":{"Station_ID":"TCEM4","Station_Nam":"TRAVERSE CITY 4.7ESE","Latitude":"44.73380","Longitude":"-85.51200","Snowdepth":"3.000","Units":"in","Rept_Date":"2025-03-20 11"}},{"type":"Point","coordinates":[-89.6222,44.9463],"properties":{"Station_ID":"SAUW3","Station_Nam":"WAUSAU WSAW TV","Latitude":"44.94630","Longitude":"-89.62220","Snowdepth":"3.000","Units":"in","Rept_Date":"2025-03-21 04"}},{"type":"Point","coordinates":[-88.8426,43.8334],"properties":{"Station_ID":"RONW3","Station_Nam":"RIPON","Latitude":"43.83340","Longitude":"-88.84260","Snowdepth":"3.000","Units":"in","Rept_Date":"2025-03-20 12"}},{"type":"Point","coordinates":[-88.9097,41.3282],"properties":{"Station_ID":"OTTI2","Station_Nam":"OTTAWA 4SW","Latitude":"41.32820","Longitude":"-88.90970","Snowdepth":"3.000","Units":"in","Rept_Date":"2025-03-20 13"}},{"type":"Point","coordinates":[-90.5301,43.7194],"properties":{"Station_ID":"OTRW3","Station_Nam":"ONTARIO 3E","Latitude":"43.71940","Longitude":"-90.53010","Snowdepth":"3.000","Units":"in","Rept_Date":"2025-03-20 12"}},{"type":"Point","coordinates":[-88.5556,44.0333],"properties":{"Station_ID":"OKHW3","Station_Nam":"OSHKOSH,WI","Latitude":"44.03330","Longitude":"-88.55560","Snowdepth":"3.000","Units":"in","Rept_Date":"2025-03-20 12"}},{"type":"Point","coordinates":[-97.17528,40.14954],"properties":{"Station_ID":"NE-JF-4","Station_Nam":"FAIRBURY 0.6 N, NE","Latitude":"40.14954","Longitude":"-97.17528","Snowdepth":"3.000","Units":"in","Rept_Date":"2025-03-20 12"}},{"type":"Point","coordinates":[-96.91509,41.99216],"properties":{"Station_ID":"NE-CM-3","Station_Nam":"WISNER 0.4 NNW, NE","Latitude":"41.99216","Longitude":"-96.91509","Snowdepth":"3.000","Units":"in","Rept_Date":"2025-03-20 12"}},{"type":"Point","coordinates":[-71.3,44.2667],"properties":{"Station_ID":"MWN","Station_Nam":"MOUNT WASHINGTON","Latitude":"44.26670","Longitude":"-71.30000","Snowdepth":"3.000","Units":"in","Rept_Date":"2025-03-20 12"}},{"type":"Point","coordinates":[-91.8125,44.1601],"properties":{"Station_ID":"MSCM5","Station_Nam":"MINNESOTA CITY DAM 5","Latitude":"44.16010","Longitude":"-91.81250","Snowdepth":"3.000","Units":"in","Rept_Date":"2025-03-20 12"}},{"type":"Point","coordinates":[-94.71496,48.52328],"properties":{"Station_ID":"MN-LW-3","Station_Nam":"BAUDETTE 14.3 SSW, MN","Latitude":"48.52328","Longitude":"-94.71496","Snowdepth":"3.000","Units":"in","Rept_Date":"2025-03-20 13"}},{"type":"Point","coordinates":[-93.26958,43.76249],"properties":{"Station_ID":"MN-FN-11","Station_Nam":"HOLLANDALE 3.3 W, MN","Latitude":"43.76249","Longitude":"-93.26958","Snowdepth":"3.000","Units":"in","Rept_Date":"2025-03-20 11"}},{"type":"Point","coordinates":[-85.51189,44.7337],"properties":{"Station_ID":"MI-GT-25","Station_Nam":"TRAVERSE CITY 4.7 ESE, MI","Latitude":"44.73370","Longitude":"-85.51189","Snowdepth":"3.000","Units":"in","Rept_Date":"2025-03-20 11"}},{"type":"Point","coordinates":[-68.21736,46.70273],"properties":{"Station_ID":"ME-AR-41","Station_Nam":"CASTLE HILL 1.0 S, ME","Latitude":"46.70273","Longitude":"-68.21736","Snowdepth":"3.000","Units":"in","Rept_Date":"2025-03-20 11"}},{"type":"Point","coordinates":[-68.1439,47.0108],"properties":{"Station_ID":"ME-AR-18","Station_Nam":"NEW SWEDEN 4.9 NNW, ME","Latitude":"47.01080","Longitude":"-68.14390","Snowdepth":"3.000","Units":"in","Rept_Date":"2025-03-20 11"}},{"type":"Point","coordinates":[-95.806,41.65],"properties":{"Station_ID":"LOGI4","Station_Nam":"LOGAN 1 WNW","Latitude":"41.65000","Longitude":"-95.80600","Snowdepth":"3.000","Units":"in","Rept_Date":"2025-03-20 12"}},{"type":"Point","coordinates":[-96.1667,42.7817],"properties":{"Station_ID":"LEMI4","Station_Nam":"LE MARS,IA","Latitude":"42.78170","Longitude":"-96.16670","Snowdepth":"3.000","Units":"in","Rept_Date":"2025-03-20 13"}},{"type":"Point","coordinates":[-90.9686,40.5838],"properties":{"Station_ID":"LAHI2","Station_Nam":"LA HARPE","Latitude":"40.58380","Longitude":"-90.96860","Snowdepth":"3.000","Units":"in","Rept_Date":"2025-03-20 14"}},{"type":"Point","coordinates":[-85.56666,44.73333],"properties":{"Station_ID":"KTVC","Station_Nam":"CHERRY CAPITAL AIRPORT","Latitude":"44.73333","Longitude":"-85.56666","Snowdepth":"3.000","Units":"in","Rept_Date":"2025-03-20 18"}},{"type":"Point","coordinates":[-87.9281,41.62737],"properties":{"Station_ID":"IL-WL-16","Station_Nam":"HOMER GLEN 0.8 ENE, IL","Latitude":"41.62737","Longitude":"-87.92810","Snowdepth":"3.000","Units":"in","Rept_Date":"2025-03-20 12"}},{"type":"Point","coordinates":[-90.9571,40.5849],"properties":{"Station_ID":"IL-HN-7","Station_Nam":"LA HARPE 0.7 E, IL","Latitude":"40.58490","Longitude":"-90.95710","Snowdepth":"3.000","Units":"in","Rept_Date":"2025-03-20 14"}},{"type":"Point","coordinates":[-95.80577,41.65],"properties":{"Station_ID":"IA-HR-16","Station_Nam":"LOGAN 0.8 WNW, IA","Latitude":"41.65000","Longitude":"-95.80577","Snowdepth":"3.000","Units":"in","Rept_Date":"2025-03-20 12"}},{"type":"Point","coordinates":[-91.35361,43.18992],"properties":{"Station_ID":"IA-AL-3","Station_Nam":"MONONA 9.8 N, IA","Latitude":"43.18992","Longitude":"-91.35361","Snowdepth":"3.000","Units":"in","Rept_Date":"2025-03-20 12"}},{"type":"Point","coordinates":[-93.2,42.75],"properties":{"Station_ID":"HPTI4","Station_Nam":"HAMPTON,IA","Latitude":"42.75000","Longitude":"-93.20000","Snowdepth":"3.000","Units":"in","Rept_Date":"2025-03-20 12"}},{"type":"Point","coordinates":[-88.6313,43.4388],"properties":{"Station_ID":"HORW3","Station_Nam":"HORICON WWTP","Latitude":"43.43880","Longitude":"-88.63130","Snowdepth":"3.000","Units":"in","Rept_Date":"2025-03-20 12"}},{"type":"Point","coordinates":[-91.2295,43.5705],"properties":{"Station_ID":"GENW3","Station_Nam":"GENOA DAM 8","Latitude":"43.57050","Longitude":"-91.22950","Snowdepth":"3.000","Units":"in","Rept_Date":"2025-03-20 11"}},{"type":"Point","coordinates":[-89.6161,48.0122],"properties":{"Station_ID":"GDPM5","Station_Nam":"PIGEON RIVER AT MIDDLE FALLS","Latitude":"48.01220","Longitude":"-89.61610","Snowdepth":"3.000","Units":"in","Rept_Date":"2025-03-20 12"}},{"type":"Point","coordinates":[-70.1564,44.6893],"properties":{"Station_ID":"FARM1","Station_Nam":"FARMINGTON","Latitude":"44.68930","Longitude":"-70.15640","Snowdepth":"3.000","Units":"in","Rept_Date":"2025-03-20 11"}},{"type":"Point","coordinates":[-88.3278,44.2497],"properties":{"Station_ID":"DRYW3","Station_Nam":"APPLETON-4 SE DARBOY","Latitude":"44.24970","Longitude":"-88.32780","Snowdepth":"3.000","Units":"in","Rept_Date":"2025-03-20 12"}},{"type":"Point","coordinates":[-87.8119,44.3513],"properties":{"Station_ID":"DENW3","Station_Nam":"DENMARK WWTP","Latitude":"44.35130","Longitude":"-87.81190","Snowdepth":"3.000","Units":"in","Rept_Date":"2025-03-20 13"}},{"type":"Point","coordinates":[-94.6147,47.3847],"properties":{"Station_ID":"CSLM5","Station_Nam":"CASS LAKE,MN","Latitude":"47.38470","Longitude":"-94.61470","Snowdepth":"3.000","Units":"in","Rept_Date":"2025-03-20 13"}},{"type":"Point","coordinates":[-88.15,44.0333],"properties":{"Station_ID":"CHIW3","Station_Nam":"CHILTON,WI","Latitude":"44.03330","Longitude":"-88.15000","Snowdepth":"3.000","Units":"in","Rept_Date":"2025-03-20 12"}},{"type":"Point","coordinates":[-68.0125,46.8681],"properties":{"Station_ID":"CARM1","Station_Nam":"CARIBOU WFO","Latitude":"46.86810","Longitude":"-68.01250","Snowdepth":"3.000","Units":"in","Rept_Date":"2025-03-21 04"}},{"type":"Point","coordinates":[-65.5069,46.99343],"properties":{"Station_ID":"CAN-NB-11","Station_Nam":"MIRAMICHI 3.3 S, CAN","Latitude":"46.99343","Longitude":"-65.50690","Snowdepth":"3.000","Units":"in","Rept_Date":"2025-03-20 08"}},{"type":"Point","coordinates":[-88.0972,44.5317],"properties":{"Station_ID":"BGGW3","Station_Nam":"GREEN BAY,WI","Latitude":"44.53170","Longitude":"-88.09720","Snowdepth":"3.000","Units":"in","Rept_Date":"2025-03-20 13"}},{"type":"Point","coordinates":[-86.1311,44.5316],"properties":{"Station_ID":"BEUM4","Station_Nam":"BEULAH 7SSW","Latitude":"44.53160","Longitude":"-86.13110","Snowdepth":"3.000","Units":"in","Rept_Date":"2025-03-20 12"}},{"type":"Point","coordinates":[-89.3366,41.7225],"properties":{"Station_ID":"AMBI2","Station_Nam":"AMBOY WATER","Latitude":"41.72250","Longitude":"-89.33660","Snowdepth":"3.000","Units":"in","Rept_Date":"2025-03-20 13"}},{"type":"Point","coordinates":[-88.9038,45.6736],"properties":{"Station_ID":"AGNW3","Station_Nam":"ARGONNE-1.5 NW","Latitude":"45.67360","Longitude":"-88.90380","Snowdepth":"3.000","Units":"in","Rept_Date":"2025-03-20 13"}},{"type":"Point","coordinates":[-96.227,41.14341],"properties":{"Station_ID":"60671_MADIS","Station_Nam":"GRETNA 0.9 ENE, NE","Latitude":"41.14341","Longitude":"-96.22700","Snowdepth":"3.000","Units":"in","Rept_Date":"2025-03-20 16"}},{"type":"Point","coordinates":[-88.10876,41.72312],"properties":{"Station_ID":"IL-WL-166","Station_Nam":"NAPERVILLE 3.6 SE, IL","Latitude":"41.72312","Longitude":"-88.10876","Snowdepth":"2.800","Units":"in","Rept_Date":"2025-03-20 14"}},{"type":"Point","coordinates":[-88.31156,44.6678],"properties":{"Station_ID":"WI-SW-5","Station_Nam":"PULASKI 3.7 W, WI","Latitude":"44.66780","Longitude":"-88.31156","Snowdepth":"2.500","Units":"in","Rept_Date":"2025-03-20 12"}},{"type":"Point","coordinates":[-90.3858,43.39597],"properties":{"Station_ID":"WI-RL-6","Station_Nam":"RICHLAND CENTER 4.0 N, WI","Latitude":"43.39597","Longitude":"-90.38580","Snowdepth":"2.500","Units":"in","Rept_Date":"2025-03-20 13"}},{"type":"Point","coordinates":[-88.47802,44.88591],"properties":{"Station_ID":"WI-OC-23","Station_Nam":"GILLETT 8.4 W, WI","Latitude":"44.88591","Longitude":"-88.47802","Snowdepth":"2.500","Units":"in","Rept_Date":"2025-03-20 13"}},{"type":"Point","coordinates":[-87.55086,44.16221],"properties":{"Station_ID":"WI-MC-29","Station_Nam":"TWO RIVERS 1.6 ENE, WI","Latitude":"44.16221","Longitude":"-87.55086","Snowdepth":"2.500","Units":"in","Rept_Date":"2025-03-20 12"}},{"type":"Point","coordinates":[-91.05942,43.75668],"properties":{"Station_ID":"WI-LC-21","Station_Nam":"COON VALLEY 4.5 NNW, WI","Latitude":"43.75668","Longitude":"-91.05942","Snowdepth":"2.500","Units":"in","Rept_Date":"2025-03-20 12"}},{"type":"Point","coordinates":[-88.40165,43.49201],"properties":{"Station_ID":"WI-DD-5","Station_Nam":"THERESA 3.1 SE, WI","Latitude":"43.49201","Longitude":"-88.40165","Snowdepth":"2.500","Units":"in","Rept_Date":"2025-03-20 13"}},{"type":"Point","coordinates":[-73.8786,43.12684],"properties":{"Station_ID":"NY-SR-22","Station_Nam":"GREENFIELD CENTER 1.6 W, NY","Latitude":"43.12684","Longitude":"-73.87860","Snowdepth":"2.500","Units":"in","Rept_Date":"2025-03-20 11"}},{"type":"Point","coordinates":[-96.6897,40.7492],"properties":{"Station_ID":"NE-LA-38","Station_Nam":"LINCOLN 4.6 S, NE","Latitude":"40.74920","Longitude":"-96.68970","Snowdepth":"2.500","Units":"in","Rept_Date":"2025-03-20 12"}},{"type":"Point","coordinates":[-91.955,47.875],"properties":{"Station_ID":"MN-SL-323","Station_Nam":"ELY 5.2 WSW, MN","Latitude":"47.87500","Longitude":"-91.95500","Snowdepth":"2.500","Units":"in","Rept_Date":"2025-03-20 12"}},{"type":"Point","coordinates":[-87.9327,41.60842],"properties":{"Station_ID":"IL-WL-131","Station_Nam":"HOMER GLEN 0.7 NNE, IL","Latitude":"41.60842","Longitude":"-87.93270","Snowdepth":"2.500","Units":"in","Rept_Date":"2025-03-20 12"}},{"type":"Point","coordinates":[-88.8566,41.3633],"properties":{"Station_ID":"IL-LS-1","Station_Nam":"OTTAWA 1.3 NW, IL","Latitude":"41.36330","Longitude":"-88.85660","Snowdepth":"2.500","Units":"in","Rept_Date":"2025-03-20 12"}},{"type":"Point","coordinates":[-87.814,42.19841],"properties":{"Station_ID":"IL-LK-69","Station_Nam":"HIGHWOOD 0.9 S, IL","Latitude":"42.19841","Longitude":"-87.81400","Snowdepth":"2.500","Units":"in","Rept_Date":"2025-03-20 12"}},{"type":"Point","coordinates":[-88.3803,41.98401],"properties":{"Station_ID":"IL-KN-67","Station_Nam":"ST. CHARLES 6.0 NW, IL","Latitude":"41.98401","Longitude":"-88.38030","Snowdepth":"2.500","Units":"in","Rept_Date":"2025-03-20 12"}},{"type":"Point","coordinates":[-88.2829,42.05571],"properties":{"Station_ID":"IL-KN-149","Station_Nam":"ELGIN 1.1 NNE, IL","Latitude":"42.05571","Longitude":"-88.28290","Snowdepth":"2.500","Units":"in","Rept_Date":"2025-03-20 12"}},{"type":"Point","coordinates":[-88.2991,41.62933],"properties":{"Station_ID":"IL-KD-24","Station_Nam":"OSWEGO 5.0 SSE, IL","Latitude":"41.62933","Longitude":"-88.29910","Snowdepth":"2.500","Units":"in","Rept_Date":"2025-03-20 12"}},{"type":"Point","coordinates":[-88.36452,41.68946],"properties":{"Station_ID":"IL-KD-127","Station_Nam":"OSWEGO 1.7 WSW, IL","Latitude":"41.68946","Longitude":"-88.36452","Snowdepth":"2.500","Units":"in","Rept_Date":"2025-03-20 12"}},{"type":"Point","coordinates":[-88.3443,41.6645],"properties":{"Station_ID":"IL-KD-102","Station_Nam":"OSWEGO 2.4 SSW, IL","Latitude":"41.66450","Longitude":"-88.34430","Snowdepth":"2.500","Units":"in","Rept_Date":"2025-03-20 12"}},{"type":"Point","coordinates":[-88.08285,41.86338],"properties":{"Station_ID":"IL-DP-141","Station_Nam":"GLEN ELLYN 1.1 WSW, IL","Latitude":"41.86338","Longitude":"-88.08285","Snowdepth":"2.500","Units":"in","Rept_Date":"2025-03-20 12"}},{"type":"Point","coordinates":[-88.2376,41.73035],"properties":{"Station_ID":"IL-DP-101","Station_Nam":"AURORA 3.8 SE, IL","Latitude":"41.73035","Longitude":"-88.23760","Snowdepth":"2.500","Units":"in","Rept_Date":"2025-03-20 12"}},{"type":"Point","coordinates":[-88.76072,41.92269],"properties":{"Station_ID":"IL-DK-28","Station_Nam":"DE KALB 0.7 SW, IL","Latitude":"41.92269","Longitude":"-88.76072","Snowdepth":"2.500","Units":"in","Rept_Date":"2025-03-20 12"}},{"type":"Point","coordinates":[-88.0578,42.12619],"properties":{"Station_ID":"IL-CK-346","Station_Nam":"PALATINE 1.2 NW, IL","Latitude":"42.12619","Longitude":"-88.05780","Snowdepth":"2.500","Units":"in","Rept_Date":"2025-03-20 12"}},{"type":"Point","coordinates":[-87.87399,41.92947],"properties":{"Station_ID":"IL-CK-345","Station_Nam":"FRANKLIN PARK 0.5 SSE, IL","Latitude":"41.92947","Longitude":"-87.87399","Snowdepth":"2.500","Units":"in","Rept_Date":"2025-03-20 13"}},{"type":"Point","coordinates":[-91.6443,43.34391],"properties":{"Station_ID":"IA-WH-1","Station_Nam":"DECORAH 7.9 ENE, IA","Latitude":"43.34391","Longitude":"-91.64430","Snowdepth":"2.500","Units":"in","Rept_Date":"2025-03-20 14"}},{"type":"Point","coordinates":[-91.4926,43.1409],"properties":{"Station_ID":"IA-AL-6","Station_Nam":"POSTVILLE 5.5 NE, IA","Latitude":"43.14090","Longitude":"-91.49260","Snowdepth":"2.500","Units":"in","Rept_Date":"2025-03-20 12"}},{"type":"Point","coordinates":[-88.6891,41.91735],"properties":{"Station_ID":"IL-DK-5","Station_Nam":"CORTLAND 0.3 SSW, IL","Latitude":"41.91735","Longitude":"-88.68910","Snowdepth":"2.400","Units":"in","Rept_Date":"2025-03-20 12"}},{"type":"Point","coordinates":[-75.48952,45.27286],"properties":{"Station_ID":"CAN-ON-791","Station_Nam":"METCALFE 4.4 NNW, CAN","Latitude":"45.27286","Longitude":"-75.48952","Snowdepth":"2.400","Units":"in","Rept_Date":"2025-03-20 11"}},{"type":"Point","coordinates":[-88.0064,41.7721],"properties":{"Station_ID":"IL-DP-189","Station_Nam":"DOWNERS GROVE 1.8 SSE, IL","Latitude":"41.77210","Longitude":"-88.00640","Snowdepth":"2.300","Units":"in","Rept_Date":"2025-03-20 12"}},{"type":"Point","coordinates":[-89.0778,44.35038],"properties":{"Station_ID":"68941_MADIS","Station_Nam":"WAUPACA 0.3 SSW, WI","Latitude":"44.35038","Longitude":"-89.07780","Snowdepth":"2.300","Units":"in","Rept_Date":"2025-03-20 12"}},{"type":"Point","coordinates":[-89.10404,44.35483],"properties":{"Station_ID":"WI-WP-19","Station_Nam":"WAUPACA 1.4 W, WI","Latitude":"44.35483","Longitude":"-89.10404","Snowdepth":"2.200","Units":"in","Rept_Date":"2025-03-20 11"}},{"type":"Point","coordinates":[-87.8884,42.17264],"properties":{"Station_ID":"IL-LK-39","Station_Nam":"RIVERWOODS 0.4 ENE, IL","Latitude":"42.17264","Longitude":"-87.88840","Snowdepth":"2.100","Units":"in","Rept_Date":"2025-03-20 12"}},{"type":"Point","coordinates":[-87.96441,41.88033],"properties":{"Station_ID":"IL-DP-178","Station_Nam":"VILLA PARK 0.8 ESE, IL","Latitude":"41.88033","Longitude":"-87.96441","Snowdepth":"2.100","Units":"in","Rept_Date":"2025-03-20 12"}},{"type":"Point","coordinates":[-88.8825,43.472],"properties":{"Station_ID":"WSFW3","Station_Nam":"TOWN OF WESTFORD","Latitude":"43.47200","Longitude":"-88.88250","Snowdepth":"2.000","Units":"in","Rept_Date":"2025-03-20 12"}},{"type":"Point","coordinates":[-87.95,41.8],"properties":{"Station_ID":"WJWI2","Station_Nam":"WESTMONT,IL","Latitude":"41.80000","Longitude":"-87.95000","Snowdepth":"2.000","Units":"in","Rept_Date":"2025-03-20 12"}},{"type":"Point","coordinates":[-88.52354,44.01097],"properties":{"Station_ID":"WI-WN-19","Station_Nam":"OSHKOSH 1.6 ESE, WI","Latitude":"44.01097","Longitude":"-88.52354","Snowdepth":"2.000","Units":"in","Rept_Date":"2025-03-20 12"}},{"type":"Point","coordinates":[-89.19808,44.18572],"properties":{"Station_ID":"WI-WH-16","Station_Nam":"WILD ROSE 2.6 ENE, WI","Latitude":"44.18572","Longitude":"-89.19808","Snowdepth":"2.000","Units":"in","Rept_Date":"2025-03-20 12"}},{"type":"Point","coordinates":[-89.4579,46.19023],"properties":{"Station_ID":"WI-VL-9","Station_Nam":"LAND O' LAKES 11.7 W, WI","Latitude":"46.19023","Longitude":"-89.45790","Snowdepth":"2.000","Units":"in","Rept_Date":"2025-03-20 12"}},{"type":"Point","coordinates":[-90.124,43.404],"properties":{"Station_ID":"WI-SK-27","Station_Nam":"HILLPOINT 1.5 SSW, WI","Latitude":"43.40400","Longitude":"-90.12400","Snowdepth":"2.000","Units":"in","Rept_Date":"2025-03-20 12"}},{"type":"Point","coordinates":[-89.99739,43.55348],"properties":{"Station_ID":"WI-SK-15","Station_Nam":"REEDSBURG 1.3 N, WI","Latitude":"43.55348","Longitude":"-89.99739","Snowdepth":"2.000","Units":"in","Rept_Date":"2025-03-20 12"}},{"type":"Point","coordinates":[-87.91054,43.81185],"properties":{"Station_ID":"WI-SB-18","Station_Nam":"PLYMOUTH 5.4 NE, WI","Latitude":"43.81185","Longitude":"-87.91054","Snowdepth":"2.000","Units":"in","Rept_Date":"2025-03-20 12"}},{"type":"Point","coordinates":[-87.64477,44.23228],"properties":{"Station_ID":"WI-MC-16","Station_Nam":"MISHICOT 0.1 NNW, WI","Latitude":"44.23228","Longitude":"-87.64477","Snowdepth":"2.000","Units":"in","Rept_Date":"2025-03-20 13"}},{"type":"Point","coordinates":[-88.94066,43.84369],"properties":{"Station_ID":"WI-GL-4","Station_Nam":"GREEN LAKE 0.8 E, WI","Latitude":"43.84369","Longitude":"-88.94066","Snowdepth":"2.000","Units":"in","Rept_Date":"2025-03-20 12"}},{"type":"Point","coordinates":[-88.61655,43.79206],"properties":{"Station_ID":"WI-DL-18","Station_Nam":"ELDORADO 2.3 S, WI","Latitude":"43.79206","Longitude":"-88.61655","Snowdepth":"2.000","Units":"in","Rept_Date":"2025-03-20 12"}},{"type":"Point","coordinates":[-88.8828,43.4721],"properties":{"Station_ID":"WI-DD-16","Station_Nam":"BEAVER DAM 2.4 WNW, WI","Latitude":"43.47210","Longitude":"-88.88280","Snowdepth":"2.000","Units":"in","Rept_Date":"2025-03-20 12"}},{"type":"Point","coordinates":[-89.5691,43.51411],"properties":{"Station_ID":"WI-CB-4","Station_Nam":"PORTAGE 5.7 WSW, WI","Latitude":"43.51411","Longitude":"-89.56910","Snowdepth":"2.000","Units":"in","Rept_Date":"2025-03-20 11"}},{"type":"Point","coordinates":[-88.09457,44.5518],"properties":{"Station_ID":"WI-BN-48","Station_Nam":"HOWARD 1.7 SSW, WI","Latitude":"44.55180","Longitude":"-88.09457","Snowdepth":"2.000","Units":"in","Rept_Date":"2025-03-20 12"}},{"type":"Point","coordinates":[-89.64166,43.78638],"properties":{"Station_ID":"WI-AD-10","Station_Nam":"OXFORD 4.0 W, WI","Latitude":"43.78638","Longitude":"-89.64166","Snowdepth":"2.000","Units":"in","Rept_Date":"2025-03-20 12"}},{"type":"Point","coordinates":[-88.3495,43.8378],"properties":{"Station_ID":"TAHW3","Station_Nam":"TAYCHEEDAH","Latitude":"43.83780","Longitude":"-88.34950","Snowdepth":"2.000","Units":"in","Rept_Date":"2025-03-20 12"}},{"type":"Point","coordinates":[-89.0238,41.8109],"properties":{"Station_ID":"STWI2","Station_Nam":"STEWARD 3S","Latitude":"41.81090","Longitude":"-89.02380","Snowdepth":"2.000","Units":"in","Rept_Date":"2025-03-20 12"}},{"type":"Point","coordinates":[-90.8372,43.1343],"properties":{"Station_ID":"SBNW3","Station_Nam":"STEUBEN 4SE","Latitude":"43.13430","Longitude":"-90.83720","Snowdepth":"2.000","Units":"in","Rept_Date":"2025-03-20 13"}},{"type":"Point","coordinates":[-95.9753,42.8105],"properties":{"Station_ID":"RMSI4","Station_Nam":"REMSEN NO. 2","Latitude":"42.81050","Longitude":"-95.97530","Snowdepth":"2.000","Units":"in","Rept_Date":"2025-03-20 16"}},{"type":"Point","coordinates":[-88.9974,43.7032],"properties":{"Station_ID":"RKNW3","Station_Nam":"MARKESAN WWTP","Latitude":"43.70320","Longitude":"-88.99740","Snowdepth":"2.000","Units":"in","Rept_Date":"2025-03-20 11"}},{"type":"Point","coordinates":[-90.0001,43.5228],"properties":{"Station_ID":"RBGW3","Station_Nam":"REEDSBURG","Latitude":"43.52280","Longitude":"-90.00010","Snowdepth":"2.000","Units":"in","Rept_Date":"2025-03-20 13"}},{"type":"Point","coordinates":[-88.9779,41.6653],"properties":{"Station_ID":"PAWI2","Station_Nam":"PAW PAW 2S","Latitude":"41.66530","Longitude":"-88.97790","Snowdepth":"2.000","Units":"in","Rept_Date":"2025-03-20 12"}},{"type":"Point","coordinates":[-95.5667,46.4167],"properties":{"Station_ID":"OTTM5","Station_Nam":"OTTERTAIL,MN","Latitude":"46.41670","Longitude":"-95.56670","Snowdepth":"2.000","Units":"in","Rept_Date":"2025-03-20 11"}},{"type":"Point","coordinates":[-88.5439,44.035],"properties":{"Station_ID":"OSNW3","Station_Nam":"OSHKOSH-NORTH","Latitude":"44.03500","Longitude":"-88.54390","Snowdepth":"2.000","Units":"in","Rept_Date":"2025-03-20 12"}},{"type":"Point","coordinates":[-95.3799,46.5092],"properties":{"Station_ID":"NYMM5","Station_Nam":"NEW YORK MILLS","Latitude":"46.50920","Longitude":"-95.37990","Snowdepth":"2.000","Units":"in","Rept_Date":"2025-03-20 12"}},{"type":"Point","coordinates":[-74.15211,44.41359],"properties":{"Station_ID":"NY-FK-7","Station_Nam":"SARANAC LAKE 6.2 N, NY","Latitude":"44.41359","Longitude":"-74.15211","Snowdepth":"2.000","Units":"in","Rept_Date":"2025-03-20 10"}},{"type":"Point","coordinates":[-73.73848,44.6398],"properties":{"Station_ID":"NY-CL-12","Station_Nam":"SARANAC 0.8 SSE, NY","Latitude":"44.63980","Longitude":"-73.73848","Snowdepth":"2.000","Units":"in","Rept_Date":"2025-03-20 11"}},{"type":"Point","coordinates":[-88.7522,44.3906],"properties":{"Station_ID":"NLDW3","Station_Nam":"NEW LONDON-WWTP","Latitude":"44.39060","Longitude":"-88.75220","Snowdepth":"2.000","Units":"in","Rept_Date":"2025-03-20 12"}},{"type":"Point","coordinates":[-92.3122,43.0575],"properties":{"Station_ID":"NHPI4","Station_Nam":"NEW HAMPTON","Latitude":"43.05750","Longitude":"-92.31220","Snowdepth":"2.000","Units":"in","Rept_Date":"2025-03-20 12"}},{"type":"Point","coordinates":[-71.5373,43.43945],"properties":{"Station_ID":"NH-MR-45","Station_Nam":"NORTHFIELD 2.8 E, NH","Latitude":"43.43945","Longitude":"-71.53730","Snowdepth":"2.000","Units":"in","Rept_Date":"2025-03-20 11"}},{"type":"Point","coordinates":[-71.46461,44.33765],"properties":{"Station_ID":"NH-CS-19","Station_Nam":"CARROLL 4.6 NE, NH","Latitude":"44.33765","Longitude":"-71.46461","Snowdepth":"2.000","Units":"in","Rept_Date":"2025-03-20 11"}},{"type":"Point","coordinates":[-96.5928,40.74944],"properties":{"Station_ID":"NE-LA-19","Station_Nam":"LINCOLN 6.8 SE, NE","Latitude":"40.74944","Longitude":"-96.59280","Snowdepth":"2.000","Units":"in","Rept_Date":"2025-03-20 12"}},{"type":"Point","coordinates":[-96.62792,40.77076],"properties":{"Station_ID":"NE-LA-1","Station_Nam":"LINCOLN 4.5 SE, NE","Latitude":"40.77076","Longitude":"-96.62792","Snowdepth":"2.000","Units":"in","Rept_Date":"2025-03-20 12"}},{"type":"Point","coordinates":[-89.3171,43.7801],"properties":{"Station_ID":"MTLW3","Station_Nam":"MONTELLO WWTP","Latitude":"43.78010","Longitude":"-89.31710","Snowdepth":"2.000","Units":"in","Rept_Date":"2025-03-20 12"}},{"type":"Point","coordinates":[-91.86887,47.91158],"properties":{"Station_ID":"MN-SL-276","Station_Nam":"ELY 0.9 WNW, MN","Latitude":"47.91158","Longitude":"-91.86887","Snowdepth":"2.000","Units":"in","Rept_Date":"2025-03-20 12"}},{"type":"Point","coordinates":[-95.0522,46.9286],"properties":{"Station_ID":"MN-HB-40","Station_Nam":"PARK RAPIDS 1.0 NNE, MN","Latitude":"46.92860","Longitude":"-95.05220","Snowdepth":"2.000","Units":"in","Rept_Date":"2025-03-20 12"}},{"type":"Point","coordinates":[-90.4376,47.74865],"properties":{"Station_ID":"MN-CK-6","Station_Nam":"GRAND MARAIS 4.4 W, MN","Latitude":"47.74865","Longitude":"-90.43760","Snowdepth":"2.000","Units":"in","Rept_Date":"2025-03-20 12"}},{"type":"Point","coordinates":[-90.7197,40.9362],"properties":{"Station_ID":"MMTI2","Station_Nam":"MONMOUTH 4 NW","Latitude":"40.93620","Longitude":"-90.71970","Snowdepth":"2.000","Units":"in","Rept_Date":"2025-03-20 13"}},{"type":"Point","coordinates":[-85.95783,44.22875],"properties":{"Station_ID":"MI-MN-1","Station_Nam":"WELLSTON 0.8 N, MI","Latitude":"44.22875","Longitude":"-85.95783","Snowdepth":"2.000","Units":"in","Rept_Date":"2025-03-20 14"}},{"type":"Point","coordinates":[-85.48426,44.59871],"properties":{"Station_ID":"MI-GT-21","Station_Nam":"KINGSLEY 2.7 ENE, MI","Latitude":"44.59871","Longitude":"-85.48426","Snowdepth":"2.000","Units":"in","Rept_Date":"2025-03-20 12"}},{"type":"Point","coordinates":[-85.051,44.89981],"properties":{"Station_ID":"MI-AT-6","Station_Nam":"MANCELONA 0.5 ESE, MI","Latitude":"44.89981","Longitude":"-85.05100","Snowdepth":"2.000","Units":"in","Rept_Date":"2025-03-20 12"}},{"type":"Point","coordinates":[-87.7773,41.7373],"properties":{"Station_ID":"MFWI2","Station_Nam":"MIDWAY COOP","Latitude":"41.73730","Longitude":"-87.77730","Snowdepth":"2.000","Units":"in","Rept_Date":"2025-03-20 11"}},{"type":"Point","coordinates":[-70.3476,44.39318],"properties":{"Station_ID":"ME-OX-2","Station_Nam":"HARTFORD 1.4 N, ME","Latitude":"44.39318","Longitude":"-70.34760","Snowdepth":"2.000","Units":"in","Rept_Date":"2025-03-20 12"}},{"type":"Point","coordinates":[-89.117,41.5295],"properties":{"Station_ID":"MDTI2","Station_Nam":"MENDOTA 1S","Latitude":"41.52950","Longitude":"-89.11700","Snowdepth":"2.000","Units":"in","Rept_Date":"2025-03-20 12"}},{"type":"Point","coordinates":[-89.457,46.19],"properties":{"Station_ID":"LNOW3","Station_Nam":"LAND O LAKES","Latitude":"46.19000","Longitude":"-89.45700","Snowdepth":"2.000","Units":"in","Rept_Date":"2025-03-20 12"}},{"type":"Point","coordinates":[-88.0593,42.1889],"properties":{"Station_ID":"LKZI2","Station_Nam":"LAKE ZURICH (HYDRO)","Latitude":"42.18890","Longitude":"-88.05930","Snowdepth":"2.000","Units":"in","Rept_Date":"2025-03-20 12"}},{"type":"Point","coordinates":[-92.7522,48.0581],"properties":{"Station_ID":"LEIM5","Station_Nam":"ORR 3E","Latitude":"48.05810","Longitude":"-92.75220","Snowdepth":"2.000","Units":"in","Rept_Date":"2025-03-20 11"}},{"type":"Point","coordinates":[-90.632,43.5734],"properties":{"Station_ID":"LAFW3","Station_Nam":"LA FARGE","Latitude":"43.57340","Longitude":"-90.63200","Snowdepth":"2.000","Units":"in","Rept_Date":"2025-03-20 12"}},{"type":"Point","coordinates":[-87.91666,41.98333],"properties":{"Station_ID":"KORD","Station_Nam":"CHICAGO OHARE INTERNATIONAL","Latitude":"41.98333","Longitude":"-87.91666","Snowdepth":"2.000","Units":"in","Rept_Date":"2025-03-20 12"}},{"type":"Point","coordinates":[-71.3,44.26666],"properties":{"Station_ID":"KMWN","Station_Nam":"MOUNT WASHINGTON","Latitude":"44.26666","Longitude":"-71.30000","Snowdepth":"2.000","Units":"in","Rept_Date":"2025-03-21 06"}},{"type":"Point","coordinates":[-89.8997,41.2429],"properties":{"Station_ID":"KEWI2","Station_Nam":"KEWANEE 1 E","Latitude":"41.24290","Longitude":"-89.89970","Snowdepth":"2.000","Units":"in","Rept_Date":"2025-03-20 12"}},{"type":"Point","coordinates":[-88.1331,41.5468],"properties":{"Station_ID":"JKJI2","Station_Nam":"JOLIET 2N","Latitude":"41.54680","Longitude":"-88.13310","Snowdepth":"2.000","Units":"in","Rept_Date":"2025-03-20 12"}},{"type":"Point","coordinates":[-92.5018,43.0336],"properties":{"Station_ID":"IONI4","Station_Nam":"IONIA 2W","Latitude":"43.03360","Longitude":"-92.50180","Snowdepth":"2.000","Units":"in","Rept_Date":"2025-03-20 12"}},{"type":"Point","coordinates":[-89.16014,41.93484],"properties":{"Station_ID":"IL-OG-16","Station_Nam":"ROCHELLE 5.1 WNW, IL","Latitude":"41.93484","Longitude":"-89.16014","Snowdepth":"2.000","Units":"in","Rept_Date":"2025-03-20 13"}},{"type":"Point","coordinates":[-88.25224,42.20235],"properties":{"Station_ID":"IL-MCH-95","Station_Nam":"CARY 0.5 SSW, IL","Latitude":"42.20235","Longitude":"-88.25224","Snowdepth":"2.000","Units":"in","Rept_Date":"2025-03-20 12"}},{"type":"Point","coordinates":[-87.959,42.188],"properties":{"Station_ID":"IL-LK-16","Station_Nam":"BUFFALO GROVE 1.5 N, IL","Latitude":"42.18800","Longitude":"-87.95900","Snowdepth":"2.000","Units":"in","Rept_Date":"2025-03-20 12"}},{"type":"Point","coordinates":[-89.2257,41.86327],"properties":{"Station_ID":"IL-LE-8","Station_Nam":"ASHTON 0.4 SSW, IL","Latitude":"41.86327","Longitude":"-89.22570","Snowdepth":"2.000","Units":"in","Rept_Date":"2025-03-20 12"}},{"type":"Point","coordinates":[-89.33099,41.70963],"properties":{"Station_ID":"IL-LE-27","Station_Nam":"AMBOY 0.5 SSE, IL","Latitude":"41.70963","Longitude":"-89.33099","Snowdepth":"2.000","Units":"in","Rept_Date":"2025-03-20 12"}},{"type":"Point","coordinates":[-88.3366,42.04041],"properties":{"Station_ID":"IL-KN-95","Station_Nam":"ELGIN 2.5 W, IL","Latitude":"42.04041","Longitude":"-88.33660","Snowdepth":"2.000","Units":"in","Rept_Date":"2025-03-20 12"}},