{"type":"Topology","objects":{"snowdepth_geo":{"type":"GeometryCollection","name":"snowdepth","crs":{"type":"name","properties":{"name":"urn:ogc:def:crs:OGC:1.3:CRS84"}},"geometries":[{"type":"Point","properties":{"Station_ID":"MMSV1","Station_Nam":"MOUNT MANSFIELD","Latitude":"44.53330","Longitude":"-72.83330","Snowdepth":"79.000","Units":"in","Rept_Date":"2020-01-11 05"},"coordinates":[6598,5723]},{"type":"Point","properties":{"Station_ID":"PRKM4","Station_Nam":"MUNISING EAST","Latitude":"46.42580","Longitude":"-86.62000","Snowdepth":"76.500","Units":"in","Rept_Date":"2020-01-11 06"},"coordinates":[2871,6848]},{"type":"Point","properties":{"Station_ID":"OGIQ6","Station_Nam":"OGOKI CAMP","Latitude":"50.76680","Longitude":"-87.85820","Snowdepth":"61.100","Units":"in","Rept_Date":"2020-01-11 06"},"coordinates":[2536,9428]},{"type":"Point","properties":{"Station_ID":"MCTG1","Station_Nam":"MOUNTAIN CITY 2SW","Latitude":"34.90470","Longitude":"-83.41280","Snowdepth":"44.000","Units":"in","Rept_Date":"2020-01-10 13"},"coordinates":[3738,0]},{"type":"Point","properties":{"Station_ID":"DVLQ6","Station_Nam":"DEVIOUS LAKE","Latitude":"49.19890","Longitude":"-87.76440","Snowdepth":"43.460","Units":"in","Rept_Date":"2020-01-11 06"},"coordinates":[2561,8496]},{"type":"Point","properties":{"Station_ID":"HTLN3","Station_Nam":"HERMIT LAKE SNOWPLOT","Latitude":"44.26130","Longitude":"-71.28330","Snowdepth":"43.000","Units":"in","Rept_Date":"2020-01-10 10"},"coordinates":[7017,5562]},{"type":"Point","properties":{"Station_ID":"PDLM4","Station_Nam":"PAINESDALE","Latitude":"47.04160","Longitude":"-88.67170","Snowdepth":"39.000","Units":"in","Rept_Date":"2020-01-10 13"},"coordinates":[2316,7214]},{"type":"Point","properties":{"Station_ID":"MI-HG-18","Station_Nam":"CALUMET 0.7 W (TAMARACK), MI","Latitude":"47.24560","Longitude":"-88.46791","Snowdepth":"39.000","Units":"in","Rept_Date":"2020-01-10 13"},"coordinates":[2371,7335]},{"type":"Point","properties":{"Station_ID":"CLUM4","Station_Nam":"CALUMET-TAMARACK","Latitude":"47.24550","Longitude":"-88.46790","Snowdepth":"39.000","Units":"in","Rept_Date":"2020-01-10 14"},"coordinates":[2371,7335]},{"type":"Point","properties":{"Station_ID":"MMNV1","Station_Nam":"MT. MANSFIELD","Latitude":"44.52480","Longitude":"-72.81540","Snowdepth":"33.000","Units":"in","Rept_Date":"2020-01-10 21"},"coordinates":[6603,5718]},{"type":"Point","properties":{"Station_ID":"GMSM4","Station_Nam":"GRAND MARAIS 10S","Latitude":"46.50940","Longitude":"-85.96310","Snowdepth":"33.000","Units":"in","Rept_Date":"2020-01-10 12"},"coordinates":[3048,6898]},{"type":"Point","properties":{"Station_ID":"HVCN3","Station_Nam":"HARVARD CABIN SNOWPLOT","Latitude":"44.26630","Longitude":"-71.27790","Snowdepth":"32.000","Units":"in","Rept_Date":"2020-01-10 11"},"coordinates":[7018,5564]},{"type":"Point","properties":{"Station_ID":"QGO","Station_Nam":"QGO","Latitude":"48.85500","Longitude":"-74.20640","Snowdepth":"31.496","Units":"in","Rept_Date":"2020-01-10 12"},"coordinates":[6226,8292]},{"type":"Point","properties":{"Station_ID":"KSGM4","Station_Nam":"KEARSARGE","Latitude":"47.27520","Longitude":"-88.41700","Snowdepth":"31.000","Units":"in","Rept_Date":"2020-01-10 13"},"coordinates":[2385,7353]},{"type":"Point","properties":{"Station_ID":"MI-HG-17","Station_Nam":"CALUMET 0.5 NE (CALUMET LAKE), MI","Latitude":"47.25300","Longitude":"-88.44652","Snowdepth":"29.000","Units":"in","Rept_Date":"2020-01-10 13"},"coordinates":[2377,7340]},{"type":"Point","properties":{"Station_ID":"MI-HG-11","Station_Nam":"HOUGHTON 3.0 SSW, MI","Latitude":"47.07704","Longitude":"-88.59680","Snowdepth":"29.000","Units":"in","Rept_Date":"2020-01-10 13"},"coordinates":[2336,7235]},{"type":"Point","properties":{"Station_ID":"QOU","Station_Nam":"QOU","Latitude":"50.79250","Longitude":"-69.67470","Snowdepth":"28.031","Units":"in","Rept_Date":"2020-01-10 12"},"coordinates":[7452,9444]},{"type":"Point","properties":{"Station_ID":"QCU","Station_Nam":"QCU","Latitude":"47.82750","Longitude":"-76.59830","Snowdepth":"27.402","Units":"in","Rept_Date":"2020-01-10 12"},"coordinates":[5580,7681]},{"type":"Point","properties":{"Station_ID":"MLZ","Station_Nam":"MLZ","Latitude":"50.66170","Longitude":"-68.82360","Snowdepth":"27.362","Units":"in","Rept_Date":"2020-01-10 12"},"coordinates":[7682,9366]},{"type":"Point","properties":{"Station_ID":"QNCM4","Station_Nam":"QUINCY HILL","Latitude":"47.13640","Longitude":"-88.57950","Snowdepth":"27.000","Units":"in","Rept_Date":"2020-01-10 12"},"coordinates":[2341,7270]},{"type":"Point","properties":{"Station_ID":"IBLM5","Station_Nam":"ISABELLA 14W","Latitude":"47.59360","Longitude":"-91.65140","Snowdepth":"27.000","Units":"in","Rept_Date":"2020-01-10 15"},"coordinates":[1510,7542]},{"type":"Point","properties":{"Station_ID":"QGD","Station_Nam":"QGD","Latitude":"51.11140","Longitude":"-67.13940","Snowdepth":"26.732","Units":"in","Rept_Date":"2020-01-10 12"},"coordinates":[8137,9633]},{"type":"Point","properties":{"Station_ID":"MI-KW-2","Station_Nam":"DELAWARE 5.2 SW, MI","Latitude":"47.36928","Longitude":"-88.17919","Snowdepth":"26.000","Units":"in","Rept_Date":"2020-01-10 09"},"coordinates":[2449,7409]},{"type":"Point","properties":{"Station_ID":"HURW3","Station_Nam":"HURLEY","Latitude":"46.46250","Longitude":"-90.19550","Snowdepth":"26.000","Units":"in","Rept_Date":"2020-01-10 14"},"coordinates":[1904,6870]},{"type":"Point","properties":{"Station_ID":"NY-JF-30","Station_Nam":"WEST CARTHAGE 0.3 ENE, NY","Latitude":"43.97493","Longitude":"-75.61640","Snowdepth":"25.500","Units":"in","Rept_Date":"2020-01-10 12"},"coordinates":[5845,5391]},{"type":"Point","properties":{"Station_ID":"NWCM4","Station_Nam":"NEWBERRY CITY","Latitude":"46.35720","Longitude":"-85.51780","Snowdepth":"25.000","Units":"in","Rept_Date":"2020-01-10 12"},"coordinates":[3169,6807]},{"type":"Point","properties":{"Station_ID":"NOHM5","Station_Nam":"NORTHOME","Latitude":"47.83590","Longitude":"-94.25550","Snowdepth":"25.000","Units":"in","Rept_Date":"2020-01-10 13"},"coordinates":[806,7686]},{"type":"Point","properties":{"Station_ID":"IWOM4","Station_Nam":"IRONWOOD#2","Latitude":"46.46520","Longitude":"-90.13820","Snowdepth":"25.000","Units":"in","Rept_Date":"2020-01-10 13"},"coordinates":[1920,6871]},{"type":"Point","properties":{"Station_ID":"MI-BG-3","Station_Nam":"L'ANSE 17.8 SE, MI","Latitude":"46.55730","Longitude":"-88.20770","Snowdepth":"24.500","Units":"in","Rept_Date":"2020-01-10 13"},"coordinates":[2441,6926]},{"type":"Point","properties":{"Station_ID":"QLB","Station_Nam":"QLB","Latitude":"50.72360","Longitude":"-75.10000","Snowdepth":"24.252","Units":"in","Rept_Date":"2020-01-10 12"},"coordinates":[5985,9403]},{"type":"Point","properties":{"Station_ID":"MQT","Station_Nam":"MARQUETTE, MI","Latitude":"46.53140","Longitude":"-87.54920","Snowdepth":"24.000","Units":"in","Rept_Date":"2020-01-11 06"},"coordinates":[2619,6911]},{"type":"Point","properties":{"Station_ID":"MI-HG-14","Station_Nam":"HOUGHTON 0.6 SE, MI","Latitude":"47.10847","Longitude":"-88.55235","Snowdepth":"24.000","Units":"in","Rept_Date":"2020-01-10 13"},"coordinates":[2348,7254]},{"type":"Point","properties":{"Station_ID":"CLKS2","Station_Nam":"WATERTOWN-23MI.ESE","Latitude":"44.75000","Longitude":"-96.68330","Snowdepth":"24.000","Units":"in","Rept_Date":"2020-01-10 15"},"coordinates":[150,5852]},{"type":"Point","properties":{"Station_ID":"MN-SL-15","Station_Nam":"CHISHOLM 0.4 WSW, MN","Latitude":"47.48557","Longitude":"-92.88690","Snowdepth":"23.500","Units":"in","Rept_Date":"2020-01-10 13"},"coordinates":[1176,7478]},{"type":"Point","properties":{"Station_ID":"PTLQ6","Station_Nam":"PORTAGE LAKE","Latitude":"49.06950","Longitude":"-86.65940","Snowdepth":"23.150","Units":"in","Rept_Date":"2020-01-11 06"},"coordinates":[2860,8419]},{"type":"Point","properties":{"Station_ID":"STEM4","Station_Nam":"STEUBEN","Latitude":"46.18530","Longitude":"-86.46410","Snowdepth":"23.000","Units":"in","Rept_Date":"2020-01-10 14"},"coordinates":[2913,6705]},{"type":"Point","properties":{"Station_ID":"PHEW3","Station_Nam":"PHELPS","Latitude":"46.06630","Longitude":"-89.07520","Snowdepth":"23.000","Units":"in","Rept_Date":"2020-01-10 13"},"coordinates":[2207,6634]},{"type":"Point","properties":{"Station_ID":"BERM4","Station_Nam":"BERGLAND DAM","Latitude":"46.58690","Longitude":"-89.54750","Snowdepth":"23.000","Units":"in","Rept_Date":"2020-01-10 13"},"coordinates":[2079,6944]},{"type":"Point","properties":{"Station_ID":"AUDQ6","Station_Nam":"AUDEN","Latitude":"48.52600","Longitude":"-82.57570","Snowdepth":"22.950","Units":"in","Rept_Date":"2020-01-11 06"},"coordinates":[3964,8096]},{"type":"Point","properties":{"Station_ID":"TRIQ6","Station_Nam":"TRIO LAKE","Latitude":"49.22880","Longitude":"-87.22920","Snowdepth":"22.910","Units":"in","Rept_Date":"2020-01-11 06"},"coordinates":[2706,8514]},{"type":"Point","properties":{"Station_ID":"SVBQ6","Station_Nam":"SAVANT BASE","Latitude":"50.28730","Longitude":"-90.65670","Snowdepth":"22.680","Units":"in","Rept_Date":"2020-01-11 06"},"coordinates":[1779,9143]},{"type":"Point","properties":{"Station_ID":"QCX","Station_Nam":"QCX","Latitude":"51.32830","Longitude":"-70.08060","Snowdepth":"22.205","Units":"in","Rept_Date":"2020-01-10 12"},"coordinates":[7342,9762]},{"type":"Point","properties":{"Station_ID":"QYR","Station_Nam":"QYR","Latitude":"48.87220","Longitude":"-75.61470","Snowdepth":"22.165","Units":"in","Rept_Date":"2020-01-10 12"},"coordinates":[5846,8302]},{"type":"Point","properties":{"Station_ID":"WRSM5","Station_Nam":"WRENSHALL","Latitude":"46.61550","Longitude":"-92.38380","Snowdepth":"22.000","Units":"in","Rept_Date":"2020-01-10 14"},"coordinates":[1312,6961]},{"type":"Point","properties":{"Station_ID":"WRPW3","Station_Nam":"WATER PURIFICATION PLANT","Latitude":"44.38800","Longitude":"-89.80550","Snowdepth":"22.000","Units":"in","Rept_Date":"2020-01-10 12"},"coordinates":[2009,5637]},{"type":"Point","properties":{"Station_ID":"WI-IR-3","Station_Nam":"PENCE 0.1 E, WI","Latitude":"46.41555","Longitude":"-90.27013","Snowdepth":"22.000","Units":"in","Rept_Date":"2020-01-10 13"},"coordinates":[1884,6842]},{"type":"Point","properties":{"Station_ID":"MNSM4","Station_Nam":"MUNISING","Latitude":"46.41210","Longitude":"-86.66250","Snowdepth":"22.000","Units":"in","Rept_Date":"2020-01-10 11"},"coordinates":[2859,6840]},{"type":"Point","properties":{"Station_ID":"MN8JKXE2","Station_Nam":"PRAIRIE PORTAGE 5.2 SSW","Latitude":"47.97663","Longitude":"-91.46744","Snowdepth":"22.000","Units":"in","Rept_Date":"2020-01-10 13"},"coordinates":[1560,7770]},{"type":"Point","properties":{"Station_ID":"MN-IT-23","Station_Nam":"BOVEY 13.4 N, MN","Latitude":"47.48855","Longitude":"-93.43497","Snowdepth":"22.000","Units":"in","Rept_Date":"2020-01-10 13"},"coordinates":[1028,7480]},{"type":"Point","properties":{"Station_ID":"ILIM5","Station_Nam":"ISLAND LAKE","Latitude":"47.02400","Longitude":"-92.07000","Snowdepth":"22.000","Units":"in","Rept_Date":"2020-01-10 15"},"coordinates":[1397,7204]},{"type":"Point","properties":{"Station_ID":"CLQM5","Station_Nam":"CLOQUET","Latitude":"46.70470","Longitude":"-92.52530","Snowdepth":"22.000","Units":"in","Rept_Date":"2020-01-10 14"},"coordinates":[1274,7014]},{"type":"Point","properties":{"Station_ID":"BNDM5","Station_Nam":"ELY 25E","Latitude":"47.97190","Longitude":"-91.44860","Snowdepth":"22.000","Units":"in","Rept_Date":"2020-01-10 13"},"coordinates":[1565,7767]},{"type":"Point","properties":{"Station_ID":"MN-IT-11","Station_Nam":"NASHWAUK 11.5 N, MN","Latitude":"47.54496","Longitude":"-93.19420","Snowdepth":"21.500","Units":"in","Rept_Date":"2020-01-10 10"},"coordinates":[1093,7513]},{"type":"Point","properties":{"Station_ID":"QWE","Station_Nam":"QWE","Latitude":"47.84610","Longitude":"-73.80670","Snowdepth":"21.260","Units":"in","Rept_Date":"2020-01-10 12"},"coordinates":[6335,7692]},{"type":"Point","properties":{"Station_ID":"QTV","Station_Nam":"QTV","Latitude":"49.66000","Longitude":"-69.35690","Snowdepth":"21.063","Units":"in","Rept_Date":"2020-01-10 12"},"coordinates":[7537,8770]},{"type":"Point","properties":{"Station_ID":"PRDM4","Station_Nam":"PARADISE","Latitude":"46.60380","Longitude":"-85.03960","Snowdepth":"21.000","Units":"in","Rept_Date":"2020-01-10 11"},"coordinates":[3298,6954]},{"type":"Point","properties":{"Station_ID":"PDGM4","Station_Nam":"PAULDING","Latitude":"46.39760","Longitude":"-89.17940","Snowdepth":"21.000","Units":"in","Rept_Date":"2020-01-10 13"},"coordinates":[2179,6831]},{"type":"Point","properties":{"Station_ID":"GNLM4","Station_Nam":"GREENLAND 6N","Latitude":"46.87360","Longitude":"-89.10060","Snowdepth":"21.000","Units":"in","Rept_Date":"2020-01-10 13"},"coordinates":[2200,7114]},{"type":"Point","properties":{"Station_ID":"CLKM4","Station_Nam":"CLARKSBURG","Latitude":"46.49910","Longitude":"-87.84500","Snowdepth":"21.000","Units":"in","Rept_Date":"2020-01-10 12"},"coordinates":[2539,6892]},{"type":"Point","properties":{"Station_ID":"CAN-NB-50","Station_Nam":"DOYLEVILLE 2.4 WNW, CAN","Latitude":"47.90803","Longitude":"-66.13279","Snowdepth":"20.600","Units":"in","Rept_Date":"2020-01-10 13"},"coordinates":[8409,7729]},{"type":"Point","properties":{"Station_ID":"MN-BK-6","Station_Nam":"LAKE PARK 6.0 S, MN","Latitude":"46.79850","Longitude":"-96.12180","Snowdepth":"20.500","Units":"in","Rept_Date":"2020-01-10 13"},"coordinates":[302,7070]},{"type":"Point","properties":{"Station_ID":"KABQ6","Station_Nam":"CAB LAKE","Latitude":"49.59950","Longitude":"-89.17990","Snowdepth":"20.350","Units":"in","Rept_Date":"2020-01-11 06"},"coordinates":[2179,8734]},{"type":"Point","properties":{"Station_ID":"QFT","Station_Nam":"QFT","Latitude":"50.83280","Longitude":"-74.40390","Snowdepth":"20.079","Units":"in","Rept_Date":"2020-01-10 12"},"coordinates":[6173,9468]},{"type":"Point","properties":{"Station_ID":"WI-WB-2","Station_Nam":"STONE LAKE 2.0 NW, WI","Latitude":"45.85960","Longitude":"-91.57710","Snowdepth":"20.000","Units":"in","Rept_Date":"2020-01-10 13"},"coordinates":[1531,6512]},{"type":"Point","properties":{"Station_ID":"WI-VL-9","Station_Nam":"LAND O' LAKES 11.7 W, WI","Latitude":"46.19023","Longitude":"-89.45790","Snowdepth":"20.000","Units":"in","Rept_Date":"2020-01-10 13"},"coordinates":[2103,6708]},{"type":"Point","properties":{"Station_ID":"MN4DC1DW","Station_Nam":"FOUR CORNERS 3.6 E","Latitude":"46.84373","Longitude":"-92.20633","Snowdepth":"20.000","Units":"in","Rept_Date":"2020-01-10 12"},"coordinates":[1360,7096]},{"type":"Point","properties":{"Station_ID":"MI-MQ-19","Station_Nam":"ISHPEMING 7.2 SW, MI","Latitude":"46.40550","Longitude":"-87.75670","Snowdepth":"20.000","Units":"in","Rept_Date":"2020-01-10 11"},"coordinates":[2563,6836]},{"type":"Point","properties":{"Station_ID":"MI-HG-6","Station_Nam":"CALUMET 5.8 ENE, MI","Latitude":"47.27200","Longitude":"-88.33400","Snowdepth":"20.000","Units":"in","Rept_Date":"2020-01-10 11"},"coordinates":[2407,7351]},{"type":"Point","properties":{"Station_ID":"MI-HG-12","Station_Nam":"DOLLAR BAY 0.2 ENE, MI","Latitude":"47.12067","Longitude":"-88.49895","Snowdepth":"20.000","Units":"in","Rept_Date":"2020-01-10 13"},"coordinates":[2363,7261]},{"type":"Point","properties":{"Station_ID":"MCLN8","Station_Nam":"MC LEOD,ND","Latitude":"46.40250","Longitude":"-97.23810","Snowdepth":"20.000","Units":"in","Rept_Date":"2020-01-10 15"},"coordinates":[0,6834]},{"type":"Point","properties":{"Station_ID":"LVDW3","Station_Nam":"LAC VIEUX DESERT","Latitude":"46.12110","Longitude":"-89.07580","Snowdepth":"20.000","Units":"in","Rept_Date":"2020-01-10 15"},"coordinates":[2207,6667]},{"type":"Point","properties":{"Station_ID":"LNOW3","Station_Nam":"LAND O LAKES","Latitude":"46.19000","Longitude":"-89.45700","Snowdepth":"20.000","Units":"in","Rept_Date":"2020-01-10 13"},"coordinates":[2104,6708]},{"type":"Point","properties":{"Station_ID":"DLHM5","Station_Nam":"DULUTH NWS","Latitude":"46.83680","Longitude":"-92.21080","Snowdepth":"20.000","Units":"in","Rept_Date":"2020-01-11 06"},"coordinates":[1359,7092]},{"type":"Point","properties":{"Station_ID":"DLH","Station_Nam":"DULUTH, MN","Latitude":"46.83690","Longitude":"-92.21030","Snowdepth":"20.000","Units":"in","Rept_Date":"2020-01-11 00"},"coordinates":[1359,7092]},{"type":"Point","properties":{"Station_ID":"BBEM4","Station_Nam":"BIG BAY 9SW","Latitude":"46.74620","Longitude":"-87.88160","Snowdepth":"20.000","Units":"in","Rept_Date":"2020-01-10 13"},"coordinates":[2530,7039]},{"type":"Point","properties":{"Station_ID":"QCO","Station_Nam":"QCO","Latitude":"51.45280","Longitude":"-72.20110","Snowdepth":"19.724","Units":"in","Rept_Date":"2020-01-10 12"},"coordinates":[6769,9836]},{"type":"Point","properties":{"Station_ID":"CATQ6","Station_Nam":"CAT LAKE","Latitude":"51.72690","Longitude":"-91.82210","Snowdepth":"19.060","Units":"in","Rept_Date":"2020-01-11 06"},"coordinates":[1464,9999]},{"type":"Point","properties":{"Station_ID":"WTRW3","Station_Nam":"WINTER","Latitude":"45.79920","Longitude":"-90.99470","Snowdepth":"19.000","Units":"in","Rept_Date":"2020-01-10 15"},"coordinates":[1688,6476]},{"type":"Point","properties":{"Station_ID":"VT-OL-12","Station_Nam":"GREENSBORO 3.9 NNE, VT","Latitude":"44.63100","Longitude":"-72.28000","Snowdepth":"19.000","Units":"in","Rept_Date":"2020-01-10 13"},"coordinates":[6747,5781]},{"type":"Point","properties":{"Station_ID":"STGW3","Station_Nam":"ST GERMAIN","Latitude":"45.91550","Longitude":"-89.48940","Snowdepth":"19.000","Units":"in","Rept_Date":"2020-01-10 12"},"coordinates":[2095,6545]},{"type":"Point","properties":{"Station_ID":"NH-CS-10","Station_Nam":"RANDOLPH 1.4 NE, NH","Latitude":"44.38824","Longitude":"-71.26950","Snowdepth":"19.000","Units":"in","Rept_Date":"2020-01-10 12"},"coordinates":[7020,5637]},{"type":"Point","properties":{"Station_ID":"MI-HG-1","Station_Nam":"HOUGHTON 1.6 ESE, MI","Latitude":"47.10774","Longitude":"-88.52940","Snowdepth":"19.000","Units":"in","Rept_Date":"2020-01-10 13"},"coordinates":[2354,7253]},{"type":"Point","properties":{"Station_ID":"MAIW3","Station_Nam":"MADELINE ISLAND","Latitude":"46.78330","Longitude":"-90.76670","Snowdepth":"19.000","Units":"in","Rept_Date":"2020-01-10 14"},"coordinates":[1750,7061]},{"type":"Point","properties":{"Station_ID":"JOHV1","Station_Nam":"JOHNSON 2 N","Latitude":"44.65790","Longitude":"-72.67850","Snowdepth":"19.000","Units":"in","Rept_Date":"2020-01-10 12"},"coordinates":[6640,5797]},{"type":"Point","properties":{"Station_ID":"HERM4","Station_Nam":"HERMAN,MI","Latitude":"46.65000","Longitude":"-88.33330","Snowdepth":"19.000","Units":"in","Rept_Date":"2020-01-10 13"},"coordinates":[2407,6981]},{"type":"Point","properties":{"Station_ID":"GNFM5","Station_Nam":"GUNFLINT LAKE","Latitude":"48.16670","Longitude":"-90.88750","Snowdepth":"19.000","Units":"in","Rept_Date":"2020-01-10 13"},"coordinates":[1717,7883]},{"type":"Point","properties":{"Station_ID":"EVRW3","Station_Nam":"EAGLE RIVER-4 E","Latitude":"45.91890","Longitude":"-89.15280","Snowdepth":"19.000","Units":"in","Rept_Date":"2020-01-10 12"},"coordinates":[2186,6547]},{"type":"Point","properties":{"Station_ID":"CAN-NS-103","Station_Nam":"TRAFALGAR 4.9 WSW, CAN","Latitude":"45.26217","Longitude":"-62.72285","Snowdepth":"19.000","Units":"in","Rept_Date":"2020-01-10 11"},"coordinates":[9331,6156]},{"type":"Point","properties":{"Station_ID":"MN-IT-19","Station_Nam":"COHASSET 7.6 NNW, MN","Latitude":"47.34204","Longitude":"-93.69765","Snowdepth":"18.500","Units":"in","Rept_Date":"2020-01-10 14"},"coordinates":[957,7393]},{"type":"Point","properties":{"Station_ID":"QMA","Station_Nam":"QMA","Latitude":"50.10330","Longitude":"-70.47190","Snowdepth":"18.307","Units":"in","Rept_Date":"2020-01-10 12"},"coordinates":[7236,9034]},{"type":"Point","properties":{"Station_ID":"QMD","Station_Nam":"QMD","Latitude":"49.29060","Longitude":"-75.84500","Snowdepth":"18.150","Units":"in","Rept_Date":"2020-01-10 12"},"coordinates":[5784,8551]},{"type":"Point","properties":{"Station_ID":"CAN-PE-43","Station_Nam":"GLENCOE 0.3 W, CAN","Latitude":"46.20115","Longitude":"-62.81740","Snowdepth":"18.100","Units":"in","Rept_Date":"2020-01-10 12"},"coordinates":[9305,6715]},{"type":"Point","properties":{"Station_ID":"WTRM4","Station_Nam":"WATERSMEET 12WSW","Latitude":"46.22310","Longitude":"-89.40850","Snowdepth":"18.000","Units":"in","Rept_Date":"2020-01-10 12"},"coordinates":[2117,6728]},{"type":"Point","properties":{"Station_ID":"WI-BY-14","Station_Nam":"ASHLAND 9.8 W, WI","Latitude":"46.59742","Longitude":"-91.07856","Snowdepth":"18.000","Units":"in","Rept_Date":"2020-01-10 12"},"coordinates":[1665,6950]},{"type":"Point","properties":{"Station_ID":"RHIW3","Station_Nam":"RHINELANDER","Latitude":"45.59860","Longitude":"-89.45080","Snowdepth":"18.000","Units":"in","Rept_Date":"2020-01-10 13"},"coordinates":[2105,6356]},{"type":"Point","properties":{"Station_ID":"MN9UO3KA","Station_Nam":"GAPPAS LANDING CG 3.8 N","Latitude":"48.49307","Longitude":"-93.03634","Snowdepth":"18.000","Units":"in","Rept_Date":"2020-01-10 13"},"coordinates":[1136,8077]},{"type":"Point","properties":{"Station_ID":"MN8O09O3","Station_Nam":"ORR 3.6 E","Latitude":"48.04403","Longitude":"-92.75427","Snowdepth":"18.000","Units":"in","Rept_Date":"2020-01-10 12"},"coordinates":[1212,7810]},{"type":"Point","properties":{"Station_ID":"LEIM5","Station_Nam":"ORR 3E","Latitude":"48.05810","Longitude":"-92.75220","Snowdepth":"18.000","Units":"in","Rept_Date":"2020-01-10 12"},"coordinates":[1213,7818]},{"type":"Point","properties":{"Station_ID":"KABM5","Station_Nam":"KABETOGAMA LAKE VISITOR CTR","Latitude":"48.40880","Longitude":"-93.04840","Snowdepth":"18.000","Units":"in","Rept_Date":"2020-01-10 13"},"coordinates":[1133,8027]},{"type":"Point","properties":{"Station_ID":"CSLM5","Station_Nam":"CASS LAKE,MN","Latitude":"47.38470","Longitude":"-94.61470","Snowdepth":"18.000","Units":"in","Rept_Date":"2020-01-10 14"},"coordinates":[709,7418]},{"type":"Point","properties":{"Station_ID":"SOCQ6","Station_Nam":"SOCKET LAKE","Latitude":"50.77870","Longitude":"-91.79300","Snowdepth":"17.870","Units":"in","Rept_Date":"2020-01-11 06"},"coordinates":[1472,9435]},{"type":"Point","properties":{"Station_ID":"WI-VL-14","Station_Nam":"BOULDER JUNCTION 1.4 NE, WI","Latitude":"46.12840","Longitude":"-89.62470","Snowdepth":"17.500","Units":"in","Rept_Date":"2020-01-10 13"},"coordinates":[2058,6671]},{"type":"Point","properties":{"Station_ID":"CAN-NS-39","Station_Nam":"ST. ANNS 2.8 NW, CA","Latitude":"46.25082","Longitude":"-60.64340","Snowdepth":"17.500","Units":"in","Rept_Date":"2020-01-10 12"},"coordinates":[9893,6744]},{"type":"Point","properties":{"Station_ID":"QTM","Station_Nam":"QTM","Latitude":"51.05780","Longitude":"-72.57190","Snowdepth":"17.402","Units":"in","Rept_Date":"2020-01-10 12"},"coordinates":[6668,9601]},{"type":"Point","properties":{"Station_ID":"QLP","Station_Nam":"QLP","Latitude":"48.13920","Longitude":"-72.63830","Snowdepth":"17.126","Units":"in","Rept_Date":"2020-01-10 12"},"coordinates":[6650,7867]},{"type":"Point","properties":{"Station_ID":"SUTV1","Station_Nam":"SUTTON","Latitude":"44.61220","Longitude":"-72.04810","Snowdepth":"17.000","Units":"in","Rept_Date":"2020-01-10 13"},"coordinates":[6810,5770]},{"type":"Point","properties":{"Station_ID":"SUAW3","Station_Nam":"SUAMICO","Latitude":"44.60190","Longitude":"-88.09780","Snowdepth":"17.000","Units":"in","Rept_Date":"2020-01-10 12"},"coordinates":[2471,5764]},{"type":"Point","properties":{"Station_ID":"MWN","Station_Nam":"MOUNT WASHINGTON","Latitude":"44.26670","Longitude":"-71.30000","Snowdepth":"17.000","Units":"in","Rept_Date":"2020-01-11 05"},"coordinates":[7012,5565]},{"type":"Point","properties":{"Station_ID":"MN70GOES","Station_Nam":"EMBARRASS 0.6 SSE","Latitude":"47.65101","Longitude":"-92.19222","Snowdepth":"17.000","Units":"in","Rept_Date":"2020-01-10 12"},"coordinates":[1364,7576]},{"type":"Point","properties":{"Station_ID":"MN-SL-108","Station_Nam":"IRON JUNCTION 3.4 NNW, MN","Latitude":"47.46150","Longitude":"-92.63130","Snowdepth":"17.000","Units":"in","Rept_Date":"2020-01-10 13"},"coordinates":[1246,7464]},{"type":"Point","properties":{"Station_ID":"KMWN","Station_Nam":"MOUNT WASHINGTON","Latitude":"44.26666","Longitude":"-71.30000","Snowdepth":"17.000","Units":"in","Rept_Date":"2020-01-11 06"},"coordinates":[7012,5565]},{"type":"Point","properties":{"Station_ID":"IRMM4","Station_Nam":"WWTP","Latitude":"46.46670","Longitude":"-90.18330","Snowdepth":"17.000","Units":"in","Rept_Date":"2020-01-10 13"},"coordinates":[1907,6872]},{"type":"Point","properties":{"Station_ID":"GLRM5","Station_Nam":"GLACIAL RIDGE","Latitude":"47.71670","Longitude":"-96.26670","Snowdepth":"17.000","Units":"in","Rept_Date":"2020-01-11 06"},"coordinates":[263,7615]},{"type":"Point","properties":{"Station_ID":"GHMN3","Station_Nam":"PINKHAM NOTCH","Latitude":"44.25800","Longitude":"-71.25250","Snowdepth":"17.000","Units":"in","Rept_Date":"2020-01-10 11"},"coordinates":[7025,5560]},{"type":"Point","properties":{"Station_ID":"FEDM5","Station_Nam":"LEECH LAKE DAM","Latitude":"47.24670","Longitude":"-94.22280","Snowdepth":"17.000","Units":"in","Rept_Date":"2020-01-10 14"},"coordinates":[815,7336]},{"type":"Point","properties":{"Station_ID":"EMBM5","Station_Nam":"EMBARASS,MN","Latitude":"47.65810","Longitude":"-92.19580","Snowdepth":"17.000","Units":"in","Rept_Date":"2020-01-10 12"},"coordinates":[1363,7581]},{"type":"Point","properties":{"Station_ID":"ELYM5","Station_Nam":"ELY","Latitude":"47.90560","Longitude":"-91.82830","Snowdepth":"17.000","Units":"in","Rept_Date":"2020-01-10 15"},"coordinates":[1463,7728]},{"type":"Point","properties":{"Station_ID":"EGRW3","Station_Nam":"EAGLE RIVER-SOUTH","Latitude":"45.91360","Longitude":"-89.24360","Snowdepth":"17.000","Units":"in","Rept_Date":"2020-01-10 13"},"coordinates":[2161,6544]},{"type":"Point","properties":{"Station_ID":"CBVM1","Station_Nam":"CARRABASSETT VALLEY","Latitude":"45.08040","Longitude":"-70.30310","Snowdepth":"17.000","Units":"in","Rept_Date":"2020-01-10 12"},"coordinates":[7282,6048]},{"type":"Point","properties":{"Station_ID":"CAN-PE-19","Station_Nam":"CHARLOTTETOWN 6.5 NNW, CAN","Latitude":"46.29235","Longitude":"-63.17271","Snowdepth":"16.900","Units":"in","Rept_Date":"2020-01-10 12"},"coordinates":[9209,6769]},{"type":"Point","properties":{"Station_ID":"QLI","Station_Nam":"QLI","Latitude":"50.27080","Longitude":"-73.92280","Snowdepth":"16.732","Units":"in","Rept_Date":"2020-01-10 12"},"coordinates":[6303,9134]},{"type":"Point","properties":{"Station_ID":"VT-OL-1","Station_Nam":"WESTFIELD 0.7 WNW, VT","Latitude":"44.89160","Longitude":"-72.44350","Snowdepth":"16.500","Units":"in","Rept_Date":"2020-01-10 13"},"coordinates":[6703,5936]},{"type":"Point","properties":{"Station_ID":"QGA","Station_Nam":"QGA","Latitude":"47.25640","Longitude":"-73.73810","Snowdepth":"16.457","Units":"in","Rept_Date":"2020-01-10 12"},"coordinates":[6353,7342]},{"type":"Point","properties":{"Station_ID":"MFU","Station_Nam":"MFU","Latitude":"51.52170","Longitude":"-66.91110","Snowdepth":"16.457","Units":"in","Rept_Date":"2020-01-10 12"},"coordinates":[8199,9877]},{"type":"Point","properties":{"Station_ID":"QLM","Station_Nam":"QLM","Latitude":"48.92030","Longitude":"-70.25280","Snowdepth":"16.378","Units":"in","Rept_Date":"2020-01-10 12"},"coordinates":[7295,8331]},{"type":"Point","properties":{"Station_ID":"QIQ","Station_Nam":"QIQ","Latitude":"49.82390","Longitude":"-68.54310","Snowdepth":"16.378","Units":"in","Rept_Date":"2020-01-10 12"},"coordinates":[7757,8868]},{"type":"Point","properties":{"Station_ID":"FTHQ6","Station_Nam":"FORT HOPE","Latitude":"51.55820","Longitude":"-87.90510","Snowdepth":"16.180","Units":"in","Rept_Date":"2020-01-11 06"},"coordinates":[2523,9899]},{"type":"Point","properties":{"Station_ID":"WI-BY-2","Station_Nam":"MELLEN 18.6 SW, WI","Latitude":"46.16937","Longitude":"-90.98090","Snowdepth":"16.000","Units":"in","Rept_Date":"2020-01-10 13"},"coordinates":[1692,6696]},{"type":"Point","properties":{"Station_ID":"VT-ES-3","Station_Nam":"LUNENBURG 2.3 NNW, VT","Latitude":"44.49324","Longitude":"-71.70446","Snowdepth":"16.000","Units":"in","Rept_Date":"2020-01-10 10"},"coordinates":[6903,5699]},{"type":"Point","properties":{"Station_ID":"MN-PK-15","Station_Nam":"MENTOR 2.5 SSW, MN","Latitude":"47.66625","Longitude":"-96.17328","Snowdepth":"16.000","Units":"in","Rept_Date":"2020-01-10 13"},"coordinates":[288,7585]},{"type":"Point","properties":{"Station_ID":"LTMW3","Station_Nam":"LAKE TOMAHAWK 2 SE","Latitude":"45.80750","Longitude":"-89.55830","Snowdepth":"16.000","Units":"in","Rept_Date":"2020-01-10 12"},"coordinates":[2076,6481]},{"type":"Point","properties":{"Station_ID":"CRLM5","Station_Nam":"CROSS LAKE DAM","Latitude":"46.66930","Longitude":"-94.11060","Snowdepth":"16.000","Units":"in","Rept_Date":"2020-01-10 14"},"coordinates":[846,6993]},{"type":"Point","properties":{"Station_ID":"CMKW3","Station_Nam":"CLAM LAKE 4W","Latitude":"46.16940","Longitude":"-90.98080","Snowdepth":"16.000","Units":"in","Rept_Date":"2020-01-10 13"},"coordinates":[1692,6696]},{"type":"Point","properties":{"Station_ID":"CGPM4","Station_Nam":"DOLLAR BAY","Latitude":"47.11670","Longitude":"-88.51370","Snowdepth":"16.000","Units":"in","Rept_Date":"2020-01-10 13"},"coordinates":[2359,7259]},{"type":"Point","properties":{"Station_ID":"VT-CL-40","Station_Nam":"LYNDONVILLE 4.2 NNW, VT","Latitude":"44.59440","Longitude":"-72.02389","Snowdepth":"15.500","Units":"in","Rept_Date":"2020-01-10 12"},"coordinates":[6817,5759]},{"type":"Point","properties":{"Station_ID":"MN-IT-1","Station_Nam":"GRAND RAPIDS 2.0 E, MN","Latitude":"47.22266","Longitude":"-93.49600","Snowdepth":"15.500","Units":"in","Rept_Date":"2020-01-10 12"},"coordinates":[1012,7322]},{"type":"Point","properties":{"Station_ID":"MN-BM-15","Station_Nam":"BEMIDJI 7.8 ENE, MN","Latitude":"47.52043","Longitude":"-94.72121","Snowdepth":"15.500","Units":"in","Rept_Date":"2020-01-10 13"},"coordinates":[681,7499]},{"type":"Point","properties":{"Station_ID":"VT-OL-9","Station_Nam":"GREENSBORO 2.1 NNW, VT","Latitude":"44.60528","Longitude":"-72.30940","Snowdepth":"15.000","Units":"in","Rept_Date":"2020-01-10 12"},"coordinates":[6739,5766]},{"type":"Point","properties":{"Station_ID":"OTTM5","Station_Nam":"OTTERTAIL,MN","Latitude":"46.41670","Longitude":"-95.56670","Snowdepth":"15.000","Units":"in","Rept_Date":"2020-01-10 13"},"coordinates":[452,6843]},{"type":"Point","properties":{"Station_ID":"ND-CS-1","Station_Nam":"WEST FARGO 3.8 SSE, ND","Latitude":"46.82750","Longitude":"-96.85280","Snowdepth":"15.000","Units":"in","Rept_Date":"2020-01-10 13"},"coordinates":[104,7087]},{"type":"Point","properties":{"Station_ID":"MNMQO9OI","Station_Nam":"OTTERTAIL 1.5 WNW","Latitude":"46.43378","Longitude":"-95.58416","Snowdepth":"15.000","Units":"in","Rept_Date":"2020-01-10 12"},"coordinates":[447,6853]},{"type":"Point","properties":{"Station_ID":"MN3LTZND","Station_Nam":"BRAINERD 1.4 S","Latitude":"46.33224","Longitude":"-94.20905","Snowdepth":"15.000","Units":"in","Rept_Date":"2020-01-10 13"},"coordinates":[819,6792]},{"type":"Point","properties":{"Station_ID":"MN-CY-1","Station_Nam":"MOORHEAD 2.0 N, MN","Latitude":"46.88766","Longitude":"-96.74800","Snowdepth":"15.000","Units":"in","Rept_Date":"2020-01-10 13"},"coordinates":[133,7123]},{"type":"Point","properties":{"Station_ID":"INL","Station_Nam":"FALLS INTERNATIONAL ARPT","Latitude":"48.56640","Longitude":"-93.40310","Snowdepth":"15.000","Units":"in","Rept_Date":"2020-01-11 00"},"coordinates":[1037,8120]},{"type":"Point","properties":{"Station_ID":"IFSM5","Station_Nam":"INTERNATIONAL FALLS SNOW","Latitude":"48.57780","Longitude":"-93.39640","Snowdepth":"15.000","Units":"in","Rept_Date":"2020-01-10 12"},"coordinates":[1039,8127]},{"type":"Point","properties":{"Station_ID":"GGRM4","Station_Nam":"GREEN GARDEN NO.2","Latitude":"46.45330","Longitude":"-87.30380","Snowdepth":"15.000","Units":"in","Rept_Date":"2020-01-10 11"},"coordinates":[2686,6864]},{"type":"Point","properties":{"Station_ID":"BRAM5","Station_Nam":"BRAINERD","Latitude":"46.34320","Longitude":"-94.20900","Snowdepth":"15.000","Units":"in","Rept_Date":"2020-01-10 13"},"coordinates":[819,6799]},{"type":"Point","properties":{"Station_ID":"AVLV1","Station_Nam":"AVERILL","Latitude":"45.00570","Longitude":"-71.69030","Snowdepth":"15.000","Units":"in","Rept_Date":"2020-01-10 13"},"coordinates":[6907,6004]},{"type":"Point","properties":{"Station_ID":"AURW3","Station_Nam":"AURORA","Latitude":"45.77000","Longitude":"-88.11810","Snowdepth":"15.000","Units":"in","Rept_Date":"2020-01-10 13"},"coordinates":[2466,6458]},{"type":"Point","properties":{"Station_ID":"ATY","Station_Nam":"WATERTOWN MUNICIPAL AIRPORT","Latitude":"44.91420","Longitude":"-97.15440","Snowdepth":"15.000","Units":"in","Rept_Date":"2020-01-10 12"},"coordinates":[23,5950]},{"type":"Point","properties":{"Station_ID":"ANTW3","Station_Nam":"ANTIGO,WI","Latitude":"45.13330","Longitude":"-89.15000","Snowdepth":"15.000","Units":"in","Rept_Date":"2020-01-10 14"},"coordinates":[2187,6080]},{"type":"Point","properties":{"Station_ID":"AGNW3","Station_Nam":"ARGONNE-1.5 NW","Latitude":"45.67360","Longitude":"-88.90380","Snowdepth":"15.000","Units":"in","Rept_Date":"2020-01-10 14"},"coordinates":[2253,6401]},{"type":"Point","properties":{"Station_ID":"MN-IT-7","Station_Nam":"GRAND RAPIDS 6.2 SSW, MN","Latitude":"47.13687","Longitude":"-93.56660","Snowdepth":"14.800","Units":"in","Rept_Date":"2020-01-10 12"},"coordinates":[993,7271]},{"type":"Point","properties":{"Station_ID":"QWG","Station_Nam":"QWG","Latitude":"48.48890","Longitude":"-73.45940","Snowdepth":"14.724","Units":"in","Rept_Date":"2020-01-10 12"},"coordinates":[6428,8074]},{"type":"Point","properties":{"Station_ID":"VT-ES-1","Station_Nam":"GRANBY 1.4 NW, VT","Latitude":"44.58330","Longitude":"-71.77870","Snowdepth":"14.500","Units":"in","Rept_Date":"2020-01-10 15"},"coordinates":[6883,5753]},{"type":"Point","properties":{"Station_ID":"VT-CL-18","Station_Nam":"WHEELOCK 1.6 S, VT","Latitude":"44.56491","Longitude":"-72.08830","Snowdepth":"14.500","Units":"in","Rept_Date":"2020-01-10 12"},"coordinates":[6799,5742]},{"type":"Point","properties":{"Station_ID":"ND-CS-25","Station_Nam":"FARGO 2.1 N, ND","Latitude":"46.90816","Longitude":"-96.77937","Snowdepth":"14.500","Units":"in","Rept_Date":"2020-01-10 14"},"coordinates":[124,7135]},{"type":"Point","properties":{"Station_ID":"WI-ON-6","Station_Nam":"RHINELANDER 5.2 N, WI","Latitude":"45.71388","Longitude":"-89.42150","Snowdepth":"14.000","Units":"in","Rept_Date":"2020-01-10 14"},"coordinates":[2113,6425]},{"type":"Point","properties":{"Station_ID":"VT-OL-2","Station_Nam":"BARTON 3.0 ENE, VT","Latitude":"44.75863","Longitude":"-72.11680","Snowdepth":"14.000","Units":"in","Rept_Date":"2020-01-10 12"},"coordinates":[6791,5857]},{"type":"Point","properties":{"Station_ID":"SD-CD-8","Station_Nam":"WATERTOWN 2.7 E, SD","Latitude":"44.90740","Longitude":"-97.11160","Snowdepth":"14.000","Units":"in","Rept_Date":"2020-01-10 16"},"coordinates":[34,5946]},{"type":"Point","properties":{"Station_ID":"SBNM5","Station_Nam":"SABIN","Latitude":"46.77690","Longitude":"-96.65610","Snowdepth":"14.000","Units":"in","Rept_Date":"2020-01-10 15"},"coordinates":[157,7057]},{"type":"Point","properties":{"Station_ID":"RLWM5","Station_Nam":"CAMP NORRIS DNR","Latitude":"48.61000","Longitude":"-95.18170","Snowdepth":"14.000","Units":"in","Rept_Date":"2020-01-10 13"},"coordinates":[556,8146]},{"type":"Point","properties":{"Station_ID":"RLKW3","Station_Nam":"REST LAKE","Latitude":"46.12220","Longitude":"-89.87720","Snowdepth":"14.000","Units":"in","Rept_Date":"2020-01-10 14"},"coordinates":[1990,6668]},{"type":"Point","properties":{"Station_ID":"NH-MR-6","Station_Nam":"DANBURY 2.2 ESE, NH","Latitude":"43.52000","Longitude":"-71.81900","Snowdepth":"14.000","Units":"in","Rept_Date":"2020-01-10 13"},"coordinates":[6872,5121]},{"type":"Point","properties":{"Station_ID":"MI-HG-13","Station_Nam":"HOUGHTON 1.2 WNW, MI","Latitude":"47.12035","Longitude":"-88.58525","Snowdepth":"14.000","Units":"in","Rept_Date":"2020-01-10 13"},"coordinates":[2339,7261]},{"type":"Point","properties":{"Station_ID":"ME-AR-23","Station_Nam":"MADAWASKA 2.5 E, ME","Latitude":"47.34933","Longitude":"-68.28141","Snowdepth":"14.000","Units":"in","Rept_Date":"2020-01-10 12"},"coordinates":[7828,7397]},{"type":"Point","properties":{"Station_ID":"HRVM4","Station_Nam":"HARVEY","Latitude":"46.49080","Longitude":"-87.35470","Snowdepth":"14.000","Units":"in","Rept_Date":"2020-01-10 12"},"coordinates":[2672,6887]},{"type":"Point","properties":{"Station_ID":"GLLM5","Station_Nam":"GULL LAKE DAM","Latitude":"46.41190","Longitude":"-94.35000","Snowdepth":"14.000","Units":"in","Rept_Date":"2020-01-10 14"},"coordinates":[781,6840]},{"type":"Point","properties":{"Station_ID":"FLNW3","Station_Nam":"FLORENCE","Latitude":"45.93360","Longitude":"-88.25830","Snowdepth":"14.000","Units":"in","Rept_Date":"2020-01-10 13"},"coordinates":[2428,6556]},{"type":"Point","properties":{"Station_ID":"FDRN8","Station_Nam":"FARGO 3S","Latitude":"46.82930","Longitude":"-96.79620","Snowdepth":"14.000","Units":"in","Rept_Date":"2020-01-11 00"},"coordinates":[120,7088]},{"type":"Point","properties":{"Station_ID":"FAR","Station_Nam":"HECTOR INTERNATIONAL ARPT","Latitude":"46.91560","Longitude":"-96.81440","Snowdepth":"14.000","Units":"in","Rept_Date":"2020-01-11 00"},"coordinates":[115,7139]},{"type":"Point","properties":{"Station_ID":"CRVW3","Station_Nam":"CRIVITZ HIGH FALLS","Latitude":"45.35750","Longitude":"-88.19190","Snowdepth":"14.000","Units":"in","Rept_Date":"2020-01-10 13"},"coordinates":[2446,6213]},{"type":"Point","properties":{"Station_ID":"BRVM5","Station_Nam":"BROWNS VALLEY,MN","Latitude":"45.61670","Longitude":"-96.83330","Snowdepth":"14.000","Units":"in","Rept_Date":"2020-01-10 13"},"coordinates":[110,6367]},{"type":"Point","properties":{"Station_ID":"BFHW3","Station_Nam":"BAYFIELD FISH HATCHERY","Latitude":"46.78670","Longitude":"-90.86420","Snowdepth":"14.000","Units":"in","Rept_Date":"2020-01-10 14"},"coordinates":[1723,7063]},{"type":"Point","properties":{"Station_ID":"AVTW3","Station_Nam":"ARBOR VITAE-JOHNSON LAKE","Latitude":"45.89940","Longitude":"-89.72670","Snowdepth":"14.000","Units":"in","Rept_Date":"2020-01-10 12"},"coordinates":[2031,6535]},{"type":"Point","properties":{"Station_ID":"CAN-NB-105","Station_Nam":"SISSON BROOK 3.8 E, CAN","Latitude":"46.98305","Longitude":"-67.32532","Snowdepth":"13.800","Units":"in","Rept_Date":"2020-01-10 12"},"coordinates":[8087,7179]},{"type":"Point","properties":{"Station_ID":"WI-PR-6","Station_Nam":"PHILLIPS 1.3 S, WI","Latitude":"45.67677","Longitude":"-90.39543","Snowdepth":"13.000","Units":"in","Rept_Date":"2020-01-10 13"},"coordinates":[1850,6403]},{"type":"Point","properties":{"Station_ID":"WI-AS-4","Station_Nam":"ASHLAND 0.5 WNW, WI","Latitude":"46.58240","Longitude":"-90.88390","Snowdepth":"13.000","Units":"in","Rept_Date":"2020-01-10 13"},"coordinates":[1718,6941]},{"type":"Point","properties":{"Station_ID":"TOHM5","Station_Nam":"TWO HARBORS WWTP","Latitude":"47.01760","Longitude":"-91.66480","Snowdepth":"13.000","Units":"in","Rept_Date":"2020-01-10 13"},"coordinates":[1507,7200]},{"type":"Point","properties":{"Station_ID":"STMM4","Station_Nam":"STAMBAUGH 2SSE","Latitude":"46.05550","Longitude":"-88.62780","Snowdepth":"13.000","Units":"in","Rept_Date":"2020-01-10 13"},"coordinates":[2328,6628]},{"type":"Point","properties":{"Station_ID":"SSMM4","Station_Nam":"SAULT STE MARIE","Latitude":"46.48660","Longitude":"-84.40250","Snowdepth":"13.000","Units":"in","Rept_Date":"2020-01-10 13"},"coordinates":[3470,6884]},{"type":"Point","properties":{"Station_ID":"SIWS2","Station_Nam":"SISSETON 3W","Latitude":"45.65870","Longitude":"-97.12450","Snowdepth":"13.000","Units":"in","Rept_Date":"2020-01-10 13"},"coordinates":[31,6392]},{"type":"Point","properties":{"Station_ID":"SD-RB-1","Station_Nam":"SISSETON 3.8 W, SD","Latitude":"45.65865","Longitude":"-97.12370","Snowdepth":"13.000","Units":"in","Rept_Date":"2020-01-10 13"},"coordinates":[31,6392]},{"type":"Point","properties":{"Station_ID":"RHLW3","Station_Nam":"RHINELANDER 4NE","Latitude":"45.65270","Longitude":"-89.30740","Snowdepth":"13.000","Units":"in","Rept_Date":"2020-01-10 12"},"coordinates":[2144,6389]},{"type":"Point","properties":{"Station_ID":"RGNM1","Station_Nam":"RANGELEY 2NW","Latitude":"44.98940","Longitude":"-70.67220","Snowdepth":"13.000","Units":"in","Rept_Date":"2020-01-10 11"},"coordinates":[7182,5994]},{"type":"Point","properties":{"Station_ID":"MN7TCHCK","Station_Nam":"COOK 0.2 ENE","Latitude":"47.85225","Longitude":"-92.68378","Snowdepth":"13.000","Units":"in","Rept_Date":"2020-01-10 12"},"coordinates":[1231,7696]},{"type":"Point","properties":{"Station_ID":"MN4QO5TH","Station_Nam":"TWO HARBORS 0.7 ESE","Latitude":"47.03297","Longitude":"-91.65673","Snowdepth":"13.000","Units":"in","Rept_Date":"2020-01-10 13"},"coordinates":[1509,7209]},{"type":"Point","properties":{"Station_ID":"MN-CW-22","Station_Nam":"FORT RIPLEY 0.8 N, MN","Latitude":"46.18089","Longitude":"-94.36510","Snowdepth":"13.000","Units":"in","Rept_Date":"2020-01-10 13"},"coordinates":[777,6702]},{"type":"Point","properties":{"Station_ID":"MIEM4","Station_Nam":"MICHIGAMME 3WNW","Latitude":"46.54530","Longitude":"-88.18000","Snowdepth":"13.000","Units":"in","Rept_Date":"2020-01-10 13"},"coordinates":[2449,6919]},{"type":"Point","properties":{"Station_ID":"MI-OT-17","Station_Nam":"GAYLORD 4.1 S, MI","Latitude":"44.96388","Longitude":"-84.68467","Snowdepth":"13.000","Units":"in","Rept_Date":"2020-01-10 12"},"coordinates":[3394,5979]},{"type":"Point","properties":{"Station_ID":"JCBM4","Station_Nam":"JACOBSVILLE","Latitude":"47.00830","Longitude":"-88.43180","Snowdepth":"13.000","Units":"in","Rept_Date":"2020-01-10 12"},"coordinates":[2381,7194]},{"type":"Point","properties":{"Station_ID":"ISLV1","Station_Nam":"ISLAND POND","Latitude":"44.81280","Longitude":"-71.89020","Snowdepth":"13.000","Units":"in","Rept_Date":"2020-01-10 15"},"coordinates":[6853,5889]},{"type":"Point","properties":{"Station_ID":"INDM5","Station_Nam":"INDUS,MN","Latitude":"48.61670","Longitude":"-93.90000","Snowdepth":"13.000","Units":"in","Rept_Date":"2020-01-10 14"},"coordinates":[903,8150]},{"type":"Point","properties":{"Station_ID":"HGHN6","Station_Nam":"HIGHMARKET","Latitude":"43.57520","Longitude":"-75.52070","Snowdepth":"13.000","Units":"in","Rept_Date":"2020-01-10 11"},"coordinates":[5871,5154]},{"type":"Point","properties":{"Station_ID":"GRFN8","Station_Nam":"UNIVERSITY","Latitude":"47.93330","Longitude":"-97.08330","Snowdepth":"13.000","Units":"in","Rept_Date":"2020-01-11 06"},"coordinates":[42,7744]},{"type":"Point","properties":{"Station_ID":"COTM5","Station_Nam":"COTTON","Latitude":"47.16870","Longitude":"-92.46290","Snowdepth":"13.000","Units":"in","Rept_Date":"2020-01-10 13"},"coordinates":[1291,7290]},{"type":"Point","properties":{"Station_ID":"CORV1","Station_Nam":"CORINTH","Latitude":"44.00690","Longitude":"-72.31940","Snowdepth":"13.000","Units":"in","Rept_Date":"2020-01-10 12"},"coordinates":[6737,5410]},{"type":"Point","properties":{"Station_ID":"COKM5","Station_Nam":"COOK","Latitude":"47.85060","Longitude":"-92.69250","Snowdepth":"13.000","Units":"in","Rept_Date":"2020-01-10 12"},"coordinates":[1229,7695]},{"type":"Point","properties":{"Station_ID":"CAN-PE-50","Station_Nam":"BEDFORD CORNER 3.9 WNW, CAN","Latitude":"46.34628","Longitude":"-63.06157","Snowdepth":"13.000","Units":"in","Rept_Date":"2020-01-10 11"},"coordinates":[9239,6801]},{"type":"Point","properties":{"Station_ID":"CAN-NS-18","Station_Nam":"HAMMONDS PLAINS 2.1 NNW, CA","Latitude":"44.75181","Longitude":"-63.79100","Snowdepth":"13.000","Units":"in","Rept_Date":"2020-01-10 11"},"coordinates":[9042,5853]},{"type":"Point","properties":{"Station_ID":"AWXW3","Station_Nam":"ASHLAND","Latitude":"46.58240","Longitude":"-90.88390","Snowdepth":"13.000","Units":"in","Rept_Date":"2020-01-10 13"},"coordinates":[1718,6941]},{"type":"Point","properties":{"Station_ID":"ANJM4","Station_Nam":"SNOW PAID OBSERVER FOR KANJ","Latitude":"46.48670","Longitude":"-84.40260","Snowdepth":"13.000","Units":"in","Rept_Date":"2020-01-10 18"},"coordinates":[3470,6884]},{"type":"Point","properties":{"Station_ID":"ANJ","Station_Nam":"SAULT STE MARIE","Latitude":"46.46670","Longitude":"-84.36670","Snowdepth":"13.000","Units":"in","Rept_Date":"2020-01-11 00"},"coordinates":[3480,6872]},{"type":"Point","properties":{"Station_ID":"WI-BY-1","Station_Nam":"BAYFIELD 8.8 N, WI","Latitude":"46.93855","Longitude":"-90.83490","Snowdepth":"12.500","Units":"in","Rept_Date":"2020-01-10 13"},"coordinates":[1731,7153]},{"type":"Point","properties":{"Station_ID":"MN-CK-6","Station_Nam":"GRAND MARAIS 4.4 W, MN","Latitude":"47.74865","Longitude":"-90.43760","Snowdepth":"12.500","Units":"in","Rept_Date":"2020-01-10 12"},"coordinates":[1839,7634]},{"type":"Point","properties":{"Station_ID":"CAN-ON-757","Station_Nam":"SAULT STE. MARIE 2.8 ESE - GLFC, CAN","Latitude":"46.50300","Longitude":"-84.30300","Snowdepth":"12.100","Units":"in","Rept_Date":"2020-01-10 13"},"coordinates":[3497,6894]},{"type":"Point","properties":{"Station_ID":"WTNM4","Station_Nam":"WATTON 2WSW","Latitude":"46.52660","Longitude":"-88.64240","Snowdepth":"12.000","Units":"in","Rept_Date":"2020-01-10 13"},"coordinates":[2324,6908]},{"type":"Point","properties":{"Station_ID":"WI-RS-1","Station_Nam":"LADYSMITH 2.8 WNW, WI","Latitude":"45.48180","Longitude":"-91.14680","Snowdepth":"12.000","Units":"in","Rept_Date":"2020-01-10 13"},"coordinates":[1647,6287]},{"type":"Point","properties":{"Station_ID":"TAKW3","Station_Nam":"RICE RESERVOIR NO. 2","Latitude":"45.53770","Longitude":"-89.73220","Snowdepth":"12.000","Units":"in","Rept_Date":"2020-01-10 13"},"coordinates":[2029,6320]},{"type":"Point","properties":{"Station_ID":"SWTW3","Station_Nam":"SUPERIOR WWTP","Latitude":"46.72700","Longitude":"-92.07200","Snowdepth":"12.000","Units":"in","Rept_Date":"2020-01-11 06"},"coordinates":[1397,7027]},{"type":"Point","properties":{"Station_ID":"SD-RB-4","Station_Nam":"SISSETON 10.4 ENE, SD","Latitude":"45.69480","Longitude":"-96.83480","Snowdepth":"12.000","Units":"in","Rept_Date":"2020-01-10 13"},"coordinates":[109,6414]},{"type":"Point","properties":{"Station_ID":"SD-CD-30","Station_Nam":"WATERTOWN 2.3 E, SD","Latitude":"44.91604","Longitude":"-97.11925","Snowdepth":"12.000","Units":"in","Rept_Date":"2020-01-10 14"},"coordinates":[32,5951]},{"type":"Point","properties":{"Station_ID":"RDFN6","Station_Nam":"REDFIELD 8N","Latitude":"43.64130","Longitude":"-75.88400","Snowdepth":"12.000","Units":"in","Rept_Date":"2020-01-10 12"},"coordinates":[5773,5193]},{"type":"Point","properties":{"Station_ID":"NUMN3","Station_Nam":"NORTHUMBERLAND","Latitude":"44.52830","Longitude":"-71.50440","Snowdepth":"12.000","Units":"in","Rept_Date":"2020-01-10 13"},"coordinates":[6957,5720]},{"type":"Point","properties":{"Station_ID":"NH-CR-26","Station_Nam":"CENTER SANDWICH 4.9 E, NH","Latitude":"43.80976","Longitude":"-71.34150","Snowdepth":"12.000","Units":"in","Rept_Date":"2020-01-10 12"},"coordinates":[7001,5293]},{"type":"Point","properties":{"Station_ID":"MN-CW-8","Station_Nam":"BRAINERD 11.5 E, MN","Latitude":"46.38556","Longitude":"-93.95720","Snowdepth":"12.000","Units":"in","Rept_Date":"2020-01-10 14"},"coordinates":[887,6824]},{"type":"Point","properties":{"Station_ID":"MN-BK-10","Station_Nam":"DETROIT LAKES 5.7 N, MN","Latitude":"46.88666","Longitude":"-95.84444","Snowdepth":"12.000","Units":"in","Rept_Date":"2020-01-10 10"},"coordinates":[377,7122]},{"type":"Point","properties":{"Station_ID":"MLBS2","Station_Nam":"MILBANK","Latitude":"45.22040","Longitude":"-96.62530","Snowdepth":"12.000","Units":"in","Rept_Date":"2020-01-10 13"},"coordinates":[166,6132]},{"type":"Point","properties":{"Station_ID":"ME-PN-45","Station_Nam":"MILLINOCKET 2.7 ESE, ME","Latitude":"45.65002","Longitude":"-68.64472","Snowdepth":"12.000","Units":"in","Rept_Date":"2020-01-10 12"},"coordinates":[7730,6387]},{"type":"Point","properties":{"Station_ID":"HOLW3","Station_Nam":"HOLCOMBE","Latitude":"45.22370","Longitude":"-91.12700","Snowdepth":"12.000","Units":"in","Rept_Date":"2020-01-10 13"},"coordinates":[1652,6134]},{"type":"Point","properties":{"Station_ID":"ESDN3","Station_Nam":"EAST SANDWICH","Latitude":"43.80990","Longitude":"-71.34250","Snowdepth":"12.000","Units":"in","Rept_Date":"2020-01-10 11"},"coordinates":[7001,5293]},{"type":"Point","properties":{"Station_ID":"COUW3","Station_Nam":"COUDERAY,WI","Latitude":"45.86670","Longitude":"-91.45000","Snowdepth":"12.000","Units":"in","Rept_Date":"2020-01-10 22"},"coordinates":[1565,6516]},{"type":"Point","properties":{"Station_ID":"CLGM5","Station_Nam":"COLLEGEVILLE ST JOHN","Latitude":"45.57940","Longitude":"-94.39200","Snowdepth":"12.000","Units":"in","Rept_Date":"2020-01-11 00"},"coordinates":[770,6345]},{"type":"Point","properties":{"Station_ID":"CEFM4","Station_Nam":"EXPERIMENT FARM #2","Latitude":"46.33330","Longitude":"-86.91670","Snowdepth":"12.000","Units":"in","Rept_Date":"2020-01-10 13"},"coordinates":[2790,6793]},{"type":"Point","properties":{"Station_ID":"CAN-NB-11","Station_Nam":"MIRAMICHI 3.3 S, CAN","Latitude":"46.99343","Longitude":"-65.50690","Snowdepth":"12.000","Units":"in","Rept_Date":"2020-01-10 12"},"coordinates":[8578,7185]},{"type":"Point","properties":{"Station_ID":"BRDM1","Station_Nam":"BRIDGEWATER","Latitude":"46.42870","Longitude":"-67.84370","Snowdepth":"12.000","Units":"in","Rept_Date":"2020-01-10 23"},"coordinates":[7947,6850]},{"type":"Point","properties":{"Station_ID":"BETM1","Station_Nam":"BETHEL 6 SSE","Latitude":"44.32000","Longitude":"-70.75680","Snowdepth":"12.000","Units":"in","Rept_Date":"2020-01-10 12"},"coordinates":[7159,5596]},{"type":"Point","properties":{"Station_ID":"BAUM5","Station_Nam":"BAUDETTE,MN","Latitude":"48.71670","Longitude":"-94.61670","Snowdepth":"12.000","Units":"in","Rept_Date":"2020-01-10 21"},"coordinates":[709,8210]},{"type":"Point","properties":{"Station_ID":"AROM4","Station_Nam":"ARNOLD,MI","Latitude":"46.06670","Longitude":"-87.48330","Snowdepth":"12.000","Units":"in","Rept_Date":"2020-01-10 13"},"coordinates":[2637,6635]},{"type":"Point","properties":{"Station_ID":"ALXM5","Station_Nam":"ALEXANDRIA","Latitude":"45.87820","Longitude":"-95.38270","Snowdepth":"12.000","Units":"in","Rept_Date":"2020-01-10 13"},"coordinates":[502,6523]},{"type":"Point","properties":{"Station_ID":"CAN-NS-142","Station_Nam":"MAHONE BAY 0.5 NE, CAN","Latitude":"44.45141","Longitude":"-64.37532","Snowdepth":"11.800","Units":"in","Rept_Date":"2020-01-10 12"},"coordinates":[8884,5675]},{"type":"Point","properties":{"Station_ID":"WI-SR-5","Station_Nam":"HAYWARD 9.7 NE, WI","Latitude":"46.12030","Longitude":"-91.35370","Snowdepth":"11.500","Units":"in","Rept_Date":"2020-01-10 14"},"coordinates":[1591,6666]},{"type":"Point","properties":{"Station_ID":"WI-PR-8","Station_Nam":"PHILLIPS 0.4 SSW, WI","Latitude":"45.69086","Longitude":"-90.40200","Snowdepth":"11.500","Units":"in","Rept_Date":"2020-01-10 13"},"coordinates":[1848,6411]},{"type":"Point","properties":{"Station_ID":"VT-WR-2","Station_Nam":"POMFRET 2.6 N, VT","Latitude":"43.74230","Longitude":"-72.52550","Snowdepth":"11.500","Units":"in","Rept_Date":"2020-01-10 12"},"coordinates":[6681,5253]},{"type":"Point","properties":{"Station_ID":"CAN-PE-7","Station_Nam":"MORELL 1.4 NNW, CA","Latitude":"46.42741","Longitude":"-62.70870","Snowdepth":"11.200","Units":"in","Rept_Date":"2020-01-10 11"},"coordinates":[9335,6849]},{"type":"Point","properties":{"Station_ID":"WLKM5","Station_Nam":"AH-GWAH-CHING","Latitude":"47.15000","Longitude":"-94.65000","Snowdepth":"11.000","Units":"in","Rept_Date":"2020-01-10 11"},"coordinates":[700,7279]},{"type":"Point","properties":{"Station_ID":"WI-CH-3","Station_Nam":"CORNELL 4.1 W, WI","Latitude":"45.17024","Longitude":"-91.23610","Snowdepth":"11.000","Units":"in","Rept_Date":"2020-01-10 14"},"coordinates":[1623,6102]},{"type":"Point","properties":{"Station_ID":"VT-WS-30","Station_Nam":"WOODBURY 3.4 NNW, VT","Latitude":"44.48825","Longitude":"-72.43258","Snowdepth":"11.000","Units":"in","Rept_Date":"2020-01-10 12"},"coordinates":[6706,5696]},{"type":"Point","properties":{"Station_ID":"VT-OG-11","Station_Nam":"VERSHIRE 1.5 ESE, VT","Latitude":"43.96138","Longitude":"-72.29777","Snowdepth":"11.000","Units":"in","Rept_Date":"2020-01-10 13"},"coordinates":[6742,5383]},{"type":"Point","properties":{"Station_ID":"RPDM4","Station_Nam":"RAPID RIVER 4SSE","Latitude":"45.87270","Longitude":"-86.94960","Snowdepth":"11.000","Units":"in","Rept_Date":"2020-01-10 14"},"coordinates":[2782,6519]},{"type":"Point","properties":{"Station_ID":"PKFW3","Station_Nam":"PARK FALLS,WI","Latitude":"45.93360","Longitude":"-90.45060","Snowdepth":"11.000","Units":"in","Rept_Date":"2020-01-10 14"},"coordinates":[1835,6556]},{"type":"Point","properties":{"Station_ID":"NH-ST-31","Station_Nam":"STRAFFORD 2.9 N, NH","Latitude":"43.31175","Longitude":"-71.13510","Snowdepth":"11.000","Units":"in","Rept_Date":"2020-01-10 13"},"coordinates":[7057,4997]},{"type":"Point","properties":{"Station_ID":"NH-GR-47","Station_Nam":"LITTLETON 7.3 W, NH","Latitude":"44.31847","Longitude":"-71.91086","Snowdepth":"11.000","Units":"in","Rept_Date":"2020-01-10 13"},"coordinates":[6847,5595]},{"type":"Point","properties":{"Station_ID":"NCON3","Station_Nam":"NORTH CONWAY,NH","Latitude":"44.05000","Longitude":"-71.13330","Snowdepth":"11.000","Units":"in","Rept_Date":"2020-01-10 12"},"coordinates":[7057,5436]},{"type":"Point","properties":{"Station_ID":"MQRW3","Station_Nam":"MINOCQUA","Latitude":"45.88630","Longitude":"-89.73220","Snowdepth":"11.000","Units":"in","Rept_Date":"2020-01-10 12"},"coordinates":[2029,6527]},{"type":"Point","properties":{"Station_ID":"MNLGGILP","Station_Nam":"LONG PRAIRIE 1.1 WSW","Latitude":"45.96913","Longitude":"-94.88686","Snowdepth":"11.000","Units":"in","Rept_Date":"2020-01-10 12"},"coordinates":[636,6577]},{"type":"Point","properties":{"Station_ID":"MN7M8EBJ","Station_Nam":"LUTSEN 15.7 NNW","Latitude":"47.85324","Longitude":"-89.92908","Snowdepth":"11.000","Units":"in","Rept_Date":"2020-01-10 14"},"coordinates":[1976,7697]},{"type":"Point","properties":{"Station_ID":"ME-FR-4","Station_Nam":"NEW SHARON 2.0 NW, ME","Latitude":"44.66582","Longitude":"-70.02720","Snowdepth":"11.000","Units":"in","Rept_Date":"2020-01-10 12"},"coordinates":[7356,5802]},{"type":"Point","properties":{"Station_ID":"ME-CM-125","Station_Nam":"CUMBERLAND CENTER 4.4 NW, ME","Latitude":"43.84640","Longitude":"-70.31340","Snowdepth":"11.000","Units":"in","Rept_Date":"2020-01-10 12"},"coordinates":[7279,5315]},{"type":"Point","properties":{"Station_ID":"LUCW3","Station_Nam":"LUCK","Latitude":"45.57330","Longitude":"-92.48520","Snowdepth":"11.000","Units":"in","Rept_Date":"2020-01-10 22"},"coordinates":[1285,6341]},{"type":"Point","properties":{"Station_ID":"LNGM5","Station_Nam":"LONG PRAIRIE","Latitude":"45.96460","Longitude":"-94.88920","Snowdepth":"11.000","Units":"in","Rept_Date":"2020-01-10 12"},"coordinates":[635,6574]},{"type":"Point","properties":{"Station_ID":"LGRN8","Station_Nam":"LIDGERWOOD,ND","Latitude":"46.06670","Longitude":"-97.16670","Snowdepth":"11.000","Units":"in","Rept_Date":"2020-01-10 13"},"coordinates":[19,6635]},{"type":"Point","properties":{"Station_ID":"KGFK","Station_Nam":"GRAND FORKS INTERNATIONAL","Latitude":"47.95000","Longitude":"-97.18333","Snowdepth":"11.000","Units":"in","Rept_Date":"2020-01-11 06"},"coordinates":[15,7754]},{"type":"Point","properties":{"Station_ID":"GRBM5","Station_Nam":"GRAND RAPIDS 12N","Latitude":"47.39800","Longitude":"-93.51330","Snowdepth":"11.000","Units":"in","Rept_Date":"2020-01-10 16"},"coordinates":[1007,7426]},{"type":"Point","properties":{"Station_ID":"GILV1","Station_Nam":"GILMAN","Latitude":"44.41120","Longitude":"-71.71860","Snowdepth":"11.000","Units":"in","Rept_Date":"2020-01-10 14"},"coordinates":[6899,5651]},{"type":"Point","properties":{"Station_ID":"GFK","Station_Nam":"GRAND FORKS INTERNATIONAL AIRPORT","Latitude":"47.94920","Longitude":"-97.17610","Snowdepth":"11.000","Units":"in","Rept_Date":"2020-01-11 00"},"coordinates":[17,7754]},{"type":"Point","properties":{"Station_ID":"GFDN6","Station_Nam":"CHASES LAKE","Latitude":"43.75920","Longitude":"-75.29980","Snowdepth":"11.000","Units":"in","Rept_Date":"2020-01-10 11"},"coordinates":[5931,5263]},{"type":"Point","properties":{"Station_ID":"ESAM4","Station_Nam":"ESCANABA","Latitude":"45.74380","Longitude":"-87.04060","Snowdepth":"11.000","Units":"in","Rept_Date":"2020-01-10 12"},"coordinates":[2757,6443]},{"type":"Point","properties":{"Station_ID":"ENGM4","Station_Nam":"ENGADINE MDOT","Latitude":"46.12800","Longitude":"-85.56960","Snowdepth":"11.000","Units":"in","Rept_Date":"2020-01-10 12"},"coordinates":[3155,6671]},{"type":"Point","properties":{"Station_ID":"EJNM4","Station_Nam":"EAST JORDAN 2NW","Latitude":"45.18630","Longitude":"-85.14770","Snowdepth":"11.000","Units":"in","Rept_Date":"2020-01-10 12"},"coordinates":[3269,6111]},{"type":"Point","properties":{"Station_ID":"DFXM1","Station_Nam":"DOVER-FOXCROFT","Latitude":"45.18720","Longitude":"-69.18350","Snowdepth":"11.000","Units":"in","Rept_Date":"2020-01-10 12"},"coordinates":[7584,6112]},{"type":"Point","properties":{"Station_ID":"CAN-NS-163","Station_Nam":"SYDNEY MINES 2.2 WNW, CAN","Latitude":"46.24851","Longitude":"-60.25161","Snowdepth":"11.000","Units":"in","Rept_Date":"2020-01-10 12"},"coordinates":[9999,6743]},{"type":"Point","properties":{"Station_ID":"CAN-NB-2","Station_Nam":"GRAFTON 2.7 NNE, CA","Latitude":"46.17062","Longitude":"-67.55330","Snowdepth":"11.000","Units":"in","Rept_Date":"2020-01-10 10"},"coordinates":[8025,6696]},{"type":"Point","properties":{"Station_ID":"BTLN3","Station_Nam":"BARTLETT","Latitude":"44.08380","Longitude":"-71.29340","Snowdepth":"11.000","Units":"in","Rept_Date":"2020-01-10 12"},"coordinates":[7014,5456]},{"type":"Point","properties":{"Station_ID":"BKEM5","Station_Nam":"BRECKENRIDGE 4NE","Latitude":"46.30470","Longitude":"-96.52170","Snowdepth":"11.000","Units":"in","Rept_Date":"2020-01-10 13"},"coordinates":[194,6776]},{"type":"Point","properties":{"Station_ID":"ARTM5","Station_Nam":"ARTICHOKE LAKE 1 E","Latitude":"45.38560","Longitude":"-96.12570","Snowdepth":"11.000","Units":"in","Rept_Date":"2020-01-11 00"},"coordinates":[301,6230]},{"type":"Point","properties":{"Station_ID":"CAN-NS-13","Station_Nam":"TRURO 5.0 ENE, CA","Latitude":"45.38252","Longitude":"-63.22810","Snowdepth":"10.600","Units":"in","Rept_Date":"2020-01-10 11"},"coordinates":[9194,6228]},{"type":"Point","properties":{"Station_ID":"WI-BT-14","Station_Nam":"OAKLAND 9.0 ENE, WI","Latitude":"45.95184","Longitude":"-92.21653","Snowdepth":"10.500","Units":"in","Rept_Date":"2020-01-10 13"},"coordinates":[1358,6566]},{"type":"Point","properties":{"Station_ID":"VT-BN-12","Station_Nam":"STAMFORD 5.0 NNE, VT","Latitude":"42.82000","Longitude":"-73.02000","Snowdepth":"10.500","Units":"in","Rept_Date":"2020-01-10 21"},"coordinates":[6547,4705]},{"type":"Point","properties":{"Station_ID":"NH-CR-41","Station_Nam":"ALBANY 2.8 SW, NH","Latitude":"43.92648","Longitude":"-71.21556","Snowdepth":"10.500","Units":"in","Rept_Date":"2020-01-10 13"},"coordinates":[7035,5362]},{"type":"Point","properties":{"Station_ID":"MI-CX-7","Station_Nam":"EAST JORDAN 2.1 NNW, MI","Latitude":"45.18639","Longitude":"-85.14750","Snowdepth":"10.500","Units":"in","Rept_Date":"2020-01-10 12"},"coordinates":[3269,6111]},{"type":"Point","properties":{"Station_ID":"MN-CW-29","Station_Nam":"BRAINERD 7.7 SSE, MN","Latitude":"46.24996","Longitude":"-94.14576","Snowdepth":"10.300","Units":"in","Rept_Date":"2020-01-10 13"},"coordinates":[836,6744]},{"type":"Point","properties":{"Station_ID":"CAN-PE-20","Station_Nam":"BONSHAW 6.6 NNE, CAN","Latitude":"46.25082","Longitude":"-63.33409","Snowdepth":"10.200","Units":"in","Rept_Date":"2020-01-10 12"},"coordinates":[9166,6744]},{"type":"Point","properties":{"Station_ID":"CAN-NS-160","Station_Nam":"DARTMOUTH 2.3 ENE, CAN","Latitude":"44.67708","Longitude":"-63.53360","Snowdepth":"10.200","Units":"in","Rept_Date":"2020-01-10 11"},"coordinates":[9112,5809]},{"type":"Point","properties":{"Station_ID":"CAN-NS-105","Station_Nam":"SLUICE POINT 0.4 SSE, CAN","Latitude":"43.78767","Longitude":"-65.96486","Snowdepth":"10.200","Units":"in","Rept_Date":"2020-01-10 12"},"coordinates":[8454,5280]},{"type":"Point","properties":{"Station_ID":"ZNOM4","Station_Nam":"NORWAY","Latitude":"45.77810","Longitude":"-87.89560","Snowdepth":"10.000","Units":"in","Rept_Date":"2020-01-10 13"},"coordinates":[2526,6463]},{"type":"Point","properties":{"Station_ID":"WORV1","Station_Nam":"WORCESTER 2 W","Latitude":"44.37470","Longitude":"-72.58220","Snowdepth":"10.000","Units":"in","Rept_Date":"2020-01-10 12"},"coordinates":[6666,5629]},{"type":"Point","properties":{"Station_ID":"WLKW3","Station_Nam":"WHITE LAKE 1 SE","Latitude":"45.14520","Longitude":"-88.74160","Snowdepth":"10.000","Units":"in","Rept_Date":"2020-01-10 14"},"coordinates":[2297,6087]},{"type":"Point","properties":{"Station_ID":"WILW3","Station_Nam":"RESERVOIR","Latitude":"45.70000","Longitude":"-89.83330","Snowdepth":"10.000","Units":"in","Rept_Date":"2020-01-10 12"},"coordinates":[2002,6417]},{"type":"Point","properties":{"Station_ID":"WI-DN-1","Station_Nam":"BOYCEVILLE 3.3 N, WI","Latitude":"45.08913","Longitude":"-92.02760","Snowdepth":"10.000","Units":"in","Rept_Date":"2020-01-10 13"},"coordinates":[1409,6054]},{"type":"Point","properties":{"Station_ID":"UVDV1","Station_Nam":"NERON SITE AT UNION VILLAGE DAM","Latitude":"43.79140","Longitude":"-72.25720","Snowdepth":"10.000","Units":"in","Rept_Date":"2020-01-10 12"},"coordinates":[6753,5282]},{"type":"Point","properties":{"Station_ID":"SULW3","Station_Nam":"SUMMIT LAKE","Latitude":"45.37880","Longitude":"-89.19410","Snowdepth":"10.000","Units":"in","Rept_Date":"2020-01-10 11"},"coordinates":[2175,6226]},{"type":"Point","properties":{"Station_ID":"SLNV1","Station_Nam":"SOUTH LINCOLN","Latitude":"44.07460","Longitude":"-72.97180","Snowdepth":"10.000","Units":"in","Rept_Date":"2020-01-10 12"},"coordinates":[6560,5451]},{"type":"Point","properties":{"Station_ID":"RRVM4","Station_Nam":"RAPID RIVER 9S","Latitude":"45.78750","Longitude":"-86.93920","Snowdepth":"10.000","Units":"in","Rept_Date":"2020-01-10 16"},"coordinates":[2784,6469]},{"type":"Point","properties":{"Station_ID":"RHRW3","Station_Nam":"RHINELANDER WJFW TV-12","Latitude":"45.62220","Longitude":"-89.41000","Snowdepth":"10.000","Units":"in","Rept_Date":"2020-01-11 04"},"coordinates":[2116,6370]},{"type":"Point","properties":{"Station_ID":"RHI","Station_Nam":"RHINELANDER-ONEIDA COUNTY AIRPORT","Latitude":"45.63080","Longitude":"-89.46530","Snowdepth":"10.000","Units":"in","Rept_Date":"2020-01-11 00"},"coordinates":[2101,6376]},{"type":"Point","properties":{"Station_ID":"ORAN3","Station_Nam":"ORANGE","Latitude":"43.66880","Longitude":"-71.94830","Snowdepth":"10.000","Units":"in","Rept_Date":"2020-01-10 12"},"coordinates":[6837,5209]},{"type":"Point","properties":{"Station_ID":"NY-ES-6","Station_Nam":"OLMSTEDVILLE 4.6 NNE, NY","Latitude":"43.83350","Longitude":"-73.89780","Snowdepth":"10.000","Units":"in","Rept_Date":"2020-01-10 13"},"coordinates":[6310,5307]},{"type":"Point","properties":{"Station_ID":"NPTV1","Station_Nam":"NEWPORT","Latitude":"44.94900","Longitude":"-72.19120","Snowdepth":"10.000","Units":"in","Rept_Date":"2020-01-10 12"},"coordinates":[6771,5970]},{"type":"Point","properties":{"Station_ID":"NH-MR-45","Station_Nam":"NORTHFIELD 2.8 E, NH","Latitude":"43.43945","Longitude":"-71.53730","Snowdepth":"10.000","Units":"in","Rept_Date":"2020-01-10 12"},"coordinates":[6948,5073]},{"type":"Point","properties":{"Station_ID":"NH-MR-41","Station_Nam":"NEWBURY 1.6 NW, NH","Latitude":"43.33667","Longitude":"-72.06060","Snowdepth":"10.000","Units":"in","Rept_Date":"2020-01-10 12"},"coordinates":[6807,5012]},{"type":"Point","properties":{"Station_ID":"NH-BK-7","Station_Nam":"LACONIA 7.9 E, NH","Latitude":"43.55415","Longitude":"-71.32310","Snowdepth":"10.000","Units":"in","Rept_Date":"2020-01-10 12"},"coordinates":[7006,5141]},{"type":"Point","properties":{"Station_ID":"NH-BK-1","Station_Nam":"TILTON NORTHFIELD 3.3 NE, NH","Latitude":"43.48000","Longitude":"-71.55000","Snowdepth":"10.000","Units":"in","Rept_Date":"2020-01-10 12"},"coordinates":[6945,5097]},{"type":"Point","properties":{"Station_ID":"MI-AT-6","Station_Nam":"MANCELONA 0.5 ESE, MI","Latitude":"44.89981","Longitude":"-85.05100","Snowdepth":"10.000","Units":"in","Rept_Date":"2020-01-10 13"},"coordinates":[3295,5941]},{"type":"Point","properties":{"Station_ID":"ME-SG-1","Station_Nam":"BATH 1.1 WSW, ME","Latitude":"43.93063","Longitude":"-69.85730","Snowdepth":"10.000","Units":"in","Rept_Date":"2020-01-10 12"},"coordinates":[7402,5365]},{"type":"Point","properties":{"Station_ID":"ME-CM-3","Station_Nam":"NEW GLOUCESTER 3.0 SE, ME","Latitude":"43.92372","Longitude":"-70.25790","Snowdepth":"10.000","Units":"in","Rept_Date":"2020-01-10 12"},"coordinates":[7294,5361]},{"type":"Point","properties":{"Station_ID":"LPLN6","Station_Nam":"LAKE PLACID 2 S","Latitude":"44.30420","Longitude":"-73.98390","Snowdepth":"10.000","Units":"in","Rept_Date":"2020-01-10 13"},"coordinates":[6287,5587]},{"type":"Point","properties":{"Station_ID":"LBRM5","Station_Nam":"LAKE BRONSON DAM","Latitude":"48.72410","Longitude":"-96.62180","Snowdepth":"10.000","Units":"in","Rept_Date":"2020-01-10 14"},"coordinates":[167,8214]},{"type":"Point","properties":{"Station_ID":"KINM1","Station_Nam":"KINGFIELD","Latitude":"44.95950","Longitude":"-70.17530","Snowdepth":"10.000","Units":"in","Rept_Date":"2020-01-10 13"},"coordinates":[7316,5977]},{"type":"Point","properties":{"Station_ID":"ISEM5","Station_Nam":"ISLE 12N","Latitude":"46.31970","Longitude":"-93.50140","Snowdepth":"10.000","Units":"in","Rept_Date":"2020-01-10 14"},"coordinates":[1010,6785]},{"type":"Point","properties":{"Station_ID":"INDN6","Station_Nam":"INDIAN LAKE","Latitude":"43.75500","Longitude":"-74.27560","Snowdepth":"10.000","Units":"in","Rept_Date":"2020-01-10 13"},"coordinates":[6208,5261]},{"type":"Point","properties":{"Station_ID":"FFLN3","Station_Nam":"FRANKLIN FALLS DAM","Latitude":"43.47030","Longitude":"-71.65370","Snowdepth":"10.000","Units":"in","Rept_Date":"2020-01-10 12"},"coordinates":[6917,5091]},{"type":"Point","properties":{"Station_ID":"DURM1","Station_Nam":"DURHAM","Latitude":"43.99960","Longitude":"-70.09630","Snowdepth":"10.000","Units":"in","Rept_Date":"2020-01-10 12"},"coordinates":[7338,5406]},{"type":"Point","properties":{"Station_ID":"CNRM1","Station_Nam":"CONNOR TWP","Latitude":"46.95830","Longitude":"-68.03330","Snowdepth":"10.000","Units":"in","Rept_Date":"2020-01-10 12"},"coordinates":[7895,7165]},{"type":"Point","properties":{"Station_ID":"CAN-NS-56","Station_Nam":"HAMMOND PLAINS 2.9 WSW, CA","Latitude":"44.72456","Longitude":"-63.81920","Snowdepth":"10.000","Units":"in","Rept_Date":"2020-01-10 12"},"coordinates":[9035,5837]},{"type":"Point","properties":{"Station_ID":"BTHM1","Station_Nam":"BATH","Latitude":"43.93160","Longitude":"-69.85640","Snowdepth":"10.000","Units":"in","Rept_Date":"2020-01-10 11"},"coordinates":[7402,5366]},{"type":"Point","properties":{"Station_ID":"VT-WS-10","Station_Nam":"NORTHFIELD 1.5 N, VT","Latitude":"44.16986","Longitude":"-72.65200","Snowdepth":"9.500","Units":"in","Rept_Date":"2020-01-10 12"},"coordinates":[6647,5507]},{"type":"Point","properties":{"Station_ID":"NH-GR-49","Station_Nam":"PLYMOUTH 3.7 N, NH","Latitude":"43.79048","Longitude":"-71.68413","Snowdepth":"9.500","Units":"in","Rept_Date":"2020-01-10 12"},"coordinates":[6908,5282]},{"type":"Point","properties":{"Station_ID":"NH-CR-11","Station_Nam":"NORTH CONWAY 1.4 SSW, NH","Latitude":"44.03556","Longitude":"-71.14010","Snowdepth":"9.500","Units":"in","Rept_Date":"2020-01-10 12"},"coordinates":[7055,5427]},{"type":"Point","properties":{"Station_ID":"MN-MR-13","Station_Nam":"LITTLE FALLS 8.0 NE, MN","Latitude":"46.06785","Longitude":"-94.24789","Snowdepth":"9.500","Units":"in","Rept_Date":"2020-01-10 13"},"coordinates":[809,6635]},{"type":"Point","properties":{"Station_ID":"CAN-ON-245","Station_Nam":"PHELPSTON 3.1 ESE, CAN","Latitude":"44.50564","Longitude":"-79.81035","Snowdepth":"9.500","Units":"in","Rept_Date":"2020-01-10 13"},"coordinates":[4712,5707]},{"type":"Point","properties":{"Station_ID":"WNDM1","Station_Nam":"WINDHAM 2NW","Latitude":"43.85670","Longitude":"-70.46630","Snowdepth":"9.000","Units":"in","Rept_Date":"2020-01-10 12"},"coordinates":[7238,5321]},{"type":"Point","properties":{"Station_ID":"WLDM5","Station_Nam":"WILD RIVER STATE PARK","Latitude":"45.52310","Longitude":"-92.74890","Snowdepth":"9.000","Units":"in","Rept_Date":"2020-01-10 14"},"coordinates":[1214,6312]},{"type":"Point","properties":{"Station_ID":"WI-MT-14","Station_Nam":"MOSINEE 2.7 WSW, WI","Latitude":"44.77240","Longitude":"-89.73441","Snowdepth":"9.000","Units":"in","Rept_Date":"2020-01-10 13"},"coordinates":[2029,5865]},{"type":"Point","properties":{"Station_ID":"WI-LN-2","Station_Nam":"MERRILL 7.0 W, WI","Latitude":"45.17746","Longitude":"-89.84820","Snowdepth":"9.000","Units":"in","Rept_Date":"2020-01-10 12"},"coordinates":[1998,6106]},{"type":"Point","properties":{"Station_ID":"WI-EC-23","Station_Nam":"EAU CLAIRE 3.7 S, WI","Latitude":"44.76858","Longitude":"-91.49898","Snowdepth":"9.000","Units":"in","Rept_Date":"2020-01-10 16"},"coordinates":[1552,5863]},{"type":"Point","properties":{"Station_ID":"WI-BR-2","Station_Nam":"CHETEK 2.0 SE, WI","Latitude":"45.29427","Longitude":"-91.62470","Snowdepth":"9.000","Units":"in","Rept_Date":"2020-01-10 13"},"coordinates":[1518,6175]},{"type":"Point","properties":{"Station_ID":"VT-WR-17","Station_Nam":"ROCHESTER 2.3 NE, VT","Latitude":"43.89418","Longitude":"-72.76992","Snowdepth":"9.000","Units":"in","Rept_Date":"2020-01-10 12"},"coordinates":[6615,5343]},{"type":"Point","properties":{"Station_ID":"VT-LM-7","Station_Nam":"HYDE PARK 2.9 NE, VT","Latitude":"44.62080","Longitude":"-72.57250","Snowdepth":"9.000","Units":"in","Rept_Date":"2020-01-10 12"},"coordinates":[6668,5775]},{"type":"Point","properties":{"Station_ID":"SJBV1","Station_Nam":"SAINT JOHNSBURY","Latitude":"44.42000","Longitude":"-72.01940","Snowdepth":"9.000","Units":"in","Rept_Date":"2020-01-10 21"},"coordinates":[6818,5656]},{"type":"Point","properties":{"Station_ID":"RANM1","Station_Nam":"RANGELEY,ME","Latitude":"44.96670","Longitude":"-70.65000","Snowdepth":"9.000","Units":"in","Rept_Date":"2020-01-10 11"},"coordinates":[7188,5981]},{"type":"Point","properties":{"Station_ID":"POLM1","Station_Nam":"POLAND,ME","Latitude":"44.00750","Longitude":"-70.36190","Snowdepth":"9.000","Units":"in","Rept_Date":"2020-01-10 12"},"coordinates":[7266,5411]},{"type":"Point","properties":{"Station_ID":"NY-FK-7","Station_Nam":"SARANAC LAKE 6.2 N, NY","Latitude":"44.41359","Longitude":"-74.15211","Snowdepth":"9.000","Units":"in","Rept_Date":"2020-01-10 12"},"coordinates":[6241,5652]},{"type":"Point","properties":{"Station_ID":"NOHV1","Station_Nam":"NORTH HARTLAND LAKE","Latitude":"43.60270","Longitude":"-72.36210","Snowdepth":"9.000","Units":"in","Rept_Date":"2020-01-10 12"},"coordinates":[6725,5170]},{"type":"Point","properties":{"Station_ID":"MN-SH-10","Station_Nam":"BIG LAKE 5.6 NNE, MN","Latitude":"45.41409","Longitude":"-93.69190","Snowdepth":"9.000","Units":"in","Rept_Date":"2020-01-10 13"},"coordinates":[959,6247]},{"type":"Point","properties":{"Station_ID":"MN-MR-4","Station_Nam":"LITTLE FALLS 1.2 SW, MN","Latitude":"45.96886","Longitude":"-94.37720","Snowdepth":"9.000","Units":"in","Rept_Date":"2020-01-10 13"},"coordinates":[774,6576]},{"type":"Point","properties":{"Station_ID":"MLLW3","Station_Nam":"MERRILL 8W","Latitude":"45.17810","Longitude":"-89.84810","Snowdepth":"9.000","Units":"in","Rept_Date":"2020-01-10 12"},"coordinates":[1998,6106]},{"type":"Point","properties":{"Station_ID":"ME-CM-86","Station_Nam":"POWNAL 4.1 S, ME","Latitude":"43.85370","Longitude":"-70.17210","Snowdepth":"9.000","Units":"in","Rept_Date":"2020-01-10 12"},"coordinates":[7317,5319]},{"type":"Point","properties":{"Station_ID":"ME-AN-32","Station_Nam":"WINTHROP 9.4 W, ME","Latitude":"44.30476","Longitude":"-70.15835","Snowdepth":"9.000","Units":"in","Rept_Date":"2020-01-10 12"},"coordinates":[7321,5587]},{"type":"Point","properties":{"Station_ID":"MA-HS-7","Station_Nam":"PLAINFIELD 2.2 SW, MA","Latitude":"42.49272","Longitude":"-72.94540","Snowdepth":"9.000","Units":"in","Rept_Date":"2020-01-10 13"},"coordinates":[6567,4510]},{"type":"Point","properties":{"Station_ID":"LOWN6","Station_Nam":"LOWVILLE","Latitude":"43.79280","Longitude":"-75.48290","Snowdepth":"9.000","Units":"in","Rept_Date":"2020-01-10 12"},"coordinates":[5881,5283]},{"type":"Point","properties":{"Station_ID":"LADW3","Station_Nam":"LADYSMITH WTP","Latitude":"45.44290","Longitude":"-91.08970","Snowdepth":"9.000","Units":"in","Rept_Date":"2020-01-10 13"},"coordinates":[1662,6264]},{"type":"Point","properties":{"Station_ID":"HYTS2","Station_Nam":"HAYTI 1W","Latitude":"44.66330","Longitude":"-97.22670","Snowdepth":"9.000","Units":"in","Rept_Date":"2020-01-10 14"},"coordinates":[3,5800]},{"type":"Point","properties":{"Station_ID":"HRTM1","Station_Nam":"HARTFORD","Latitude":"44.37440","Longitude":"-70.31620","Snowdepth":"9.000","Units":"in","Rept_Date":"2020-01-10 12"},"coordinates":[7278,5629]},{"type":"Point","properties":{"Station_ID":"GYX","Station_Nam":"PORTLAND, ME","Latitude":"43.89250","Longitude":"-70.25500","Snowdepth":"9.000","Units":"in","Rept_Date":"2020-01-10 12"},"coordinates":[7295,5342]},{"type":"Point","properties":{"Station_ID":"CARM1","Station_Nam":"CARIBOU WFO","Latitude":"46.86810","Longitude":"-68.01250","Snowdepth":"9.000","Units":"in","Rept_Date":"2020-01-11 05"},"coordinates":[7901,7111]},{"type":"Point","properties":{"Station_ID":"CAN-NB-13","Station_Nam":"BATHURST 3.8 NW, CAN","Latitude":"47.64212","Longitude":"-65.68756","Snowdepth":"9.000","Units":"in","Rept_Date":"2020-01-10 11"},"coordinates":[8529,7571]},{"type":"Point","properties":{"Station_ID":"CAN-MB-32","Station_Nam":"PINAWA 1.0 SW, CA","Latitude":"50.14747","Longitude":"-95.89020","Snowdepth":"9.000","Units":"in","Rept_Date":"2020-01-10 13"},"coordinates":[365,9060]},{"type":"Point","properties":{"Station_ID":"BRLN3","Station_Nam":"BERLIN","Latitude":"44.45350","Longitude":"-71.18540","Snowdepth":"9.000","Units":"in","Rept_Date":"2020-01-10 12"},"coordinates":[7043,5676]},{"type":"Point","properties":{"Station_ID":"AUW","Station_Nam":"WAUSAU MUNICIPAL AIRPORT","Latitude":"44.92580","Longitude":"-89.62560","Snowdepth":"9.000","Units":"in","Rept_Date":"2020-01-11 00"},"coordinates":[2058,5956]},{"type":"Point","properties":{"Station_ID":"8D3","Station_Nam":"SISSETON MUNICIPAL AP","Latitude":"45.67080","Longitude":"-96.99610","Snowdepth":"9.000","Units":"in","Rept_Date":"2020-01-10 12"},"coordinates":[66,6399]},{"type":"Point","properties":{"Station_ID":"VT-CL-23","Station_Nam":"RYEGATE 1.5 N, VT","Latitude":"44.23024","Longitude":"-72.10523","Snowdepth":"8.900","Units":"in","Rept_Date":"2020-01-10 12"},"coordinates":[6795,5543]},{"type":"Point","properties":{"Station_ID":"CAN-NS-134","Station_Nam":"HALIFAX 0.9 ENE, CAN","Latitude":"44.65130","Longitude":"-63.59070","Snowdepth":"8.700","Units":"in","Rept_Date":"2020-01-10 12"},"coordinates":[9096,5793]},{"type":"Point","properties":{"Station_ID":"NY-HR-18","Station_Nam":"SALISBURY CENTER 1.8 NW, NY","Latitude":"43.16260","Longitude":"-74.80880","Snowdepth":"8.500","Units":"in","Rept_Date":"2020-01-10 11"},"coordinates":[6064,4908]},{"type":"Point","properties":{"Station_ID":"NH-MR-55","Station_Nam":"CANTERBURY 2.5 SSW, NH","Latitude":"43.30277","Longitude":"-71.57893","Snowdepth":"8.500","Units":"in","Rept_Date":"2020-01-10 12"},"coordinates":[6937,4992]},{"type":"Point","properties":{"Station_ID":"NH-GR-1","Station_Nam":"BRISTOL 0.4 SSE, NH","Latitude":"43.59490","Longitude":"-71.74140","Snowdepth":"8.500","Units":"in","Rept_Date":"2020-01-10 12"},"coordinates":[6893,5165]},{"type":"Point","properties":{"Station_ID":"NH-CR-27","Station_Nam":"TAMWORTH 0.4 NNW, NH","Latitude":"43.86449","Longitude":"-71.26610","Snowdepth":"8.500","Units":"in","Rept_Date":"2020-01-10 12"},"coordinates":[7021,5326]},{"type":"Point","properties":{"Station_ID":"MI-OT-16","Station_Nam":"GAYLORD 2.2 SSE, MI","Latitude":"44.99441","Longitude":"-84.65820","Snowdepth":"8.500","Units":"in","Rept_Date":"2020-01-10 12"},"coordinates":[3401,5997]},{"type":"Point","properties":{"Station_ID":"ME-YK-67","Station_Nam":"CORNISH 5.6 ESE, ME","Latitude":"43.78308","Longitude":"-70.69539","Snowdepth":"8.500","Units":"in","Rept_Date":"2020-01-10 12"},"coordinates":[7176,5277]},{"type":"Point","properties":{"Station_ID":"ME-CM-54","Station_Nam":"WINDHAM 3.9 NW, ME","Latitude":"43.85787","Longitude":"-70.46200","Snowdepth":"8.500","Units":"in","Rept_Date":"2020-01-10 12"},"coordinates":[7239,5322]},{"type":"Point","properties":{"Station_ID":"CAN-QC-51","Station_Nam":"BELOEIL 0.7 NW, CAN","Latitude":"45.58049","Longitude":"-73.21218","Snowdepth":"8.100","Units":"in","Rept_Date":"2020-01-10 12"},"coordinates":[6495,6346]},{"type":"Point","properties":{"Station_ID":"WUNW3","Station_Nam":"WAUSAU-NORTHEAST","Latitude":"44.97310","Longitude":"-89.61690","Snowdepth":"8.000","Units":"in","Rept_Date":"2020-01-10 12"},"coordinates":[2060,5985]},{"type":"Point","properties":{"Station_ID":"WRUM5","Station_Nam":"WARROAD 4W","Latitude":"48.89600","Longitude":"-95.40700","Snowdepth":"8.000","Units":"in","Rept_Date":"2020-01-11 04"},"coordinates":[495,8316]},{"type":"Point","properties":{"Station_ID":"VT-WS-19","Station_Nam":"WATERBURY 3.0 NW, VT","Latitude":"44.36060","Longitude":"-72.80770","Snowdepth":"8.000","Units":"in","Rept_Date":"2020-01-10 11"},"coordinates":[6605,5621]},{"type":"Point","properties":{"Station_ID":"VT-LM-1","Station_Nam":"STOWE 0.2 SW, VT","Latitude":"44.46399","Longitude":"-72.69070","Snowdepth":"8.000","Units":"in","Rept_Date":"2020-01-10 12"},"coordinates":[6636,5682]},{"type":"Point","properties":{"Station_ID":"TURM1","Station_Nam":"TURNER","Latitude":"44.28220","Longitude":"-70.25610","Snowdepth":"8.000","Units":"in","Rept_Date":"2020-01-10 12"},"coordinates":[7294,5574]},{"type":"Point","properties":{"Station_ID":"TOPM1","Station_Nam":"TOPSFIELD","Latitude":"45.43470","Longitude":"-67.72020","Snowdepth":"8.000","Units":"in","Rept_Date":"2020-01-10 12"},"coordinates":[7980,6259]},{"type":"Point","properties":{"Station_ID":"TMWN3","Station_Nam":"TAMWORTH 4","Latitude":"43.86390","Longitude":"-71.26610","Snowdepth":"8.000","Units":"in","Rept_Date":"2020-01-10 12"},"coordinates":[7021,5325]},{"type":"Point","properties":{"Station_ID":"SPOW3","Station_Nam":"SPOONER,WI","Latitude":"45.82360","Longitude":"-91.70000","Snowdepth":"8.000","Units":"in","Rept_Date":"2020-01-10 14"},"coordinates":[1497,6490]},{"type":"Point","properties":{"Station_ID":"SD-BK-7","Station_Nam":"BROOKINGS 0.2 SSW, SD","Latitude":"44.30389","Longitude":"-96.78780","Snowdepth":"8.000","Units":"in","Rept_Date":"2020-01-10 13"},"coordinates":[122,5587]},{"type":"Point","properties":{"Station_ID":"RRLW3","Station_Nam":"MERRILL,WI","Latitude":"45.17860","Longitude":"-89.66170","Snowdepth":"8.000","Units":"in","Rept_Date":"2020-01-10 14"},"coordinates":[2048,6107]},{"type":"Point","properties":{"Station_ID":"ROWM3","Station_Nam":"ROWE 3NE","Latitude":"42.73500","Longitude":"-72.86920","Snowdepth":"8.000","Units":"in","Rept_Date":"2020-01-10 14"},"coordinates":[6588,4654]},{"type":"Point","properties":{"Station_ID":"RKWM1","Station_Nam":"MOOSEHEAD LAKE","Latitude":"45.58330","Longitude":"-69.71670","Snowdepth":"8.000","Units":"in","Rept_Date":"2020-01-10 12"},"coordinates":[7440,6347]},{"type":"Point","properties":{"Station_ID":"RCEM5","Station_Nam":"RICE","Latitude":"45.75760","Longitude":"-94.20720","Snowdepth":"8.000","Units":"in","Rept_Date":"2020-01-10 13"},"coordinates":[820,6451]},{"type":"Point","properties":{"Station_ID":"PLFV1","Station_Nam":"PLAINFIELD","Latitude":"44.27610","Longitude":"-72.41500","Snowdepth":"8.000","Units":"in","Rept_Date":"2020-01-10 12"},"coordinates":[6711,5570]},{"type":"Point","properties":{"Station_ID":"NY-FK-9","Station_Nam":"GABRIELS 1.3 SE, NY","Latitude":"44.41934","Longitude":"-74.16194","Snowdepth":"8.000","Units":"in","Rept_Date":"2020-01-10 12"},"coordinates":[6239,5655]},{"type":"Point","properties":{"Station_ID":"NH-MR-26","Station_Nam":"PITTSFIELD 0.2 SSW, NH","Latitude":"43.29880","Longitude":"-71.33450","Snowdepth":"8.000","Units":"in","Rept_Date":"2020-01-10 13"},"coordinates":[7003,4989]},{"type":"Point","properties":{"Station_ID":"NH-CS-7","Station_Nam":"LANCASTER 0.5 N, NH","Latitude":"44.49611","Longitude":"-71.57640","Snowdepth":"8.000","Units":"in","Rept_Date":"2020-01-10 12"},"coordinates":[6937,5701]},{"type":"Point","properties":{"Station_ID":"NH-CR-9","Station_Nam":"MADISON 1.7 SE, NH","Latitude":"43.87928","Longitude":"-71.12660","Snowdepth":"8.000","Units":"in","Rept_Date":"2020-01-10 12"},"coordinates":[7059,5334]},{"type":"Point","properties":{"Station_ID":"NH-BK-29","Station_Nam":"SANBORNTON 2.3 WNW, NH","Latitude":"43.49730","Longitude":"-71.62800","Snowdepth":"8.000","Units":"in","Rept_Date":"2020-01-10 12"},"coordinates":[6924,5107]},{"type":"Point","properties":{"Station_ID":"MRAM4","Station_Nam":"MORAN","Latitude":"45.99030","Longitude":"-84.83610","Snowdepth":"8.000","Units":"in","Rept_Date":"2020-01-10 13"},"coordinates":[3353,6589]},{"type":"Point","properties":{"Station_ID":"MONS2","Station_Nam":"SIOUX FALLS-26MI.WNW","Latitude":"43.70190","Longitude":"-97.18330","Snowdepth":"8.000","Units":"in","Rept_Date":"2020-01-10 14"},"coordinates":[15,5229]},{"type":"Point","properties":{"Station_ID":"MN228RRE","Station_Nam":"RICE 0.8 ENE","Latitude":"45.75724","Longitude":"-94.20638","Snowdepth":"8.000","Units":"in","Rept_Date":"2020-01-10 13"},"coordinates":[820,6451]},{"type":"Point","properties":{"Station_ID":"MN20GPME","Station_Nam":"MILACA 0.7 W","Latitude":"45.75695","Longitude":"-93.66835","Snowdepth":"8.000","Units":"in","Rept_Date":"2020-01-10 13"},"coordinates":[965,6451]},{"type":"Point","properties":{"Station_ID":"MLCM5","Station_Nam":"MILACA","Latitude":"45.75320","Longitude":"-93.66170","Snowdepth":"8.000","Units":"in","Rept_Date":"2020-01-10 13"},"coordinates":[967,6448]},{"type":"Point","properties":{"Station_ID":"MI-OT-4","Station_Nam":"GAYLORD 1.7 WNW, MI","Latitude":"45.03280","Longitude":"-84.71090","Snowdepth":"8.000","Units":"in","Rept_Date":"2020-01-10 13"},"coordinates":[3387,6020]},{"type":"Point","properties":{"Station_ID":"MEDW3","Station_Nam":"MEDFORD","Latitude":"45.13080","Longitude":"-90.34390","Snowdepth":"8.000","Units":"in","Rept_Date":"2020-01-10 14"},"coordinates":[1864,6078]},{"type":"Point","properties":{"Station_ID":"ME-YK-65","Station_Nam":"NORTH BERWICK 5.3 W, ME","Latitude":"43.29801","Longitude":"-70.83956","Snowdepth":"8.000","Units":"in","Rept_Date":"2020-01-10 12"},"coordinates":[7137,4989]},{"type":"Point","properties":{"Station_ID":"ME-YK-3","Station_Nam":"HOLLIS CENTER 5.4 NW, ME","Latitude":"43.64750","Longitude":"-70.67510","Snowdepth":"8.000","Units":"in","Rept_Date":"2020-01-10 12"},"coordinates":[7181,5197]},{"type":"Point","properties":{"Station_ID":"ME-CM-18","Station_Nam":"PORTLAND 5.5 WNW, ME","Latitude":"43.70288","Longitude":"-70.30550","Snowdepth":"8.000","Units":"in","Rept_Date":"2020-01-10 12"},"coordinates":[7281,5230]},{"type":"Point","properties":{"Station_ID":"LKPN3","Station_Nam":"LAKEPORT 2","Latitude":"43.54910","Longitude":"-71.46450","Snowdepth":"8.000","Units":"in","Rept_Date":"2020-01-10 13"},"coordinates":[6968,5138]},{"type":"Point","properties":{"Station_ID":"LBKV1","Station_Nam":"LYE BROOK","Latitude":"43.05000","Longitude":"-73.03330","Snowdepth":"8.000","Units":"in","Rept_Date":"2020-01-11 06"},"coordinates":[6544,4842]},{"type":"Point","properties":{"Station_ID":"JKMM1","Station_Nam":"JACKMAN","Latitude":"45.62600","Longitude":"-70.24600","Snowdepth":"8.000","Units":"in","Rept_Date":"2020-01-10 12"},"coordinates":[7297,6373]},{"type":"Point","properties":{"Station_ID":"HOLM1","Station_Nam":"HOLLIS","Latitude":"43.64750","Longitude":"-70.67490","Snowdepth":"8.000","Units":"in","Rept_Date":"2020-01-10 11"},"coordinates":[7181,5197]},{"type":"Point","properties":{"Station_ID":"GMRM5","Station_Nam":"GRAND MARIAS WATER TREATMENT PLANT","Latitude":"47.75180","Longitude":"-90.32820","Snowdepth":"8.000","Units":"in","Rept_Date":"2020-01-10 14"},"coordinates":[1868,7636]},{"type":"Point","properties":{"Station_ID":"GAYM4","Station_Nam":"GAYLORD","Latitude":"45.03320","Longitude":"-84.71130","Snowdepth":"8.000","Units":"in","Rept_Date":"2020-01-10 13"},"coordinates":[3387,6020]},{"type":"Point","properties":{"Station_ID":"ESGM1","Station_Nam":"EAST SANGERVILLE","Latitude":"45.13690","Longitude":"-69.28060","Snowdepth":"8.000","Units":"in","Rept_Date":"2020-01-10 12"},"coordinates":[7558,6082]},{"type":"Point","properties":{"Station_ID":"EPTW3","Station_Nam":"EAU PLEINE TENDER","Latitude":"44.77220","Longitude":"-89.76720","Snowdepth":"8.000","Units":"in","Rept_Date":"2020-01-10 13"},"coordinates":[2020,5865]},{"type":"Point","properties":{"Station_ID":"BRAM1","Station_Nam":"BRASSUA DAM","Latitude":"45.66020","Longitude":"-69.81190","Snowdepth":"8.000","Units":"in","Rept_Date":"2020-01-10 12"},"coordinates":[7414,6393]},{"type":"Point","properties":{"Station_ID":"BENN6","Station_Nam":"BENNETTS BRIDGE","Latitude":"43.53180","Longitude":"-75.95260","Snowdepth":"8.000","Units":"in","Rept_Date":"2020-01-10 12"},"coordinates":[5754,5128]},{"type":"Point","properties":{"Station_ID":"CAN-NS-3","Station_Nam":"WOLFVILLE 7.1 ESE, CAN","Latitude":"45.07921","Longitude":"-64.27107","Snowdepth":"7.900","Units":"in","Rept_Date":"2020-01-10 11"},"coordinates":[8912,6048]},{"type":"Point","properties":{"Station_ID":"CAN-NS-159","Station_Nam":"NORTHPORT 0.1 NE, CAN","Latitude":"45.93299","Longitude":"-63.86711","Snowdepth":"7.900","Units":"in","Rept_Date":"2020-01-10 11"},"coordinates":[9022,6555]},{"type":"Point","properties":{"Station_ID":"CAN-NB-104","Station_Nam":"PENNFIELD RIDGE 2.7 SSW, CAN","Latitude":"45.09355","Longitude":"-66.71389","Snowdepth":"7.900","Units":"in","Rept_Date":"2020-01-10 11"},"coordinates":[8252,6056]},{"type":"Point","properties":{"Station_ID":"QGT","Station_Nam":"QGT","Latitude":"49.64720","Longitude":"-67.62640","Snowdepth":"7.835","Units":"in","Rept_Date":"2020-01-10 12"},"coordinates":[8005,8763]},{"type":"Point","properties":{"Station_ID":"CAN-NS-86","Station_Nam":"NAPPAN 1.7 E, CA","Latitude":"45.76986","Longitude":"-64.21800","Snowdepth":"7.700","Units":"in","Rept_Date":"2020-01-10 14"},"coordinates":[8927,6458]},{"type":"Point","properties":{"Station_ID":"NH-CR-46","Station_Nam":"NORTH CONWAY 1.8 SSE, NH","Latitude":"44.02955","Longitude":"-71.11664","Snowdepth":"7.500","Units":"in","Rept_Date":"2020-01-10 15"},"coordinates":[7062,5424]},{"type":"Point","properties":{"Station_ID":"NH-BK-2","Station_Nam":"BELMONT 1.7 SW, NH","Latitude":"43.43556","Longitude":"-71.50690","Snowdepth":"7.500","Units":"in","Rept_Date":"2020-01-10 12"},"coordinates":[6956,5071]},{"type":"Point","properties":{"Station_ID":"ME-YK-5","Station_Nam":"KENNEBUNK 1.8 WNW, ME","Latitude":"43.39320","Longitude":"-70.58060","Snowdepth":"7.500","Units":"in","Rept_Date":"2020-01-10 12"},"coordinates":[7207,5046]},{"type":"Point","properties":{"Station_ID":"ME-CM-128","Station_Nam":"SOUTH PORTLAND 1.6 S, ME","Latitude":"43.60900","Longitude":"-70.28600","Snowdepth":"7.500","Units":"in","Rept_Date":"2020-01-10 12"},"coordinates":[7286,5174]},{"type":"Point","properties":{"Station_ID":"CAN-NS-43","Station_Nam":"BEDFORD 0.6 WNW, CAN","Latitude":"44.72917","Longitude":"-63.67521","Snowdepth":"7.500","Units":"in","Rept_Date":"2020-01-10 12"},"coordinates":[9073,5840]},{"type":"Point","properties":{"Station_ID":"CAN-NB-98","Station_Nam":"HOYT 4.2 S, CAN","Latitude":"45.54763","Longitude":"-66.55440","Snowdepth":"7.100","Units":"in","Rept_Date":"2020-01-10 11"},"coordinates":[8295,6326]},{"type":"Point","properties":{"Station_ID":"CAN-NB-97","Station_Nam":"NEW MARYLAND 0.6 NW, CAN","Latitude":"45.90112","Longitude":"-66.68739","Snowdepth":"7.100","Units":"in","Rept_Date":"2020-01-10 11"},"coordinates":[8259,6536]},{"type":"Point","properties":{"Station_ID":"WSKW3","Station_Nam":"WAUSAUKEE","Latitude":"45.38020","Longitude":"-87.95660","Snowdepth":"7.000","Units":"in","Rept_Date":"2020-01-10 14"},"coordinates":[2509,6227]},{"type":"Point","properties":{"Station_ID":"WMRM5","Station_Nam":"WILLMAR 5N","Latitude":"45.19010","Longitude":"-95.05860","Snowdepth":"7.000","Units":"in","Rept_Date":"2020-01-10 12"},"coordinates":[589,6114]},{"type":"Point","properties":{"Station_ID":"WHTM5","Station_Nam":"WHEATON,MN","Latitude":"45.80000","Longitude":"-96.48330","Snowdepth":"7.000","Units":"in","Rept_Date":"2020-01-10 14"},"coordinates":[204,6476]},{"type":"Point","properties":{"Station_ID":"WDSV1","Station_Nam":"WOODSTOCK","Latitude":"43.63030","Longitude":"-72.50720","Snowdepth":"7.000","Units":"in","Rept_Date":"2020-01-10 13"},"coordinates":[6686,5186]},{"type":"Point","properties":{"Station_ID":"WDOM5","Station_Nam":"WINDOM","Latitude":"43.87700","Longitude":"-95.11590","Snowdepth":"7.000","Units":"in","Rept_Date":"2020-01-10 14"},"coordinates":[574,5333]},{"type":"Point","properties":{"Station_ID":"WAIV1","Station_Nam":"WAITSFIELD","Latitude":"44.17560","Longitude":"-72.79610","Snowdepth":"7.000","Units":"in","Rept_Date":"2020-01-10 12"},"coordinates":[6608,5511]},{"type":"Point","properties":{"Station_ID":"VT-WS-11","Station_Nam":"WAITSFIELD 1.8 SE, VT","Latitude":"44.17551","Longitude":"-72.79540","Snowdepth":"7.000","Units":"in","Rept_Date":"2020-01-10 12"},"coordinates":[6608,5511]},{"type":"Point","properties":{"Station_ID":"VANM1","Station_Nam":"VAN BUREN","Latitude":"47.16600","Longitude":"-67.93900","Snowdepth":"7.000","Units":"in","Rept_Date":"2020-01-10 12"},"coordinates":[7921,7288]},{"type":"Point","properties":{"Station_ID":"TOPN6","Station_Nam":"TUPPER LAKE SUNMOUNT","Latitude":"44.23070","Longitude":"-74.43820","Snowdepth":"7.000","Units":"in","Rept_Date":"2020-01-10 12"},"coordinates":[6164,5543]},{"type":"Point","properties":{"Station_ID":"TETM5","Station_Nam":"TETTEGOUCHE STATE PARK","Latitude":"47.33900","Longitude":"-91.19590","Snowdepth":"7.000","Units":"in","Rept_Date":"2020-01-10 14"},"coordinates":[1634,7391]},{"type":"Point","properties":{"Station_ID":"STRW3","Station_Nam":"STRATFORD 1NW","Latitude":"44.81750","Longitude":"-90.08990","Snowdepth":"7.000","Units":"in","Rept_Date":"2020-01-10 12"},"coordinates":[1933,5892]},{"type":"Point","properties":{"Station_ID":"SIBI4","Station_Nam":"SIBLEY","Latitude":"43.40470","Longitude":"-95.74830","Snowdepth":"7.000","Units":"in","Rept_Date":"2020-01-10 13"},"coordinates":[403,5052]},{"type":"Point","properties":{"Station_ID":"RSTW3","Station_Nam":"ROSHOLT","Latitude":"44.62710","Longitude":"-89.30600","Snowdepth":"7.000","Units":"in","Rept_Date":"2020-01-10 13"},"coordinates":[2144,5779]},{"type":"Point","properties":{"Station_ID":"RFDM1","Station_Nam":"RUMFORD 7SW","Latitude":"44.49470","Longitude":"-70.65640","Snowdepth":"7.000","Units":"in","Rept_Date":"2020-01-10 14"},"coordinates":[7186,5700]},{"type":"Point","properties":{"Station_ID":"PWM","Station_Nam":"RESIDUAL OFFICE TO PORTLAND WSFO (GYX)","Latitude":"43.64610","Longitude":"-70.30920","Snowdepth":"7.000","Units":"in","Rept_Date":"2020-01-10 12"},"coordinates":[7280,5196]},{"type":"Point","properties":{"Station_ID":"PBAN8","Station_Nam":"SITE 1-3MI.N","Latitude":"48.97420","Longitude":"-97.23860","Snowdepth":"7.000","Units":"in","Rept_Date":"2020-01-10 13"},"coordinates":[0,8363]},{"type":"Point","properties":{"Station_ID":"OWEW3","Station_Nam":"OWEN 1E","Latitude":"44.94610","Longitude":"-90.55170","Snowdepth":"7.000","Units":"in","Rept_Date":"2020-01-10 13"},"coordinates":[1808,5969]},{"type":"Point","properties":{"Station_ID":"OCON6","Station_Nam":"OSCEOLA","Latitude":"43.49910","Longitude":"-75.71210","Snowdepth":"7.000","Units":"in","Rept_Date":"2020-01-10 12"},"coordinates":[5819,5108]},{"type":"Point","properties":{"Station_ID":"NH-RC-48","Station_Nam":"NORTHWOOD 2.9 WSW, NH","Latitude":"43.20114","Longitude":"-71.25750","Snowdepth":"7.000","Units":"in","Rept_Date":"2020-01-10 12"},"coordinates":[7024,4931]},{"type":"Point","properties":{"Station_ID":"NH-RC-18","Station_Nam":"DEERFIELD 3.2 WSW, NH","Latitude":"43.13350","Longitude":"-71.27940","Snowdepth":"7.000","Units":"in","Rept_Date":"2020-01-10 12"},"coordinates":[7018,4891]},{"type":"Point","properties":{"Station_ID":"NH-MR-60","Station_Nam":"SOUTH SUTTON 1.3 SE, NH","Latitude":"43.29531","Longitude":"-71.90238","Snowdepth":"7.000","Units":"in","Rept_Date":"2020-01-10 13"},"coordinates":[6849,4987]},{"type":"Point","properties":{"Station_ID":"NH-CR-15","Station_Nam":"JACKSON 3.7 NW, NH","Latitude":"44.19069","Longitude":"-71.22598","Snowdepth":"7.000","Units":"in","Rept_Date":"2020-01-10 12"},"coordinates":[7032,5520]},{"type":"Point","properties":{"Station_ID":"NEDM1","Station_Nam":"CAPE NEDDICK","Latitude":"43.22410","Longitude":"-70.63880","Snowdepth":"7.000","Units":"in","Rept_Date":"2020-01-10 12"},"coordinates":[7191,4945]},{"type":"Point","properties":{"Station_ID":"MRLV1","Station_Nam":"MARLBORO","Latitude":"42.86000","Longitude":"-72.72000","Snowdepth":"7.000","Units":"in","Rept_Date":"2020-01-10 12"},"coordinates":[6628,4729]},{"type":"Point","properties":{"Station_ID":"MNPV1","Station_Nam":"MONTPELIER 2","Latitude":"44.25530","Longitude":"-72.60060","Snowdepth":"7.000","Units":"in","Rept_Date":"2020-01-10 12"},"coordinates":[6661,5558]},{"type":"Point","properties":{"Station_ID":"MNJ3AYM2","Station_Nam":"WILLMAR 2.8 NNE","Latitude":"45.16114","Longitude":"-95.03260","Snowdepth":"7.000","Units":"in","Rept_Date":"2020-01-10 12"},"coordinates":[596,6096]},{"type":"Point","properties":{"Station_ID":"MNCR4NWM","Station_Nam":"WINDOM 1.3 NNE","Latitude":"43.87817","Longitude":"-95.12003","Snowdepth":"7.000","Units":"in","Rept_Date":"2020-01-10 14"},"coordinates":[573,5334]},{"type":"Point","properties":{"Station_ID":"MN-SR-29","Station_Nam":"ALBANY 3.8 S, MN","Latitude":"45.57441","Longitude":"-94.55543","Snowdepth":"7.000","Units":"in","Rept_Date":"2020-01-10 13"},"coordinates":[725,6342]},{"type":"Point","properties":{"Station_ID":"MN-SH-985","Station_Nam":"PRINCETON 3.3 WSW, MN","Latitude":"45.55211","Longitude":"-93.64481","Snowdepth":"7.000","Units":"in","Rept_Date":"2020-01-10 10"},"coordinates":[972,6329]},{"type":"Point","properties":{"Station_ID":"MIAM5","Station_Nam":"MILAN 1NW","Latitude":"45.12190","Longitude":"-95.92690","Snowdepth":"7.000","Units":"in","Rept_Date":"2020-01-11 00"},"coordinates":[355,6073]},{"type":"Point","properties":{"Station_ID":"MI-DL-1","Station_Nam":"GARDEN CORNERS 0.8 NW, MI","Latitude":"45.89815","Longitude":"-86.54850","Snowdepth":"7.000","Units":"in","Rept_Date":"2020-01-10 13"},"coordinates":[2890,6534]},{"type":"Point","properties":{"Station_ID":"ME-YK-52","Station_Nam":"YORK 5.2 N, ME","Latitude":"43.23585","Longitude":"-70.63400","Snowdepth":"7.000","Units":"in","Rept_Date":"2020-01-10 12"},"coordinates":[7192,4952]},{"type":"Point","properties":{"Station_ID":"LVRM1","Station_Nam":"LIVERMORE FALLS 1 E","Latitude":"44.47160","Longitude":"-70.15940","Snowdepth":"7.000","Units":"in","Rept_Date":"2020-01-10 12"},"coordinates":[7321,5687]},{"type":"Point","properties":{"Station_ID":"LNKM1","Station_Nam":"LINCOLN SANITARY DISTRICT/WTP","Latitude":"45.37520","Longitude":"-68.50820","Snowdepth":"7.000","Units":"in","Rept_Date":"2020-01-10 12"},"coordinates":[7767,6224]},{"type":"Point","properties":{"Station_ID":"JMPW3","Station_Nam":"JUMP RIVER 1 NW","Latitude":"45.35610","Longitude":"-90.80250","Snowdepth":"7.000","Units":"in","Rept_Date":"2020-01-10 13"},"coordinates":[1740,6212]},{"type":"Point","properties":{"Station_ID":"GDCM4","Station_Nam":"GARDEN CORNERS","Latitude":"45.89830","Longitude":"-86.54850","Snowdepth":"7.000","Units":"in","Rept_Date":"2020-01-10 13"},"coordinates":[2890,6535]},{"type":"Point","properties":{"Station_ID":"FORM5","Station_Nam":"FOREST LAKE 5NE","Latitude":"45.33170","Longitude":"-92.89820","Snowdepth":"7.000","Units":"in","Rept_Date":"2020-01-10 13"},"coordinates":[1173,6198]},{"type":"Point","properties":{"Station_ID":"CON","Station_Nam":"CONCORD MUNI ARPT","Latitude":"43.20280","Longitude":"-71.50220","Snowdepth":"7.000","Units":"in","Rept_Date":"2020-01-10 12"},"coordinates":[6958,4932]},{"type":"Point","properties":{"Station_ID":"CHRM4","Station_Nam":"CHARLEVOIX","Latitude":"45.31720","Longitude":"-85.26720","Snowdepth":"7.000","Units":"in","Rept_Date":"2020-01-10 13"},"coordinates":[3236,6189]},{"type":"Point","properties":{"Station_ID":"CBLW3","Station_Nam":"CUMBERLAND","Latitude":"45.53310","Longitude":"-92.02260","Snowdepth":"7.000","Units":"in","Rept_Date":"2020-01-10 13"},"coordinates":[1410,6317]},{"type":"Point","properties":{"Station_ID":"CAN-NS-83","Station_Nam":"CENTRELEA 1.2 NNW, CAN","Latitude":"44.83073","Longitude":"-65.32664","Snowdepth":"7.000","Units":"in","Rept_Date":"2020-01-10 12"},"coordinates":[8627,5900]},{"type":"Point","properties":{"Station_ID":"BALW3","Station_Nam":"BALDWIN","Latitude":"44.96330","Longitude":"-92.39050","Snowdepth":"7.000","Units":"in","Rept_Date":"2020-01-10 13"},"coordinates":[1311,5979]},{"type":"Point","properties":{"Station_ID":"ASTW3","Station_Nam":"ATHELSTANE","Latitude":"45.42500","Longitude":"-88.05750","Snowdepth":"7.000","Units":"in","Rept_Date":"2020-01-10 12"},"coordinates":[2482,6253]},{"type":"Point","properties":{"Station_ID":"APXM4","Station_Nam":"GAYLORD 9SSW","Latitude":"44.90720","Longitude":"-84.71880","Snowdepth":"7.000","Units":"in","Rept_Date":"2020-01-11 06"},"coordinates":[3385,5945]},{"type":"Point","properties":{"Station_ID":"VT-CH-11","Station_Nam":"UNDERHILL 5.1 NNE, VT","Latitude":"44.59811","Longitude":"-72.91880","Snowdepth":"6.500","Units":"in","Rept_Date":"2020-01-10 12"},"coordinates":[6575,5762]},{"type":"Point","properties":{"Station_ID":"NH-MR-4","Station_Nam":"BOW 1.6 NW, NH","Latitude":"43.14994","Longitude":"-71.55650","Snowdepth":"6.500","Units":"in","Rept_Date":"2020-01-10 12"},"coordinates":[6943,4901]},{"type":"Point","properties":{"Station_ID":"MI-DL-4","Station_Nam":"GLADSTONE 2.1 SW, MI","Latitude":"45.83218","Longitude":"-87.05727","Snowdepth":"6.500","Units":"in","Rept_Date":"2020-01-10 12"},"coordinates":[2752,6495]},{"type":"Point","properties":{"Station_ID":"ME-PN-30","Station_Nam":"OLD TOWN 4.1 ESE, ME","Latitude":"44.93543","Longitude":"-68.65840","Snowdepth":"6.500","Units":"in","Rept_Date":"2020-01-10 12"},"coordinates":[7726,5962]},{"type":"Point","properties":{"Station_ID":"ME-FR-22","Station_Nam":"FARMINGTON 4.8 NNW, ME","Latitude":"44.73396","Longitude":"-70.18007","Snowdepth":"6.500","Units":"in","Rept_Date":"2020-01-10 14"},"coordinates":[7315,5842]},{"type":"Point","properties":{"Station_ID":"CAN-QC-47","Station_Nam":"SAINTE-FOY 1.8 ENE, CAN","Latitude":"46.76934","Longitude":"-71.27124","Snowdepth":"6.500","Units":"in","Rept_Date":"2020-01-10 12"},"coordinates":[7020,7052]},{"type":"Point","properties":{"Station_ID":"CAN-NB-29","Station_Nam":"SUSSEX 1.0 WNW - KWRC, CAN","Latitude":"45.72670","Longitude":"-65.52858","Snowdepth":"6.100","Units":"in","Rept_Date":"2020-01-10 12"},"coordinates":[8572,6433]},{"type":"Point","properties":{"Station_ID":"VT-WS-33","Station_Nam":"WAITSFIELD 3.5 WNW, VT","Latitude":"44.20052","Longitude":"-72.89421","Snowdepth":"6.000","Units":"in","Rept_Date":"2020-01-10 13"},"coordinates":[6581,5525]},