{"type":"Topology","objects":{"snowdepth_geo":{"type":"GeometryCollection","name":"snowdepth","crs":{"type":"name","properties":{"name":"urn:ogc:def:crs:OGC:1.3:CRS84"}},"geometries":[{"type":"Point","properties":{"Station_ID":"PRKM4","Station_Nam":"MUNISING EAST","Latitude":"46.42580","Longitude":"-86.62000","Snowdepth":"76.500","Units":"in","Rept_Date":"2020-03-28 06"},"coordinates":[2492,5295]},{"type":"Point","properties":{"Station_ID":"HTLN3","Station_Nam":"HERMIT LAKE SNOWPLOT","Latitude":"44.26130","Longitude":"-71.28330","Snowdepth":"64.000","Units":"in","Rept_Date":"2020-03-27 09"},"coordinates":[6092,3375]},{"type":"Point","properties":{"Station_ID":"AUDQ6","Station_Nam":"AUDEN","Latitude":"48.52600","Longitude":"-82.57570","Snowdepth":"47.640","Units":"in","Rept_Date":"2020-03-28 06"},"coordinates":[3441,7159]},{"type":"Point","properties":{"Station_ID":"CAN-NL-81","Station_Nam":"GRAND FALLS-WINDSOR 1.2 S, CAN","Latitude":"48.93123","Longitude":"-55.65333","Snowdepth":"46.500","Units":"in","Rept_Date":"2020-03-27 10"},"coordinates":[9760,7518]},{"type":"Point","properties":{"Station_ID":"DVLQ6","Station_Nam":"DEVIOUS LAKE","Latitude":"49.19890","Longitude":"-87.76440","Snowdepth":"43.460","Units":"in","Rept_Date":"2020-03-28 06"},"coordinates":[2224,7756]},{"type":"Point","properties":{"Station_ID":"PDLM4","Station_Nam":"PAINESDALE","Latitude":"47.04160","Longitude":"-88.67170","Snowdepth":"42.000","Units":"in","Rept_Date":"2020-03-27 12"},"coordinates":[2011,5842]},{"type":"Point","properties":{"Station_ID":"CAN-NS-39","Station_Nam":"ST. ANNS 2.8 NW, CA","Latitude":"46.25082","Longitude":"-60.64340","Snowdepth":"40.000","Units":"in","Rept_Date":"2020-03-27 12"},"coordinates":[8589,5140]},{"type":"Point","properties":{"Station_ID":"CAN-NL-82","Station_Nam":"GANDER 2.7 NW, CAN","Latitude":"48.97737","Longitude":"-54.63396","Snowdepth":"39.000","Units":"in","Rept_Date":"2020-03-27 10"},"coordinates":[9999,7559]},{"type":"Point","properties":{"Station_ID":"MNSM4","Station_Nam":"MUNISING","Latitude":"46.41210","Longitude":"-86.66250","Snowdepth":"34.000","Units":"in","Rept_Date":"2020-03-27 10"},"coordinates":[2482,5283]},{"type":"Point","properties":{"Station_ID":"WLFM5","Station_Nam":"WOLF RIDGE ENVIRON LEARNING CENTER","Latitude":"47.38240","Longitude":"-91.19730","Snowdepth":"32.000","Units":"in","Rept_Date":"2020-03-27 12"},"coordinates":[1418,6144]},{"type":"Point","properties":{"Station_ID":"KSGM4","Station_Nam":"KEARSARGE","Latitude":"47.27520","Longitude":"-88.41700","Snowdepth":"32.000","Units":"in","Rept_Date":"2020-03-27 12"},"coordinates":[2070,6049]},{"type":"Point","properties":{"Station_ID":"CAN-NB-105","Station_Nam":"SISSON BROOK 3.8 E, CAN","Latitude":"46.98305","Longitude":"-67.32532","Snowdepth":"30.700","Units":"in","Rept_Date":"2020-03-27 12"},"coordinates":[7020,5790]},{"type":"Point","properties":{"Station_ID":"QNCM4","Station_Nam":"QUINCY HILL","Latitude":"47.13640","Longitude":"-88.57950","Snowdepth":"30.000","Units":"in","Rept_Date":"2020-03-27 11"},"coordinates":[2032,5926]},{"type":"Point","properties":{"Station_ID":"PTLQ6","Station_Nam":"PORTAGE LAKE","Latitude":"49.06950","Longitude":"-86.65940","Snowdepth":"29.130","Units":"in","Rept_Date":"2020-03-28 06"},"coordinates":[2483,7641]},{"type":"Point","properties":{"Station_ID":"MI-BG-3","Station_Nam":"L'ANSE 17.8 SE, MI","Latitude":"46.55730","Longitude":"-88.20770","Snowdepth":"28.000","Units":"in","Rept_Date":"2020-03-27 13"},"coordinates":[2119,5412]},{"type":"Point","properties":{"Station_ID":"CARM1","Station_Nam":"CARIBOU WFO","Latitude":"46.86810","Longitude":"-68.01250","Snowdepth":"28.000","Units":"in","Rept_Date":"2020-03-28 04"},"coordinates":[6859,5688]},{"type":"Point","properties":{"Station_ID":"CAR","Station_Nam":"CARIBOU, ME","Latitude":"46.86830","Longitude":"-68.01360","Snowdepth":"28.000","Units":"in","Rept_Date":"2020-03-27 12"},"coordinates":[6859,5688]},{"type":"Point","properties":{"Station_ID":"CAN-NB-13","Station_Nam":"BATHURST 3.8 NW, CAN","Latitude":"47.64212","Longitude":"-65.68756","Snowdepth":"28.000","Units":"in","Rept_Date":"2020-03-27 09"},"coordinates":[7405,6374]},{"type":"Point","properties":{"Station_ID":"CAN-QC-47","Station_Nam":"SAINTE-FOY 1.8 ENE, CAN","Latitude":"46.76934","Longitude":"-71.27124","Snowdepth":"27.600","Units":"in","Rept_Date":"2020-03-27 12"},"coordinates":[6094,5600]},{"type":"Point","properties":{"Station_ID":"TRIQ6","Station_Nam":"TRIO LAKE","Latitude":"49.22880","Longitude":"-87.22920","Snowdepth":"27.360","Units":"in","Rept_Date":"2020-03-28 06"},"coordinates":[2349,7782]},{"type":"Point","properties":{"Station_ID":"VANM1","Station_Nam":"VAN BUREN","Latitude":"47.16600","Longitude":"-67.93900","Snowdepth":"27.000","Units":"in","Rept_Date":"2020-03-27 11"},"coordinates":[6876,5952]},{"type":"Point","properties":{"Station_ID":"MQT","Station_Nam":"MARQUETTE, MI","Latitude":"46.53140","Longitude":"-87.54920","Snowdepth":"27.000","Units":"in","Rept_Date":"2020-03-28 06"},"coordinates":[2274,5389]},{"type":"Point","properties":{"Station_ID":"FISM1","Station_Nam":"FORT KENT COOP","Latitude":"47.23850","Longitude":"-68.61240","Snowdepth":"27.000","Units":"in","Rept_Date":"2020-03-27 09"},"coordinates":[6718,6016]},{"type":"Point","properties":{"Station_ID":"CAN-NB-11","Station_Nam":"MIRAMICHI 3.3 S, CAN","Latitude":"46.99343","Longitude":"-65.50690","Snowdepth":"26.500","Units":"in","Rept_Date":"2020-03-27 11"},"coordinates":[7447,5799]},{"type":"Point","properties":{"Station_ID":"STEM4","Station_Nam":"STEUBEN","Latitude":"46.18530","Longitude":"-86.46410","Snowdepth":"26.000","Units":"in","Rept_Date":"2020-03-27 13"},"coordinates":[2529,5082]},{"type":"Point","properties":{"Station_ID":"HERM4","Station_Nam":"HERMAN,MI","Latitude":"46.65000","Longitude":"-88.33330","Snowdepth":"26.000","Units":"in","Rept_Date":"2020-03-27 12"},"coordinates":[2090,5494]},{"type":"Point","properties":{"Station_ID":"CNRM1","Station_Nam":"CONNOR TWP","Latitude":"46.95830","Longitude":"-68.03330","Snowdepth":"26.000","Units":"in","Rept_Date":"2020-03-27 12"},"coordinates":[6854,5768]},{"type":"Point","properties":{"Station_ID":"IBLM5","Station_Nam":"ISABELLA 14W","Latitude":"47.59360","Longitude":"-91.65140","Snowdepth":"25.000","Units":"in","Rept_Date":"2020-03-27 14"},"coordinates":[1311,6331]},{"type":"Point","properties":{"Station_ID":"SVBQ6","Station_Nam":"SAVANT BASE","Latitude":"50.28730","Longitude":"-90.65670","Snowdepth":"24.060","Units":"in","Rept_Date":"2020-03-28 06"},"coordinates":[1545,8722]},{"type":"Point","properties":{"Station_ID":"PRDM4","Station_Nam":"PARADISE","Latitude":"46.60380","Longitude":"-85.03960","Snowdepth":"23.000","Units":"in","Rept_Date":"2020-03-27 10"},"coordinates":[2863,5453]},{"type":"Point","properties":{"Station_ID":"MI-HG-1","Station_Nam":"HOUGHTON 1.6 ESE, MI","Latitude":"47.10774","Longitude":"-88.52940","Snowdepth":"21.500","Units":"in","Rept_Date":"2020-03-27 13"},"coordinates":[2044,5900]},{"type":"Point","properties":{"Station_ID":"WRPW3","Station_Nam":"WATER PURIFICATION PLANT","Latitude":"44.38800","Longitude":"-89.80550","Snowdepth":"21.000","Units":"in","Rept_Date":"2020-03-27 11"},"coordinates":[1744,3487]},{"type":"Point","properties":{"Station_ID":"MN-CK-18","Station_Nam":"GRAND MARAIS 4.4 WSW, MN","Latitude":"47.74462","Longitude":"-90.43796","Snowdepth":"21.000","Units":"in","Rept_Date":"2020-03-27 13"},"coordinates":[1596,6465]},{"type":"Point","properties":{"Station_ID":"CAN-NB-96","Station_Nam":"SAINT-IGNACE 2.6 NE, CAN","Latitude":"46.71424","Longitude":"-65.05609","Snowdepth":"20.900","Units":"in","Rept_Date":"2020-03-27 11"},"coordinates":[7553,5551]},{"type":"Point","properties":{"Station_ID":"CAN-NS-103","Station_Nam":"TRAFALGAR 4.9 WSW, CAN","Latitude":"45.26217","Longitude":"-62.72285","Snowdepth":"20.500","Units":"in","Rept_Date":"2020-03-27 12"},"coordinates":[8101,4263]},{"type":"Point","properties":{"Station_ID":"ME-AR-15","Station_Nam":"PRESQUE ISLE 1.3 WSW, ME","Latitude":"46.67960","Longitude":"-68.01270","Snowdepth":"20.000","Units":"in","Rept_Date":"2020-03-27 15"},"coordinates":[6859,5520]},{"type":"Point","properties":{"Station_ID":"CAN-NS-60","Station_Nam":"SYDNEY FORKS, CAN","Latitude":"46.05645","Longitude":"-60.31510","Snowdepth":"20.000","Units":"in","Rept_Date":"2020-03-27 13"},"coordinates":[8666,4967]},{"type":"Point","properties":{"Station_ID":"OGIQ6","Station_Nam":"OGOKI CAMP","Latitude":"50.76680","Longitude":"-87.85820","Snowdepth":"19.720","Units":"in","Rept_Date":"2020-03-28 06"},"coordinates":[2202,9147]},{"type":"Point","properties":{"Station_ID":"WI-VL-9","Station_Nam":"LAND O' LAKES 11.7 W, WI","Latitude":"46.19023","Longitude":"-89.45790","Snowdepth":"19.000","Units":"in","Rept_Date":"2020-03-27 13"},"coordinates":[1826,5086]},{"type":"Point","properties":{"Station_ID":"LNOW3","Station_Nam":"LAND O LAKES","Latitude":"46.19000","Longitude":"-89.45700","Snowdepth":"19.000","Units":"in","Rept_Date":"2020-03-27 12"},"coordinates":[1826,5086]},{"type":"Point","properties":{"Station_ID":"GNLM4","Station_Nam":"GREENLAND 6N","Latitude":"46.87360","Longitude":"-89.10060","Snowdepth":"19.000","Units":"in","Rept_Date":"2020-03-27 12"},"coordinates":[1910,5693]},{"type":"Point","properties":{"Station_ID":"CAN-PE-19","Station_Nam":"CHARLOTTETOWN 6.5 NNW, CAN","Latitude":"46.29235","Longitude":"-63.17271","Snowdepth":"18.100","Units":"in","Rept_Date":"2020-03-27 12"},"coordinates":[7995,5177]},{"type":"Point","properties":{"Station_ID":"WI-VL-10","Station_Nam":"LAND O LAKES 4.3 WNW, WI","Latitude":"46.17440","Longitude":"-89.30380","Snowdepth":"18.000","Units":"in","Rept_Date":"2020-03-27 13"},"coordinates":[1862,5072]},{"type":"Point","properties":{"Station_ID":"DFXM1","Station_Nam":"DOVER-FOXCROFT","Latitude":"45.18720","Longitude":"-69.18350","Snowdepth":"18.000","Units":"in","Rept_Date":"2020-03-27 11"},"coordinates":[6584,4196]},{"type":"Point","properties":{"Station_ID":"BERM4","Station_Nam":"BERGLAND DAM","Latitude":"46.58690","Longitude":"-89.54750","Snowdepth":"18.000","Units":"in","Rept_Date":"2020-03-27 12"},"coordinates":[1805,5438]},{"type":"Point","properties":{"Station_ID":"CATQ6","Station_Nam":"CAT LAKE","Latitude":"51.72690","Longitude":"-91.82210","Snowdepth":"17.680","Units":"in","Rept_Date":"2020-03-28 06"},"coordinates":[1271,9999]},{"type":"Point","properties":{"Station_ID":"SOCQ6","Station_Nam":"SOCKET LAKE","Latitude":"50.77870","Longitude":"-91.79300","Snowdepth":"17.560","Units":"in","Rept_Date":"2020-03-28 06"},"coordinates":[1278,9158]},{"type":"Point","properties":{"Station_ID":"VT-OL-12","Station_Nam":"GREENSBORO 3.9 NNE, VT","Latitude":"44.63100","Longitude":"-72.28000","Snowdepth":"17.000","Units":"in","Rept_Date":"2020-03-27 12"},"coordinates":[5858,3703]},{"type":"Point","properties":{"Station_ID":"VT-CL-3","Station_Nam":"GROTON 4.4 WSW, VT","Latitude":"44.19440","Longitude":"-72.28240","Snowdepth":"17.000","Units":"in","Rept_Date":"2020-03-27 11"},"coordinates":[5857,3315]},{"type":"Point","properties":{"Station_ID":"RGNM1","Station_Nam":"RANGELEY 2NW","Latitude":"44.98940","Longitude":"-70.67220","Snowdepth":"17.000","Units":"in","Rept_Date":"2020-03-27 10"},"coordinates":[6235,4021]},{"type":"Point","properties":{"Station_ID":"MN-IT-23","Station_Nam":"BOVEY 13.4 N, MN","Latitude":"47.48855","Longitude":"-93.43497","Snowdepth":"17.000","Units":"in","Rept_Date":"2020-03-27 13"},"coordinates":[893,6238]},{"type":"Point","properties":{"Station_ID":"MN-IT-10","Station_Nam":"DEER RIVER 3.7 W, MN","Latitude":"47.33564","Longitude":"-93.87514","Snowdepth":"17.000","Units":"in","Rept_Date":"2020-03-27 14"},"coordinates":[789,6103]},{"type":"Point","properties":{"Station_ID":"MI-MQ-19","Station_Nam":"ISHPEMING 7.2 SW, MI","Latitude":"46.40550","Longitude":"-87.75670","Snowdepth":"17.000","Units":"in","Rept_Date":"2020-03-27 11"},"coordinates":[2225,5277]},{"type":"Point","properties":{"Station_ID":"CSLM5","Station_Nam":"CASS LAKE,MN","Latitude":"47.38470","Longitude":"-94.61470","Snowdepth":"17.000","Units":"in","Rept_Date":"2020-03-27 13"},"coordinates":[616,6146]},{"type":"Point","properties":{"Station_ID":"KABQ6","Station_Nam":"CAB LAKE","Latitude":"49.59950","Longitude":"-89.17990","Snowdepth":"16.500","Units":"in","Rept_Date":"2020-03-28 06"},"coordinates":[1891,8111]},{"type":"Point","properties":{"Station_ID":"SUAW3","Station_Nam":"SUAMICO","Latitude":"44.60190","Longitude":"-88.09780","Snowdepth":"16.000","Units":"in","Rept_Date":"2020-03-27 11"},"coordinates":[2145,3677]},{"type":"Point","properties":{"Station_ID":"SSMM4","Station_Nam":"SAULT STE MARIE","Latitude":"46.48660","Longitude":"-84.40250","Snowdepth":"16.000","Units":"in","Rept_Date":"2020-03-27 12"},"coordinates":[3013,5349]},{"type":"Point","properties":{"Station_ID":"PDGM4","Station_Nam":"PAULDING","Latitude":"46.39760","Longitude":"-89.17940","Snowdepth":"16.000","Units":"in","Rept_Date":"2020-03-27 12"},"coordinates":[1891,5270]},{"type":"Point","properties":{"Station_ID":"NOHM5","Station_Nam":"NORTHOME","Latitude":"47.83590","Longitude":"-94.25550","Snowdepth":"16.000","Units":"in","Rept_Date":"2020-03-27 12"},"coordinates":[700,6546]},{"type":"Point","properties":{"Station_ID":"MN-IT-17","Station_Nam":"GRAND RAPIDS 6.1 N, MN","Latitude":"47.31165","Longitude":"-93.55036","Snowdepth":"16.000","Units":"in","Rept_Date":"2020-03-27 13"},"coordinates":[866,6081]},{"type":"Point","properties":{"Station_ID":"LILM1","Station_Nam":"LILLE","Latitude":"47.27770","Longitude":"-68.10520","Snowdepth":"16.000","Units":"in","Rept_Date":"2020-03-27 11"},"coordinates":[6837,6051]},{"type":"Point","properties":{"Station_ID":"EVRW3","Station_Nam":"EAGLE RIVER-4 E","Latitude":"45.91890","Longitude":"-89.15280","Snowdepth":"16.000","Units":"in","Rept_Date":"2020-03-27 12"},"coordinates":[1898,4845]},{"type":"Point","properties":{"Station_ID":"CAN-NB-18","Station_Nam":"MCLEOD HILL 1.1 ENE, CA","Latitude":"46.02725","Longitude":"-66.67460","Snowdepth":"16.000","Units":"in","Rept_Date":"2020-03-27 12"},"coordinates":[7173,4942]},{"type":"Point","properties":{"Station_ID":"BABM5","Station_Nam":"BABBITT","Latitude":"47.71210","Longitude":"-91.95330","Snowdepth":"16.000","Units":"in","Rept_Date":"2020-03-27 12"},"coordinates":[1240,6437]},{"type":"Point","properties":{"Station_ID":"ANJM4","Station_Nam":"SNOW PAID OBSERVER FOR KANJ","Latitude":"46.48670","Longitude":"-84.40260","Snowdepth":"16.000","Units":"in","Rept_Date":"2020-03-27 18"},"coordinates":[3013,5349]},{"type":"Point","properties":{"Station_ID":"ANJ","Station_Nam":"SAULT STE MARIE","Latitude":"46.46670","Longitude":"-84.36670","Snowdepth":"16.000","Units":"in","Rept_Date":"2020-03-28 00"},"coordinates":[3021,5331]},{"type":"Point","properties":{"Station_ID":"STGW3","Station_Nam":"ST GERMAIN","Latitude":"45.91550","Longitude":"-89.48940","Snowdepth":"15.000","Units":"in","Rept_Date":"2020-03-27 11"},"coordinates":[1819,4842]},{"type":"Point","properties":{"Station_ID":"NH-CS-10","Station_Nam":"RANDOLPH 1.4 NE, NH","Latitude":"44.38824","Longitude":"-71.26950","Snowdepth":"15.000","Units":"in","Rept_Date":"2020-03-27 12"},"coordinates":[6095,3487]},{"type":"Point","properties":{"Station_ID":"MIEM4","Station_Nam":"MICHIGAMME 3WNW","Latitude":"46.54530","Longitude":"-88.18000","Snowdepth":"15.000","Units":"in","Rept_Date":"2020-03-27 12"},"coordinates":[2126,5401]},{"type":"Point","properties":{"Station_ID":"KABM5","Station_Nam":"KABETOGAMA LAKE VISITOR CTR","Latitude":"48.40880","Longitude":"-93.04840","Snowdepth":"15.000","Units":"in","Rept_Date":"2020-03-27 12"},"coordinates":[983,7055]},{"type":"Point","properties":{"Station_ID":"IWOM4","Station_Nam":"IRONWOOD#2","Latitude":"46.46520","Longitude":"-90.13820","Snowdepth":"15.000","Units":"in","Rept_Date":"2020-03-27 12"},"coordinates":[1666,5330]},{"type":"Point","properties":{"Station_ID":"INL","Station_Nam":"FALLS INTERNATIONAL ARPT","Latitude":"48.56640","Longitude":"-93.40310","Snowdepth":"15.000","Units":"in","Rept_Date":"2020-03-27 12"},"coordinates":[900,7195]},{"type":"Point","properties":{"Station_ID":"IFSM5","Station_Nam":"INTERNATIONAL FALLS SNOW","Latitude":"48.57780","Longitude":"-93.39640","Snowdepth":"15.000","Units":"in","Rept_Date":"2020-03-27 12"},"coordinates":[902,7205]},{"type":"Point","properties":{"Station_ID":"GLDM4","Station_Nam":"GLADSTONE NO. 2","Latitude":"45.84330","Longitude":"-87.03910","Snowdepth":"15.000","Units":"in","Rept_Date":"2020-03-27 11"},"coordinates":[2394,4778]},{"type":"Point","properties":{"Station_ID":"CRLM5","Station_Nam":"CROSS LAKE DAM","Latitude":"46.66930","Longitude":"-94.11060","Snowdepth":"15.000","Units":"in","Rept_Date":"2020-03-27 13"},"coordinates":[734,5511]},{"type":"Point","properties":{"Station_ID":"BRDM1","Station_Nam":"BRIDGEWATER","Latitude":"46.42870","Longitude":"-67.84370","Snowdepth":"15.000","Units":"in","Rept_Date":"2020-03-27 22"},"coordinates":[6899,5298]},{"type":"Point","properties":{"Station_ID":"BBEM4","Station_Nam":"BIG BAY 9SW","Latitude":"46.74620","Longitude":"-87.88160","Snowdepth":"15.000","Units":"in","Rept_Date":"2020-03-27 12"},"coordinates":[2196,5580]},{"type":"Point","properties":{"Station_ID":"WNBM5","Station_Nam":"DAM","Latitude":"47.43060","Longitude":"-94.05000","Snowdepth":"14.000","Units":"in","Rept_Date":"2020-03-27 13"},"coordinates":[748,6187]},{"type":"Point","properties":{"Station_ID":"WI-VL-14","Station_Nam":"BOULDER JUNCTION 1.4 NE, WI","Latitude":"46.12840","Longitude":"-89.62470","Snowdepth":"14.000","Units":"in","Rept_Date":"2020-03-27 13"},"coordinates":[1787,5031]},{"type":"Point","properties":{"Station_ID":"MNV905PW","Station_Nam":"ROOSEVELT 5.3 N","Latitude":"48.87933","Longitude":"-95.08224","Snowdepth":"14.000","Units":"in","Rept_Date":"2020-03-27 12"},"coordinates":[506,7472]},{"type":"Point","properties":{"Station_ID":"MI-CP-14","Station_Nam":"SAULT STE. MARIE 2.2 E, MI","Latitude":"46.48933","Longitude":"-84.31971","Snowdepth":"14.000","Units":"in","Rept_Date":"2020-03-27 12"},"coordinates":[3032,5352]},{"type":"Point","properties":{"Station_ID":"EMBM5","Station_Nam":"EMBARASS,MN","Latitude":"47.65810","Longitude":"-92.19580","Snowdepth":"14.000","Units":"in","Rept_Date":"2020-03-27 11"},"coordinates":[1184,6389]},{"type":"Point","properties":{"Station_ID":"ELYM5","Station_Nam":"ELY","Latitude":"47.90560","Longitude":"-91.82830","Snowdepth":"14.000","Units":"in","Rept_Date":"2020-03-27 15"},"coordinates":[1270,6608]},{"type":"Point","properties":{"Station_ID":"WTNM4","Station_Nam":"WATTON 2WSW","Latitude":"46.52660","Longitude":"-88.64240","Snowdepth":"13.000","Units":"in","Rept_Date":"2020-03-27 12"},"coordinates":[2017,5385]},{"type":"Point","properties":{"Station_ID":"VT-CL-40","Station_Nam":"LYNDONVILLE 4.2 NNW, VT","Latitude":"44.59440","Longitude":"-72.02389","Snowdepth":"13.000","Units":"in","Rept_Date":"2020-03-27 12"},"coordinates":[5918,3670]},{"type":"Point","properties":{"Station_ID":"TOGM5","Station_Nam":"CELINA 2E","Latitude":"47.86630","Longitude":"-93.02660","Snowdepth":"13.000","Units":"in","Rept_Date":"2020-03-27 13"},"coordinates":[989,6573]},{"type":"Point","properties":{"Station_ID":"MN-SL-15","Station_Nam":"CHISHOLM 0.4 WSW, MN","Latitude":"47.48557","Longitude":"-92.88690","Snowdepth":"13.000","Units":"in","Rept_Date":"2020-03-27 13"},"coordinates":[1021,6236]},{"type":"Point","properties":{"Station_ID":"MN-CK-6","Station_Nam":"GRAND MARAIS 4.4 W, MN","Latitude":"47.74865","Longitude":"-90.43760","Snowdepth":"13.000","Units":"in","Rept_Date":"2020-03-27 13"},"coordinates":[1596,6469]},{"type":"Point","properties":{"Station_ID":"LEIM5","Station_Nam":"ORR 3E","Latitude":"48.05810","Longitude":"-92.75220","Snowdepth":"13.000","Units":"in","Rept_Date":"2020-03-27 11"},"coordinates":[1053,6744]},{"type":"Point","properties":{"Station_ID":"GHMN3","Station_Nam":"PINKHAM NOTCH","Latitude":"44.25800","Longitude":"-71.25250","Snowdepth":"13.000","Units":"in","Rept_Date":"2020-03-27 10"},"coordinates":[6099,3372]},{"type":"Point","properties":{"Station_ID":"GGRM4","Station_Nam":"GREEN GARDEN NO.2","Latitude":"46.45330","Longitude":"-87.30380","Snowdepth":"13.000","Units":"in","Rept_Date":"2020-03-27 12"},"coordinates":[2332,5320]},{"type":"Point","properties":{"Station_ID":"COKM5","Station_Nam":"COOK","Latitude":"47.85060","Longitude":"-92.69250","Snowdepth":"13.000","Units":"in","Rept_Date":"2020-03-27 11"},"coordinates":[1067,6559]},{"type":"Point","properties":{"Station_ID":"CLKM4","Station_Nam":"CLARKSBURG","Latitude":"46.49910","Longitude":"-87.84500","Snowdepth":"13.000","Units":"in","Rept_Date":"2020-03-27 11"},"coordinates":[2205,5360]},{"type":"Point","properties":{"Station_ID":"WI-BY-14","Station_Nam":"ASHLAND 9.8 W, WI","Latitude":"46.59742","Longitude":"-91.07856","Snowdepth":"12.500","Units":"in","Rept_Date":"2020-03-27 12"},"coordinates":[1446,5447]},{"type":"Point","properties":{"Station_ID":"CAN-NS-163","Station_Nam":"SYDNEY MINES 2.2 WNW, CAN","Latitude":"46.24851","Longitude":"-60.25161","Snowdepth":"12.200","Units":"in","Rept_Date":"2020-03-27 12"},"coordinates":[8681,5138]},{"type":"Point","properties":{"Station_ID":"WI-IR-3","Station_Nam":"PENCE 0.1 E, WI","Latitude":"46.41555","Longitude":"-90.27013","Snowdepth":"12.000","Units":"in","Rept_Date":"2020-03-27 13"},"coordinates":[1635,5286]},{"type":"Point","properties":{"Station_ID":"SUTV1","Station_Nam":"SUTTON","Latitude":"44.61220","Longitude":"-72.04810","Snowdepth":"12.000","Units":"in","Rept_Date":"2020-03-27 12"},"coordinates":[5912,3686]},{"type":"Point","properties":{"Station_ID":"RANM1","Station_Nam":"RANGELEY","Latitude":"44.98910","Longitude":"-70.67190","Snowdepth":"12.000","Units":"in","Rept_Date":"2020-03-27 10"},"coordinates":[6235,4020]},{"type":"Point","properties":{"Station_ID":"PHEW3","Station_Nam":"PHELPS","Latitude":"46.06630","Longitude":"-89.07520","Snowdepth":"12.000","Units":"in","Rept_Date":"2020-03-27 12"},"coordinates":[1916,4976]},{"type":"Point","properties":{"Station_ID":"MWN","Station_Nam":"MOUNT WASHINGTON","Latitude":"44.26670","Longitude":"-71.30000","Snowdepth":"12.000","Units":"in","Rept_Date":"2020-03-28 04"},"coordinates":[6088,3379]},{"type":"Point","properties":{"Station_ID":"MN-IT-1","Station_Nam":"GRAND RAPIDS 2.0 E, MN","Latitude":"47.22266","Longitude":"-93.49600","Snowdepth":"12.000","Units":"in","Rept_Date":"2020-03-27 12"},"coordinates":[878,6002]},{"type":"Point","properties":{"Station_ID":"KMWN","Station_Nam":"MOUNT WASHINGTON","Latitude":"44.26666","Longitude":"-71.30000","Snowdepth":"12.000","Units":"in","Rept_Date":"2020-03-28 00"},"coordinates":[6088,3379]},{"type":"Point","properties":{"Station_ID":"JCBM4","Station_Nam":"JACOBSVILLE","Latitude":"47.00830","Longitude":"-88.43180","Snowdepth":"12.000","Units":"in","Rept_Date":"2020-03-27 11"},"coordinates":[2067,5812]},{"type":"Point","properties":{"Station_ID":"HURW3","Station_Nam":"HURLEY","Latitude":"46.46250","Longitude":"-90.19550","Snowdepth":"12.000","Units":"in","Rept_Date":"2020-03-27 13"},"coordinates":[1653,5328]},{"type":"Point","properties":{"Station_ID":"FEDM5","Station_Nam":"LEECH LAKE DAM","Latitude":"47.24670","Longitude":"-94.22280","Snowdepth":"12.000","Units":"in","Rept_Date":"2020-03-27 13"},"coordinates":[708,6024]},{"type":"Point","properties":{"Station_ID":"BNDM5","Station_Nam":"ELY 25E","Latitude":"47.97190","Longitude":"-91.44860","Snowdepth":"12.000","Units":"in","Rept_Date":"2020-03-27 12"},"coordinates":[1359,6667]},{"type":"Point","properties":{"Station_ID":"AVTW3","Station_Nam":"ARBOR VITAE-JOHNSON LAKE","Latitude":"45.89940","Longitude":"-89.72670","Snowdepth":"12.000","Units":"in","Rept_Date":"2020-03-27 11"},"coordinates":[1763,4828]},{"type":"Point","properties":{"Station_ID":"NH-CR-15","Station_Nam":"JACKSON 3.7 NW, NH","Latitude":"44.19069","Longitude":"-71.22598","Snowdepth":"11.500","Units":"in","Rept_Date":"2020-03-27 12"},"coordinates":[6105,3312]},{"type":"Point","properties":{"Station_ID":"CAN-NB-2","Station_Nam":"GRAFTON 2.7 NNE, CA","Latitude":"46.17062","Longitude":"-67.55330","Snowdepth":"11.500","Units":"in","Rept_Date":"2020-03-27 10"},"coordinates":[6967,5069]},{"type":"Point","properties":{"Station_ID":"FTHQ6","Station_Nam":"FORT HOPE","Latitude":"51.55820","Longitude":"-87.90510","Snowdepth":"11.420","Units":"in","Rept_Date":"2020-03-28 06"},"coordinates":[2191,9849]},{"type":"Point","properties":{"Station_ID":"WI-OC-1","Station_Nam":"MOUNTAIN 1.1 SW, WI","Latitude":"45.17239","Longitude":"-88.48990","Snowdepth":"11.000","Units":"in","Rept_Date":"2020-03-27 13"},"coordinates":[2053,4183]},{"type":"Point","properties":{"Station_ID":"VT-ES-1","Station_Nam":"GRANBY 1.4 NW, VT","Latitude":"44.58330","Longitude":"-71.77870","Snowdepth":"11.000","Units":"in","Rept_Date":"2020-03-27 14"},"coordinates":[5975,3660]},{"type":"Point","properties":{"Station_ID":"MOUW3","Station_Nam":"MOUNTAIN 1 SW","Latitude":"45.17220","Longitude":"-88.49390","Snowdepth":"11.000","Units":"in","Rept_Date":"2020-03-27 12"},"coordinates":[2052,4183]},{"type":"Point","properties":{"Station_ID":"MN-IT-7","Station_Nam":"GRAND RAPIDS 6.2 SSW, MN","Latitude":"47.13687","Longitude":"-93.56660","Snowdepth":"11.000","Units":"in","Rept_Date":"2020-03-27 12"},"coordinates":[862,5926]},{"type":"Point","properties":{"Station_ID":"ME-FR-4","Station_Nam":"NEW SHARON 2.0 NW, ME","Latitude":"44.66582","Longitude":"-70.02720","Snowdepth":"11.000","Units":"in","Rept_Date":"2020-03-27 12"},"coordinates":[6386,3734]},{"type":"Point","properties":{"Station_ID":"KINM1","Station_Nam":"KINGFIELD","Latitude":"44.95950","Longitude":"-70.17530","Snowdepth":"11.000","Units":"in","Rept_Date":"2020-03-27 11"},"coordinates":[6352,3994]},{"type":"Point","properties":{"Station_ID":"JKMM1","Station_Nam":"JACKMAN","Latitude":"45.62600","Longitude":"-70.24600","Snowdepth":"11.000","Units":"in","Rept_Date":"2020-03-27 11"},"coordinates":[6335,4586]},{"type":"Point","properties":{"Station_ID":"INDM5","Station_Nam":"INDUS,MN","Latitude":"48.61670","Longitude":"-93.90000","Snowdepth":"11.000","Units":"in","Rept_Date":"2020-03-27 13"},"coordinates":[784,7239]},{"type":"Point","properties":{"Station_ID":"GLRM5","Station_Nam":"GLACIAL RIDGE","Latitude":"47.71670","Longitude":"-96.26670","Snowdepth":"11.000","Units":"in","Rept_Date":"2020-03-28 01"},"coordinates":[228,6441]},{"type":"Point","properties":{"Station_ID":"CAN-PE-3","Station_Nam":"WELLINGTON 1.6 NE, CA","Latitude":"46.46672","Longitude":"-63.98920","Snowdepth":"11.000","Units":"in","Rept_Date":"2020-03-27 11"},"coordinates":[7803,5332]},{"type":"Point","properties":{"Station_ID":"CAN-MB-298","Station_Nam":"GARDENTON 4.2 W - SRRCD, CAN","Latitude":"49.09480","Longitude":"-96.75446","Snowdepth":"11.000","Units":"in","Rept_Date":"2020-03-27 14"},"coordinates":[114,7663]},{"type":"Point","properties":{"Station_ID":"BAUM5","Station_Nam":"BAUDETTE,MN","Latitude":"48.71670","Longitude":"-94.61670","Snowdepth":"11.000","Units":"in","Rept_Date":"2020-03-27 20"},"coordinates":[615,7328]},{"type":"Point","properties":{"Station_ID":"AMAM4","Station_Nam":"AMASA 1W","Latitude":"46.23470","Longitude":"-88.45440","Snowdepth":"11.000","Units":"in","Rept_Date":"2020-03-27 13"},"coordinates":[2062,5126]},{"type":"Point","properties":{"Station_ID":"VT-BN-12","Station_Nam":"STAMFORD 5.0 NNE, VT","Latitude":"42.82000","Longitude":"-73.02000","Snowdepth":"10.500","Units":"in","Rept_Date":"2020-03-27 21"},"coordinates":[5684,2096]},{"type":"Point","properties":{"Station_ID":"CAN-PE-7","Station_Nam":"MORELL 1.4 NNW, CA","Latitude":"46.42741","Longitude":"-62.70870","Snowdepth":"10.500","Units":"in","Rept_Date":"2020-03-27 12"},"coordinates":[8104,5297]},{"type":"Point","properties":{"Station_ID":"WI-ON-8","Station_Nam":"HAZELHURST 2.1 SSE, WI","Latitude":"45.78186","Longitude":"-89.70330","Snowdepth":"10.000","Units":"in","Rept_Date":"2020-03-27 13"},"coordinates":[1768,4724]},{"type":"Point","properties":{"Station_ID":"WI-BY-2","Station_Nam":"MELLEN 18.6 SW, WI","Latitude":"46.16937","Longitude":"-90.98090","Snowdepth":"10.000","Units":"in","Rept_Date":"2020-03-27 13"},"coordinates":[1469,5068]},{"type":"Point","properties":{"Station_ID":"PKGM5","Station_Nam":"POKEGANA LK DAM","Latitude":"47.25080","Longitude":"-93.58610","Snowdepth":"10.000","Units":"in","Rept_Date":"2020-03-27 13"},"coordinates":[857,6027]},{"type":"Point","properties":{"Station_ID":"IRMM4","Station_Nam":"WWTP","Latitude":"46.46670","Longitude":"-90.18330","Snowdepth":"10.000","Units":"in","Rept_Date":"2020-03-27 12"},"coordinates":[1656,5331]},{"type":"Point","properties":{"Station_ID":"GRBM5","Station_Nam":"GRAND RAPIDS 12N","Latitude":"47.39800","Longitude":"-93.51330","Snowdepth":"10.000","Units":"in","Rept_Date":"2020-03-27 12"},"coordinates":[874,6158]},{"type":"Point","properties":{"Station_ID":"DLH","Station_Nam":"DULUTH, MN","Latitude":"46.83690","Longitude":"-92.21030","Snowdepth":"10.000","Units":"in","Rept_Date":"2020-03-27 12"},"coordinates":[1180,5660]},{"type":"Point","properties":{"Station_ID":"CORV1","Station_Nam":"CORINTH","Latitude":"44.00690","Longitude":"-72.31940","Snowdepth":"10.000","Units":"in","Rept_Date":"2020-03-27 11"},"coordinates":[5848,3149]},{"type":"Point","properties":{"Station_ID":"CMKW3","Station_Nam":"CLAM LAKE 4W","Latitude":"46.16940","Longitude":"-90.98080","Snowdepth":"10.000","Units":"in","Rept_Date":"2020-03-27 12"},"coordinates":[1469,5068]},{"type":"Point","properties":{"Station_ID":"CAN-NB-64","Station_Nam":"KESWICK RIDGE 4.0 SE, CAN","Latitude":"45.97014","Longitude":"-66.85538","Snowdepth":"10.000","Units":"in","Rept_Date":"2020-03-27 13"},"coordinates":[7131,4891]},{"type":"Point","properties":{"Station_ID":"AVLV1","Station_Nam":"AVERILL","Latitude":"45.00570","Longitude":"-71.69030","Snowdepth":"10.000","Units":"in","Rept_Date":"2020-03-27 12"},"coordinates":[5996,4035]},{"type":"Point","properties":{"Station_ID":"CAN-ON-757","Station_Nam":"SAULT STE. MARIE 2.8 ESE - GLFC, CAN","Latitude":"46.50300","Longitude":"-84.30300","Snowdepth":"9.800","Units":"in","Rept_Date":"2020-03-27 13"},"coordinates":[3036,5364]},{"type":"Point","properties":{"Station_ID":"MN-SL-108","Station_Nam":"IRON JUNCTION 3.4 NNW, MN","Latitude":"47.46150","Longitude":"-92.63130","Snowdepth":"9.500","Units":"in","Rept_Date":"2020-03-27 13"},"coordinates":[1081,6214]},{"type":"Point","properties":{"Station_ID":"CAN-ON-526","Station_Nam":"HILTON BEACH 0.7 SW - MNRF, CAN","Latitude":"46.25357","Longitude":"-83.90014","Snowdepth":"9.400","Units":"in","Rept_Date":"2020-03-27 12"},"coordinates":[3130,5142]},{"type":"Point","properties":{"Station_ID":"WTRM4","Station_Nam":"WATERSMEET 12WSW","Latitude":"46.22310","Longitude":"-89.40850","Snowdepth":"9.000","Units":"in","Rept_Date":"2020-03-27 11"},"coordinates":[1838,5115]},{"type":"Point","properties":{"Station_ID":"WRUM5","Station_Nam":"WARROAD 4W","Latitude":"48.89600","Longitude":"-95.40700","Snowdepth":"9.000","Units":"in","Rept_Date":"2020-03-28 03"},"coordinates":[430,7487]},{"type":"Point","properties":{"Station_ID":"WERW3","Station_Nam":"CHIPPEWA R BISHOP'S BRIDGE","Latitude":"45.84920","Longitude":"-91.07890","Snowdepth":"9.000","Units":"in","Rept_Date":"2020-03-27 12"},"coordinates":[1446,4784]},{"type":"Point","properties":{"Station_ID":"PTBN3","Station_Nam":"PITTSBURG RESERVOIR","Latitude":"45.04690","Longitude":"-71.38300","Snowdepth":"9.000","Units":"in","Rept_Date":"2020-03-27 12"},"coordinates":[6068,4072]},{"type":"Point","properties":{"Station_ID":"PRNW3","Station_Nam":"PRENTICE,WI","Latitude":"45.54780","Longitude":"-90.30000","Snowdepth":"9.000","Units":"in","Rept_Date":"2020-03-27 13"},"coordinates":[1628,4516]},{"type":"Point","properties":{"Station_ID":"MN7M8EBJ","Station_Nam":"LUTSEN 15.7 NNW","Latitude":"47.85324","Longitude":"-89.92908","Snowdepth":"9.000","Units":"in","Rept_Date":"2020-03-27 13"},"coordinates":[1715,6562]},{"type":"Point","properties":{"Station_ID":"MI-DL-1","Station_Nam":"GARDEN CORNERS 0.8 NW, MI","Latitude":"45.89815","Longitude":"-86.54850","Snowdepth":"9.000","Units":"in","Rept_Date":"2020-03-27 13"},"coordinates":[2509,4827]},{"type":"Point","properties":{"Station_ID":"ME-OX-2","Station_Nam":"HARTFORD 1.4 N, ME","Latitude":"44.39318","Longitude":"-70.34760","Snowdepth":"9.000","Units":"in","Rept_Date":"2020-03-27 12"},"coordinates":[6311,3492]},{"type":"Point","properties":{"Station_ID":"LPLN6","Station_Nam":"LAKE PLACID 2 S","Latitude":"44.30420","Longitude":"-73.98390","Snowdepth":"9.000","Units":"in","Rept_Date":"2020-03-27 11"},"coordinates":[5458,3413]},{"type":"Point","properties":{"Station_ID":"KKMI3","Station_Nam":"KOKOMO 3 WSW","Latitude":"40.45820","Longitude":"-86.17580","Snowdepth":"9.000","Units":"in","Rept_Date":"2020-03-27 11"},"coordinates":[2596,0]},{"type":"Point","properties":{"Station_ID":"GDCM4","Station_Nam":"GARDEN CORNERS","Latitude":"45.89830","Longitude":"-86.54850","Snowdepth":"9.000","Units":"in","Rept_Date":"2020-03-27 12"},"coordinates":[2509,4827]},{"type":"Point","properties":{"Station_ID":"FLNW3","Station_Nam":"FLORENCE","Latitude":"45.93360","Longitude":"-88.25830","Snowdepth":"9.000","Units":"in","Rept_Date":"2020-03-27 12"},"coordinates":[2108,4858]},{"type":"Point","properties":{"Station_ID":"DLHM5","Station_Nam":"DULUTH NWS","Latitude":"46.83680","Longitude":"-92.21080","Snowdepth":"9.000","Units":"in","Rept_Date":"2020-03-28 06"},"coordinates":[1180,5660]},{"type":"Point","properties":{"Station_ID":"AGNW3","Station_Nam":"ARGONNE-1.5 NW","Latitude":"45.67360","Longitude":"-88.90380","Snowdepth":"9.000","Units":"in","Rept_Date":"2020-03-27 12"},"coordinates":[1956,4628]},{"type":"Point","properties":{"Station_ID":"WI-ON-6","Station_Nam":"RHINELANDER 5.2 N, WI","Latitude":"45.71388","Longitude":"-89.42150","Snowdepth":"8.500","Units":"in","Rept_Date":"2020-03-27 15"},"coordinates":[1835,4664]},{"type":"Point","properties":{"Station_ID":"WI-BY-1","Station_Nam":"BAYFIELD 8.8 N, WI","Latitude":"46.93855","Longitude":"-90.83490","Snowdepth":"8.500","Units":"in","Rept_Date":"2020-03-27 13"},"coordinates":[1503,5750]},{"type":"Point","properties":{"Station_ID":"CAN-NB-97","Station_Nam":"NEW MARYLAND 0.6 NW, CAN","Latitude":"45.90112","Longitude":"-66.68739","Snowdepth":"8.300","Units":"in","Rept_Date":"2020-03-27 11"},"coordinates":[7170,4830]},{"type":"Point","properties":{"Station_ID":"WRSM5","Station_Nam":"WRENSHALL","Latitude":"46.61550","Longitude":"-92.38380","Snowdepth":"8.000","Units":"in","Rept_Date":"2020-03-27 13"},"coordinates":[1139,5464]},{"type":"Point","properties":{"Station_ID":"VT-ES-3","Station_Nam":"LUNENBURG 2.3 NNW, VT","Latitude":"44.49324","Longitude":"-71.70446","Snowdepth":"8.000","Units":"in","Rept_Date":"2020-03-27 12"},"coordinates":[5993,3580]},{"type":"Point","properties":{"Station_ID":"MWTM1","Station_Nam":"MILLINOCKET WWTP","Latitude":"45.64030","Longitude":"-68.67480","Snowdepth":"8.000","Units":"in","Rept_Date":"2020-03-27 10"},"coordinates":[6704,4598]},{"type":"Point","properties":{"Station_ID":"MN-SL-105","Station_Nam":"DULUTH 11.8 NNE, MN","Latitude":"46.94680","Longitude":"-92.03925","Snowdepth":"8.000","Units":"in","Rept_Date":"2020-03-27 14"},"coordinates":[1220,5758]},{"type":"Point","properties":{"Station_ID":"LBRM5","Station_Nam":"LAKE BRONSON DAM","Latitude":"48.72410","Longitude":"-96.62180","Snowdepth":"8.000","Units":"in","Rept_Date":"2020-03-27 13"},"coordinates":[145,7335]},{"type":"Point","properties":{"Station_ID":"IMNM4","Station_Nam":"IRON MOUTAIN 5N","Latitude":"45.87580","Longitude":"-88.04030","Snowdepth":"8.000","Units":"in","Rept_Date":"2020-03-28 00"},"coordinates":[2159,4807]},{"type":"Point","properties":{"Station_ID":"GRFN8","Station_Nam":"UNIVERSITY","Latitude":"47.93330","Longitude":"-97.08330","Snowdepth":"8.000","Units":"in","Rept_Date":"2020-03-28 05"},"coordinates":[36,6633]},{"type":"Point","properties":{"Station_ID":"COTM5","Station_Nam":"COTTON","Latitude":"47.16870","Longitude":"-92.46290","Snowdepth":"8.000","Units":"in","Rept_Date":"2020-03-27 12"},"coordinates":[1121,5954]},{"type":"Point","properties":{"Station_ID":"BTLN3","Station_Nam":"BARTLETT","Latitude":"44.08380","Longitude":"-71.29340","Snowdepth":"8.000","Units":"in","Rept_Date":"2020-03-27 11"},"coordinates":[6089,3217]},{"type":"Point","properties":{"Station_ID":"MN-BK-6","Station_Nam":"LAKE PARK 6.0 S, MN","Latitude":"46.79850","Longitude":"-96.12180","Snowdepth":"7.500","Units":"in","Rept_Date":"2020-03-27 13"},"coordinates":[262,5626]},{"type":"Point","properties":{"Station_ID":"ME-FR-22","Station_Nam":"FARMINGTON 4.8 NNW, ME","Latitude":"44.73396","Longitude":"-70.18007","Snowdepth":"7.500","Units":"in","Rept_Date":"2020-03-27 14"},"coordinates":[6350,3794]},{"type":"Point","properties":{"Station_ID":"ZNOM4","Station_Nam":"NORWAY","Latitude":"45.77810","Longitude":"-87.89560","Snowdepth":"7.000","Units":"in","Rept_Date":"2020-03-28 00"},"coordinates":[2193,4720]},{"type":"Point","properties":{"Station_ID":"WI-BY-22","Station_Nam":"MASON 11.5 WNW, WI","Latitude":"46.50198","Longitude":"-91.28339","Snowdepth":"7.000","Units":"in","Rept_Date":"2020-03-27 14"},"coordinates":[1398,5363]},{"type":"Point","properties":{"Station_ID":"TOPM1","Station_Nam":"TOPSFIELD","Latitude":"45.43470","Longitude":"-67.72020","Snowdepth":"7.000","Units":"in","Rept_Date":"2020-03-27 10"},"coordinates":[6928,4416]},{"type":"Point","properties":{"Station_ID":"PBAN8","Station_Nam":"SITE 1-3MI.N","Latitude":"48.97420","Longitude":"-97.23860","Snowdepth":"7.000","Units":"in","Rept_Date":"2020-03-27 12"},"coordinates":[0,7556]},{"type":"Point","properties":{"Station_ID":"NY-FK-7","Station_Nam":"SARANAC LAKE 6.2 N, NY","Latitude":"44.41359","Longitude":"-74.15211","Snowdepth":"7.000","Units":"in","Rept_Date":"2020-03-27 09"},"coordinates":[5418,3510]},{"type":"Point","properties":{"Station_ID":"MRAM4","Station_Nam":"MORAN","Latitude":"45.99030","Longitude":"-84.83610","Snowdepth":"7.000","Units":"in","Rept_Date":"2020-03-27 12"},"coordinates":[2911,4909]},{"type":"Point","properties":{"Station_ID":"MN-PK-15","Station_Nam":"MENTOR 2.5 SSW, MN","Latitude":"47.66625","Longitude":"-96.17328","Snowdepth":"7.000","Units":"in","Rept_Date":"2020-03-27 13"},"coordinates":[250,6396]},{"type":"Point","properties":{"Station_ID":"LNKM1","Station_Nam":"LINCOLN SANITARY DISTRICT/WTP","Latitude":"45.37520","Longitude":"-68.50820","Snowdepth":"7.000","Units":"in","Rept_Date":"2020-03-27 11"},"coordinates":[6743,4363]},{"type":"Point","properties":{"Station_ID":"LBKV1","Station_Nam":"LYE BROOK","Latitude":"43.05000","Longitude":"-73.03330","Snowdepth":"7.000","Units":"in","Rept_Date":"2020-03-28 06"},"coordinates":[5681,2300]},{"type":"Point","properties":{"Station_ID":"INDN6","Station_Nam":"INDIAN LAKE","Latitude":"43.75500","Longitude":"-74.27560","Snowdepth":"7.000","Units":"in","Rept_Date":"2020-03-27 12"},"coordinates":[5389,2925]},{"type":"Point","properties":{"Station_ID":"AURW3","Station_Nam":"AURORA","Latitude":"45.77000","Longitude":"-88.11810","Snowdepth":"7.000","Units":"in","Rept_Date":"2020-03-27 12"},"coordinates":[2141,4713]},{"type":"Point","properties":{"Station_ID":"CAN-NB-1","Station_Nam":"FREDERICTON 4.0 SSE, CA","Latitude":"45.92897","Longitude":"-66.62830","Snowdepth":"6.700","Units":"in","Rept_Date":"2020-03-27 12"},"coordinates":[7184,4854]},{"type":"Point","properties":{"Station_ID":"NH-GR-49","Station_Nam":"PLYMOUTH 3.7 N, NH","Latitude":"43.79048","Longitude":"-71.68413","Snowdepth":"6.500","Units":"in","Rept_Date":"2020-03-27 12"},"coordinates":[5997,2957]},{"type":"Point","properties":{"Station_ID":"CAN-NS-13","Station_Nam":"TRURO 5.0 ENE, CA","Latitude":"45.38252","Longitude":"-63.22810","Snowdepth":"6.300","Units":"in","Rept_Date":"2020-03-27 11"},"coordinates":[7982,4369]},{"type":"Point","properties":{"Station_ID":"WI-SR-1","Station_Nam":"HAYWARD 9.2 NNE, WI","Latitude":"46.13255","Longitude":"-91.40500","Snowdepth":"6.000","Units":"in","Rept_Date":"2020-03-27 12"},"coordinates":[1369,5035]},{"type":"Point","properties":{"Station_ID":"WI-PR-2","Station_Nam":"BUTTERNUT 5.9 SW, WI","Latitude":"45.96501","Longitude":"-90.59750","Snowdepth":"6.000","Units":"in","Rept_Date":"2020-03-27 12"},"coordinates":[1559,4886]},{"type":"Point","properties":{"Station_ID":"VT-OL-9","Station_Nam":"GREENSBORO 2.1 NNW, VT","Latitude":"44.60528","Longitude":"-72.30940","Snowdepth":"6.000","Units":"in","Rept_Date":"2020-03-27 12"},"coordinates":[5851,3680]},{"type":"Point","properties":{"Station_ID":"STMM4","Station_Nam":"STAMBAUGH 2SSE","Latitude":"46.05550","Longitude":"-88.62780","Snowdepth":"6.000","Units":"in","Rept_Date":"2020-03-27 12"},"coordinates":[2021,4967]},{"type":"Point","properties":{"Station_ID":"NUMN3","Station_Nam":"NORTHUMBERLAND","Latitude":"44.52830","Longitude":"-71.50440","Snowdepth":"6.000","Units":"in","Rept_Date":"2020-03-27 11"},"coordinates":[6040,3612]},{"type":"Point","properties":{"Station_ID":"NH-CR-41","Station_Nam":"ALBANY 2.8 SW, NH","Latitude":"43.92648","Longitude":"-71.21556","Snowdepth":"6.000","Units":"in","Rept_Date":"2020-03-27 13"},"coordinates":[6107,3077]},{"type":"Point","properties":{"Station_ID":"NH-CR-26","Station_Nam":"CENTER SANDWICH 4.9 E, NH","Latitude":"43.80976","Longitude":"-71.34150","Snowdepth":"6.000","Units":"in","Rept_Date":"2020-03-27 11"},"coordinates":[6078,2974]},{"type":"Point","properties":{"Station_ID":"MN-BK-10","Station_Nam":"DETROIT LAKES 5.7 N, MN","Latitude":"46.88666","Longitude":"-95.84444","Snowdepth":"6.000","Units":"in","Rept_Date":"2020-03-27 10"},"coordinates":[327,5704]},{"type":"Point","properties":{"Station_ID":"MAIW3","Station_Nam":"MADELINE ISLAND","Latitude":"46.78330","Longitude":"-90.76670","Snowdepth":"6.000","Units":"in","Rept_Date":"2020-03-27 13"},"coordinates":[1519,5612]},{"type":"Point","properties":{"Station_ID":"ESDN3","Station_Nam":"EAST SANDWICH","Latitude":"43.80990","Longitude":"-71.34250","Snowdepth":"6.000","Units":"in","Rept_Date":"2020-03-27 10"},"coordinates":[6078,2974]},{"type":"Point","properties":{"Station_ID":"CNNW3","Station_Nam":"CRANDON","Latitude":"45.55110","Longitude":"-88.89830","Snowdepth":"6.000","Units":"in","Rept_Date":"2020-03-27 11"},"coordinates":[1957,4519]},{"type":"Point","properties":{"Station_ID":"CAN-ON-245","Station_Nam":"PHELPSTON 3.1 ESE, CAN","Latitude":"44.50564","Longitude":"-79.81035","Snowdepth":"6.000","Units":"in","Rept_Date":"2020-03-27 14"},"coordinates":[4090,3591]},{"type":"Point","properties":{"Station_ID":"AROM4","Station_Nam":"ARNOLD,MI","Latitude":"46.06670","Longitude":"-87.48330","Snowdepth":"6.000","Units":"in","Rept_Date":"2020-03-27 12"},"coordinates":[2290,4977]},{"type":"Point","properties":{"Station_ID":"VT-CL-18","Station_Nam":"WHEELOCK 1.6 S, VT","Latitude":"44.56491","Longitude":"-72.08830","Snowdepth":"5.500","Units":"in","Rept_Date":"2020-03-27 12"},"coordinates":[5903,3644]},{"type":"Point","properties":{"Station_ID":"MN-CW-22","Station_Nam":"FORT RIPLEY 0.8 N, MN","Latitude":"46.18089","Longitude":"-94.36510","Snowdepth":"5.500","Units":"in","Rept_Date":"2020-03-27 13"},"coordinates":[674,5078]},{"type":"Point","properties":{"Station_ID":"CAN-NS-18","Station_Nam":"HAMMONDS PLAINS 2.1 NNW, CA","Latitude":"44.75181","Longitude":"-63.79100","Snowdepth":"5.500","Units":"in","Rept_Date":"2020-03-27 12"},"coordinates":[7850,3810]},{"type":"Point","properties":{"Station_ID":"CAN-NS-166","Station_Nam":"PORT MORIEN 5.7 SSE, CAN","Latitude":"46.08367","Longitude":"-59.85858","Snowdepth":"5.500","Units":"in","Rept_Date":"2020-03-27 10"},"coordinates":[8773,4992]},{"type":"Point","properties":{"Station_ID":"CAN-PE-10","Station_Nam":"NEW LONDON 1.6 ENE, CA","Latitude":"46.46985","Longitude":"-63.49200","Snowdepth":"5.400","Units":"in","Rept_Date":"2020-03-27 12"},"coordinates":[7920,5334]},{"type":"Point","properties":{"Station_ID":"CAN-NB-16","Station_Nam":"DORCHESTER 1.0 SSE, CAN","Latitude":"45.89160","Longitude":"-64.51269","Snowdepth":"5.100","Units":"in","Rept_Date":"2020-03-27 12"},"coordinates":[7681,4821]},{"type":"Point","properties":{"Station_ID":"RHIW3","Station_Nam":"RHINELANDER","Latitude":"45.59860","Longitude":"-89.45080","Snowdepth":"5.000","Units":"in","Rept_Date":"2020-03-27 12"},"coordinates":[1828,4561]},{"type":"Point","properties":{"Station_ID":"MN-BM-15","Station_Nam":"BEMIDJI 7.8 ENE, MN","Latitude":"47.52043","Longitude":"-94.72121","Snowdepth":"5.000","Units":"in","Rept_Date":"2020-03-27 13"},"coordinates":[591,6266]},{"type":"Point","properties":{"Station_ID":"MI-OT-17","Station_Nam":"GAYLORD 4.1 S, MI","Latitude":"44.96388","Longitude":"-84.68467","Snowdepth":"5.000","Units":"in","Rept_Date":"2020-03-27 12"},"coordinates":[2946,3998]},{"type":"Point","properties":{"Station_ID":"KGFK","Station_Nam":"GRAND FORKS INTERNATIONAL","Latitude":"47.95000","Longitude":"-97.18333","Snowdepth":"5.000","Units":"in","Rept_Date":"2020-03-27 12"},"coordinates":[13,6648]},{"type":"Point","properties":{"Station_ID":"BAGM4","Station_Nam":"BARAGA 7NW","Latitude":"46.82100","Longitude":"-88.60590","Snowdepth":"5.000","Units":"in","Rept_Date":"2020-03-27 12"},"coordinates":[2026,5646]},{"type":"Point","properties":{"Station_ID":"VT-WR-2","Station_Nam":"POMFRET 2.6 N, VT","Latitude":"43.74230","Longitude":"-72.52550","Snowdepth":"4.500","Units":"in","Rept_Date":"2020-03-27 12"},"coordinates":[5800,2914]},{"type":"Point","properties":{"Station_ID":"CAN-NS-159","Station_Nam":"NORTHPORT 0.1 NE, CAN","Latitude":"45.93299","Longitude":"-63.86711","Snowdepth":"4.300","Units":"in","Rept_Date":"2020-03-27 11"},"coordinates":[7832,4858]},{"type":"Point","properties":{"Station_ID":"WILW3","Station_Nam":"RESERVOIR","Latitude":"45.70000","Longitude":"-89.83330","Snowdepth":"4.000","Units":"in","Rept_Date":"2020-03-27 11"},"coordinates":[1738,4651]},{"type":"Point","properties":{"Station_ID":"VT-BN-3","Station_Nam":"LANDGROVE 1.1 NNE, VT","Latitude":"43.29092","Longitude":"-72.83260","Snowdepth":"4.000","Units":"in","Rept_Date":"2020-03-27 12"},"coordinates":[5728,2514]},{"type":"Point","properties":{"Station_ID":"RLKW3","Station_Nam":"REST LAKE","Latitude":"46.12220","Longitude":"-89.87720","Snowdepth":"4.000","Units":"in","Rept_Date":"2020-03-27 12"},"coordinates":[1728,5026]},{"type":"Point","properties":{"Station_ID":"RHLW3","Station_Nam":"RHINELANDER 4NE","Latitude":"45.65270","Longitude":"-89.30740","Snowdepth":"4.000","Units":"in","Rept_Date":"2020-03-27 11"},"coordinates":[1861,4609]},{"type":"Point","properties":{"Station_ID":"RHI","Station_Nam":"RHINELANDER-ONEIDA COUNTY AIRPORT","Latitude":"45.63080","Longitude":"-89.46530","Snowdepth":"4.000","Units":"in","Rept_Date":"2020-03-27 12"},"coordinates":[1824,4590]},{"type":"Point","properties":{"Station_ID":"MN76ACVS","Station_Nam":"GRAND MARAIS 3.0 WNW","Latitude":"47.76602","Longitude":"-90.26427","Snowdepth":"4.000","Units":"in","Rept_Date":"2020-03-27 12"},"coordinates":[1637,6484]},{"type":"Point","properties":{"Station_ID":"MI-OT-16","Station_Nam":"GAYLORD 2.2 SSE, MI","Latitude":"44.99441","Longitude":"-84.65820","Snowdepth":"4.000","Units":"in","Rept_Date":"2020-03-27 11"},"coordinates":[2953,4025]},{"type":"Point","properties":{"Station_ID":"MI-CP-7","Station_Nam":"DRUMMOND 2.9 NE, MI","Latitude":"46.05329","Longitude":"-83.69060","Snowdepth":"4.000","Units":"in","Rept_Date":"2020-03-27 14"},"coordinates":[3180,4965]},{"type":"Point","properties":{"Station_ID":"LNCM1","Station_Nam":"LINCOLN WATER DISTRICT","Latitude":"45.32410","Longitude":"-68.58300","Snowdepth":"4.000","Units":"in","Rept_Date":"2020-03-27 11"},"coordinates":[6725,4318]},{"type":"Point","properties":{"Station_ID":"GFK","Station_Nam":"GRAND FORKS INTERNATIONAL AIRPORT","Latitude":"47.94920","Longitude":"-97.17610","Snowdepth":"4.000","Units":"in","Rept_Date":"2020-03-28 00"},"coordinates":[15,6647]},{"type":"Point","properties":{"Station_ID":"ESGM1","Station_Nam":"EAST SANGERVILLE","Latitude":"45.13690","Longitude":"-69.28060","Snowdepth":"4.000","Units":"in","Rept_Date":"2020-03-27 11"},"coordinates":[6562,4152]},{"type":"Point","properties":{"Station_ID":"EGRW3","Station_Nam":"EAGLE RIVER-SOUTH","Latitude":"45.91360","Longitude":"-89.24360","Snowdepth":"4.000","Units":"in","Rept_Date":"2020-03-27 12"},"coordinates":[1876,4841]},{"type":"Point","properties":{"Station_ID":"CAN-NB-98","Station_Nam":"HOYT 4.2 S, CAN","Latitude":"45.54763","Longitude":"-66.55440","Snowdepth":"3.900","Units":"in","Rept_Date":"2020-03-27 11"},"coordinates":[7201,4516]},{"type":"Point","properties":{"Station_ID":"VT-WS-30","Station_Nam":"WOODBURY 3.4 NNW, VT","Latitude":"44.48825","Longitude":"-72.43258","Snowdepth":"3.500","Units":"in","Rept_Date":"2020-03-27 12"},"coordinates":[5822,3576]},{"type":"Point","properties":{"Station_ID":"VT-OL-1","Station_Nam":"WESTFIELD 0.7 WNW, VT","Latitude":"44.89160","Longitude":"-72.44350","Snowdepth":"3.500","Units":"in","Rept_Date":"2020-03-27 12"},"coordinates":[5819,3934]},{"type":"Point","properties":{"Station_ID":"CAN-ON-120","Station_Nam":"DUNROBIN 5.8 NE MIVCA, CA","Latitude":"45.46243","Longitude":"-75.97120","Snowdepth":"3.500","Units":"in","Rept_Date":"2020-03-27 12"},"coordinates":[4991,4440]},{"type":"Point","properties":{"Station_ID":"CAN-NS-56","Station_Nam":"HAMMOND PLAINS 2.9 WSW, CA","Latitude":"44.72456","Longitude":"-63.81920","Snowdepth":"3.500","Units":"in","Rept_Date":"2020-03-27 12"},"coordinates":[7843,3786]},{"type":"Point","properties":{"Station_ID":"WI-WB-2","Station_Nam":"STONE LAKE 2.0 NW, WI","Latitude":"45.85960","Longitude":"-91.57710","Snowdepth":"3.000","Units":"in","Rept_Date":"2020-03-27 13"},"coordinates":[1329,4793]},{"type":"Point","properties":{"Station_ID":"VT-WR-17","Station_Nam":"ROCHESTER 2.3 NE, VT","Latitude":"43.89418","Longitude":"-72.76992","Snowdepth":"3.000","Units":"in","Rept_Date":"2020-03-27 12"},"coordinates":[5743,3049]},{"type":"Point","properties":{"Station_ID":"RFDM1","Station_Nam":"RUMFORD 7SW","Latitude":"44.49470","Longitude":"-70.65640","Snowdepth":"3.000","Units":"in","Rept_Date":"2020-03-27 12"},"coordinates":[6239,3582]},{"type":"Point","properties":{"Station_ID":"PERV1","Station_Nam":"PERU","Latitude":"43.26670","Longitude":"-72.90000","Snowdepth":"3.000","Units":"in","Rept_Date":"2020-03-27 11"},"coordinates":[5712,2492]},{"type":"Point","properties":{"Station_ID":"OTTM5","Station_Nam":"OTTERTAIL,MN","Latitude":"46.41670","Longitude":"-95.56670","Snowdepth":"3.000","Units":"in","Rept_Date":"2020-03-27 11"},"coordinates":[392,5287]},{"type":"Point","properties":{"Station_ID":"NYMM5","Station_Nam":"NEW YORK MILLS","Latitude":"46.50920","Longitude":"-95.37990","Snowdepth":"3.000","Units":"in","Rept_Date":"2020-03-27 12"},"coordinates":[436,5369]},{"type":"Point","properties":{"Station_ID":"NH-MR-60","Station_Nam":"SOUTH SUTTON 1.3 SE, NH","Latitude":"43.29531","Longitude":"-71.90238","Snowdepth":"3.000","Units":"in","Rept_Date":"2020-03-27 13"},"coordinates":[5946,2517]},{"type":"Point","properties":{"Station_ID":"MI-OT-4","Station_Nam":"GAYLORD 1.7 WNW, MI","Latitude":"45.03280","Longitude":"-84.71090","Snowdepth":"3.000","Units":"in","Rept_Date":"2020-03-27 13"},"coordinates":[2940,4059]},{"type":"Point","properties":{"Station_ID":"JEFN3","Station_Nam":"JEFFERSON","Latitude":"44.41690","Longitude":"-71.50080","Snowdepth":"3.000","Units":"in","Rept_Date":"2020-03-27 11"},"coordinates":[6040,3513]},{"type":"Point","properties":{"Station_ID":"HMYM1","Station_Nam":"HARMONY","Latitude":"44.94660","Longitude":"-69.54560","Snowdepth":"3.000","Units":"in","Rept_Date":"2020-03-27 11"},"coordinates":[6499,3983]},{"type":"Point","properties":{"Station_ID":"GAYM4","Station_Nam":"GAYLORD","Latitude":"45.03320","Longitude":"-84.71130","Snowdepth":"3.000","Units":"in","Rept_Date":"2020-03-27 12"},"coordinates":[2940,4060]},{"type":"Point","properties":{"Station_ID":"COUW3","Station_Nam":"COUDERAY,WI","Latitude":"45.86670","Longitude":"-91.45000","Snowdepth":"3.000","Units":"in","Rept_Date":"2020-03-27 21"},"coordinates":[1359,4799]},{"type":"Point","properties":{"Station_ID":"CAN-ON-92","Station_Nam":"DUNROBIN 1.9 W - MVCA, CAN","Latitude":"45.42318","Longitude":"-76.04525","Snowdepth":"2.800","Units":"in","Rept_Date":"2020-03-27 12"},"coordinates":[4974,4406]},{"type":"Point","properties":{"Station_ID":"WI-BN-6","Station_Nam":"SUAMICO 4.4 WNW, WI","Latitude":"44.66111","Longitude":"-88.11780","Snowdepth":"2.500","Units":"in","Rept_Date":"2020-03-27 17"},"coordinates":[2141,3729]},{"type":"Point","properties":{"Station_ID":"WLKW3","Station_Nam":"WHITE LAKE 1 SE","Latitude":"45.14520","Longitude":"-88.74160","Snowdepth":"2.000","Units":"in","Rept_Date":"2020-03-27 13"},"coordinates":[1994,4159]},{"type":"Point","properties":{"Station_ID":"VT-OG-11","Station_Nam":"VERSHIRE 1.5 ESE, VT","Latitude":"43.96138","Longitude":"-72.29777","Snowdepth":"2.000","Units":"in","Rept_Date":"2020-03-27 13"},"coordinates":[5853,3108]},{"type":"Point","properties":{"Station_ID":"SULW3","Station_Nam":"SUMMIT LAKE","Latitude":"45.37880","Longitude":"-89.19410","Snowdepth":"2.000","Units":"in","Rept_Date":"2020-03-27 10"},"coordinates":[1888,4366]},{"type":"Point","properties":{"Station_ID":"SBNM5","Station_Nam":"SABIN","Latitude":"46.77690","Longitude":"-96.65610","Snowdepth":"2.000","Units":"in","Rept_Date":"2020-03-27 13"},"coordinates":[137,5607]},{"type":"Point","properties":{"Station_ID":"ROWM3","Station_Nam":"ROWE 3NE","Latitude":"42.73500","Longitude":"-72.86920","Snowdepth":"2.000","Units":"in","Rept_Date":"2020-03-27 13"},"coordinates":[5719,2020]},{"type":"Point","properties":{"Station_ID":"PEKN6","Station_Nam":"PECK LAKE","Latitude":"43.11500","Longitude":"-74.42360","Snowdepth":"2.000","Units":"in","Rept_Date":"2020-03-27 11"},"coordinates":[5355,2357]},{"type":"Point","properties":{"Station_ID":"NY-WR-15","Station_Nam":"LAKE GEORGE 5.0 ESE, NY","Latitude":"43.40039","Longitude":"-73.62266","Snowdepth":"2.000","Units":"in","Rept_Date":"2020-03-27 12"},"coordinates":[5542,2611]},{"type":"Point","properties":{"Station_ID":"NH-HL-48","Station_Nam":"GREENVILLE 1.1 ENE, NH","Latitude":"42.77674","Longitude":"-71.77990","Snowdepth":"2.000","Units":"in","Rept_Date":"2020-03-27 13"},"coordinates":[5975,2057]},{"type":"Point","properties":{"Station_ID":"NH-CR-11","Station_Nam":"NORTH CONWAY 1.4 SSW, NH","Latitude":"44.03556","Longitude":"-71.14010","Snowdepth":"2.000","Units":"in","Rept_Date":"2020-03-27 12"},"coordinates":[6125,3174]},{"type":"Point","properties":{"Station_ID":"ND-CS-25","Station_Nam":"FARGO 2.1 N, ND","Latitude":"46.90816","Longitude":"-96.77937","Snowdepth":"2.000","Units":"in","Rept_Date":"2020-03-27 14"},"coordinates":[108,5723]},{"type":"Point","properties":{"Station_ID":"ND-CS-1","Station_Nam":"WEST FARGO 3.8 SSE, ND","Latitude":"46.82750","Longitude":"-96.85280","Snowdepth":"2.000","Units":"in","Rept_Date":"2020-03-27 13"},"coordinates":[91,5652]},{"type":"Point","properties":{"Station_ID":"NCBN6","Station_Nam":"NEWCOMB","Latitude":"43.97070","Longitude":"-74.22200","Snowdepth":"2.000","Units":"in","Rept_Date":"2020-03-27 11"},"coordinates":[5402,3117]},{"type":"Point","properties":{"Station_ID":"MQRW3","Station_Nam":"MINOCQUA","Latitude":"45.88630","Longitude":"-89.73220","Snowdepth":"2.000","Units":"in","Rept_Date":"2020-03-27 11"},"coordinates":[1762,4816]},{"type":"Point","properties":{"Station_ID":"MN-AT-5","Station_Nam":"TAMARACK 1.4 SW, MN","Latitude":"46.63760","Longitude":"-93.14554","Snowdepth":"2.000","Units":"in","Rept_Date":"2020-03-27 13"},"coordinates":[961,5483]},{"type":"Point","properties":{"Station_ID":"MCLN8","Station_Nam":"MC LEOD,ND","Latitude":"46.40250","Longitude":"-97.23810","Snowdepth":"2.000","Units":"in","Rept_Date":"2020-03-27 13"},"coordinates":[0,5275]},{"type":"Point","properties":{"Station_ID":"MCDN3","Station_Nam":"EDWARD MACDOWELL LAKE","Latitude":"42.89410","Longitude":"-71.98420","Snowdepth":"2.000","Units":"in","Rept_Date":"2020-03-27 11"},"coordinates":[5927,2161]},{"type":"Point","properties":{"Station_ID":"GREN3","Station_Nam":"GREENVILLE 1 NNE","Latitude":"42.78270","Longitude":"-71.79850","Snowdepth":"2.000","Units":"in","Rept_Date":"2020-03-27 10"},"coordinates":[5971,2063]},{"type":"Point","properties":{"Station_ID":"EHYM3","Station_Nam":"EAST HAWLEY","Latitude":"42.57410","Longitude":"-72.86790","Snowdepth":"2.000","Units":"in","Rept_Date":"2020-03-27 13"},"coordinates":[5720,1877]},{"type":"Point","properties":{"Station_ID":"CAN-NS-6","Station_Nam":"DUNCANS COVE 0.4 ESE, CAN","Latitude":"44.49914","Longitude":"-63.52640","Snowdepth":"2.000","Units":"in","Rept_Date":"2020-03-27 11"},"coordinates":[7912,3586]},{"type":"Point","properties":{"Station_ID":"BREW3","Station_Nam":"SURING","Latitude":"44.99580","Longitude":"-88.37860","Snowdepth":"2.000","Units":"in","Rept_Date":"2020-03-27 12"},"coordinates":[2079,4026]},{"type":"Point","properties":{"Station_ID":"BRAM5","Station_Nam":"BRAINERD","Latitude":"46.34320","Longitude":"-94.20900","Snowdepth":"2.000","Units":"in","Rept_Date":"2020-03-27 12"},"coordinates":[711,5222]},{"type":"Point","properties":{"Station_ID":"BOWW3","Station_Nam":"STOCKBRIDGE-MUNSEE RESERVATION","Latitude":"44.87000","Longitude":"-88.90440","Snowdepth":"2.000","Units":"in","Rept_Date":"2020-03-27 12"},"coordinates":[1956,3915]},{"type":"Point","properties":{"Station_ID":"ASTW3","Station_Nam":"ATHELSTANE","Latitude":"45.42500","Longitude":"-88.05750","Snowdepth":"2.000","Units":"in","Rept_Date":"2020-03-27 11"},"coordinates":[2155,4407]},{"type":"Point","properties":{"Station_ID":"CAN-NS-16","Station_Nam":"HALIFAX 2.4 WSW, CA","Latitude":"44.64275","Longitude":"-63.60430","Snowdepth":"1.600","Units":"in","Rept_Date":"2020-03-27 12"},"coordinates":[7894,3713]},{"type":"Point","properties":{"Station_ID":"MA-HS-7","Station_Nam":"PLAINFIELD 2.2 SW, MA","Latitude":"42.49272","Longitude":"-72.94540","Snowdepth":"1.500","Units":"in","Rept_Date":"2020-03-27 13"},"coordinates":[5701,1805]},{"type":"Point","properties":{"Station_ID":"CAN-ON-42","Station_Nam":"VANKLEEK HILL 3.4 S, CA","Latitude":"45.48987","Longitude":"-74.64570","Snowdepth":"1.500","Units":"in","Rept_Date":"2020-03-27 12"},"coordinates":[5302,4465]},{"type":"Point","properties":{"Station_ID":"CAN-NS-110","Station_Nam":"UPPER LAHAVE 2.8 SE, CAN","Latitude":"44.34797","Longitude":"-64.42208","Snowdepth":"1.500","Units":"in","Rept_Date":"2020-03-27 10"},"coordinates":[7702,3451]},{"type":"Point","properties":{"Station_ID":"CAN-NS-43","Station_Nam":"BEDFORD 0.6 WNW, CAN","Latitude":"44.72917","Longitude":"-63.67521","Snowdepth":"1.200","Units":"in","Rept_Date":"2020-03-27 12"},"coordinates":[7877,3790]},{"type":"Point","properties":{"Station_ID":"CAN-NS-167","Station_Nam":"DARTMOUTH 1.4 E, CAN","Latitude":"44.67388","Longitude":"-63.54523","Snowdepth":"1.200","Units":"in","Rept_Date":"2020-03-27 12"},"coordinates":[7908,3741]},{"type":"Point","properties":{"Station_ID":"CAN-NS-160","Station_Nam":"DARTMOUTH 2.3 ENE, CAN","Latitude":"44.67708","Longitude":"-63.53360","Snowdepth":"1.200","Units":"in","Rept_Date":"2020-03-27 11"},"coordinates":[7910,3744]},{"type":"Point","properties":{"Station_ID":"WI-SR-5","Station_Nam":"HAYWARD 9.7 NE, WI","Latitude":"46.12030","Longitude":"-91.35370","Snowdepth":"1.000","Units":"in","Rept_Date":"2020-03-27 14"},"coordinates":[1381,5024]},{"type":"Point","properties":{"Station_ID":"WI-BT-14","Station_Nam":"OAKLAND 9.0 ENE, WI","Latitude":"45.95184","Longitude":"-92.21653","Snowdepth":"1.000","Units":"in","Rept_Date":"2020-03-27 13"},"coordinates":[1179,4875]},{"type":"Point","properties":{"Station_ID":"VT-AD-20","Station_Nam":"HANCOCK 0.3 S, VT","Latitude":"43.92166","Longitude":"-72.84042","Snowdepth":"1.000","Units":"in","Rept_Date":"2020-03-27 12"},"coordinates":[5726,3073]},{"type":"Point","properties":{"Station_ID":"TMWN3","Station_Nam":"TAMWORTH 4","Latitude":"43.86390","Longitude":"-71.26610","Snowdepth":"1.000","Units":"in","Rept_Date":"2020-03-27 11"},"coordinates":[6096,3022]},{"type":"Point","properties":{"Station_ID":"RWGM5","Station_Nam":"RED WING","Latitude":"44.57120","Longitude":"-92.52830","Snowdepth":"1.000","Units":"in","Rept_Date":"2020-03-27 13"},"coordinates":[1105,3650]},{"type":"Point","properties":{"Station_ID":"RHRW3","Station_Nam":"RHINELANDER WJFW TV-12","Latitude":"45.62220","Longitude":"-89.41000","Snowdepth":"1.000","Units":"in","Rept_Date":"2020-03-28 03"},"coordinates":[1837,4582]},{"type":"Point","properties":{"Station_ID":"PLFV1","Station_Nam":"PLAINFIELD","Latitude":"44.27610","Longitude":"-72.41500","Snowdepth":"1.000","Units":"in","Rept_Date":"2020-03-27 11"},"coordinates":[5826,3388]},{"type":"Point","properties":{"Station_ID":"NWSM1","Station_Nam":"NEW SHARON","Latitude":"44.63520","Longitude":"-70.00020","Snowdepth":"1.000","Units":"in","Rept_Date":"2020-03-27 11"},"coordinates":[6393,3706]},{"type":"Point","properties":{"Station_ID":"NOSV1","Station_Nam":"NORTH SPRINGFIELD LAKE","Latitude":"43.33920","Longitude":"-72.50560","Snowdepth":"1.000","Units":"in","Rept_Date":"2020-03-27 11"},"coordinates":[5805,2556]},{"type":"Point","properties":{"Station_ID":"NH-MR-4","Station_Nam":"BOW 1.6 NW, NH","Latitude":"43.14994","Longitude":"-71.55650","Snowdepth":"1.000","Units":"in","Rept_Date":"2020-03-27 13"},"coordinates":[6027,2388]},{"type":"Point","properties":{"Station_ID":"NH-CR-27","Station_Nam":"TAMWORTH 0.4 NNW, NH","Latitude":"43.86449","Longitude":"-71.26610","Snowdepth":"1.000","Units":"in","Rept_Date":"2020-03-27 12"},"coordinates":[6096,3022]},{"type":"Point","properties":{"Station_ID":"MYOM4","Station_Nam":"MIO WWTP","Latitude":"44.64660","Longitude":"-84.11580","Snowdepth":"1.000","Units":"in","Rept_Date":"2020-03-27 12"},"coordinates":[3080,3716]},{"type":"Point","properties":{"Station_ID":"ME-CM-125","Station_Nam":"CUMBERLAND CENTER 4.4 NW, ME","Latitude":"43.84640","Longitude":"-70.31340","Snowdepth":"1.000","Units":"in","Rept_Date":"2020-03-27 12"},"coordinates":[6319,3006]},{"type":"Point","properties":{"Station_ID":"MA-MD-47","Station_Nam":"WEST TOWNSEND 0.5 W, MA","Latitude":"42.67623","Longitude":"-71.74983","Snowdepth":"1.000","Units":"in","Rept_Date":"2020-03-27 11"},"coordinates":[5982,1968]},{"type":"Point","properties":{"Station_ID":"MA-FR-13","Station_Nam":"CONWAY 2.9 NW, MA","Latitude":"42.54419","Longitude":"-72.72743","Snowdepth":"1.000","Units":"in","Rept_Date":"2020-03-27 12"},"coordinates":[5753,1851]},{"type":"Point","properties":{"Station_ID":"JWTN6","Station_Nam":"EAST JEWETT","Latitude":"42.23430","Longitude":"-74.14430","Snowdepth":"1.000","Units":"in","Rept_Date":"2020-03-27 11"},"coordinates":[5420,1576]},{"type":"Point","properties":{"Station_ID":"JAPN3","Station_Nam":"JAFFREY SILVER RANCH AIRPARK","Latitude":"42.80880","Longitude":"-72.00530","Snowdepth":"1.000","Units":"in","Rept_Date":"2020-03-27 11"},"coordinates":[5922,2086]},{"type":"Point","properties":{"Station_ID":"HRTM1","Station_Nam":"HARTFORD","Latitude":"44.37440","Longitude":"-70.31620","Snowdepth":"1.000","Units":"in","Rept_Date":"2020-03-27 11"},"coordinates":[6318,3475]},{"type":"Point","properties":{"Station_ID":"HOLW3","Station_Nam":"HOLCOMBE","Latitude":"45.22370","Longitude":"-91.12700","Snowdepth":"1.000","Units":"in","Rept_Date":"2020-03-27 12"},"coordinates":[1434,4229]},{"type":"Point","properties":{"Station_ID":"FDRN8","Station_Nam":"FARGO 3S","Latitude":"46.82930","Longitude":"-96.79620","Snowdepth":"1.000","Units":"in","Rept_Date":"2020-03-27 21"},"coordinates":[104,5653]},{"type":"Point","properties":{"Station_ID":"FAR","Station_Nam":"HECTOR INTERNATIONAL ARPT","Latitude":"46.91560","Longitude":"-96.81440","Snowdepth":"1.000","Units":"in","Rept_Date":"2020-03-28 00"},"coordinates":[100,5730]},{"type":"Point","properties":{"Station_ID":"DTVM4","Station_Nam":"DETOUR VILLAGE","Latitude":"45.99830","Longitude":"-83.90130","Snowdepth":"1.000","Units":"in","Rept_Date":"2020-03-27 12"},"coordinates":[3130,4916]},{"type":"Point","properties":{"Station_ID":"CAN-NS-81","Station_Nam":"SCOTS BAY 3.1 WNW, CA","Latitude":"45.31472","Longitude":"-64.42890","Snowdepth":"1.000","Units":"in","Rept_Date":"2020-03-27 11"},"coordinates":[7700,4309]},{"type":"Point","properties":{"Station_ID":"BRLN3","Station_Nam":"BERLIN","Latitude":"44.45350","Longitude":"-71.18540","Snowdepth":"1.000","Units":"in","Rept_Date":"2020-03-27 16"},"coordinates":[6115,3545]},{"type":"Point","properties":{"Station_ID":"BKEM5","Station_Nam":"BRECKENRIDGE 4NE","Latitude":"46.30470","Longitude":"-96.52170","Snowdepth":"1.000","Units":"in","Rept_Date":"2020-03-27 11"},"coordinates":[168,5188]},{"type":"Point","properties":{"Station_ID":"ABNM3","Station_Nam":"ASHBURNHAM NORTH","Latitude":"42.66170","Longitude":"-71.93590","Snowdepth":"1.000","Units":"in","Rept_Date":"2020-03-27 11"},"coordinates":[5938,1955]}]}},"arcs":[],"transform":{"scale":[0.004260890089008902,0.0011269826982698273],"translate":[-97.2386,40.4582]}}