{"type":"Topology","objects":{"snowdepth_geo":{"type":"GeometryCollection","name":"snowdepth","crs":{"type":"name","properties":{"name":"urn:ogc:def:crs:OGC:1.3:CRS84"}},"geometries":[{"type":"Point","properties":{"Station_ID":"MMSV1","Station_Nam":"MOUNT MANSFIELD","Latitude":"44.53330","Longitude":"-72.83330","Snowdepth":"82.000","Units":"in","Rept_Date":"2019-11-12 05"},"coordinates":[6312,5092]},{"type":"Point","properties":{"Station_ID":"PRKM4","Station_Nam":"MUNISING EAST","Latitude":"46.42580","Longitude":"-86.62000","Snowdepth":"76.500","Units":"in","Rept_Date":"2019-11-12 06"},"coordinates":[2737,6383]},{"type":"Point","properties":{"Station_ID":"OGIQ6","Station_Nam":"OGOKI CAMP","Latitude":"50.76680","Longitude":"-87.85820","Snowdepth":"61.100","Units":"in","Rept_Date":"2019-11-12 06"},"coordinates":[2415,9344]},{"type":"Point","properties":{"Station_ID":"AUDQ6","Station_Nam":"AUDEN","Latitude":"48.52600","Longitude":"-82.57570","Snowdepth":"47.640","Units":"in","Rept_Date":"2019-11-12 06"},"coordinates":[3786,7816]},{"type":"Point","properties":{"Station_ID":"DVLQ6","Station_Nam":"DEVIOUS LAKE","Latitude":"49.19890","Longitude":"-87.76440","Snowdepth":"43.460","Units":"in","Rept_Date":"2019-11-12 06"},"coordinates":[2440,8275]},{"type":"Point","properties":{"Station_ID":"MFU","Station_Nam":"MFU","Latitude":"51.52170","Longitude":"-66.91110","Snowdepth":"17.047","Units":"in","Rept_Date":"2019-11-11 12"},"coordinates":[7848,9859]},{"type":"Point","properties":{"Station_ID":"PRDM4","Station_Nam":"PARADISE","Latitude":"46.60380","Longitude":"-85.03960","Snowdepth":"17.000","Units":"in","Rept_Date":"2019-11-11 10"},"coordinates":[3146,6504]},{"type":"Point","properties":{"Station_ID":"QGD","Station_Nam":"QGD","Latitude":"51.11140","Longitude":"-67.13940","Snowdepth":"16.339","Units":"in","Rept_Date":"2019-11-11 12"},"coordinates":[7789,9579]},{"type":"Point","properties":{"Station_ID":"QOU","Station_Nam":"QOU","Latitude":"50.79250","Longitude":"-69.67470","Snowdepth":"15.118","Units":"in","Rept_Date":"2019-11-11 12"},"coordinates":[7131,9362]},{"type":"Point","properties":{"Station_ID":"POAM4","Station_Nam":"PORT AUSTIN WWTP","Latitude":"44.04670","Longitude":"-82.97030","Snowdepth":"15.000","Units":"in","Rept_Date":"2019-11-11 13"},"coordinates":[3683,4760]},{"type":"Point","properties":{"Station_ID":"GMSM4","Station_Nam":"GRAND MARAIS 10S","Latitude":"46.50940","Longitude":"-85.96310","Snowdepth":"13.000","Units":"in","Rept_Date":"2019-11-11 12"},"coordinates":[2907,6440]},{"type":"Point","properties":{"Station_ID":"QMA","Station_Nam":"QMA","Latitude":"50.10330","Longitude":"-70.47190","Snowdepth":"12.756","Units":"in","Rept_Date":"2019-11-11 12"},"coordinates":[6925,8892]},{"type":"Point","properties":{"Station_ID":"QMD","Station_Nam":"QMD","Latitude":"49.29060","Longitude":"-75.84500","Snowdepth":"11.968","Units":"in","Rept_Date":"2019-11-11 12"},"coordinates":[5531,8337]},{"type":"Point","properties":{"Station_ID":"QGO","Station_Nam":"QGO","Latitude":"48.85500","Longitude":"-74.20640","Snowdepth":"11.653","Units":"in","Rept_Date":"2019-11-11 12"},"coordinates":[5956,8040]},{"type":"Point","properties":{"Station_ID":"MAPM4","Station_Nam":"MAPLE CITY 1E","Latitude":"44.85500","Longitude":"-85.83520","Snowdepth":"11.000","Units":"in","Rept_Date":"2019-11-11 23"},"coordinates":[2940,5312]},{"type":"Point","properties":{"Station_ID":"NWFM4","Station_Nam":"NW MICHIGAN RESEARCH FARM","Latitude":"44.88300","Longitude":"-85.67520","Snowdepth":"10.000","Units":"in","Rept_Date":"2019-11-11 13"},"coordinates":[2982,5331]},{"type":"Point","properties":{"Station_ID":"KSGM4","Station_Nam":"KEARSARGE","Latitude":"47.27520","Longitude":"-88.41700","Snowdepth":"10.000","Units":"in","Rept_Date":"2019-11-11 13"},"coordinates":[2271,6962]},{"type":"Point","properties":{"Station_ID":"MLZ","Station_Nam":"MLZ","Latitude":"50.66170","Longitude":"-68.82360","Snowdepth":"9.291","Units":"in","Rept_Date":"2019-11-11 12"},"coordinates":[7352,9272]},{"type":"Point","properties":{"Station_ID":"QCX","Station_Nam":"QCX","Latitude":"51.32830","Longitude":"-70.08060","Snowdepth":"9.094","Units":"in","Rept_Date":"2019-11-11 12"},"coordinates":[7026,9727]},{"type":"Point","properties":{"Station_ID":"WHKM4","Station_Nam":"WHITE LAKE,MI","Latitude":"42.69750","Longitude":"-83.47220","Snowdepth":"9.000","Units":"in","Rept_Date":"2019-11-12 06"},"coordinates":[3553,3840]},{"type":"Point","properties":{"Station_ID":"KBUF","Station_Nam":"GREATER BUFFALO INTERNATIONAL  AIRPORT","Latitude":"42.93333","Longitude":"-78.73333","Snowdepth":"9.000","Units":"in","Rept_Date":"2019-11-12 06"},"coordinates":[4782,4001]},{"type":"Point","properties":{"Station_ID":"FLAM4","Station_Nam":"FIFE LAKE 2WNW","Latitude":"44.58480","Longitude":"-85.36530","Snowdepth":"9.000","Units":"in","Rept_Date":"2019-11-11 12"},"coordinates":[3062,5127]},{"type":"Point","properties":{"Station_ID":"BUF","Station_Nam":"BUFFALO, NY","Latitude":"42.94140","Longitude":"-78.71920","Snowdepth":"9.000","Units":"in","Rept_Date":"2019-11-12 06"},"coordinates":[4786,4006]},{"type":"Point","properties":{"Station_ID":"BERM4","Station_Nam":"BERGLAND DAM","Latitude":"46.58690","Longitude":"-89.54750","Snowdepth":"9.000","Units":"in","Rept_Date":"2019-11-11 13"},"coordinates":[1977,6493]},{"type":"Point","properties":{"Station_ID":"ARBM4","Station_Nam":"UNIV OF MICH","Latitude":"42.30000","Longitude":"-83.71670","Snowdepth":"9.000","Units":"in","Rept_Date":"2019-11-11 23"},"coordinates":[3490,3569]},{"type":"Point","properties":{"Station_ID":"QCU","Station_Nam":"QCU","Latitude":"47.82750","Longitude":"-76.59830","Snowdepth":"8.661","Units":"in","Rept_Date":"2019-11-11 12"},"coordinates":[5336,7339]},{"type":"Point","properties":{"Station_ID":"QTM","Station_Nam":"QTM","Latitude":"51.05780","Longitude":"-72.57190","Snowdepth":"8.583","Units":"in","Rept_Date":"2019-11-11 12"},"coordinates":[6380,9543]},{"type":"Point","properties":{"Station_ID":"WI-IR-3","Station_Nam":"PENCE 0.1 E, WI","Latitude":"46.41555","Longitude":"-90.27013","Snowdepth":"8.300","Units":"in","Rept_Date":"2019-11-11 13"},"coordinates":[1790,6376]},{"type":"Point","properties":{"Station_ID":"MILM4","Station_Nam":"GM PROVING GD","Latitude":"42.58330","Longitude":"-83.70000","Snowdepth":"8.000","Units":"in","Rept_Date":"2019-11-12 05"},"coordinates":[3494,3762]},{"type":"Point","properties":{"Station_ID":"GNLM4","Station_Nam":"GREENLAND 6N","Latitude":"46.87360","Longitude":"-89.10060","Snowdepth":"8.000","Units":"in","Rept_Date":"2019-11-11 13"},"coordinates":[2093,6688]},{"type":"Point","properties":{"Station_ID":"FNT","Station_Nam":"FLINT BISHOP INTL AIRPORT","Latitude":"42.96560","Longitude":"-83.74360","Snowdepth":"8.000","Units":"in","Rept_Date":"2019-11-12 06"},"coordinates":[3483,4023]},{"type":"Point","properties":{"Station_ID":"DTW","Station_Nam":"DETROIT METROPOLITAN","Latitude":"42.21220","Longitude":"-83.35330","Snowdepth":"8.000","Units":"in","Rept_Date":"2019-11-12 06"},"coordinates":[3584,3509]},{"type":"Point","properties":{"Station_ID":"CEFM4","Station_Nam":"EXPERIMENT FARM #2","Latitude":"46.33330","Longitude":"-86.91670","Snowdepth":"8.000","Units":"in","Rept_Date":"2019-11-11 13"},"coordinates":[2660,6320]},{"type":"Point","properties":{"Station_ID":"MI-AT-6","Station_Nam":"MANCELONA 0.5 ESE, MI","Latitude":"44.89981","Longitude":"-85.05100","Snowdepth":"7.400","Units":"in","Rept_Date":"2019-11-11 13"},"coordinates":[3144,5342]},{"type":"Point","properties":{"Station_ID":"ROC","Station_Nam":"GREATER ROCHESTER INTL","Latitude":"43.11890","Longitude":"-77.67280","Snowdepth":"7.000","Units":"in","Rept_Date":"2019-11-12 06"},"coordinates":[5057,4127]},{"type":"Point","properties":{"Station_ID":"NWCM4","Station_Nam":"NEWBERRY CITY","Latitude":"46.35720","Longitude":"-85.51780","Snowdepth":"7.000","Units":"in","Rept_Date":"2019-11-11 12"},"coordinates":[3022,6336]},{"type":"Point","properties":{"Station_ID":"MNSM4","Station_Nam":"MUNISING","Latitude":"46.41210","Longitude":"-86.66250","Snowdepth":"7.000","Units":"in","Rept_Date":"2019-11-11 11"},"coordinates":[2726,6374]},{"type":"Point","properties":{"Station_ID":"MI-KW-2","Station_Nam":"DELAWARE 5.2 SW, MI","Latitude":"47.36928","Longitude":"-88.17919","Snowdepth":"7.000","Units":"in","Rept_Date":"2019-11-11 09"},"coordinates":[2332,7027]},{"type":"Point","properties":{"Station_ID":"MI-HG-6","Station_Nam":"CALUMET 5.8 ENE, MI","Latitude":"47.27200","Longitude":"-88.33400","Snowdepth":"7.000","Units":"in","Rept_Date":"2019-11-11 11"},"coordinates":[2292,6960]},{"type":"Point","properties":{"Station_ID":"KROC","Station_Nam":"GREATER ROCHESTER INTERNATIONAL","Latitude":"43.11666","Longitude":"-77.68333","Snowdepth":"7.000","Units":"in","Rept_Date":"2019-11-12 06"},"coordinates":[5054,4126]},{"type":"Point","properties":{"Station_ID":"IRMM4","Station_Nam":"WWTP","Latitude":"46.46670","Longitude":"-90.18330","Snowdepth":"7.000","Units":"in","Rept_Date":"2019-11-11 13"},"coordinates":[1812,6411]},{"type":"Point","properties":{"Station_ID":"HTLN3","Station_Nam":"HERMIT LAKE SNOWPLOT","Latitude":"44.26130","Longitude":"-71.28330","Snowdepth":"7.000","Units":"in","Rept_Date":"2019-11-11 12"},"coordinates":[6714,4907]},{"type":"Point","properties":{"Station_ID":"QFT","Station_Nam":"QFT","Latitude":"50.83280","Longitude":"-74.40390","Snowdepth":"6.850","Units":"in","Rept_Date":"2019-11-11 12"},"coordinates":[5905,9389]},{"type":"Point","properties":{"Station_ID":"QCO","Station_Nam":"QCO","Latitude":"51.45280","Longitude":"-72.20110","Snowdepth":"6.811","Units":"in","Rept_Date":"2019-11-11 12"},"coordinates":[6476,9812]},{"type":"Point","properties":{"Station_ID":"UPSW3","Station_Nam":"UPSON,WI","Latitude":"46.36780","Longitude":"-90.41220","Snowdepth":"6.000","Units":"in","Rept_Date":"2019-11-12 00"},"coordinates":[1753,6343]},{"type":"Point","properties":{"Station_ID":"SSMM4","Station_Nam":"SAULT STE MARIE","Latitude":"46.48660","Longitude":"-84.40250","Snowdepth":"6.000","Units":"in","Rept_Date":"2019-11-11 13"},"coordinates":[3312,6424]},{"type":"Point","properties":{"Station_ID":"SBSI3","Station_Nam":"SOUTH BEND","Latitude":"41.70050","Longitude":"-86.24870","Snowdepth":"6.000","Units":"in","Rept_Date":"2019-11-12 05"},"coordinates":[2833,3160]},{"type":"Point","properties":{"Station_ID":"PDLM4","Station_Nam":"PAINESDALE","Latitude":"47.04160","Longitude":"-88.67170","Snowdepth":"6.000","Units":"in","Rept_Date":"2019-11-11 13"},"coordinates":[2204,6803]},{"type":"Point","properties":{"Station_ID":"MI-GT-21","Station_Nam":"KINGSLEY 2.7 ENE, MI","Latitude":"44.59871","Longitude":"-85.48426","Snowdepth":"6.000","Units":"in","Rept_Date":"2019-11-11 11"},"coordinates":[3031,5137]},{"type":"Point","properties":{"Station_ID":"LANM4","Station_Nam":"LANSING 2 WNW","Latitude":"42.74530","Longitude":"-84.58830","Snowdepth":"6.000","Units":"in","Rept_Date":"2019-11-12 05"},"coordinates":[3264,3872]},{"type":"Point","properties":{"Station_ID":"IWOM4","Station_Nam":"IRONWOOD#2","Latitude":"46.46520","Longitude":"-90.13820","Snowdepth":"6.000","Units":"in","Rept_Date":"2019-11-11 13"},"coordinates":[1824,6410]},{"type":"Point","properties":{"Station_ID":"EKMI3","Station_Nam":"ELKHART PUBLIC WORKS & UT","Latitude":"41.67740","Longitude":"-86.00250","Snowdepth":"6.000","Units":"in","Rept_Date":"2019-11-12 05"},"coordinates":[2897,3144]},{"type":"Point","properties":{"Station_ID":"EJNM4","Station_Nam":"EAST JORDAN 2NW","Latitude":"45.18630","Longitude":"-85.14770","Snowdepth":"6.000","Units":"in","Rept_Date":"2019-11-11 13"},"coordinates":[3118,5537]},{"type":"Point","properties":{"Station_ID":"BNWI4","Station_Nam":"BOONE,IA","Latitude":"42.05000","Longitude":"-93.93330","Snowdepth":"6.000","Units":"in","Rept_Date":"2019-11-11 14"},"coordinates":[840,3398]},{"type":"Point","properties":{"Station_ID":"AVLV1","Station_Nam":"AVERILL","Latitude":"45.00570","Longitude":"-71.69030","Snowdepth":"6.000","Units":"in","Rept_Date":"2019-11-11 13"},"coordinates":[6609,5414]},{"type":"Point","properties":{"Station_ID":"ANJM4","Station_Nam":"SNOW PAID OBSERVER FOR KANJ","Latitude":"46.48670","Longitude":"-84.40260","Snowdepth":"6.000","Units":"in","Rept_Date":"2019-11-11 18"},"coordinates":[3312,6425]},{"type":"Point","properties":{"Station_ID":"ANJ","Station_Nam":"SAULT STE MARIE","Latitude":"46.46670","Longitude":"-84.36670","Snowdepth":"6.000","Units":"in","Rept_Date":"2019-11-12 00"},"coordinates":[3321,6411]},{"type":"Point","properties":{"Station_ID":"QWG","Station_Nam":"QWG","Latitude":"48.48890","Longitude":"-73.45940","Snowdepth":"5.787","Units":"in","Rept_Date":"2019-11-11 12"},"coordinates":[6150,7790]},{"type":"Point","properties":{"Station_ID":"QWE","Station_Nam":"QWE","Latitude":"47.84610","Longitude":"-73.80670","Snowdepth":"5.591","Units":"in","Rept_Date":"2019-11-11 12"},"coordinates":[6060,7352]},{"type":"Point","properties":{"Station_ID":"SVBQ6","Station_Nam":"SAVANT BASE","Latitude":"50.28730","Longitude":"-90.65670","Snowdepth":"5.590","Units":"in","Rept_Date":"2019-11-12 06"},"coordinates":[1690,9017]},{"type":"Point","properties":{"Station_ID":"MI-CX-7","Station_Nam":"EAST JORDAN 2.1 NNW, MI","Latitude":"45.18639","Longitude":"-85.14750","Snowdepth":"5.500","Units":"in","Rept_Date":"2019-11-11 13"},"coordinates":[3118,5538]},{"type":"Point","properties":{"Station_ID":"QYR","Station_Nam":"QYR","Latitude":"48.87220","Longitude":"-75.61470","Snowdepth":"5.472","Units":"in","Rept_Date":"2019-11-11 12"},"coordinates":[5591,8052]},{"type":"Point","properties":{"Station_ID":"QLM","Station_Nam":"QLM","Latitude":"48.92030","Longitude":"-70.25280","Snowdepth":"5.394","Units":"in","Rept_Date":"2019-11-11 12"},"coordinates":[6982,8085]},{"type":"Point","properties":{"Station_ID":"WBSN6","Station_Nam":"WEBSTER 2 NE","Latitude":"43.24190","Longitude":"-77.38810","Snowdepth":"5.000","Units":"in","Rept_Date":"2019-11-12 01"},"coordinates":[5131,4211]},{"type":"Point","properties":{"Station_ID":"QNCM4","Station_Nam":"QUINCY HILL","Latitude":"47.13640","Longitude":"-88.57950","Snowdepth":"5.000","Units":"in","Rept_Date":"2019-11-11 12"},"coordinates":[2228,6868]},{"type":"Point","properties":{"Station_ID":"PDRO1","Station_Nam":"PANDORA","Latitude":"40.95410","Longitude":"-83.96160","Snowdepth":"5.000","Units":"in","Rept_Date":"2019-11-12 05"},"coordinates":[3426,2651]},{"type":"Point","properties":{"Station_ID":"MRQM4","Station_Nam":"MARQUETTE WFP","Latitude":"46.54580","Longitude":"-87.37950","Snowdepth":"5.000","Units":"in","Rept_Date":"2019-11-11 13"},"coordinates":[2540,6465]},{"type":"Point","properties":{"Station_ID":"MI-KZ-6","Station_Nam":"WESTERN MICHIGAN UNIVERSITY, MI","Latitude":"42.28300","Longitude":"-85.61500","Snowdepth":"5.000","Units":"in","Rept_Date":"2019-11-12 05"},"coordinates":[2997,3557]},{"type":"Point","properties":{"Station_ID":"MI-KN-43","Station_Nam":"CALEDONIA 4.4 WNW, MI","Latitude":"42.82526","Longitude":"-85.58940","Snowdepth":"5.000","Units":"in","Rept_Date":"2019-11-11 14"},"coordinates":[3004,3927]},{"type":"Point","properties":{"Station_ID":"MI-CP-14","Station_Nam":"SAULT STE. MARIE 2.2 E, MI","Latitude":"46.48933","Longitude":"-84.31971","Snowdepth":"5.000","Units":"in","Rept_Date":"2019-11-11 13"},"coordinates":[3333,6426]},{"type":"Point","properties":{"Station_ID":"MI-BG-3","Station_Nam":"L'ANSE 17.8 SE, MI","Latitude":"46.55730","Longitude":"-88.20770","Snowdepth":"5.000","Units":"in","Rept_Date":"2019-11-11 13"},"coordinates":[2325,6473]},{"type":"Point","properties":{"Station_ID":"LAPI3","Station_Nam":"LAPORTE","Latitude":"41.61160","Longitude":"-86.72970","Snowdepth":"5.000","Units":"in","Rept_Date":"2019-11-12 06"},"coordinates":[2708,3099]},{"type":"Point","properties":{"Station_ID":"LAN","Station_Nam":"CAPITAL CITY AIRPORT","Latitude":"42.77860","Longitude":"-84.58720","Snowdepth":"5.000","Units":"in","Rept_Date":"2019-11-12 00"},"coordinates":[3264,3895]},{"type":"Point","properties":{"Station_ID":"KGRR","Station_Nam":"GERALD R. FORD INTERNATIONAL","Latitude":"42.88333","Longitude":"-85.51666","Snowdepth":"5.000","Units":"in","Rept_Date":"2019-11-11 18"},"coordinates":[3023,3967]},{"type":"Point","properties":{"Station_ID":"IL-SP-7","Station_Nam":"DAVIS 0.5 N, IL","Latitude":"42.42919","Longitude":"-89.41730","Snowdepth":"5.000","Units":"in","Rept_Date":"2019-11-11 16"},"coordinates":[2011,3657]},{"type":"Point","properties":{"Station_ID":"IL-SP-6","Station_Nam":"FREEPORT 2.0 NW, IL","Latitude":"42.30955","Longitude":"-89.66370","Snowdepth":"5.000","Units":"in","Rept_Date":"2019-11-11 14"},"coordinates":[1947,3575]},{"type":"Point","properties":{"Station_ID":"IL-MCH-30","Station_Nam":"WONDER LAKE 0.8 WNW, IL","Latitude":"42.38354","Longitude":"-88.37090","Snowdepth":"5.000","Units":"in","Rept_Date":"2019-11-11 13"},"coordinates":[2282,3626]},{"type":"Point","properties":{"Station_ID":"IL-MCH-13","Station_Nam":"BULL VALLEY 2.5 WNW, IL","Latitude":"42.32455","Longitude":"-88.39460","Snowdepth":"5.000","Units":"in","Rept_Date":"2019-11-11 14"},"coordinates":[2276,3585]},{"type":"Point","properties":{"Station_ID":"HURW3","Station_Nam":"HURLEY","Latitude":"46.46250","Longitude":"-90.19550","Snowdepth":"5.000","Units":"in","Rept_Date":"2019-11-11 14"},"coordinates":[1809,6408]},{"type":"Point","properties":{"Station_ID":"GSNI3","Station_Nam":"GOSHEN 3SW","Latitude":"41.55750","Longitude":"-85.88250","Snowdepth":"5.000","Units":"in","Rept_Date":"2019-11-12 00"},"coordinates":[2928,3062]},{"type":"Point","properties":{"Station_ID":"BCKM4","Station_Nam":"BATTLE CREEK,MI","Latitude":"42.33330","Longitude":"-85.18330","Snowdepth":"5.000","Units":"in","Rept_Date":"2019-11-12 00"},"coordinates":[3109,3591]},{"type":"Point","properties":{"Station_ID":"ATMM4","Station_Nam":"ATLANTIC MINE 5NW","Latitude":"47.15440","Longitude":"-88.71670","Snowdepth":"5.000","Units":"in","Rept_Date":"2019-11-11 15"},"coordinates":[2193,6880]},{"type":"Point","properties":{"Station_ID":"SOCQ6","Station_Nam":"SOCKET LAKE","Latitude":"50.77870","Longitude":"-91.79300","Snowdepth":"4.800","Units":"in","Rept_Date":"2019-11-12 06"},"coordinates":[1395,9352]},{"type":"Point","properties":{"Station_ID":"MI-VB-12","Station_Nam":"PAW PAW 0.7 ESE, MI","Latitude":"42.21583","Longitude":"-85.87741","Snowdepth":"4.800","Units":"in","Rept_Date":"2019-11-12 02"},"coordinates":[2929,3511]},{"type":"Point","properties":{"Station_ID":"IL-WN-32","Station_Nam":"ROCKFORD 5.5 S, IL","Latitude":"42.19058","Longitude":"-89.06040","Snowdepth":"4.800","Units":"in","Rept_Date":"2019-11-11 13"},"coordinates":[2104,3494]},{"type":"Point","properties":{"Station_ID":"IL-WN-26","Station_Nam":"ROCKFORD 1.5 ENE, IL","Latitude":"42.27775","Longitude":"-89.03590","Snowdepth":"4.800","Units":"in","Rept_Date":"2019-11-11 15"},"coordinates":[2110,3554]},{"type":"Point","properties":{"Station_ID":"IA-BH-7","Station_Nam":"CEDAR FALLS 1.4 SSE, IA","Latitude":"42.50186","Longitude":"-92.44180","Snowdepth":"4.800","Units":"in","Rept_Date":"2019-11-11 13"},"coordinates":[1227,3706]},{"type":"Point","properties":{"Station_ID":"NY-OD-4","Station_Nam":"BOONVILLE 0.2 NW, NY","Latitude":"43.48333","Longitude":"-75.33330","Snowdepth":"4.500","Units":"in","Rept_Date":"2019-11-11 23"},"coordinates":[5664,4376]},{"type":"Point","properties":{"Station_ID":"IL-LE-10","Station_Nam":"DIXON 3.0 NNW, IL","Latitude":"41.88759","Longitude":"-89.50820","Snowdepth":"4.500","Units":"in","Rept_Date":"2019-11-11 15"},"coordinates":[1988,3287]},{"type":"Point","properties":{"Station_ID":"IL-CP-21","Station_Nam":"BROADLANDS 0.1 SSW, IL","Latitude":"39.90723","Longitude":"-87.99610","Snowdepth":"4.500","Units":"in","Rept_Date":"2019-11-12 06"},"coordinates":[2380,1937]},{"type":"Point","properties":{"Station_ID":"IA-SR-17","Station_Nam":"AMES 0.9 ENE, IA","Latitude":"42.02886","Longitude":"-93.60950","Snowdepth":"4.500","Units":"in","Rept_Date":"2019-11-11 13"},"coordinates":[924,3384]},{"type":"Point","properties":{"Station_ID":"IA-PK-73","Station_Nam":"DES MOINES 4.1 N, IA","Latitude":"41.63605","Longitude":"-93.60630","Snowdepth":"4.500","Units":"in","Rept_Date":"2019-11-11 13"},"coordinates":[925,3116]},{"type":"Point","properties":{"Station_ID":"IA-PK-21","Station_Nam":"JOHNSTON 3.7 NNW, IA","Latitude":"41.73660","Longitude":"-93.72360","Snowdepth":"4.500","Units":"in","Rept_Date":"2019-11-11 13"},"coordinates":[894,3184]},{"type":"Point","properties":{"Station_ID":"IA-LN-31","Station_Nam":"CEDAR RAPIDS 2.7 NE, IA","Latitude":"42.00070","Longitude":"-91.63260","Snowdepth":"4.500","Units":"in","Rept_Date":"2019-11-11 12"},"coordinates":[1437,3365]},{"type":"Point","properties":{"Station_ID":"IL-MCH-33","Station_Nam":"WOODSTOCK 3.8 SW, IL","Latitude":"42.27554","Longitude":"-88.49500","Snowdepth":"4.300","Units":"in","Rept_Date":"2019-11-11 14"},"coordinates":[2250,3552]},{"type":"Point","properties":{"Station_ID":"IL-CR-12","Station_Nam":"MOUNT CARROLL 6.8 NNW, IL","Latitude":"42.18735","Longitude":"-90.02185","Snowdepth":"4.300","Units":"in","Rept_Date":"2019-11-11 13"},"coordinates":[1854,3492]},{"type":"Point","properties":{"Station_ID":"IA-JH-21","Station_Nam":"IOWA CITY 8.0 NE, IA","Latitude":"41.74516","Longitude":"-91.43325","Snowdepth":"4.300","Units":"in","Rept_Date":"2019-11-11 13"},"coordinates":[1488,3190]},{"type":"Point","properties":{"Station_ID":"QLB","Station_Nam":"QLB","Latitude":"50.72360","Longitude":"-75.10000","Snowdepth":"4.134","Units":"in","Rept_Date":"2019-11-11 12"},"coordinates":[5724,9315]},{"type":"Point","properties":{"Station_ID":"FTHQ6","Station_Nam":"FORT HOPE","Latitude":"51.55820","Longitude":"-87.90510","Snowdepth":"4.130","Units":"in","Rept_Date":"2019-11-12 06"},"coordinates":[2403,9884]},{"type":"Point","properties":{"Station_ID":"QLP","Station_Nam":"QLP","Latitude":"48.13920","Longitude":"-72.63830","Snowdepth":"4.055","Units":"in","Rept_Date":"2019-11-11 12"},"coordinates":[6363,7552]},{"type":"Point","properties":{"Station_ID":"WODI2","Station_Nam":"WOODSTOCK","Latitude":"42.36280","Longitude":"-88.53140","Snowdepth":"4.000","Units":"in","Rept_Date":"2019-11-11 14"},"coordinates":[2241,3612]},{"type":"Point","properties":{"Station_ID":"WI-VL-10","Station_Nam":"LAND O LAKES 4.3 WNW, WI","Latitude":"46.17440","Longitude":"-89.30380","Snowdepth":"4.000","Units":"in","Rept_Date":"2019-11-11 13"},"coordinates":[2041,6212]},{"type":"Point","properties":{"Station_ID":"WI-RK-6","Station_Nam":"EVANSVILLE 0.4 E, WI","Latitude":"42.77913","Longitude":"-89.29020","Snowdepth":"4.000","Units":"in","Rept_Date":"2019-11-11 14"},"coordinates":[2044,3896]},{"type":"Point","properties":{"Station_ID":"WI-LF-6","Station_Nam":"SOUTH WAYNE 3.9 SSW, WI","Latitude":"42.51173","Longitude":"-89.89555","Snowdepth":"4.000","Units":"in","Rept_Date":"2019-11-11 12"},"coordinates":[1887,3713]},{"type":"Point","properties":{"Station_ID":"VOLI4","Station_Nam":"VOLGA 1NE","Latitude":"42.81150","Longitude":"-91.52300","Snowdepth":"4.000","Units":"in","Rept_Date":"2019-11-11 13"},"coordinates":[1465,3918]},{"type":"Point","properties":{"Station_ID":"STOI2","Station_Nam":"STOCKTON 3 NNE","Latitude":"42.40050","Longitude":"-89.99580","Snowdepth":"4.000","Units":"in","Rept_Date":"2019-11-12 03"},"coordinates":[1861,3637]},{"type":"Point","properties":{"Station_ID":"SPTI4","Station_Nam":"STRAWBERRY POINT","Latitude":"42.68530","Longitude":"-91.53300","Snowdepth":"4.000","Units":"in","Rept_Date":"2019-11-11 13"},"coordinates":[1462,3832]},{"type":"Point","properties":{"Station_ID":"SFDI2","Station_Nam":"SPRINGFIELD #2","Latitude":"39.79670","Longitude":"-89.67700","Snowdepth":"4.000","Units":"in","Rept_Date":"2019-11-12 00"},"coordinates":[1944,1861]},{"type":"Point","properties":{"Station_ID":"MMNV1","Station_Nam":"MT. MANSFIELD","Latitude":"44.52480","Longitude":"-72.81540","Snowdepth":"4.000","Units":"in","Rept_Date":"2019-11-11 21"},"coordinates":[6317,5086]},{"type":"Point","properties":{"Station_ID":"MKTI4","Station_Nam":"MAQUOKETA","Latitude":"42.07710","Longitude":"-90.66470","Snowdepth":"4.000","Units":"in","Rept_Date":"2019-11-11 13"},"coordinates":[1688,3417]},{"type":"Point","properties":{"Station_ID":"MI-BN-5","Station_Nam":"BUCHANAN 1.3 WNW, MI","Latitude":"41.83634","Longitude":"-86.38900","Snowdepth":"4.000","Units":"in","Rept_Date":"2019-11-11 15"},"coordinates":[2797,3252]},{"type":"Point","properties":{"Station_ID":"MDLM4","Station_Nam":"MIDLAND,MI","Latitude":"43.61670","Longitude":"-84.21670","Snowdepth":"4.000","Units":"in","Rept_Date":"2019-11-12 05"},"coordinates":[3360,4467]},{"type":"Point","properties":{"Station_ID":"MALN6","Station_Nam":"MALONE","Latitude":"44.84180","Longitude":"-74.30600","Snowdepth":"4.000","Units":"in","Rept_Date":"2019-11-11 12"},"coordinates":[5930,5303]},{"type":"Point","properties":{"Station_ID":"LPTN6","Station_Nam":"LOCKPORT","Latitude":"43.18760","Longitude":"-78.60910","Snowdepth":"4.000","Units":"in","Rept_Date":"2019-11-12 00"},"coordinates":[4814,4174]},{"type":"Point","properties":{"Station_ID":"LGEW3","Station_Nam":"LAKE GENEVA, WI","Latitude":"42.60000","Longitude":"-88.43440","Snowdepth":"4.000","Units":"in","Rept_Date":"2019-11-11 13"},"coordinates":[2266,3773]},{"type":"Point","properties":{"Station_ID":"KTVC","Station_Nam":"CHERRY CAPITAL AIRPORT","Latitude":"44.73333","Longitude":"-85.56666","Snowdepth":"4.000","Units":"in","Rept_Date":"2019-11-12 00"},"coordinates":[3010,5229]},{"type":"Point","properties":{"Station_ID":"JCBM4","Station_Nam":"JACOBSVILLE","Latitude":"47.00830","Longitude":"-88.43180","Snowdepth":"4.000","Units":"in","Rept_Date":"2019-11-11 12"},"coordinates":[2267,6780]},{"type":"Point","properties":{"Station_ID":"IWXI3","Station_Nam":"NORTHERN INDIANA WFO","Latitude":"41.35880","Longitude":"-85.69970","Snowdepth":"4.000","Units":"in","Rept_Date":"2019-11-12 06"},"coordinates":[2975,2927]},{"type":"Point","properties":{"Station_ID":"IWX","Station_Nam":"NORTHERN INDIANA, IN","Latitude":"41.35890","Longitude":"-85.70000","Snowdepth":"4.000","Units":"in","Rept_Date":"2019-11-12 00"},"coordinates":[2975,2927]},{"type":"Point","properties":{"Station_ID":"INDM5","Station_Nam":"INDUS,MN","Latitude":"48.61670","Longitude":"-93.90000","Snowdepth":"4.000","Units":"in","Rept_Date":"2019-11-11 14"},"coordinates":[848,7877]},{"type":"Point","properties":{"Station_ID":"IN-KS-53","Station_Nam":"WINONA LAKE 1.2 E, IN","Latitude":"41.21827","Longitude":"-85.79210","Snowdepth":"4.000","Units":"in","Rept_Date":"2019-11-12 01"},"coordinates":[2951,2831]},{"type":"Point","properties":{"Station_ID":"IL-KN-64","Station_Nam":"ST. CHARLES 0.1 E, IL","Latitude":"41.92010","Longitude":"-88.29900","Snowdepth":"4.000","Units":"in","Rept_Date":"2019-11-11 14"},"coordinates":[2301,3310]},{"type":"Point","properties":{"Station_ID":"IL-JD-8","Station_Nam":"STOCKTON 3.4 NNE, IL","Latitude":"42.39960","Longitude":"-89.99020","Snowdepth":"4.000","Units":"in","Rept_Date":"2019-11-11 13"},"coordinates":[1863,3637]},{"type":"Point","properties":{"Station_ID":"IBLM5","Station_Nam":"ISABELLA 14W","Latitude":"47.59360","Longitude":"-91.65140","Snowdepth":"4.000","Units":"in","Rept_Date":"2019-11-11 15"},"coordinates":[1432,7180]},{"type":"Point","properties":{"Station_ID":"IA-PK-89","Station_Nam":"ANKENY 3.7 NNE, IA","Latitude":"41.77305","Longitude":"-93.57635","Snowdepth":"4.000","Units":"in","Rept_Date":"2019-11-11 13"},"coordinates":[932,3209]},{"type":"Point","properties":{"Station_ID":"IA-PK-3","Station_Nam":"DES MOINES 4.5 WNW, IA","Latitude":"41.60663","Longitude":"-93.69560","Snowdepth":"4.000","Units":"in","Rept_Date":"2019-11-11 13"},"coordinates":[901,3096]},{"type":"Point","properties":{"Station_ID":"IA-LN-36","Station_Nam":"SHELLSBURG 2.9 S, IA","Latitude":"42.05091","Longitude":"-91.87008","Snowdepth":"4.000","Units":"in","Rept_Date":"2019-11-11 12"},"coordinates":[1375,3399]},{"type":"Point","properties":{"Station_ID":"IA-BT-12","Station_Nam":"FAIRFAX 4.0 NW, IA","Latitude":"41.96178","Longitude":"-91.83661","Snowdepth":"4.000","Units":"in","Rept_Date":"2019-11-11 13"},"coordinates":[1384,3338]},{"type":"Point","properties":{"Station_ID":"HWLM4","Station_Nam":"HALFWAY LAKE","Latitude":"46.47480","Longitude":"-85.59250","Snowdepth":"4.000","Units":"in","Rept_Date":"2019-11-11 14"},"coordinates":[3003,6416]},{"type":"Point","properties":{"Station_ID":"HVDI2","Station_Nam":"HARVARD,IL","Latitude":"42.41670","Longitude":"-88.63330","Snowdepth":"4.000","Units":"in","Rept_Date":"2019-11-11 13"},"coordinates":[2214,3648]},{"type":"Point","properties":{"Station_ID":"HRVM4","Station_Nam":"HARVEY","Latitude":"46.49080","Longitude":"-87.35470","Snowdepth":"4.000","Units":"in","Rept_Date":"2019-11-11 12"},"coordinates":[2546,6427]},{"type":"Point","properties":{"Station_ID":"HERM4","Station_Nam":"HERMAN,MI","Latitude":"46.65000","Longitude":"-88.33330","Snowdepth":"4.000","Units":"in","Rept_Date":"2019-11-11 13"},"coordinates":[2292,6536]},{"type":"Point","properties":{"Station_ID":"GRRM4","Station_Nam":"NWS FORECAST OFFICE GRAND RAPIDS","Latitude":"42.89330","Longitude":"-85.54480","Snowdepth":"4.000","Units":"in","Rept_Date":"2019-11-12 06"},"coordinates":[3015,3973]},{"type":"Point","properties":{"Station_ID":"GRR","Station_Nam":"GRAND RAPIDS, MI","Latitude":"42.89390","Longitude":"-85.54470","Snowdepth":"4.000","Units":"in","Rept_Date":"2019-11-12 00"},"coordinates":[3015,3974]},{"type":"Point","properties":{"Station_ID":"GRII4","Station_Nam":"GRINNELL,IA","Latitude":"41.71670","Longitude":"-92.73330","Snowdepth":"4.000","Units":"in","Rept_Date":"2019-11-11 13"},"coordinates":[1151,3171]},{"type":"Point","properties":{"Station_ID":"GGRM4","Station_Nam":"GREEN GARDEN NO.2","Latitude":"46.45330","Longitude":"-87.30380","Snowdepth":"4.000","Units":"in","Rept_Date":"2019-11-11 11"},"coordinates":[2559,6402]},{"type":"Point","properties":{"Station_ID":"FEEI2","Station_Nam":"PECATONICA RIVER","Latitude":"42.30000","Longitude":"-89.61670","Snowdepth":"4.000","Units":"in","Rept_Date":"2019-11-11 13"},"coordinates":[1959,3569]},{"type":"Point","properties":{"Station_ID":"ELMO1","Station_Nam":"ELMORE,OH","Latitude":"41.48330","Longitude":"-83.21670","Snowdepth":"4.000","Units":"in","Rept_Date":"2019-11-12 05"},"coordinates":[3619,3012]},{"type":"Point","properties":{"Station_ID":"DUBI4","Station_Nam":"DUBUQUE #3","Latitude":"42.40870","Longitude":"-90.73250","Snowdepth":"4.000","Units":"in","Rept_Date":"2019-11-11 18"},"coordinates":[1670,3643]},{"type":"Point","properties":{"Station_ID":"DLNW3","Station_Nam":"WALWORTH COUNTYMETROPOLITAN SEWERAGE DISTRICT (DELEVAN)","Latitude":"42.63440","Longitude":"-88.66280","Snowdepth":"4.000","Units":"in","Rept_Date":"2019-11-11 14"},"coordinates":[2207,3797]},{"type":"Point","properties":{"Station_ID":"DBQ","Station_Nam":"DUBUQUE REGIONAL AIRPORT","Latitude":"42.40310","Longitude":"-90.70920","Snowdepth":"4.000","Units":"in","Rept_Date":"2019-11-12 00"},"coordinates":[1676,3639]},{"type":"Point","properties":{"Station_ID":"CRYI2","Station_Nam":"CRYSTAL LAKE","Latitude":"42.26220","Longitude":"-88.46390","Snowdepth":"4.000","Units":"in","Rept_Date":"2019-11-11 13"},"coordinates":[2258,3543]},{"type":"Point","properties":{"Station_ID":"CRPI4","Station_Nam":"CEDAR RAPIDS NO 1","Latitude":"42.05000","Longitude":"-91.58810","Snowdepth":"4.000","Units":"in","Rept_Date":"2019-11-11 23"},"coordinates":[1448,3398]},{"type":"Point","properties":{"Station_ID":"CLUI4","Station_Nam":"CLUTIER,IA","Latitude":"42.08330","Longitude":"-92.40000","Snowdepth":"4.000","Units":"in","Rept_Date":"2019-11-11 13"},"coordinates":[1238,3421]},{"type":"Point","properties":{"Station_ID":"AMOI4","Station_Nam":"ANAMOSA 3 SSW","Latitude":"42.07630","Longitude":"-91.30190","Snowdepth":"4.000","Units":"in","Rept_Date":"2019-11-11 12"},"coordinates":[1522,3416]},{"type":"Point","properties":{"Station_ID":"ADXI4","Station_Nam":"ADEL 2SE","Latitude":"41.59360","Longitude":"-93.97930","Snowdepth":"4.000","Units":"in","Rept_Date":"2019-11-11 13"},"coordinates":[828,3087]},{"type":"Point","properties":{"Station_ID":"42.1792_079.9756","Station_Nam":"HARBORCREEK TWP  SNOW SPOTTER (X4220800)","Latitude":"42.17920","Longitude":"-79.97560","Snowdepth":"4.000","Units":"in","Rept_Date":"2019-11-12 02"},"coordinates":[4460,3486]},{"type":"Point","properties":{"Station_ID":"CATQ6","Station_Nam":"CAT LAKE","Latitude":"51.72690","Longitude":"-91.82210","Snowdepth":"3.820","Units":"in","Rept_Date":"2019-11-12 06"},"coordinates":[1387,9999]},{"type":"Point","properties":{"Station_ID":"IL-LK-11","Station_Nam":"LINCOLNSHIRE 0.9 N, IL","Latitude":"42.20816","Longitude":"-87.91880","Snowdepth":"3.800","Units":"in","Rept_Date":"2019-11-11 14"},"coordinates":[2400,3506]},{"type":"Point","properties":{"Station_ID":"IL-CK-42","Station_Nam":"MOUNT PROSPECT 3.0 NE, IL","Latitude":"42.09618","Longitude":"-87.89670","Snowdepth":"3.700","Units":"in","Rept_Date":"2019-11-11 14"},"coordinates":[2405,3430]},{"type":"Point","properties":{"Station_ID":"WI-RK-12","Station_Nam":"JANESVILLE 3.1 W, WI","Latitude":"42.67576","Longitude":"-89.07614","Snowdepth":"3.500","Units":"in","Rept_Date":"2019-11-11 13"},"coordinates":[2100,3825]},{"type":"Point","properties":{"Station_ID":"MI-BZ-1","Station_Nam":"BENZONIA 5.3 S, MI","Latitude":"44.53976","Longitude":"-86.10650","Snowdepth":"3.500","Units":"in","Rept_Date":"2019-11-11 13"},"coordinates":[2870,5096]},{"type":"Point","properties":{"Station_ID":"IL-WN-40","Station_Nam":"ROCKFORD 4.5 WSW, IL","Latitude":"42.24878","Longitude":"-89.14556","Snowdepth":"3.500","Units":"in","Rept_Date":"2019-11-11 13"},"coordinates":[2082,3534]},{"type":"Point","properties":{"Station_ID":"IL-WD-5","Station_Nam":"MORRISON 3.2 E, IL","Latitude":"41.81601","Longitude":"-89.90400","Snowdepth":"3.500","Units":"in","Rept_Date":"2019-11-11 13"},"coordinates":[1885,3239]},{"type":"Point","properties":{"Station_ID":"IL-LK-9","Station_Nam":"LAKE VILLA 1.1 SSW, IL","Latitude":"42.40305","Longitude":"-88.09050","Snowdepth":"3.500","Units":"in","Rept_Date":"2019-11-11 12"},"coordinates":[2355,3639]},{"type":"Point","properties":{"Station_ID":"IL-LK-81","Station_Nam":"LAKE VILLA 2.3 WSW, IL","Latitude":"42.40532","Longitude":"-88.12380","Snowdepth":"3.500","Units":"in","Rept_Date":"2019-11-11 13"},"coordinates":[2347,3641]},{"type":"Point","properties":{"Station_ID":"IL-LK-16","Station_Nam":"BUFFALO GROVE 1.5 N, IL","Latitude":"42.18800","Longitude":"-87.95900","Snowdepth":"3.500","Units":"in","Rept_Date":"2019-11-11 13"},"coordinates":[2389,3492]},{"type":"Point","properties":{"Station_ID":"IL-KN-95","Station_Nam":"ELGIN 2.5 W, IL","Latitude":"42.04041","Longitude":"-88.33660","Snowdepth":"3.500","Units":"in","Rept_Date":"2019-11-11 13"},"coordinates":[2291,3392]},{"type":"Point","properties":{"Station_ID":"IA-SR-2","Station_Nam":"AMES 1.5 NNE, IA","Latitude":"42.04478","Longitude":"-93.61740","Snowdepth":"3.500","Units":"in","Rept_Date":"2019-11-11 13"},"coordinates":[922,3395]},{"type":"Point","properties":{"Station_ID":"IA-PK-97","Station_Nam":"ANKENY 1.5 NNE, IA","Latitude":"41.74376","Longitude":"-93.59088","Snowdepth":"3.500","Units":"in","Rept_Date":"2019-11-11 13"},"coordinates":[929,3189]},{"type":"Point","properties":{"Station_ID":"IA-LN-39","Station_Nam":"CEDAR RAPIDS 2.5 WSW, IA","Latitude":"41.95474","Longitude":"-91.71049","Snowdepth":"3.500","Units":"in","Rept_Date":"2019-11-11 12"},"coordinates":[1416,3333]},{"type":"Point","properties":{"Station_ID":"IA-BH-6","Station_Nam":"WATERLOO 1.9 SSE, IA","Latitude":"42.46500","Longitude":"-92.34100","Snowdepth":"3.500","Units":"in","Rept_Date":"2019-11-11 12"},"coordinates":[1253,3681]},{"type":"Point","properties":{"Station_ID":"IA-BH-22","Station_Nam":"HUDSON 1.4 SSW, IA","Latitude":"42.40586","Longitude":"-92.46825","Snowdepth":"3.500","Units":"in","Rept_Date":"2019-11-11 14"},"coordinates":[1220,3641]},{"type":"Point","properties":{"Station_ID":"IA-LN-30","Station_Nam":"CENTER POINT 0.6 NNW, IA","Latitude":"42.19324","Longitude":"-91.78255","Snowdepth":"3.400","Units":"in","Rept_Date":"2019-11-11 12"},"coordinates":[1398,3496]},{"type":"Point","properties":{"Station_ID":"IA-SR-42","Station_Nam":"AMES 2.1 WNW, IA","Latitude":"42.03730","Longitude":"-93.66180","Snowdepth":"3.300","Units":"in","Rept_Date":"2019-11-11 15"},"coordinates":[910,3389]},{"type":"Point","properties":{"Station_ID":"IA-PK-37","Station_Nam":"WINDSOR HEIGHTS 0.8 SE, IA","Latitude":"41.59810","Longitude":"-93.69950","Snowdepth":"3.300","Units":"in","Rept_Date":"2019-11-11 13"},"coordinates":[900,3090]},{"type":"Point","properties":{"Station_ID":"IL-LK-42","Station_Nam":"GURNEE 1.6 W, IL","Latitude":"42.37776","Longitude":"-87.96740","Snowdepth":"3.200","Units":"in","Rept_Date":"2019-11-11 14"},"coordinates":[2387,3622]},{"type":"Point","properties":{"Station_ID":"IN-KS-61","Station_Nam":"WINONA LAKE 0.9 SW, IN","Latitude":"41.21009","Longitude":"-85.82770","Snowdepth":"3.100","Units":"in","Rept_Date":"2019-11-11 11"},"coordinates":[2942,2825]},{"type":"Point","properties":{"Station_ID":"WTRM4","Station_Nam":"WATERSMEET 12WSW","Latitude":"46.22310","Longitude":"-89.40850","Snowdepth":"3.000","Units":"in","Rept_Date":"2019-11-11 12"},"coordinates":[2013,6245]},{"type":"Point","properties":{"Station_ID":"WTNM4","Station_Nam":"WATTON 2WSW","Latitude":"46.52660","Longitude":"-88.64240","Snowdepth":"3.000","Units":"in","Rept_Date":"2019-11-11 13"},"coordinates":[2212,6452]},{"type":"Point","properties":{"Station_ID":"WI-WK-34","Station_Nam":"MUKWONAGO 5.3 W, WI","Latitude":"42.85380","Longitude":"-88.43550","Snowdepth":"3.000","Units":"in","Rept_Date":"2019-11-11 13"},"coordinates":[2266,3946]},{"type":"Point","properties":{"Station_ID":"WI-VL-9","Station_Nam":"LAND O' LAKES 11.7 W, WI","Latitude":"46.19023","Longitude":"-89.45790","Snowdepth":"3.000","Units":"in","Rept_Date":"2019-11-11 13"},"coordinates":[2001,6222]},{"type":"Point","properties":{"Station_ID":"WI-IW-3","Station_Nam":"MINERAL POINT 7.3 ENE, WI","Latitude":"42.91400","Longitude":"-90.05700","Snowdepth":"3.000","Units":"in","Rept_Date":"2019-11-11 13"},"coordinates":[1845,3988]},{"type":"Point","properties":{"Station_ID":"WI-GN-5","Station_Nam":"MONTICELLO 2.2 SE, WI","Latitude":"42.71990","Longitude":"-89.56360","Snowdepth":"3.000","Units":"in","Rept_Date":"2019-11-11 13"},"coordinates":[1973,3855]},{"type":"Point","properties":{"Station_ID":"WI-DA-78","Station_Nam":"SUN PRAIRIE 3.0 W, WI","Latitude":"43.17607","Longitude":"-89.29134","Snowdepth":"3.000","Units":"in","Rept_Date":"2019-11-11 14"},"coordinates":[2044,4166]},{"type":"Point","properties":{"Station_ID":"WI-DA-33","Station_Nam":"OREGON 0.4 SSW, WI","Latitude":"42.92080","Longitude":"-89.38540","Snowdepth":"3.000","Units":"in","Rept_Date":"2019-11-11 13"},"coordinates":[2019,3992]},{"type":"Point","properties":{"Station_ID":"WGCI4","Station_Nam":"WAVELAND","Latitude":"41.58330","Longitude":"-93.66670","Snowdepth":"3.000","Units":"in","Rept_Date":"2019-11-11 13"},"coordinates":[909,3080]},{"type":"Point","properties":{"Station_ID":"WAKN1","Station_Nam":"WAKEFIELD,NE","Latitude":"42.26670","Longitude":"-96.86670","Snowdepth":"3.000","Units":"in","Rept_Date":"2019-11-11 13"},"coordinates":[79,3546]},{"type":"Point","properties":{"Station_ID":"VQAW3","Station_Nam":"VIROQUA","Latitude":"43.55970","Longitude":"-90.87560","Snowdepth":"3.000","Units":"in","Rept_Date":"2019-11-11 13"},"coordinates":[1633,4428]},{"type":"Point","properties":{"Station_ID":"UGRW3","Station_Nam":"UNION GROVE,WI","Latitude":"42.70000","Longitude":"-88.03220","Snowdepth":"3.000","Units":"in","Rept_Date":"2019-11-11 13"},"coordinates":[2370,3842]},{"type":"Point","properties":{"Station_ID":"TOL","Station_Nam":"TOLEDO EXPRESS AIRPORT","Latitude":"41.58750","Longitude":"-83.80530","Snowdepth":"3.000","Units":"in","Rept_Date":"2019-11-12 00"},"coordinates":[3467,3083]},{"type":"Point","properties":{"Station_ID":"TLDI4","Station_Nam":"TOLEDO,IA","Latitude":"41.98330","Longitude":"-92.58330","Snowdepth":"3.000","Units":"in","Rept_Date":"2019-11-11 13"},"coordinates":[1190,3353]},{"type":"Point","properties":{"Station_ID":"TCEM4","Station_Nam":"TRAVERSE CITY 5ESE","Latitude":"44.73370","Longitude":"-85.51180","Snowdepth":"3.000","Units":"in","Rept_Date":"2019-11-11 12"},"coordinates":[3024,5229]},{"type":"Point","properties":{"Station_ID":"STIM4","Station_Nam":"ST IGNACE","Latitude":"45.86080","Longitude":"-84.71960","Snowdepth":"3.000","Units":"in","Rept_Date":"2019-11-11 12"},"coordinates":[3229,5998]},{"type":"Point","properties":{"Station_ID":"SNYI4","Station_Nam":"STANLEY","Latitude":"42.63330","Longitude":"-91.86320","Snowdepth":"3.000","Units":"in","Rept_Date":"2019-11-11 13"},"coordinates":[1377,3796]},{"type":"Point","properties":{"Station_ID":"SBN","Station_Nam":"SOUTH BEND REGIONAL AIRPORT","Latitude":"41.70890","Longitude":"-86.31830","Snowdepth":"3.000","Units":"in","Rept_Date":"2019-11-12 00"},"coordinates":[2815,3165]},{"type":"Point","properties":{"Station_ID":"RWWI3","Station_Nam":"RICHMOND WATER WORKS","Latitude":"39.85440","Longitude":"-84.87790","Snowdepth":"3.000","Units":"in","Rept_Date":"2019-11-12 05"},"coordinates":[3188,1900]},{"type":"Point","properties":{"Station_ID":"RSCI2","Station_Nam":"ROSCOE","Latitude":"42.40500","Longitude":"-88.97940","Snowdepth":"3.000","Units":"in","Rept_Date":"2019-11-11 12"},"coordinates":[2125,3640]},{"type":"Point","properties":{"Station_ID":"ROKI3","Station_Nam":"ROCKVILLE","Latitude":"39.75940","Longitude":"-87.22690","Snowdepth":"3.000","Units":"in","Rept_Date":"2019-11-11 22"},"coordinates":[2579,1836]},{"type":"Point","properties":{"Station_ID":"PLLW3","Station_Nam":"PELL LAKE","Latitude":"42.53220","Longitude":"-88.33280","Snowdepth":"3.000","Units":"in","Rept_Date":"2019-11-11 13"},"coordinates":[2292,3727]},{"type":"Point","properties":{"Station_ID":"PERI4","Station_Nam":"PERRY,IA","Latitude":"41.83810","Longitude":"-94.11110","Snowdepth":"3.000","Units":"in","Rept_Date":"2019-11-11 13"},"coordinates":[794,3254]},{"type":"Point","properties":{"Station_ID":"PDGM4","Station_Nam":"PAULDING","Latitude":"46.39760","Longitude":"-89.17940","Snowdepth":"3.000","Units":"in","Rept_Date":"2019-11-11 13"},"coordinates":[2073,6364]},{"type":"Point","properties":{"Station_ID":"OLNI4","Station_Nam":"OELWEIN 1E","Latitude":"42.68010","Longitude":"-91.87510","Snowdepth":"3.000","Units":"in","Rept_Date":"2019-11-11 12"},"coordinates":[1374,3828]},{"type":"Point","properties":{"Station_ID":"NILM4","Station_Nam":"NILES","Latitude":"41.84050","Longitude":"-86.26580","Snowdepth":"3.000","Units":"in","Rept_Date":"2019-11-11 20"},"coordinates":[2828,3255]},{"type":"Point","properties":{"Station_ID":"MWOW3","Station_Nam":"MUKWONAGO","Latitude":"42.85380","Longitude":"-88.43550","Snowdepth":"3.000","Units":"in","Rept_Date":"2019-11-11 13"},"coordinates":[2266,3946]},{"type":"Point","properties":{"Station_ID":"MWN","Station_Nam":"MOUNT WASHINGTON","Latitude":"44.26670","Longitude":"-71.30000","Snowdepth":"3.000","Units":"in","Rept_Date":"2019-11-12 05"},"coordinates":[6710,4910]},{"type":"Point","properties":{"Station_ID":"MTCI2","Station_Nam":"MOUNT CARROLL","Latitude":"42.09800","Longitude":"-89.98410","Snowdepth":"3.000","Units":"in","Rept_Date":"2019-11-11 13"},"coordinates":[1864,3431]},{"type":"Point","properties":{"Station_ID":"MSHI4","Station_Nam":"MARSHALLTOWN,IA","Latitude":"42.06670","Longitude":"-92.93330","Snowdepth":"3.000","Units":"in","Rept_Date":"2019-11-11 13"},"coordinates":[1099,3410]},{"type":"Point","properties":{"Station_ID":"MO-BN-50","Station_Nam":"COLUMBIA 0.6 W, MO","Latitude":"38.95385","Longitude":"-92.33810","Snowdepth":"3.000","Units":"in","Rept_Date":"2019-11-11 07"},"coordinates":[1254,1286]},{"type":"Point","properties":{"Station_ID":"MKX","Station_Nam":"MILWAUKEE, WI","Latitude":"42.96810","Longitude":"-88.54920","Snowdepth":"3.000","Units":"in","Rept_Date":"2019-11-12 06"},"coordinates":[2236,4024]},{"type":"Point","properties":{"Station_ID":"MKE","Station_Nam":"GEN MITCHELL INTL AIRPORT","Latitude":"42.94720","Longitude":"-87.89670","Snowdepth":"3.000","Units":"in","Rept_Date":"2019-11-12 00"},"coordinates":[2405,4010]},{"type":"Point","properties":{"Station_ID":"MIWI4","Station_Nam":"HWY 14 IOWA RVR","Latitude":"42.06580","Longitude":"-92.90750","Snowdepth":"3.000","Units":"in","Rept_Date":"2019-11-11 12"},"coordinates":[1106,3409]},{"type":"Point","properties":{"Station_ID":"MIEM4","Station_Nam":"MICHIGAMME 3WNW","Latitude":"46.54530","Longitude":"-88.18000","Snowdepth":"3.000","Units":"in","Rept_Date":"2019-11-11 13"},"coordinates":[2332,6465]},{"type":"Point","properties":{"Station_ID":"MI-OT-4","Station_Nam":"GAYLORD 1.7 WNW, MI","Latitude":"45.03280","Longitude":"-84.71090","Snowdepth":"3.000","Units":"in","Rept_Date":"2019-11-11 13"},"coordinates":[3232,5433]},{"type":"Point","properties":{"Station_ID":"MI-OT-17","Station_Nam":"GAYLORD 4.1 S, MI","Latitude":"44.96388","Longitude":"-84.68467","Snowdepth":"3.000","Units":"in","Rept_Date":"2019-11-11 12"},"coordinates":[3239,5386]},{"type":"Point","properties":{"Station_ID":"MI-JC-10","Station_Nam":"HANOVER 4.1 E, MI","Latitude":"42.09263","Longitude":"-84.47292","Snowdepth":"3.000","Units":"in","Rept_Date":"2019-11-11 14"},"coordinates":[3293,3427]},{"type":"Point","properties":{"Station_ID":"MI-HG-1","Station_Nam":"HOUGHTON 1.6 ESE, MI","Latitude":"47.10774","Longitude":"-88.52940","Snowdepth":"3.000","Units":"in","Rept_Date":"2019-11-11 13"},"coordinates":[2241,6848]},{"type":"Point","properties":{"Station_ID":"MI-GT-25","Station_Nam":"TRAVERSE CITY 4.7 ESE, MI","Latitude":"44.73370","Longitude":"-85.51189","Snowdepth":"3.000","Units":"in","Rept_Date":"2019-11-11 12"},"coordinates":[3024,5229]},{"type":"Point","properties":{"Station_ID":"MAZW3","Station_Nam":"MAZOMANIE","Latitude":"43.17080","Longitude":"-89.81920","Snowdepth":"3.000","Units":"in","Rept_Date":"2019-11-11 13"},"coordinates":[1907,4163]},{"type":"Point","properties":{"Station_ID":"LNOW3","Station_Nam":"LAND O LAKES","Latitude":"46.19000","Longitude":"-89.45700","Snowdepth":"3.000","Units":"in","Rept_Date":"2019-11-11 13"},"coordinates":[2001,6222]},{"type":"Point","properties":{"Station_ID":"LANW3","Station_Nam":"LANCASTER 4WSW","Latitude":"42.82780","Longitude":"-90.78890","Snowdepth":"3.000","Units":"in","Rept_Date":"2019-11-11 14"},"coordinates":[1655,3929]},{"type":"Point","properties":{"Station_ID":"KRFD","Station_Nam":"GREATER ROCKFORD AIRPORT","Latitude":"42.20000","Longitude":"-89.10000","Snowdepth":"3.000","Units":"in","Rept_Date":"2019-11-12 00"},"coordinates":[2093,3500]},{"type":"Point","properties":{"Station_ID":"KORD","Station_Nam":"CHICAGO OHARE INTERNATIONAL","Latitude":"41.98333","Longitude":"-87.91666","Snowdepth":"3.000","Units":"in","Rept_Date":"2019-11-12 06"},"coordinates":[2400,3353]},{"type":"Point","properties":{"Station_ID":"KMWN","Station_Nam":"MOUNT WASHINGTON","Latitude":"44.26666","Longitude":"-71.30000","Snowdepth":"3.000","Units":"in","Rept_Date":"2019-11-12 06"},"coordinates":[6710,4910]},{"type":"Point","properties":{"Station_ID":"KMKE","Station_Nam":"GEN MITCHELL INTERNATIONAL  AIRPORT","Latitude":"42.95000","Longitude":"-87.90000","Snowdepth":"3.000","Units":"in","Rept_Date":"2019-11-12 06"},"coordinates":[2405,4012]},{"type":"Point","properties":{"Station_ID":"KFWA","Station_Nam":"FORT WAYNE INTERNATIONAL","Latitude":"41.00000","Longitude":"-85.20000","Snowdepth":"3.000","Units":"in","Rept_Date":"2019-11-12 00"},"coordinates":[3105,2682]},{"type":"Point","properties":{"Station_ID":"KFFO","Station_Nam":"DAYTON / WRIGHT-PATTERSON AIR FORCE BASE","Latitude":"39.83333","Longitude":"-84.05000","Snowdepth":"3.000","Units":"in","Rept_Date":"2019-11-12 06"},"coordinates":[3403,1886]},{"type":"Point","properties":{"Station_ID":"KCVG","Station_Nam":"CINCINNATI/NORTHERN KY INTERNATIONAL","Latitude":"39.05000","Longitude":"-84.66666","Snowdepth":"3.000","Units":"in","Rept_Date":"2019-11-12 06"},"coordinates":[3243,1352]},{"type":"Point","properties":{"Station_ID":"KABM5","Station_Nam":"KABETOGAMA LAKE VISITOR CTR","Latitude":"48.40880","Longitude":"-93.04840","Snowdepth":"3.000","Units":"in","Rept_Date":"2019-11-11 13"},"coordinates":[1069,7736]},{"type":"Point","properties":{"Station_ID":"JFNW3","Station_Nam":"JEFFERSON - WWTP","Latitude":"42.99470","Longitude":"-88.80390","Snowdepth":"3.000","Units":"in","Rept_Date":"2019-11-11 13"},"coordinates":[2170,4043]},{"type":"Point","properties":{"Station_ID":"INXI3","Station_Nam":"INDIANAPOLIS NWFO","Latitude":"39.70640","Longitude":"-86.28060","Snowdepth":"3.000","Units":"in","Rept_Date":"2019-11-12 06"},"coordinates":[2825,1800]},{"type":"Point","properties":{"Station_ID":"IN-MR-3","Station_Nam":"CASTLETON 1.7 S, IN","Latitude":"39.88021","Longitude":"-86.05170","Snowdepth":"3.000","Units":"in","Rept_Date":"2019-11-12 05"},"coordinates":[2884,1918]},{"type":"Point","properties":{"Station_ID":"IL-WN-2","Station_Nam":"ROSCOE 1.6 ESE, IL","Latitude":"42.40500","Longitude":"-88.97950","Snowdepth":"3.000","Units":"in","Rept_Date":"2019-11-11 12"},"coordinates":[2125,3640]},{"type":"Point","properties":{"Station_ID":"IL-SP-25","Station_Nam":"FREEPORT 1.7 NW, IL","Latitude":"42.30427","Longitude":"-89.66285","Snowdepth":"3.000","Units":"in","Rept_Date":"2019-11-11 13"},"coordinates":[1947,3572]},{"type":"Point","properties":{"Station_ID":"IL-KN-9","Station_Nam":"ELGIN 1.0 S, IL","Latitude":"42.02560","Longitude":"-88.28850","Snowdepth":"3.000","Units":"in","Rept_Date":"2019-11-11 14"},"coordinates":[2304,3382]},{"type":"Point","properties":{"Station_ID":"IL-KN-20","Station_Nam":"SOUTH ELGIN 0.5 NW, IL","Latitude":"42.00034","Longitude":"-88.30494","Snowdepth":"3.000","Units":"in","Rept_Date":"2019-11-12 05"},"coordinates":[2300,3364]},{"type":"Point","properties":{"Station_ID":"IL-KN-118","Station_Nam":"SLEEPY HOLLOW 0.7 W, IL","Latitude":"42.09500","Longitude":"-88.32790","Snowdepth":"3.000","Units":"in","Rept_Date":"2019-11-11 13"},"coordinates":[2294,3429]},{"type":"Point","properties":{"Station_ID":"IL-DK-6","Station_Nam":"DE KALB 0.3 ENE, IL","Latitude":"41.93238","Longitude":"-88.74700","Snowdepth":"3.000","Units":"in","Rept_Date":"2019-11-11 13"},"coordinates":[2185,3318]},{"type":"Point","properties":{"Station_ID":"IL-BN-14","Station_Nam":"CAPRON 0.1 N, IL","Latitude":"42.39998","Longitude":"-88.74240","Snowdepth":"3.000","Units":"in","Rept_Date":"2019-11-11 13"},"coordinates":[2186,3637]},{"type":"Point","properties":{"Station_ID":"IDAI4","Station_Nam":"INDIANOLA,IA","Latitude":"41.36670","Longitude":"-93.55000","Snowdepth":"3.000","Units":"in","Rept_Date":"2019-11-11 13"},"coordinates":[939,2932]},{"type":"Point","properties":{"Station_ID":"IA-SR-12","Station_Nam":"AMES 2.1 N, IA","Latitude":"42.05442","Longitude":"-93.62670","Snowdepth":"3.000","Units":"in","Rept_Date":"2019-11-11 14"},"coordinates":[919,3401]},{"type":"Point","properties":{"Station_ID":"IA-PK-88","Station_Nam":"DES MOINES 5.4 WNW, IA","Latitude":"41.61721","Longitude":"-93.70573","Snowdepth":"3.000","Units":"in","Rept_Date":"2019-11-11 13"},"coordinates":[899,3103]},{"type":"Point","properties":{"Station_ID":"IA-DL-31","Station_Nam":"DALLAS CENTER 1.5 E, IA","Latitude":"41.68151","Longitude":"-93.95534","Snowdepth":"3.000","Units":"in","Rept_Date":"2019-11-11 14"},"coordinates":[834,3147]},{"type":"Point","properties":{"Station_ID":"HTLM4","Station_Nam":"SNOW PAID OBSERVER FOR KHTL","Latitude":"44.34470","Longitude":"-84.67730","Snowdepth":"3.000","Units":"in","Rept_Date":"2019-11-12 00"},"coordinates":[3240,4963]},{"type":"Point","properties":{"Station_ID":"HTL","Station_Nam":"ROSCOMMON COUNTY AIRPORT","Latitude":"44.35000","Longitude":"-84.66670","Snowdepth":"3.000","Units":"in","Rept_Date":"2019-11-12 00"},"coordinates":[3243,4967]},{"type":"Point","properties":{"Station_ID":"HPKM4","Station_Nam":"HOPKINS 1 N","Latitude":"42.63520","Longitude":"-85.76100","Snowdepth":"3.000","Units":"in","Rept_Date":"2019-11-11 12"},"coordinates":[2959,3797]},{"type":"Point","properties":{"Station_ID":"GNDI4","Station_Nam":"GRUNDY CENTER,IA","Latitude":"42.35530","Longitude":"-92.77390","Snowdepth":"3.000","Units":"in","Rept_Date":"2019-11-11 14"},"coordinates":[1141,3606]},{"type":"Point","properties":{"Station_ID":"GLEI2","Station_Nam":"GLEN ELLYN 4S","Latitude":"41.82670","Longitude":"-88.05810","Snowdepth":"3.000","Units":"in","Rept_Date":"2019-11-11 18"},"coordinates":[2364,3246]},{"type":"Point","properties":{"Station_ID":"GEOI2","Station_Nam":"GENOA,IL","Latitude":"42.08000","Longitude":"-88.70750","Snowdepth":"3.000","Units":"in","Rept_Date":"2019-11-11 13"},"coordinates":[2195,3419]},{"type":"Point","properties":{"Station_ID":"GAYM4","Station_Nam":"GAYLORD","Latitude":"45.03320","Longitude":"-84.71130","Snowdepth":"3.000","Units":"in","Rept_Date":"2019-11-11 13"},"coordinates":[3232,5433]},{"type":"Point","properties":{"Station_ID":"FWA","Station_Nam":"FORT WAYNE INTERNATIONAL AIRPORT","Latitude":"40.97830","Longitude":"-85.19500","Snowdepth":"3.000","Units":"in","Rept_Date":"2019-11-12 06"},"coordinates":[3106,2667]},{"type":"Point","properties":{"Station_ID":"FULI4","Station_Nam":"FULTON","Latitude":"42.15730","Longitude":"-90.70620","Snowdepth":"3.000","Units":"in","Rept_Date":"2019-11-11 12"},"coordinates":[1677,3471]},{"type":"Point","properties":{"Station_ID":"FRKI3","Station_Nam":"FRANKFORT WASTEWATER TREATMENT PLANT","Latitude":"40.29860","Longitude":"-86.50660","Snowdepth":"3.000","Units":"in","Rept_Date":"2019-11-12 05"},"coordinates":[2766,2203]},{"type":"Point","properties":{"Station_ID":"FMBI3","Station_Nam":"CHANNEL 2 TERRE HAUTE","Latitude":"39.24250","Longitude":"-87.39050","Snowdepth":"3.000","Units":"in","Rept_Date":"2019-11-12 05"},"coordinates":[2537,1483]},{"type":"Point","properties":{"Station_ID":"EZBI2","Station_Nam":"ELIZABETH","Latitude":"42.31620","Longitude":"-90.22690","Snowdepth":"3.000","Units":"in","Rept_Date":"2019-11-11 12"},"coordinates":[1801,3580]},{"type":"Point","properties":{"Station_ID":"ELGI2","Station_Nam":"ELGIN","Latitude":"42.06280","Longitude":"-88.28610","Snowdepth":"3.000","Units":"in","Rept_Date":"2019-11-11 13"},"coordinates":[2304,3407]},{"type":"Point","properties":{"Station_ID":"EGNI2","Station_Nam":"ELGIN","Latitude":"42.02590","Longitude":"-88.28860","Snowdepth":"3.000","Units":"in","Rept_Date":"2019-11-11 14"},"coordinates":[2304,3382]},{"type":"Point","properties":{"Station_ID":"DVN","Station_Nam":"QUAD CITIES, IA","Latitude":"41.61030","Longitude":"-90.58830","Snowdepth":"3.000","Units":"in","Rept_Date":"2019-11-12 00"},"coordinates":[1707,3098]},{"type":"Point","properties":{"Station_ID":"DSXI4","Station_Nam":"DES MOINES SNOW","Latitude":"41.54130","Longitude":"-93.65570","Snowdepth":"3.000","Units":"in","Rept_Date":"2019-11-12 06"},"coordinates":[912,3051]},{"type":"Point","properties":{"Station_ID":"DMX","Station_Nam":"DES MOINES, IA","Latitude":"41.73610","Longitude":"-93.72330","Snowdepth":"3.000","Units":"in","Rept_Date":"2019-11-12 06"},"coordinates":[894,3184]},{"type":"Point","properties":{"Station_ID":"DLDI4","Station_Nam":"MISSISSIPPI RIVER","Latitude":"42.51670","Longitude":"-90.65000","Snowdepth":"3.000","Units":"in","Rept_Date":"2019-11-11 12"},"coordinates":[1691,3716]},{"type":"Point","properties":{"Station_ID":"DEKI2","Station_Nam":"DE KALB,IL","Latitude":"41.93330","Longitude":"-88.76670","Snowdepth":"3.000","Units":"in","Rept_Date":"2019-11-11 13"},"coordinates":[2180,3319]},{"type":"Point","properties":{"Station_ID":"DARW3","Station_Nam":"DARLINGTON","Latitude":"42.67780","Longitude":"-90.11860","Snowdepth":"3.000","Units":"in","Rept_Date":"2019-11-11 13"},"coordinates":[1829,3826]},{"type":"Point","properties":{"Station_ID":"CLNI4","Station_Nam":"CLINTON NO 1","Latitude":"41.79470","Longitude":"-90.26390","Snowdepth":"3.000","Units":"in","Rept_Date":"2019-11-12 00"},"coordinates":[1792,3224]},{"type":"Point","properties":{"Station_ID":"CLIW3","Station_Nam":"CLINTON,WI","Latitude":"42.60000","Longitude":"-88.88330","Snowdepth":"3.000","Units":"in","Rept_Date":"2019-11-11 15"},"coordinates":[2150,3773]},{"type":"Point","properties":{"Station_ID":"CHLM4","Station_Nam":"CHELSEA,MI","Latitude":"42.31670","Longitude":"-84.01670","Snowdepth":"3.000","Units":"in","Rept_Date":"2019-11-11 14"},"coordinates":[3412,3580]},{"type":"Point","properties":{"Station_ID":"CGPM4","Station_Nam":"DOLLAR BAY","Latitude":"47.11670","Longitude":"-88.51370","Snowdepth":"3.000","Units":"in","Rept_Date":"2019-11-11 13"},"coordinates":[2245,6854]},{"type":"Point","properties":{"Station_ID":"CGGI4","Station_Nam":"COGGON","Latitude":"42.27920","Longitude":"-91.52500","Snowdepth":"3.000","Units":"in","Rept_Date":"2019-11-11 12"},"coordinates":[1464,3554]},{"type":"Point","properties":{"Station_ID":"CAN-ON-203","Station_Nam":"LUCKNOW 1.5 NNE - MVCA, CAN","Latitude":"43.97350","Longitude":"-81.50764","Snowdepth":"3.000","Units":"in","Rept_Date":"2019-11-11 13"},"coordinates":[4063,4710]},{"type":"Point","properties":{"Station_ID":"BROW3","Station_Nam":"BRODHEAD,WI","Latitude":"42.61720","Longitude":"-89.38970","Snowdepth":"3.000","Units":"in","Rept_Date":"2019-11-11 13"},"coordinates":[2018,3785]},{"type":"Point","properties":{"Station_ID":"BNDM5","Station_Nam":"ELY 25E","Latitude":"47.97190","Longitude":"-91.44860","Snowdepth":"3.000","Units":"in","Rept_Date":"2019-11-11 13"},"coordinates":[1484,7438]},{"type":"Point","properties":{"Station_ID":"BMCI3","Station_Nam":"CASTLETON 2S","Latitude":"39.88010","Longitude":"-86.05140","Snowdepth":"3.000","Units":"in","Rept_Date":"2019-11-12 05"},"coordinates":[2884,1918]},{"type":"Point","properties":{"Station_ID":"BEAW3","Station_Nam":"BEAVER DAM,WI","Latitude":"43.45000","Longitude":"-88.85000","Snowdepth":"3.000","Units":"in","Rept_Date":"2019-11-11 13"},"coordinates":[2158,4353]},{"type":"Point","properties":{"Station_ID":"ARGW3","Station_Nam":"ARGYLE","Latitude":"42.70060","Longitude":"-89.01890","Snowdepth":"3.000","Units":"in","Rept_Date":"2019-11-11 16"},"coordinates":[2114,3842]},{"type":"Point","properties":{"Station_ID":"APXM4","Station_Nam":"GAYLORD 9SSW","Latitude":"44.90720","Longitude":"-84.71880","Snowdepth":"3.000","Units":"in","Rept_Date":"2019-11-12 06"},"coordinates":[3230,5347]},{"type":"Point","properties":{"Station_ID":"APN","Station_Nam":"PHELPS COLLINS FIELD","Latitude":"45.07810","Longitude":"-83.56030","Snowdepth":"3.000","Units":"in","Rept_Date":"2019-11-12 00"},"coordinates":[3530,5464]},{"type":"Point","properties":{"Station_ID":"ALXI4","Station_Nam":"WATERLOO SNOW","Latitude":"42.53130","Longitude":"-92.37550","Snowdepth":"3.000","Units":"in","Rept_Date":"2019-11-12 06"},"coordinates":[1244,3726]},{"type":"Point","properties":{"Station_ID":"ALPM4","Station_Nam":"SNOW PAID OBSERVER FOR KAPN","Latitude":"45.03110","Longitude":"-83.55970","Snowdepth":"3.000","Units":"in","Rept_Date":"2019-11-12 00"},"coordinates":[3530,5432]},{"type":"Point","properties":{"Station_ID":"ALO","Station_Nam":"WATERLOO MUNICIPAL AIRPORT","Latitude":"42.55690","Longitude":"-92.40000","Snowdepth":"3.000","Units":"in","Rept_Date":"2019-11-11 12"},"coordinates":[1238,3744]},{"type":"Point","properties":{"Station_ID":"AFTW3","Station_Nam":"ROCK RIVER","Latitude":"42.61670","Longitude":"-89.06670","Snowdepth":"3.000","Units":"in","Rept_Date":"2019-11-11 13"},"coordinates":[2102,3785]},{"type":"Point","properties":{"Station_ID":"41.8723_080.7363","Station_Nam":"Edgewood  Trained Spotter (X4190807)","Latitude":"41.87235","Longitude":"-80.73632","Snowdepth":"3.000","Units":"in","Rept_Date":"2019-11-12 02"},"coordinates":[4263,3277]},{"type":"Point","properties":{"Station_ID":"41.5924_083.8052","Station_Nam":"Toledo Express Airport  Trained Spotter (CLE5303)","Latitude":"41.59240","Longitude":"-83.80520","Snowdepth":"3.000","Units":"in","Rept_Date":"2019-11-12 00"},"coordinates":[3467,3086]},{"type":"Point","properties":{"Station_ID":"41.5183_081.4792","Station_Nam":"1 ENE Lyndhurst  Trained Spotter (CLE1177)","Latitude":"41.51834","Longitude":"-81.47919","Snowdepth":"3.000","Units":"in","Rept_Date":"2019-11-12 02"},"coordinates":[4070,3035]},{"type":"Point","properties":{"Station_ID":"41.3091_082.9785","Station_Nam":"CLYDE (CLE0801)","Latitude":"41.30910","Longitude":"-82.97850","Snowdepth":"3.000","Units":"in","Rept_Date":"2019-11-12 01"},"coordinates":[3681,2893]},{"type":"Point","properties":{"Station_ID":"PTLQ6","Station_Nam":"PORTAGE LAKE","Latitude":"49.06950","Longitude":"-86.65940","Snowdepth":"2.990","Units":"in","Rept_Date":"2019-11-12 06"},"coordinates":[2726,8186]},{"type":"Point","properties":{"Station_ID":"QTV","Station_Nam":"QTV","Latitude":"49.66000","Longitude":"-69.35690","Snowdepth":"2.953","Units":"in","Rept_Date":"2019-11-11 12"},"coordinates":[7214,8589]},{"type":"Point","properties":{"Station_ID":"QGA","Station_Nam":"QGA","Latitude":"47.25640","Longitude":"-73.73810","Snowdepth":"2.953","Units":"in","Rept_Date":"2019-11-11 12"},"coordinates":[6078,6950]},{"type":"Point","properties":{"Station_ID":"TRIQ6","Station_Nam":"TRIO LAKE","Latitude":"49.22880","Longitude":"-87.22920","Snowdepth":"2.910","Units":"in","Rept_Date":"2019-11-12 06"},"coordinates":[2579,8295]},{"type":"Point","properties":{"Station_ID":"IL-LK-39","Station_Nam":"RIVERWOODS 0.4 ENE, IL","Latitude":"42.17264","Longitude":"-87.88840","Snowdepth":"2.900","Units":"in","Rept_Date":"2019-11-11 13"},"coordinates":[2408,3482]},{"type":"Point","properties":{"Station_ID":"IL-DP-16","Station_Nam":"AURORA 3.6 SE, IL","Latitude":"41.73455","Longitude":"-88.23910","Snowdepth":"2.900","Units":"in","Rept_Date":"2019-11-11 13"},"coordinates":[2317,3183]},{"type":"Point","properties":{"Station_ID":"WI-WW-2","Station_Nam":"LAKE GENEVA 0.6 ENE, WI","Latitude":"42.59169","Longitude":"-88.41770","Snowdepth":"2.800","Units":"in","Rept_Date":"2019-11-11 13"},"coordinates":[2270,3768]},{"type":"Point","properties":{"Station_ID":"IL-MCH-95","Station_Nam":"CARY 0.5 SSW, IL","Latitude":"42.20235","Longitude":"-88.25224","Snowdepth":"2.800","Units":"in","Rept_Date":"2019-11-11 13"},"coordinates":[2313,3502]},{"type":"Point","properties":{"Station_ID":"IA-ST-42","Station_Nam":"RIVERDALE 0.5 N, IA","Latitude":"41.54319","Longitude":"-90.46752","Snowdepth":"2.800","Units":"in","Rept_Date":"2019-11-11 14"},"coordinates":[1739,3052]},{"type":"Point","properties":{"Station_ID":"IL-LE-8","Station_Nam":"ASHTON 0.4 SSW, IL","Latitude":"41.86327","Longitude":"-89.22570","Snowdepth":"2.700","Units":"in","Rept_Date":"2019-11-11 13"},"coordinates":[2061,3271]},{"type":"Point","properties":{"Station_ID":"IL-KN-78","Station_Nam":"GENEVA 1.3 SSW, IL","Latitude":"41.86442","Longitude":"-88.32320","Snowdepth":"2.600","Units":"in","Rept_Date":"2019-11-11 13"},"coordinates":[2295,3272]},{"type":"Point","properties":{"Station_ID":"CAN-MB-298","Station_Nam":"GARDENTON 4.2 W - SRRCD, CAN","Latitude":"49.09480","Longitude":"-96.75446","Snowdepth":"2.600","Units":"in","Rept_Date":"2019-11-11 14"},"coordinates":[108,8204]},{"type":"Point","properties":{"Station_ID":"WI-RC-3","Station_Nam":"RACINE 2.3 WSW, WI","Latitude":"42.71124","Longitude":"-87.84570","Snowdepth":"2.500","Units":"in","Rept_Date":"2019-11-11 13"},"coordinates":[2419,3849]},{"type":"Point","properties":{"Station_ID":"WI-LF-5","Station_Nam":"BENTON 0.3 WNW, WI","Latitude":"42.57194","Longitude":"-90.38755","Snowdepth":"2.500","Units":"in","Rept_Date":"2019-11-11 13"},"coordinates":[1759,3754]},{"type":"Point","properties":{"Station_ID":"WI-DA-63","Station_Nam":"MADISON 7.0 WSW, WI","Latitude":"43.04003","Longitude":"-89.51438","Snowdepth":"2.500","Units":"in","Rept_Date":"2019-11-11 14"},"coordinates":[1986,4073]},{"type":"Point","properties":{"Station_ID":"VT-OL-12","Station_Nam":"GREENSBORO 3.9 NNE, VT","Latitude":"44.63100","Longitude":"-72.28000","Snowdepth":"2.500","Units":"in","Rept_Date":"2019-11-11 11"},"coordinates":[6456,5159]},{"type":"Point","properties":{"Station_ID":"OH-MY-34","Station_Nam":"UNION 1.0 WSW, OH","Latitude":"39.89794","Longitude":"-84.32840","Snowdepth":"2.500","Units":"in","Rept_Date":"2019-11-12 05"},"coordinates":[3331,1930]},{"type":"Point","properties":{"Station_ID":"OH-CM-7","Station_Nam":"AMELIA 0.3 SSW, OH","Latitude":"39.02119","Longitude":"-84.21860","Snowdepth":"2.500","Units":"in","Rept_Date":"2019-11-12 05"},"coordinates":[3359,1332]},{"type":"Point","properties":{"Station_ID":"NY-SL-6","Station_Nam":"HANNAWA FALLS 0.1 SW, NY","Latitude":"44.61154","Longitude":"-74.97190","Snowdepth":"2.500","Units":"in","Rept_Date":"2019-11-11 12"},"coordinates":[5758,5145]},{"type":"Point","properties":{"Station_ID":"MI-OT-16","Station_Nam":"GAYLORD 2.2 SSE, MI","Latitude":"44.99441","Longitude":"-84.65820","Snowdepth":"2.500","Units":"in","Rept_Date":"2019-11-11 11"},"coordinates":[3245,5407]},{"type":"Point","properties":{"Station_ID":"MI-MC-4","Station_Nam":"ST. IGNACE 0.5SE, MI","Latitude":"45.86057","Longitude":"-84.71980","Snowdepth":"2.500","Units":"in","Rept_Date":"2019-11-11 12"},"coordinates":[3229,5997]},{"type":"Point","properties":{"Station_ID":"MI-KN-33","Station_Nam":"GRAND RAPIDS 3.0 NW, MI","Latitude":"42.99502","Longitude":"-85.69218","Snowdepth":"2.500","Units":"in","Rept_Date":"2019-11-11 14"},"coordinates":[2977,4043]},{"type":"Point","properties":{"Station_ID":"MI-JC-13","Station_Nam":"HANOVER 3.8 W, MI","Latitude":"42.10700","Longitude":"-84.62600","Snowdepth":"2.500","Units":"in","Rept_Date":"2019-11-11 12"},"coordinates":[3254,3437]},{"type":"Point","properties":{"Station_ID":"MI-BR-9","Station_Nam":"PLAINWELL 5.4 E, MI","Latitude":"42.45066","Longitude":"-85.53790","Snowdepth":"2.500","Units":"in","Rept_Date":"2019-11-11 13"},"coordinates":[3017,3671]},{"type":"Point","properties":{"Station_ID":"MI-AN-1","Station_Nam":"WAYLAND 2.0 W, MI","Latitude":"42.67323","Longitude":"-85.68010","Snowdepth":"2.500","Units":"in","Rept_Date":"2019-11-11 13"},"coordinates":[2980,3823]},{"type":"Point","properties":{"Station_ID":"IL-DP-75","Station_Nam":"NAPERVILLE 1.1 NW, IL","Latitude":"41.77288","Longitude":"-88.17130","Snowdepth":"2.500","Units":"in","Rept_Date":"2019-11-11 15"},"coordinates":[2334,3209]},{"type":"Point","properties":{"Station_ID":"IL-DP-132","Station_Nam":"WHEATON 2.0 NNE, IL","Latitude":"41.87980","Longitude":"-88.08630","Snowdepth":"2.500","Units":"in","Rept_Date":"2019-11-11 13"},"coordinates":[2356,3282]},{"type":"Point","properties":{"Station_ID":"IL-DP-109","Station_Nam":"ELMHURST 0.8 ESE, IL","Latitude":"41.89287","Longitude":"-87.92960","Snowdepth":"2.500","Units":"in","Rept_Date":"2019-11-11 13"},"coordinates":[2397,3291]},{"type":"Point","properties":{"Station_ID":"IL-CK-180","Station_Nam":"PARK RIDGE 0.5 SSW, IL","Latitude":"42.00443","Longitude":"-87.84600","Snowdepth":"2.500","Units":"in","Rept_Date":"2019-11-11 13"},"coordinates":[2419,3367]},{"type":"Point","properties":{"Station_ID":"IL-CK-131","Station_Nam":"SCHAUMBURG 2.0 E, IL","Latitude":"42.03028","Longitude":"-88.04400","Snowdepth":"2.500","Units":"in","Rept_Date":"2019-11-11 13"},"coordinates":[2367,3385]},{"type":"Point","properties":{"Station_ID":"IL-CK-121","Station_Nam":"PALATINE 1.3 E, IL","Latitude":"42.11385","Longitude":"-88.01780","Snowdepth":"2.500","Units":"in","Rept_Date":"2019-11-11 14"},"coordinates":[2374,3442]},{"type":"Point","properties":{"Station_ID":"IA-WR-7","Station_Nam":"INDIANOLA 0.8 SSW, IA","Latitude":"41.35047","Longitude":"-93.57290","Snowdepth":"2.500","Units":"in","Rept_Date":"2019-11-11 13"},"coordinates":[933,2921]},{"type":"Point","properties":{"Station_ID":"IA-WR-5","Station_Nam":"HARTFORD 1.0 ENE, IA","Latitude":"41.46110","Longitude":"-93.38590","Snowdepth":"2.500","Units":"in","Rept_Date":"2019-11-11 14"},"coordinates":[982,2996]},{"type":"Point","properties":{"Station_ID":"IA-ST-3","Station_Nam":"PARK VIEW 0.2 WSW, IA","Latitude":"41.68855","Longitude":"-90.54380","Snowdepth":"2.500","Units":"in","Rept_Date":"2019-11-11 13"},"coordinates":[1719,3152]},{"type":"Point","properties":{"Station_ID":"IA-ST-1","Station_Nam":"LE CLAIRE 1.8 NNE, IA","Latitude":"41.62355","Longitude":"-90.35140","Snowdepth":"2.500","Units":"in","Rept_Date":"2019-11-11 14"},"coordinates":[1769,3107]},{"type":"Point","properties":{"Station_ID":"IA-JH-20","Station_Nam":"CORALVILLE 1.4 S, IA","Latitude":"41.67016","Longitude":"-91.60296","Snowdepth":"2.500","Units":"in","Rept_Date":"2019-11-11 14"},"coordinates":[1444,3139]},{"type":"Point","properties":{"Station_ID":"IA-BC-9","Station_Nam":"WINTHROP 5.6 NNE, IA","Latitude":"42.55206","Longitude":"-91.70663","Snowdepth":"2.500","Units":"in","Rept_Date":"2019-11-11 15"},"coordinates":[1417,3741]},{"type":"Point","properties":{"Station_ID":"QIQ","Station_Nam":"QIQ","Latitude":"49.82390","Longitude":"-68.54310","Snowdepth":"2.441","Units":"in","Rept_Date":"2019-11-11 12"},"coordinates":[7425,8701]},{"type":"Point","properties":{"Station_ID":"MI-KN-93","Station_Nam":"GRANDVILLE 0.6 SSW, MI","Latitude":"42.89531","Longitude":"-85.76006","Snowdepth":"2.400","Units":"in","Rept_Date":"2019-11-11 12"},"coordinates":[2960,3975]},{"type":"Point","properties":{"Station_ID":"IL-DP-86","Station_Nam":"LISLE 0.5 W, IL","Latitude":"41.79205","Longitude":"-88.09670","Snowdepth":"2.400","Units":"in","Rept_Date":"2019-11-11 13"},"coordinates":[2354,3222]},{"type":"Point","properties":{"Station_ID":"CAN-NB-97","Station_Nam":"NEW MARYLAND 0.6 NW, CAN","Latitude":"45.90112","Longitude":"-66.68739","Snowdepth":"2.400","Units":"in","Rept_Date":"2019-11-11 13"},"coordinates":[7906,6025]},{"type":"Point","properties":{"Station_ID":"WI-WK-29","Station_Nam":"OCONOMOWOC 4.6 NE, WI","Latitude":"43.14621","Longitude":"-88.42860","Snowdepth":"2.300","Units":"in","Rept_Date":"2019-11-11 15"},"coordinates":[2268,4146]},{"type":"Point","properties":{"Station_ID":"MI-CT-18","Station_Nam":"LAINGSBURG 2.1 NNW, MI","Latitude":"42.91661","Longitude":"-84.36803","Snowdepth":"2.300","Units":"in","Rept_Date":"2019-11-11 13"},"coordinates":[3321,3989]},{"type":"Point","properties":{"Station_ID":"IL-CK-63","Station_Nam":"ELK GROVE VILLAGE 0.6 ESE, IL","Latitude":"42.00390","Longitude":"-87.98130","Snowdepth":"2.200","Units":"in","Rept_Date":"2019-11-11 13"},"coordinates":[2384,3367]},{"type":"Point","properties":{"Station_ID":"IL-CK-285","Station_Nam":"HARWOOD HEIGHTS 0.4 NNE, IL","Latitude":"41.97154","Longitude":"-87.80325","Snowdepth":"2.200","Units":"in","Rept_Date":"2019-11-11 13"},"coordinates":[2430,3345]},{"type":"Point","properties":{"Station_ID":"MO-SS-39","Station_Nam":"WENTZVILLE 2.4 N, MO","Latitude":"38.84714","Longitude":"-90.86766","Snowdepth":"2.100","Units":"in","Rept_Date":"2019-11-12 01"},"coordinates":[1635,1213]},{"type":"Point","properties":{"Station_ID":"MI-LV-15","Station_Nam":"PINCKNEY 3.4 NW, MI","Latitude":"42.48156","Longitude":"-84.00330","Snowdepth":"2.100","Units":"in","Rept_Date":"2019-11-11 13"},"coordinates":[3415,3693]},{"type":"Point","properties":{"Station_ID":"MI-IH-34","Station_Nam":"MASON 5.8 ENE, MI","Latitude":"42.61430","Longitude":"-84.33813","Snowdepth":"2.100","Units":"in","Rept_Date":"2019-11-11 13"},"coordinates":[3328,3783]},{"type":"Point","properties":{"Station_ID":"IL-DP-155","Station_Nam":"MEDINAH 1.0 SSW, IL","Latitude":"41.96360","Longitude":"-88.06590","Snowdepth":"2.100","Units":"in","Rept_Date":"2019-11-11 12"},"coordinates":[2362,3339]},{"type":"Point","properties":{"Station_ID":"IA-LN-7","Station_Nam":"CENTRAL CITY 6.7 W, IA","Latitude":"42.19830","Longitude":"-91.65430","Snowdepth":"2.100","Units":"in","Rept_Date":"2019-11-11 13"},"coordinates":[1431,3499]},{"type":"Point","properties":{"Station_ID":"CAN-MB-368","Station_Nam":"WHITESHELL 1.3 NE, CAN","Latitude":"49.74405","Longitude":"-95.19123","Snowdepth":"2.100","Units":"in","Rept_Date":"2019-11-11 14"},"coordinates":[514,8646]},{"type":"Point","properties":{"Station_ID":"ZRGI4","Station_Nam":"ZEARING,IA","Latitude":"42.15000","Longitude":"-93.30000","Snowdepth":"2.000","Units":"in","Rept_Date":"2019-11-11 13"},"coordinates":[1004,3466]},{"type":"Point","properties":{"Station_ID":"WTBW3","Station_Nam":"WEST BEND PUBLIC WORKS","Latitude":"43.41110","Longitude":"-88.19380","Snowdepth":"2.000","Units":"in","Rept_Date":"2019-11-11 16"},"coordinates":[2328,4327]},{"type":"Point","properties":{"Station_ID":"WSTW3","Station_Nam":"WEST BEND -FIRE","Latitude":"43.43138","Longitude":"-88.16111","Snowdepth":"2.000","Units":"in","Rept_Date":"2019-11-11 13"},"coordinates":[2337,4340]},{"type":"Point","properties":{"Station_ID":"WSHI4","Station_Nam":"WASHINGTON","Latitude":"41.28240","Longitude":"-91.70780","Snowdepth":"2.000","Units":"in","Rept_Date":"2019-11-11 13"},"coordinates":[1417,2875]},{"type":"Point","properties":{"Station_ID":"WRUM5","Station_Nam":"WARROAD 4W","Latitude":"48.89600","Longitude":"-95.40700","Snowdepth":"2.000","Units":"in","Rept_Date":"2019-11-12 04"},"coordinates":[458,8068]},{"type":"Point","properties":{"Station_ID":"WMTI4","Station_Nam":"FORT DODGE,IA","Latitude":"42.50610","Longitude":"-94.20110","Snowdepth":"2.000","Units":"in","Rept_Date":"2019-11-11 13"},"coordinates":[770,3709]},{"type":"Point","properties":{"Station_ID":"WLBI4","Station_Nam":"WILLIAMSBURG 3 SE","Latitude":"41.64020","Longitude":"-91.97840","Snowdepth":"2.000","Units":"in","Rept_Date":"2019-11-11 13"},"coordinates":[1347,3119]},{"type":"Point","properties":{"Station_ID":"WI-WW-12","Station_Nam":"ELKHORN 0.4 ESE, WI","Latitude":"42.66970","Longitude":"-88.53170","Snowdepth":"2.000","Units":"in","Rept_Date":"2019-11-11 11"},"coordinates":[2241,3821]},{"type":"Point","properties":{"Station_ID":"WI-WS-1","Station_Nam":"HARTFORD 3.8 E, WI","Latitude":"43.32410","Longitude":"-88.31340","Snowdepth":"2.000","Units":"in","Rept_Date":"2019-11-11 13"},"coordinates":[2297,4267]},{"type":"Point","properties":{"Station_ID":"WI-WN-9","Station_Nam":"NEENAH 1.1 ENE, WI","Latitude":"44.17370","Longitude":"-88.45130","Snowdepth":"2.000","Units":"in","Rept_Date":"2019-11-11 13"},"coordinates":[2262,4847]},{"type":"Point","properties":{"Station_ID":"WI-WK-65","Station_Nam":"EAGLE 3.4 SW, WI","Latitude":"42.85067","Longitude":"-88.52596","Snowdepth":"2.000","Units":"in","Rept_Date":"2019-11-11 14"},"coordinates":[2242,3944]},{"type":"Point","properties":{"Station_ID":"WI-WK-60","Station_Nam":"OCONOMOWOC 2.3 WSW, WI","Latitude":"43.08753","Longitude":"-88.53749","Snowdepth":"2.000","Units":"in","Rept_Date":"2019-11-11 23"},"coordinates":[2239,4106]},{"type":"Point","properties":{"Station_ID":"WI-SB-14","Station_Nam":"SHEBOYGAN 2.7 N, WI","Latitude":"43.78416","Longitude":"-87.72303","Snowdepth":"2.000","Units":"in","Rept_Date":"2019-11-11 12"},"coordinates":[2451,4581]},{"type":"Point","properties":{"Station_ID":"WI-SB-10","Station_Nam":"RANDOM LAKE 0.5 SSE, WI","Latitude":"43.54812","Longitude":"-87.95050","Snowdepth":"2.000","Units":"in","Rept_Date":"2019-11-11 13"},"coordinates":[2392,4420]},{"type":"Point","properties":{"Station_ID":"WI-OZ-17","Station_Nam":"WEST BEND 7.3 E, WI","Latitude":"43.42860","Longitude":"-88.03870","Snowdepth":"2.000","Units":"in","Rept_Date":"2019-11-11 13"},"coordinates":[2369,4339]},{"type":"Point","properties":{"Station_ID":"WI-MW-23","Station_Nam":"GREENDALE 1.0 ENE, WI","Latitude":"42.94094","Longitude":"-87.98230","Snowdepth":"2.000","Units":"in","Rept_Date":"2019-11-11 13"},"coordinates":[2383,4006]},{"type":"Point","properties":{"Station_ID":"WI-MW-18","Station_Nam":"WEST ALLIS 0.7 SSE, WI","Latitude":"42.99802","Longitude":"-88.02380","Snowdepth":"2.000","Units":"in","Rept_Date":"2019-11-11 14"},"coordinates":[2373,4045]},{"type":"Point","properties":{"Station_ID":"WI-JF-10","Station_Nam":"PALMYRA 1.5 N, WI","Latitude":"42.90084","Longitude":"-88.58620","Snowdepth":"2.000","Units":"in","Rept_Date":"2019-11-11 13"},"coordinates":[2227,3979]},{"type":"Point","properties":{"Station_ID":"WI-DD-15","Station_Nam":"COLUMBUS 4.8 ENE, WI","Latitude":"43.35742","Longitude":"-88.93819","Snowdepth":"2.000","Units":"in","Rept_Date":"2019-11-11 18"},"coordinates":[2135,4290]},{"type":"Point","properties":{"Station_ID":"WI-DA-70","Station_Nam":"MCFARLAND 1.3 NE, WI","Latitude":"43.03241","Longitude":"-89.27668","Snowdepth":"2.000","Units":"in","Rept_Date":"2019-11-11 13"},"coordinates":[2048,4068]},{"type":"Point","properties":{"Station_ID":"WI-DA-62","Station_Nam":"WAUNAKEE 4.9 W, WI","Latitude":"43.19755","Longitude":"-89.54904","Snowdepth":"2.000","Units":"in","Rept_Date":"2019-11-11 14"},"coordinates":[1977,4181]},{"type":"Point","properties":{"Station_ID":"WI-DA-31","Station_Nam":"DEERFIELD 0.6 N, WI","Latitude":"43.05958","Longitude":"-89.07340","Snowdepth":"2.000","Units":"in","Rept_Date":"2019-11-11 13"},"coordinates":[2100,4087]},{"type":"Point","properties":{"Station_ID":"WHTI2","Station_Nam":"WHEATON,IL","Latitude":"41.81330","Longitude":"-88.07360","Snowdepth":"2.000","Units":"in","Rept_Date":"2019-11-11 13"},"coordinates":[2360,3237]},{"type":"Point","properties":{"Station_ID":"WDOM5","Station_Nam":"WINDOM","Latitude":"43.87700","Longitude":"-95.11590","Snowdepth":"2.000","Units":"in","Rept_Date":"2019-11-11 14"},"coordinates":[533,4644]},{"type":"Point","properties":{"Station_ID":"VNTI4","Station_Nam":"VINTON","Latitude":"42.17020","Longitude":"-92.00770","Snowdepth":"2.000","Units":"in","Rept_Date":"2019-11-11 13"},"coordinates":[1339,3480]},{"type":"Point","properties":{"Station_ID":"TEKN1","Station_Nam":"TEKAMAH,NE","Latitude":"41.76670","Longitude":"-96.23330","Snowdepth":"2.000","Units":"in","Rept_Date":"2019-11-11 12"},"coordinates":[243,3205]},{"type":"Point","properties":{"Station_ID":"TCMM4","Station_Nam":"TRAVERSE CITY MUNSON","Latitude":"44.76070","Longitude":"-85.64430","Snowdepth":"2.000","Units":"in","Rept_Date":"2019-11-11 11"},"coordinates":[2990,5247]},{"type":"Point","properties":{"Station_ID":"STWI2","Station_Nam":"STEWARD","Latitude":"41.81110","Longitude":"-89.02330","Snowdepth":"2.000","Units":"in","Rept_Date":"2019-11-11 13"},"coordinates":[2113,3235]},{"type":"Point","properties":{"Station_ID":"STOW3","Station_Nam":"STOUGHTON,WI","Latitude":"42.91670","Longitude":"-89.21670","Snowdepth":"2.000","Units":"in","Rept_Date":"2019-11-11 13"},"coordinates":[2063,3989]},{"type":"Point","properties":{"Station_ID":"STL","Station_Nam":"LAMBERT-ST LOUIS INTL ARPT","Latitude":"38.74750","Longitude":"-90.35970","Snowdepth":"2.000","Units":"in","Rept_Date":"2019-11-12 06"},"coordinates":[1767,1145]},{"type":"Point","properties":{"Station_ID":"SPGM5","Station_Nam":"SPRING VALLEY","Latitude":"43.69330","Longitude":"-92.39260","Snowdepth":"2.000","Units":"in","Rept_Date":"2019-11-11 13"},"coordinates":[1239,4519]},{"type":"Point","properties":{"Station_ID":"ROCW3","Station_Nam":"ROCHESTER WWTP","Latitude":"42.72690","Longitude":"-88.22580","Snowdepth":"2.000","Units":"in","Rept_Date":"2019-11-11 11"},"coordinates":[2320,3860]},{"type":"Point","properties":{"Station_ID":"RLKW3","Station_Nam":"REST LAKE","Latitude":"46.12220","Longitude":"-89.87720","Snowdepth":"2.000","Units":"in","Rept_Date":"2019-11-11 15"},"coordinates":[1892,6176]},{"type":"Point","properties":{"Station_ID":"RKWI4","Station_Nam":"ROCKWELL CITY,IA","Latitude":"42.40000","Longitude":"-94.61670","Snowdepth":"2.000","Units":"in","Rept_Date":"2019-11-11 13"},"coordinates":[663,3637]},{"type":"Point","properties":{"Station_ID":"RCNW3","Station_Nam":"RACINE,WI","Latitude":"42.70390","Longitude":"-87.76670","Snowdepth":"2.000","Units":"in","Rept_Date":"2019-11-11 14"},"coordinates":[2439,3844]},{"type":"Point","properties":{"Station_ID":"RCKI2","Station_Nam":"MISSISSIPPI RIVER","Latitude":"41.51670","Longitude":"-90.56670","Snowdepth":"2.000","Units":"in","Rept_Date":"2019-11-12 06"},"coordinates":[1713,3034]},{"type":"Point","properties":{"Station_ID":"RCHW3","Station_Nam":"RICHRIELD,WI","Latitude":"43.21080","Longitude":"-88.20940","Snowdepth":"2.000","Units":"in","Rept_Date":"2019-11-11 12"},"coordinates":[2324,4190]},{"type":"Point","properties":{"Station_ID":"QCAI2","Station_Nam":"MOLINE SNOW","Latitude":"41.39990","Longitude":"-90.54800","Snowdepth":"2.000","Units":"in","Rept_Date":"2019-11-12 00"},"coordinates":[1718,2955]},{"type":"Point","properties":{"Station_ID":"PYRW3","Station_Nam":"PALMYRA WWTP","Latitude":"42.88720","Longitude":"-88.58310","Snowdepth":"2.000","Units":"in","Rept_Date":"2019-11-11 13"},"coordinates":[2227,3969]},{"type":"Point","properties":{"Station_ID":"PEAI4","Station_Nam":"PELLA,IA","Latitude":"41.46670","Longitude":"-92.91670","Snowdepth":"2.000","Units":"in","Rept_Date":"2019-11-11 13"},"coordinates":[1103,3000]},{"type":"Point","properties":{"Station_ID":"PEAI2","Station_Nam":"PEORIA #2 SNOW PAID","Latitude":"40.76270","Longitude":"-89.59960","Snowdepth":"2.000","Units":"in","Rept_Date":"2019-11-12 00"},"coordinates":[1964,2520]},{"type":"Point","properties":{"Station_ID":"PAWI2","Station_Nam":"PAW PAW,IL","Latitude":"41.70000","Longitude":"-88.96670","Snowdepth":"2.000","Units":"in","Rept_Date":"2019-11-11 13"},"coordinates":[2128,3159]},{"type":"Point","properties":{"Station_ID":"OSWN6","Station_Nam":"OSWEGO","Latitude":"43.44990","Longitude":"-76.53680","Snowdepth":"2.000","Units":"in","Rept_Date":"2019-11-11 22"},"coordinates":[5352,4353]},{"type":"Point","properties":{"Station_ID":"ONCW3","Station_Nam":"SOUTH","Latitude":"43.11170","Longitude":"-88.49970","Snowdepth":"2.000","Units":"in","Rept_Date":"2019-11-11 13"},"coordinates":[2249,4122]},{"type":"Point","properties":{"Station_ID":"NWTI4","Station_Nam":"NEWTON,IA","Latitude":"41.70000","Longitude":"-93.05000","Snowdepth":"2.000","Units":"in","Rept_Date":"2019-11-11 13"},"coordinates":[1069,3159]},{"type":"Point","properties":{"Station_ID":"NWTI2","Station_Nam":"NEWTON","Latitude":"38.99160","Longitude":"-88.18280","Snowdepth":"2.000","Units":"in","Rept_Date":"2019-11-12 06"},"coordinates":[2331,1312]},{"type":"Point","properties":{"Station_ID":"NPTM4","Station_Nam":"NORTHPORT 2W","Latitude":"45.13220","Longitude":"-85.64720","Snowdepth":"2.000","Units":"in","Rept_Date":"2019-11-11 13"},"coordinates":[2989,5501]},{"type":"Point","properties":{"Station_ID":"NGLW3","Station_Nam":"NEW GLARUS","Latitude":"42.83500","Longitude":"-89.62080","Snowdepth":"2.000","Units":"in","Rept_Date":"2019-11-11 13"},"coordinates":[1958,3934]},{"type":"Point","properties":{"Station_ID":"NESN1","Station_Nam":"CONCORD","Latitude":"42.38440","Longitude":"-96.98830","Snowdepth":"2.000","Units":"in","Rept_Date":"2019-11-11 23"},"coordinates":[47,3626]},{"type":"Point","properties":{"Station_ID":"NE-WS-4","Station_Nam":"BLAIR 0.9 NNW, NE","Latitude":"41.55589","Longitude":"-96.14612","Snowdepth":"2.000","Units":"in","Rept_Date":"2019-11-11 14"},"coordinates":[266,3061]},{"type":"Point","properties":{"Station_ID":"MUNI2","Station_Nam":"MUNDELEIN,IL","Latitude":"42.25530","Longitude":"-88.07690","Snowdepth":"2.000","Units":"in","Rept_Date":"2019-11-11 13"},"coordinates":[2359,3538]},{"type":"Point","properties":{"Station_ID":"MSN","Station_Nam":"MADISON DANE COUNTY RGNL","Latitude":"43.13970","Longitude":"-89.33750","Snowdepth":"2.000","Units":"in","Rept_Date":"2019-11-12 00"},"coordinates":[2032,4141]},{"type":"Point","properties":{"Station_ID":"MROI4","Station_Nam":"IOWA RIVER","Latitude":"41.79670","Longitude":"-92.07060","Snowdepth":"2.000","Units":"in","Rept_Date":"2019-11-11 13"},"coordinates":[1323,3225]},{"type":"Point","properties":{"Station_ID":"MRBW3","Station_Nam":"MT HOREB","Latitude":"42.98030","Longitude":"-89.73940","Snowdepth":"2.000","Units":"in","Rept_Date":"2019-11-11 13"},"coordinates":[1928,4033]},{"type":"Point","properties":{"Station_ID":"MRAM4","Station_Nam":"MORAN","Latitude":"45.99030","Longitude":"-84.83610","Snowdepth":"2.000","Units":"in","Rept_Date":"2019-11-11 13"},"coordinates":[3199,6086]},{"type":"Point","properties":{"Station_ID":"MPTI4","Station_Nam":"NO.2","Latitude":"42.16670","Longitude":"-95.78330","Snowdepth":"2.000","Units":"in","Rept_Date":"2019-11-11 13"},"coordinates":[360,3478]},{"type":"Point","properties":{"Station_ID":"MONW3","Station_Nam":"MONROE,WI","Latitude":"42.60000","Longitude":"-89.66670","Snowdepth":"2.000","Units":"in","Rept_Date":"2019-11-11 13"},"coordinates":[1946,3773]},{"type":"Point","properties":{"Station_ID":"MN-SL-108","Station_Nam":"IRON JUNCTION 3.4 NNW, MN","Latitude":"47.46150","Longitude":"-92.63130","Snowdepth":"2.000","Units":"in","Rept_Date":"2019-11-11 14"},"coordinates":[1178,7089]},{"type":"Point","properties":{"Station_ID":"MLI","Station_Nam":"QUAD CITY INTL","Latitude":"41.44860","Longitude":"-90.50750","Snowdepth":"2.000","Units":"in","Rept_Date":"2019-11-12 00"},"coordinates":[1728,2988]},{"type":"Point","properties":{"Station_ID":"MI-VB-4","Station_Nam":"PAW PAW 3.6 NNE, MI","Latitude":"42.26582","Longitude":"-85.86190","Snowdepth":"2.000","Units":"in","Rept_Date":"2019-11-11 12"},"coordinates":[2933,3545]},{"type":"Point","properties":{"Station_ID":"MI-SW-5","Station_Nam":"DURAND 6.2 WNW, MI","Latitude":"42.92995","Longitude":"-84.10460","Snowdepth":"2.000","Units":"in","Rept_Date":"2019-11-11 13"},"coordinates":[3389,3998]},{"type":"Point","properties":{"Station_ID":"MI-LV-26","Station_Nam":"FENTON 6.2 WSW, MI","Latitude":"42.76832","Longitude":"-83.82928","Snowdepth":"2.000","Units":"in","Rept_Date":"2019-11-11 13"},"coordinates":[3460,3888]},{"type":"Point","properties":{"Station_ID":"MI-KZ-1","Station_Nam":"KALAMAZOO 6.0 SW, MI","Latitude":"42.20613","Longitude":"-85.65900","Snowdepth":"2.000","Units":"in","Rept_Date":"2019-11-11 13"},"coordinates":[2986,3505]},{"type":"Point","properties":{"Station_ID":"MI-KN-7","Station_Nam":"EAST GRAND RAPIDS 0.7 SSW, MI","Latitude":"42.93801","Longitude":"-85.61340","Snowdepth":"2.000","Units":"in","Rept_Date":"2019-11-11 12"},"coordinates":[2998,4004]},{"type":"Point","properties":{"Station_ID":"MI-KN-32","Station_Nam":"GRAND RAPIDS 2.9 NW, MI","Latitude":"42.99191","Longitude":"-85.69440","Snowdepth":"2.000","Units":"in","Rept_Date":"2019-11-11 14"},"coordinates":[2977,4041]},{"type":"Point","properties":{"Station_ID":"MI-DL-1","Station_Nam":"GARDEN CORNERS 0.8 NW, MI","Latitude":"45.89815","Longitude":"-86.54850","Snowdepth":"2.000","Units":"in","Rept_Date":"2019-11-11 13"},"coordinates":[2755,6023]},{"type":"Point","properties":{"Station_ID":"MI-CF-9","Station_Nam":"GRAYLING 15.8 NE, MI","Latitude":"44.80464","Longitude":"-84.46313","Snowdepth":"2.000","Units":"in","Rept_Date":"2019-11-11 11"},"coordinates":[3296,5277]},{"type":"Point","properties":{"Station_ID":"MHRI4","Station_Nam":"MANCHESTER #2","Latitude":"42.47320","Longitude":"-91.45160","Snowdepth":"2.000","Units":"in","Rept_Date":"2019-11-11 13"},"coordinates":[1483,3687]},{"type":"Point","properties":{"Station_ID":"MDWI2","Station_Nam":"BURBANK,IL","Latitude":"41.73330","Longitude":"-87.76670","Snowdepth":"2.000","Units":"in","Rept_Date":"2019-11-12 06"},"coordinates":[2439,3182]},{"type":"Point","properties":{"Station_ID":"MDDW3","Station_Nam":"MIDDLETON,WI","Latitude":"43.09060","Longitude":"-89.51470","Snowdepth":"2.000","Units":"in","Rept_Date":"2019-11-11 13"},"coordinates":[1986,4108]},{"type":"Point","properties":{"Station_ID":"MARM4","Station_Nam":"MARSHALL,MI","Latitude":"42.26670","Longitude":"-84.96670","Snowdepth":"2.000","Units":"in","Rept_Date":"2019-11-11 13"},"coordinates":[3165,3546]},{"type":"Point","properties":{"Station_ID":"LSXI4","Station_Nam":"LITTLE SIOUX,IA","Latitude":"41.81670","Longitude":"-96.01670","Snowdepth":"2.000","Units":"in","Rept_Date":"2019-11-11 13"},"coordinates":[299,3239]},{"type":"Point","properties":{"Station_ID":"LSX","Station_Nam":"ST LOUIS, MO","Latitude":"38.69890","Longitude":"-90.68280","Snowdepth":"2.000","Units":"in","Rept_Date":"2019-11-12 00"},"coordinates":[1683,1112]},{"type":"Point","properties":{"Station_ID":"LOOW3","Station_Nam":"WATERLOO","Latitude":"43.18830","Longitude":"-88.98440","Snowdepth":"2.000","Units":"in","Rept_Date":"2019-11-11 14"},"coordinates":[2123,4175]},{"type":"Point","properties":{"Station_ID":"LOGI4","Station_Nam":"LOGAN,IA","Latitude":"41.63330","Longitude":"-95.81670","Snowdepth":"2.000","Units":"in","Rept_Date":"2019-11-11 13"},"coordinates":[351,3114]},{"type":"Point","properties":{"Station_ID":"LNSI2","Station_Nam":"LANSING","Latitude":"41.54220","Longitude":"-87.54170","Snowdepth":"2.000","Units":"in","Rept_Date":"2019-11-11 13"},"coordinates":[2498,3052]},{"type":"Point","properties":{"Station_ID":"LKZI2","Station_Nam":"LAKE ZURICH","Latitude":"42.19250","Longitude":"-88.06530","Snowdepth":"2.000","Units":"in","Rept_Date":"2019-11-11 13"},"coordinates":[2362,3495]},{"type":"Point","properties":{"Station_ID":"LKFM5","Station_Nam":"LAKEFIELD,MN","Latitude":"43.68330","Longitude":"-95.18330","Snowdepth":"2.000","Units":"in","Rept_Date":"2019-11-11 13"},"coordinates":[516,4512]},{"type":"Point","properties":{"Station_ID":"LEXM4","Station_Nam":"LEXINGTON WATER PLANT","Latitude":"43.26310","Longitude":"-82.53280","Snowdepth":"2.000","Units":"in","Rept_Date":"2019-11-11 12"},"coordinates":[3797,4226]},{"type":"Point","properties":{"Station_ID":"LEX","Station_Nam":"LEXINGTON BLUE GRASS AIRPORT","Latitude":"38.03690","Longitude":"-84.60560","Snowdepth":"2.000","Units":"in","Rept_Date":"2019-11-12 05"},"coordinates":[3259,661]},{"type":"Point","properties":{"Station_ID":"KSTL","Station_Nam":"LAMBERT-ST LOUIS INTERNATIONAL  AIRPORT","Latitude":"38.75000","Longitude":"-90.36666","Snowdepth":"2.000","Units":"in","Rept_Date":"2019-11-12 06"},"coordinates":[1765,1147]},{"type":"Point","properties":{"Station_ID":"KSLI4","Station_Nam":"KESLEY","Latitude":"42.66110","Longitude":"-92.90830","Snowdepth":"2.000","Units":"in","Rept_Date":"2019-11-11 13"},"coordinates":[1106,3815]},{"type":"Point","properties":{"Station_ID":"KSEM4","Station_Nam":"KALKASKA 11SE","Latitude":"44.58970","Longitude":"-85.04860","Snowdepth":"2.000","Units":"in","Rept_Date":"2019-11-11 13"},"coordinates":[3144,5131]},{"type":"Point","properties":{"Station_ID":"KMSN","Station_Nam":"MADISON DANE COUNTY RGNL","Latitude":"43.13333","Longitude":"-89.35000","Snowdepth":"2.000","Units":"in","Rept_Date":"2019-11-12 05"},"coordinates":[2029,4137]},{"type":"Point","properties":{"Station_ID":"KMDW","Station_Nam":"CHICAGO MIDWAY AIRPORT","Latitude":"41.78333","Longitude":"-87.75000","Snowdepth":"2.000","Units":"in","Rept_Date":"2019-11-12 06"},"coordinates":[2444,3216]},{"type":"Point","properties":{"Station_ID":"KIND","Station_Nam":"INDIANAPOLIS INTERNATIONAL  AIRPORT","Latitude":"39.71666","Longitude":"-86.28333","Snowdepth":"2.000","Units":"in","Rept_Date":"2019-11-12 00"},"coordinates":[2824,1807]},{"type":"Point","properties":{"Station_ID":"KGUS","Station_Nam":"GRISSOM AIR FORCE BASE / PERU","Latitude":"40.65000","Longitude":"-86.15000","Snowdepth":"2.000","Units":"in","Rept_Date":"2019-11-12 00"},"coordinates":[2858,2443]},{"type":"Point","properties":{"Station_ID":"KENW3","Station_Nam":"WATER POLLUTION CONTROL PLANT","Latitude":"42.55000","Longitude":"-87.81420","Snowdepth":"2.000","Units":"in","Rept_Date":"2019-11-12 06"},"coordinates":[2427,3739]},{"type":"Point","properties":{"Station_ID":"KDSM","Station_Nam":"DES MOINES INTERNATIONAL","Latitude":"41.53333","Longitude":"-93.66666","Snowdepth":"2.000","Units":"in","Rept_Date":"2019-11-12 00"},"coordinates":[909,3046]},{"type":"Point","properties":{"Station_ID":"KDAY","Station_Nam":"COX DAYTON INTERNATIONAL","Latitude":"39.90000","Longitude":"-84.21666","Snowdepth":"2.000","Units":"in","Rept_Date":"2019-11-12 06"},"coordinates":[3360,1932]},{"type":"Point","properties":{"Station_ID":"KCMH","Station_Nam":"PORT COLUMBUS INTERNATIONAL  AIRPORT","Latitude":"40.00000","Longitude":"-82.88333","Snowdepth":"2.000","Units":"in","Rept_Date":"2019-11-12 06"},"coordinates":[3706,2000]},{"type":"Point","properties":{"Station_ID":"KBTV","Station_Nam":"BURLINGTON INTERNATIONAL","Latitude":"44.46666","Longitude":"-73.15000","Snowdepth":"2.000","Units":"in","Rept_Date":"2019-11-12 00"},"coordinates":[6230,5047]},{"type":"Point","properties":{"Station_ID":"KBGR","Station_Nam":"BANGOR INTL AIRPORT","Latitude":"44.80000","Longitude":"-68.81666","Snowdepth":"2.000","Units":"in","Rept_Date":"2019-11-12 06"},"coordinates":[7354,5274]},{"type":"Point","properties":{"Station_ID":"JFFI4","Station_Nam":"JEFFERSON,IA","Latitude":"42.01440","Longitude":"-94.37970","Snowdepth":"2.000","Units":"in","Rept_Date":"2019-11-11 10"},"coordinates":[724,3374]},{"type":"Point","properties":{"Station_ID":"JEFV1","Station_Nam":"JEFFERSONVILLE","Latitude":"44.58430","Longitude":"-72.78700","Snowdepth":"2.000","Units":"in","Rept_Date":"2019-11-11 12"},"coordinates":[6324,5127]},{"type":"Point","properties":{"Station_ID":"INL","Station_Nam":"FALLS INTERNATIONAL ARPT","Latitude":"48.56640","Longitude":"-93.40310","Snowdepth":"2.000","Units":"in","Rept_Date":"2019-11-12 00"},"coordinates":[977,7843]},{"type":"Point","properties":{"Station_ID":"IND","Station_Nam":"INDIANAPOLIS, IN","Latitude":"39.71720","Longitude":"-86.29420","Snowdepth":"2.000","Units":"in","Rept_Date":"2019-11-12 00"},"coordinates":[2821,1807]},{"type":"Point","properties":{"Station_ID":"ILX","Station_Nam":"CENTRAL ILLINOIS, IL","Latitude":"40.15060","Longitude":"-89.33830","Snowdepth":"2.000","Units":"in","Rept_Date":"2019-11-12 06"},"coordinates":[2032,2103]},{"type":"Point","properties":{"Station_ID":"IL-RI-13","Station_Nam":"MOLINE 0.7 NNE, IL","Latitude":"41.49455","Longitude":"-90.48410","Snowdepth":"2.000","Units":"in","Rept_Date":"2019-11-11 13"},"coordinates":[1734,3019]},{"type":"Point","properties":{"Station_ID":"IL-MCD-8","Station_Nam":"MACOMB 0.4 SSW, IL","Latitude":"40.46479","Longitude":"-90.68400","Snowdepth":"2.000","Units":"in","Rept_Date":"2019-11-11 21"},"coordinates":[1683,2317]},{"type":"Point","properties":{"Station_ID":"IL-KN-62","Station_Nam":"BATAVIA 1.3 WNW, IL","Latitude":"41.85917","Longitude":"-88.32210","Snowdepth":"2.000","Units":"in","Rept_Date":"2019-11-11 13"},"coordinates":[2295,3268]},{"type":"Point","properties":{"Station_ID":"IL-KN-5","Station_Nam":"BATAVIA 0.7 WSW, IL","Latitude":"41.84815","Longitude":"-88.31440","Snowdepth":"2.000","Units":"in","Rept_Date":"2019-11-11 12"},"coordinates":[2297,3260]},{"type":"Point","properties":{"Station_ID":"IL-KN-30","Station_Nam":"ELBURN 0.4 NW, IL","Latitude":"41.89417","Longitude":"-88.47860","Snowdepth":"2.000","Units":"in","Rept_Date":"2019-11-11 12"},"coordinates":[2255,3292]},{"type":"Point","properties":{"Station_ID":"IL-DP-38","Station_Nam":"ELMHURST 0.4 SW, IL","Latitude":"41.89346","Longitude":"-87.94850","Snowdepth":"2.000","Units":"in","Rept_Date":"2019-11-11 12"},"coordinates":[2392,3291]},{"type":"Point","properties":{"Station_ID":"IL-DP-127","Station_Nam":"DOWNERS GROVE 0.4 NNE, IL","Latitude":"41.80331","Longitude":"-88.01542","Snowdepth":"2.000","Units":"in","Rept_Date":"2019-11-11 13"},"coordinates":[2375,3230]},{"type":"Point","properties":{"Station_ID":"IL-CK-94","Station_Nam":"LINCOLNWOOD 1.8 E, IL","Latitude":"42.00187","Longitude":"-87.69850","Snowdepth":"2.000","Units":"in","Rept_Date":"2019-11-11 13"},"coordinates":[2457,3365]},{"type":"Point","properties":{"Station_ID":"IL-CK-192","Station_Nam":"PARK RIDGE 0.7 WNW, IL","Latitude":"42.01676","Longitude":"-87.85570","Snowdepth":"2.000","Units":"in","Rept_Date":"2019-11-11 13"},"coordinates":[2416,3375]},{"type":"Point","properties":{"Station_ID":"IL-BU-9","Station_Nam":"LA MOILLE 0.2 NNE, IL","Latitude":"41.53266","Longitude":"-89.27880","Snowdepth":"2.000","Units":"in","Rept_Date":"2019-11-11 19"},"coordinates":[2047,3045]},{"type":"Point","properties":{"Station_ID":"IFSM5","Station_Nam":"INTERNATIONAL FALLS SNOW","Latitude":"48.57780","Longitude":"-93.39640","Snowdepth":"2.000","Units":"in","Rept_Date":"2019-11-12 00"},"coordinates":[979,7851]},{"type":"Point","properties":{"Station_ID":"ICYI4","Station_Nam":"IOWA CITY","Latitude":"41.60930","Longitude":"-91.50510","Snowdepth":"2.000","Units":"in","Rept_Date":"2019-11-11 13"},"coordinates":[1470,3098]},{"type":"Point","properties":{"Station_ID":"IA-WS-7","Station_Nam":"WELLMAN 4.0 E, IA","Latitude":"41.45810","Longitude":"-91.76073","Snowdepth":"2.000","Units":"in","Rept_Date":"2019-11-11 13"},"coordinates":[1403,2994]},{"type":"Point","properties":{"Station_ID":"IA-ST-8","Station_Nam":"BETTENDORF 2.2 SE, IA","Latitude":"41.54013","Longitude":"-90.44920","Snowdepth":"2.000","Units":"in","Rept_Date":"2019-11-11 13"},"coordinates":[1743,3050]},{"type":"Point","properties":{"Station_ID":"IA-ST-30","Station_Nam":"ELDRIDGE 0.7 SSW, IA","Latitude":"41.64465","Longitude":"-90.58706","Snowdepth":"2.000","Units":"in","Rept_Date":"2019-11-11 14"},"coordinates":[1708,3122]},{"type":"Point","properties":{"Station_ID":"IA-JH-9","Station_Nam":"KALONA 7.3 NNW, IA","Latitude":"41.58774","Longitude":"-91.74510","Snowdepth":"2.000","Units":"in","Rept_Date":"2019-11-11 13"},"coordinates":[1407,3083]},{"type":"Point","properties":{"Station_ID":"IA-HR-16","Station_Nam":"LOGAN 0.8 WNW, IA","Latitude":"41.65000","Longitude":"-95.80577","Snowdepth":"2.000","Units":"in","Rept_Date":"2019-11-11 13"},"coordinates":[354,3125]},{"type":"Point","properties":{"Station_ID":"IA-BN-12","Station_Nam":"BOONE 4.5 WSW, IA","Latitude":"42.03152","Longitude":"-93.96190","Snowdepth":"2.000","Units":"in","Rept_Date":"2019-11-11 13"},"coordinates":[832,3386]},{"type":"Point","properties":{"Station_ID":"HUBN3","Station_Nam":"HUBBARD BROOK","Latitude":"43.93330","Longitude":"-71.71670","Snowdepth":"2.000","Units":"in","Rept_Date":"2019-11-12 06"},"coordinates":[6602,4683]},{"type":"Point","properties":{"Station_ID":"HRSM4","Station_Nam":"HARRISVILLE 2NNE","Latitude":"44.68190","Longitude":"-83.28080","Snowdepth":"2.000","Units":"in","Rept_Date":"2019-11-11 13"},"coordinates":[3603,5193]},{"type":"Point","properties":{"Station_ID":"HRFI4","Station_Nam":"HARTFORD,IA","Latitude":"41.46670","Longitude":"-93.41670","Snowdepth":"2.000","Units":"in","Rept_Date":"2019-11-11 14"},"coordinates":[974,3000]},{"type":"Point","properties":{"Station_ID":"HORW3","Station_Nam":"HORICON WWTP","Latitude":"43.45000","Longitude":"-88.63330","Snowdepth":"2.000","Units":"in","Rept_Date":"2019-11-11 13"},"coordinates":[2214,4353]},{"type":"Point","properties":{"Station_ID":"HEBI2","Station_Nam":"HEBRON","Latitude":"42.46750","Longitude":"-88.48060","Snowdepth":"2.000","Units":"in","Rept_Date":"2019-11-11 13"},"coordinates":[2254,3683]},{"type":"Point","properties":{"Station_ID":"HARW3","Station_Nam":"HARTFORD,WI","Latitude":"43.31670","Longitude":"-88.40000","Snowdepth":"2.000","Units":"in","Rept_Date":"2019-11-11 12"},"coordinates":[2275,4262]},{"type":"Point","properties":{"Station_ID":"GTHI4","Station_Nam":"GUTHRIE CENTER,IA","Latitude":"41.68330","Longitude":"-94.50000","Snowdepth":"2.000","Units":"in","Rept_Date":"2019-11-11 14"},"coordinates":[693,3148]},{"type":"Point","properties":{"Station_ID":"GRWI4","Station_Nam":"GARWIN,IA","Latitude":"42.10000","Longitude":"-92.66670","Snowdepth":"2.000","Units":"in","Rept_Date":"2019-11-11 12"},"coordinates":[1168,3432]},{"type":"Point","properties":{"Station_ID":"GRMI4","Station_Nam":"BEAVER CK","Latitude":"41.68330","Longitude":"-93.73330","Snowdepth":"2.000","Units":"in","Rept_Date":"2019-11-11 13"},"coordinates":[892,3148]},{"type":"Point","properties":{"Station_ID":"GMDM5","Station_Nam":"GRAND MEADOW","Latitude":"43.70740","Longitude":"-92.56440","Snowdepth":"2.000","Units":"in","Rept_Date":"2019-11-11 12"},"coordinates":[1195,4529]},{"type":"Point","properties":{"Station_ID":"GINI2","Station_Nam":"GENESEO","Latitude":"41.45110","Longitude":"-90.14870","Snowdepth":"2.000","Units":"in","Rept_Date":"2019-11-12 06"},"coordinates":[1821,2990]},{"type":"Point","properties":{"Station_ID":"GDLM4","Station_Nam":"GRAND LEDGE,MI","Latitude":"42.76670","Longitude":"-84.76670","Snowdepth":"2.000","Units":"in","Rept_Date":"2019-11-11 12"},"coordinates":[3217,3887]},