{"type":"Topology","objects":{"snowdepth_geo":{"type":"GeometryCollection","name":"snowdepth","crs":{"type":"name","properties":{"name":"urn:ogc:def:crs:OGC:1.3:CRS84"}},"geometries":[{"type":"Point","properties":{"Station_ID":"PRKM4","Station_Nam":"MUNISING EAST","Latitude":"46.42580","Longitude":"-86.62000","Snowdepth":"76.500","Units":"in","Rept_Date":"2020-04-10 06"},"coordinates":[2393,4687]},{"type":"Point","properties":{"Station_ID":"HTLN3","Station_Nam":"HERMIT LAKE SNOWPLOT","Latitude":"44.26130","Longitude":"-71.28330","Snowdepth":"62.000","Units":"in","Rept_Date":"2020-04-09 09"},"coordinates":[5912,2447]},{"type":"Point","properties":{"Station_ID":"OGIQ6","Station_Nam":"OGOKI CAMP","Latitude":"50.76680","Longitude":"-87.85820","Snowdepth":"61.100","Units":"in","Rept_Date":"2020-04-10 06"},"coordinates":[2109,9180]},{"type":"Point","properties":{"Station_ID":"AUDQ6","Station_Nam":"AUDEN","Latitude":"48.52600","Longitude":"-82.57570","Snowdepth":"47.640","Units":"in","Rept_Date":"2020-04-10 06"},"coordinates":[3321,6861]},{"type":"Point","properties":{"Station_ID":"DVLQ6","Station_Nam":"DEVIOUS LAKE","Latitude":"49.19890","Longitude":"-87.76440","Snowdepth":"43.460","Units":"in","Rept_Date":"2020-04-10 06"},"coordinates":[2130,7557]},{"type":"Point","properties":{"Station_ID":"CLUM4","Station_Nam":"CALUMET-TAMARACK","Latitude":"47.24550","Longitude":"-88.46790","Snowdepth":"34.000","Units":"in","Rept_Date":"2020-04-09 13"},"coordinates":[1969,5536]},{"type":"Point","properties":{"Station_ID":"PDLM4","Station_Nam":"PAINESDALE","Latitude":"47.04160","Longitude":"-88.67170","Snowdepth":"27.000","Units":"in","Rept_Date":"2020-04-09 12"},"coordinates":[1922,5325]},{"type":"Point","properties":{"Station_ID":"CAN-NL-82","Station_Nam":"GANDER 2.7 NW, CAN","Latitude":"48.97737","Longitude":"-54.63396","Snowdepth":"26.400","Units":"in","Rept_Date":"2020-04-09 10"},"coordinates":[9732,7328]},{"type":"Point","properties":{"Station_ID":"KMWN","Station_Nam":"MOUNT WASHINGTON","Latitude":"44.26666","Longitude":"-71.30000","Snowdepth":"22.000","Units":"in","Rept_Date":"2020-04-10 06"},"coordinates":[5908,2453]},{"type":"Point","properties":{"Station_ID":"MNSM4","Station_Nam":"MUNISING","Latitude":"46.41210","Longitude":"-86.66250","Snowdepth":"21.000","Units":"in","Rept_Date":"2020-04-09 10"},"coordinates":[2383,4673]},{"type":"Point","properties":{"Station_ID":"CAN-NB-13","Station_Nam":"BATHURST 3.8 NW, CAN","Latitude":"47.64212","Longitude":"-65.68756","Snowdepth":"21.000","Units":"in","Rept_Date":"2020-04-09 09"},"coordinates":[7196,5946]},{"type":"Point","properties":{"Station_ID":"WLFM5","Station_Nam":"WOLF RIDGE ENVIRON LEARNING CENTER","Latitude":"47.38240","Longitude":"-91.19730","Snowdepth":"20.000","Units":"in","Rept_Date":"2020-04-09 12"},"coordinates":[1342,5677]},{"type":"Point","properties":{"Station_ID":"ME-AR-18","Station_Nam":"NEW SWEDEN 4.9 NNW, ME","Latitude":"47.01080","Longitude":"-68.14390","Snowdepth":"17.000","Units":"in","Rept_Date":"2020-04-09 12"},"coordinates":[6632,5293]},{"type":"Point","properties":{"Station_ID":"PTLQ6","Station_Nam":"PORTAGE LAKE","Latitude":"49.06950","Longitude":"-86.65940","Snowdepth":"16.100","Units":"in","Rept_Date":"2020-04-10 06"},"coordinates":[2384,7423]},{"type":"Point","properties":{"Station_ID":"QNCM4","Station_Nam":"QUINCY HILL","Latitude":"47.13640","Longitude":"-88.57950","Snowdepth":"16.000","Units":"in","Rept_Date":"2020-04-09 11"},"coordinates":[1943,5423]},{"type":"Point","properties":{"Station_ID":"KSGM4","Station_Nam":"KEARSARGE","Latitude":"47.27520","Longitude":"-88.41700","Snowdepth":"16.000","Units":"in","Rept_Date":"2020-04-09 12"},"coordinates":[1980,5566]},{"type":"Point","properties":{"Station_ID":"TRIQ6","Station_Nam":"TRIO LAKE","Latitude":"49.22880","Longitude":"-87.22920","Snowdepth":"15.160","Units":"in","Rept_Date":"2020-04-10 06"},"coordinates":[2253,7588]},{"type":"Point","properties":{"Station_ID":"HERM4","Station_Nam":"HERMAN,MI","Latitude":"46.65000","Longitude":"-88.33330","Snowdepth":"15.000","Units":"in","Rept_Date":"2020-04-09 12"},"coordinates":[2000,4919]},{"type":"Point","properties":{"Station_ID":"CAN-NB-11","Station_Nam":"MIRAMICHI 3.3 S, CAN","Latitude":"46.99343","Longitude":"-65.50690","Snowdepth":"15.000","Units":"in","Rept_Date":"2020-04-09 12"},"coordinates":[7237,5275]},{"type":"Point","properties":{"Station_ID":"MI-MQ-25","Station_Nam":"ISHPEMING 6.3 NW, MI","Latitude":"46.54140","Longitude":"-87.77153","Snowdepth":"14.000","Units":"in","Rept_Date":"2020-04-09 13"},"coordinates":[2129,4807]},{"type":"Point","properties":{"Station_ID":"FISM1","Station_Nam":"FORT KENT COOP","Latitude":"47.23850","Longitude":"-68.61240","Snowdepth":"14.000","Units":"in","Rept_Date":"2020-04-09 11"},"coordinates":[6525,5528]},{"type":"Point","properties":{"Station_ID":"SVBQ6","Station_Nam":"SAVANT BASE","Latitude":"50.28730","Longitude":"-90.65670","Snowdepth":"13.190","Units":"in","Rept_Date":"2020-04-10 06"},"coordinates":[1466,8684]},{"type":"Point","properties":{"Station_ID":"MQT","Station_Nam":"MARQUETTE, MI","Latitude":"46.53140","Longitude":"-87.54920","Snowdepth":"13.000","Units":"in","Rept_Date":"2020-04-10 06"},"coordinates":[2180,4797]},{"type":"Point","properties":{"Station_ID":"IBLM5","Station_Nam":"ISABELLA 14W","Latitude":"47.59360","Longitude":"-91.65140","Snowdepth":"13.000","Units":"in","Rept_Date":"2020-04-09 14"},"coordinates":[1238,5896]},{"type":"Point","properties":{"Station_ID":"CAN-NB-96","Station_Nam":"SAINT-IGNACE 2.6 NE, CAN","Latitude":"46.71424","Longitude":"-65.05609","Snowdepth":"12.600","Units":"in","Rept_Date":"2020-04-09 11"},"coordinates":[7341,4986]},{"type":"Point","properties":{"Station_ID":"MI-BG-3","Station_Nam":"L'ANSE 17.8 SE, MI","Latitude":"46.55730","Longitude":"-88.20770","Snowdepth":"12.500","Units":"in","Rept_Date":"2020-04-09 13"},"coordinates":[2028,4823]},{"type":"Point","properties":{"Station_ID":"CAN-QC-47","Station_Nam":"SAINTE-FOY 1.8 ENE, CAN","Latitude":"46.76934","Longitude":"-71.27124","Snowdepth":"12.200","Units":"in","Rept_Date":"2020-04-09 12"},"coordinates":[5915,5043]},{"type":"Point","properties":{"Station_ID":"NH-CS-10","Station_Nam":"RANDOLPH 1.4 NE, NH","Latitude":"44.38824","Longitude":"-71.26950","Snowdepth":"12.000","Units":"in","Rept_Date":"2020-04-09 12"},"coordinates":[5915,2579]},{"type":"Point","properties":{"Station_ID":"BRAM1","Station_Nam":"BRASSUA DAM","Latitude":"45.66020","Longitude":"-69.81190","Snowdepth":"12.000","Units":"in","Rept_Date":"2020-04-09 11"},"coordinates":[6250,3895]},{"type":"Point","properties":{"Station_ID":"STEM4","Station_Nam":"STEUBEN","Latitude":"46.18530","Longitude":"-86.46410","Snowdepth":"11.000","Units":"in","Rept_Date":"2020-04-09 13"},"coordinates":[2429,4438]},{"type":"Point","properties":{"Station_ID":"MWN","Station_Nam":"MOUNT WASHINGTON","Latitude":"44.26670","Longitude":"-71.30000","Snowdepth":"11.000","Units":"in","Rept_Date":"2020-04-09 12"},"coordinates":[5908,2453]},{"type":"Point","properties":{"Station_ID":"RGNM1","Station_Nam":"RANGELEY 2NW","Latitude":"44.98940","Longitude":"-70.67220","Snowdepth":"10.000","Units":"in","Rept_Date":"2020-04-09 10"},"coordinates":[6052,3201]},{"type":"Point","properties":{"Station_ID":"ME-FR-2","Station_Nam":"TEMPLE 1.8 W, ME","Latitude":"44.68329","Longitude":"-70.26420","Snowdepth":"10.000","Units":"in","Rept_Date":"2020-04-09 11"},"coordinates":[6146,2884]},{"type":"Point","properties":{"Station_ID":"RKWM1","Station_Nam":"MOOSEHEAD LAKE","Latitude":"45.58330","Longitude":"-69.71670","Snowdepth":"9.000","Units":"in","Rept_Date":"2020-04-09 11"},"coordinates":[6271,3815]},{"type":"Point","properties":{"Station_ID":"CARM1","Station_Nam":"CARIBOU WFO","Latitude":"46.86810","Longitude":"-68.01250","Snowdepth":"9.000","Units":"in","Rept_Date":"2020-04-10 04"},"coordinates":[6663,5145]},{"type":"Point","properties":{"Station_ID":"PRDM4","Station_Nam":"PARADISE","Latitude":"46.60380","Longitude":"-85.03960","Snowdepth":"8.000","Units":"in","Rept_Date":"2020-04-09 10"},"coordinates":[2755,4872]},{"type":"Point","properties":{"Station_ID":"CAR","Station_Nam":"CARIBOU, ME","Latitude":"46.86830","Longitude":"-68.01360","Snowdepth":"8.000","Units":"in","Rept_Date":"2020-04-09 12"},"coordinates":[6662,5145]},{"type":"Point","properties":{"Station_ID":"CAN-NS-60","Station_Nam":"SYDNEY FORKS, CAN","Latitude":"46.05645","Longitude":"-60.31510","Snowdepth":"8.000","Units":"in","Rept_Date":"2020-04-09 12"},"coordinates":[8429,4305]},{"type":"Point","properties":{"Station_ID":"MN-CK-18","Station_Nam":"GRAND MARAIS 4.4 WSW, MN","Latitude":"47.74462","Longitude":"-90.43796","Snowdepth":"7.500","Units":"in","Rept_Date":"2020-04-09 13"},"coordinates":[1517,6052]},{"type":"Point","properties":{"Station_ID":"CAN-NB-105","Station_Nam":"SISSON BROOK 3.8 E, CAN","Latitude":"46.98305","Longitude":"-67.32532","Snowdepth":"7.500","Units":"in","Rept_Date":"2020-04-09 12"},"coordinates":[6820,5264]},{"type":"Point","properties":{"Station_ID":"MI-HG-1","Station_Nam":"HOUGHTON 1.6 ESE, MI","Latitude":"47.10774","Longitude":"-88.52940","Snowdepth":"7.000","Units":"in","Rept_Date":"2020-04-09 13"},"coordinates":[1955,5393]},{"type":"Point","properties":{"Station_ID":"CAN-NS-103","Station_Nam":"TRAFALGAR 4.9 WSW, CAN","Latitude":"45.26217","Longitude":"-62.72285","Snowdepth":"7.000","Units":"in","Rept_Date":"2020-04-09 12"},"coordinates":[7876,3483]},{"type":"Point","properties":{"Station_ID":"KABQ6","Station_Nam":"CAB LAKE","Latitude":"49.59950","Longitude":"-89.17990","Snowdepth":"6.380","Units":"in","Rept_Date":"2020-04-10 06"},"coordinates":[1805,7972]},{"type":"Point","properties":{"Station_ID":"WI-IR-3","Station_Nam":"PENCE 0.1 E, WI","Latitude":"46.41555","Longitude":"-90.27013","Snowdepth":"6.000","Units":"in","Rept_Date":"2020-04-09 13"},"coordinates":[1555,4677]},{"type":"Point","properties":{"Station_ID":"VT-CL-3","Station_Nam":"GROTON 4.4 WSW, VT","Latitude":"44.19440","Longitude":"-72.28240","Snowdepth":"6.000","Units":"in","Rept_Date":"2020-04-09 11"},"coordinates":[5683,2378]},{"type":"Point","properties":{"Station_ID":"VANM1","Station_Nam":"VAN BUREN","Latitude":"47.16600","Longitude":"-67.93900","Snowdepth":"6.000","Units":"in","Rept_Date":"2020-04-09 11"},"coordinates":[6679,5453]},{"type":"Point","properties":{"Station_ID":"GHMN3","Station_Nam":"PINKHAM NOTCH","Latitude":"44.25800","Longitude":"-71.25250","Snowdepth":"6.000","Units":"in","Rept_Date":"2020-04-09 10"},"coordinates":[5919,2444]},{"type":"Point","properties":{"Station_ID":"BGRM1","Station_Nam":"BANGOR FSS","Latitude":"44.80440","Longitude":"-68.81330","Snowdepth":"6.000","Units":"in","Rept_Date":"2020-04-10 06"},"coordinates":[6479,3009]},{"type":"Point","properties":{"Station_ID":"FTHQ6","Station_Nam":"FORT HOPE","Latitude":"51.55820","Longitude":"-87.90510","Snowdepth":"5.980","Units":"in","Rept_Date":"2020-04-09 12"},"coordinates":[2098,9999]},{"type":"Point","properties":{"Station_ID":"SOCQ6","Station_Nam":"SOCKET LAKE","Latitude":"50.77870","Longitude":"-91.79300","Snowdepth":"5.310","Units":"in","Rept_Date":"2020-04-10 06"},"coordinates":[1206,9192]},{"type":"Point","properties":{"Station_ID":"RANM1","Station_Nam":"RANGELEY","Latitude":"44.98910","Longitude":"-70.67190","Snowdepth":"5.000","Units":"in","Rept_Date":"2020-04-09 10"},"coordinates":[6052,3201]},{"type":"Point","properties":{"Station_ID":"MN-CK-6","Station_Nam":"GRAND MARAIS 4.4 W, MN","Latitude":"47.74865","Longitude":"-90.43760","Snowdepth":"5.000","Units":"in","Rept_Date":"2020-04-09 12"},"coordinates":[1517,6056]},{"type":"Point","properties":{"Station_ID":"ME-AR-15","Station_Nam":"PRESQUE ISLE 1.3 WSW, ME","Latitude":"46.67960","Longitude":"-68.01270","Snowdepth":"5.000","Units":"in","Rept_Date":"2020-04-09 12"},"coordinates":[6662,4950]},{"type":"Point","properties":{"Station_ID":"WI-VL-9","Station_Nam":"LAND O' LAKES 11.7 W, WI","Latitude":"46.19023","Longitude":"-89.45790","Snowdepth":"4.000","Units":"in","Rept_Date":"2020-04-09 13"},"coordinates":[1742,4444]},{"type":"Point","properties":{"Station_ID":"WI-VL-10","Station_Nam":"LAND O LAKES 4.3 WNW, WI","Latitude":"46.17440","Longitude":"-89.30380","Snowdepth":"4.000","Units":"in","Rept_Date":"2020-04-09 13"},"coordinates":[1777,4427]},{"type":"Point","properties":{"Station_ID":"ROBM1","Station_Nam":"ROBBINSTON","Latitude":"45.08520","Longitude":"-67.12050","Snowdepth":"4.000","Units":"in","Rept_Date":"2020-04-10 04"},"coordinates":[6867,3300]},{"type":"Point","properties":{"Station_ID":"MN-SL-15","Station_Nam":"CHISHOLM 0.4 WSW, MN","Latitude":"47.48557","Longitude":"-92.88690","Snowdepth":"4.000","Units":"in","Rept_Date":"2020-04-09 14"},"coordinates":[955,5784]},{"type":"Point","properties":{"Station_ID":"LNOW3","Station_Nam":"LAND O LAKES","Latitude":"46.19000","Longitude":"-89.45700","Snowdepth":"4.000","Units":"in","Rept_Date":"2020-04-09 12"},"coordinates":[1742,4443]},{"type":"Point","properties":{"Station_ID":"BNDM5","Station_Nam":"ELY 25E","Latitude":"47.97190","Longitude":"-91.44860","Snowdepth":"4.000","Units":"in","Rept_Date":"2020-04-09 12"},"coordinates":[1285,6287]},{"type":"Point","properties":{"Station_ID":"HPN04_MADIS","Station_Nam":"HANOVER","Latitude":"45.16770","Longitude":"-93.63430","Snowdepth":"3.430","Units":"in","Rept_Date":"2020-04-10 06"},"coordinates":[783,3385]},{"type":"Point","properties":{"Station_ID":"WRPW3","Station_Nam":"WATER PURIFICATION PLANT","Latitude":"44.38800","Longitude":"-89.80550","Snowdepth":"3.000","Units":"in","Rept_Date":"2020-04-09 11"},"coordinates":[1662,2578]},{"type":"Point","properties":{"Station_ID":"LILM1","Station_Nam":"LILLE","Latitude":"47.27770","Longitude":"-68.10520","Snowdepth":"3.000","Units":"in","Rept_Date":"2020-04-09 11"},"coordinates":[6641,5569]},{"type":"Point","properties":{"Station_ID":"KISM4","Station_Nam":"K.I. SAWYER WWTP","Latitude":"46.33410","Longitude":"-87.37790","Snowdepth":"3.000","Units":"in","Rept_Date":"2020-04-09 12"},"coordinates":[2219,4592]},{"type":"Point","properties":{"Station_ID":"CAN-PE-3","Station_Nam":"WELLINGTON 1.6 NE, CA","Latitude":"46.46672","Longitude":"-63.98920","Snowdepth":"3.000","Units":"in","Rept_Date":"2020-04-09 11"},"coordinates":[7586,4730]},{"type":"Point","properties":{"Station_ID":"CAN-PE-7","Station_Nam":"MORELL 1.4 NNW, CA","Latitude":"46.42741","Longitude":"-62.70870","Snowdepth":"2.400","Units":"in","Rept_Date":"2020-04-09 12"},"coordinates":[7880,4689]},{"type":"Point","properties":{"Station_ID":"WTNM4","Station_Nam":"WATTON 2WSW","Latitude":"46.52660","Longitude":"-88.64240","Snowdepth":"2.000","Units":"in","Rept_Date":"2020-04-09 12"},"coordinates":[1929,4792]},{"type":"Point","properties":{"Station_ID":"WI-ON-8","Station_Nam":"HAZELHURST 2.1 SSE, WI","Latitude":"45.78186","Longitude":"-89.70330","Snowdepth":"2.000","Units":"in","Rept_Date":"2020-04-09 13"},"coordinates":[1685,4021]},{"type":"Point","properties":{"Station_ID":"RLWM5","Station_Nam":"CAMP NORRIS DNR","Latitude":"48.61000","Longitude":"-95.18170","Snowdepth":"2.000","Units":"in","Rept_Date":"2020-04-09 12"},"coordinates":[428,6948]},{"type":"Point","properties":{"Station_ID":"NH-CR-15","Station_Nam":"JACKSON 3.7 NW, NH","Latitude":"44.19069","Longitude":"-71.22598","Snowdepth":"2.000","Units":"in","Rept_Date":"2020-04-09 12"},"coordinates":[5925,2374]},{"type":"Point","properties":{"Station_ID":"MI-MQ-19","Station_Nam":"ISHPEMING 7.2 SW, MI","Latitude":"46.40550","Longitude":"-87.75670","Snowdepth":"2.000","Units":"in","Rept_Date":"2020-04-09 11"},"coordinates":[2132,4666]},{"type":"Point","properties":{"Station_ID":"LVDW3","Station_Nam":"LAC VIEUX DESERT","Latitude":"46.12110","Longitude":"-89.07580","Snowdepth":"2.000","Units":"in","Rept_Date":"2020-04-09 14"},"coordinates":[1829,4372]},{"type":"Point","properties":{"Station_ID":"KBGR","Station_Nam":"BANGOR INTL AIRPORT","Latitude":"44.80000","Longitude":"-68.81666","Snowdepth":"2.000","Units":"in","Rept_Date":"2020-04-10 00"},"coordinates":[6478,3005]},{"type":"Point","properties":{"Station_ID":"COTM5","Station_Nam":"COTTON","Latitude":"47.16870","Longitude":"-92.46290","Snowdepth":"2.000","Units":"in","Rept_Date":"2020-04-09 12"},"coordinates":[1052,5456]},{"type":"Point","properties":{"Station_ID":"COKM5","Station_Nam":"COOK","Latitude":"47.85060","Longitude":"-92.69250","Snowdepth":"2.000","Units":"in","Rept_Date":"2020-04-09 11"},"coordinates":[999,6162]},{"type":"Point","properties":{"Station_ID":"CAN-NS-163","Station_Nam":"SYDNEY MINES 2.2 WNW, CAN","Latitude":"46.24851","Longitude":"-60.25161","Snowdepth":"2.000","Units":"in","Rept_Date":"2020-04-09 12"},"coordinates":[8443,4504]},{"type":"Point","properties":{"Station_ID":"CAN-NL-63","Station_Nam":"MOUNT CARMEL 0.1 NE, CA","Latitude":"47.15562","Longitude":"-53.47220","Snowdepth":"2.000","Units":"in","Rept_Date":"2020-04-09 10"},"coordinates":[9999,5443]},{"type":"Point","properties":{"Station_ID":"AMAM4","Station_Nam":"AMASA 1W","Latitude":"46.23470","Longitude":"-88.45440","Snowdepth":"2.000","Units":"in","Rept_Date":"2020-04-09 13"},"coordinates":[1972,4490]},{"type":"Point","properties":{"Station_ID":"MN-IT-26","Station_Nam":"GRAND RAPIDS 3.1 ESE, MN","Latitude":"47.20061","Longitude":"-93.48087","Snowdepth":"1.900","Units":"in","Rept_Date":"2020-04-09 13"},"coordinates":[818,5489]},{"type":"Point","properties":{"Station_ID":"WI-BY-22","Station_Nam":"MASON 11.5 WNW, WI","Latitude":"46.50198","Longitude":"-91.28339","Snowdepth":"1.500","Units":"in","Rept_Date":"2020-04-09 14"},"coordinates":[1323,4766]},{"type":"Point","properties":{"Station_ID":"WTRW3","Station_Nam":"WINTER","Latitude":"45.79920","Longitude":"-90.99470","Snowdepth":"1.000","Units":"in","Rept_Date":"2020-04-09 15"},"coordinates":[1389,4039]},{"type":"Point","properties":{"Station_ID":"TOGM5","Station_Nam":"CELINA 2E","Latitude":"47.86630","Longitude":"-93.02660","Snowdepth":"1.000","Units":"in","Rept_Date":"2020-04-09 13"},"coordinates":[923,6178]},{"type":"Point","properties":{"Station_ID":"SRAW3","Station_Nam":"SARONA","Latitude":"45.80250","Longitude":"-91.86700","Snowdepth":"1.000","Units":"in","Rept_Date":"2020-04-09 13"},"coordinates":[1189,4042]},{"type":"Point","properties":{"Station_ID":"PDGM4","Station_Nam":"PAULDING","Latitude":"46.39760","Longitude":"-89.17940","Snowdepth":"1.000","Units":"in","Rept_Date":"2020-04-09 12"},"coordinates":[1805,4658]},{"type":"Point","properties":{"Station_ID":"OTTM5","Station_Nam":"OTTERTAIL,MN","Latitude":"46.41670","Longitude":"-95.56670","Snowdepth":"1.000","Units":"in","Rept_Date":"2020-04-09 12"},"coordinates":[340,4678]},{"type":"Point","properties":{"Station_ID":"NYMM5","Station_Nam":"NEW YORK MILLS","Latitude":"46.50920","Longitude":"-95.37990","Snowdepth":"1.000","Units":"in","Rept_Date":"2020-04-09 12"},"coordinates":[383,4774]},{"type":"Point","properties":{"Station_ID":"ND-CS-1","Station_Nam":"WEST FARGO 3.8 SSE, ND","Latitude":"46.82750","Longitude":"-96.85280","Snowdepth":"1.000","Units":"in","Rept_Date":"2020-04-09 13"},"coordinates":[45,5103]},{"type":"Point","properties":{"Station_ID":"MN7M8EBJ","Station_Nam":"LUTSEN 15.7 NNW","Latitude":"47.85324","Longitude":"-89.92908","Snowdepth":"1.000","Units":"in","Rept_Date":"2020-04-09 13"},"coordinates":[1633,6165]},{"type":"Point","properties":{"Station_ID":"MN-OT-17","Station_Nam":"FERGUS FALLS 6.3 SE, MN","Latitude":"46.21253","Longitude":"-95.99480","Snowdepth":"1.000","Units":"in","Rept_Date":"2020-04-09 13"},"coordinates":[242,4467]},{"type":"Point","properties":{"Station_ID":"MN-IT-7","Station_Nam":"GRAND RAPIDS 6.2 SSW, MN","Latitude":"47.13687","Longitude":"-93.56660","Snowdepth":"1.000","Units":"in","Rept_Date":"2020-04-09 12"},"coordinates":[799,5423]},{"type":"Point","properties":{"Station_ID":"MN-IT-17","Station_Nam":"GRAND RAPIDS 6.1 N, MN","Latitude":"47.31165","Longitude":"-93.55036","Snowdepth":"1.000","Units":"in","Rept_Date":"2020-04-09 13"},"coordinates":[802,5604]},{"type":"Point","properties":{"Station_ID":"MN-IT-10","Station_Nam":"DEER RIVER 3.7 W, MN","Latitude":"47.33564","Longitude":"-93.87514","Snowdepth":"1.000","Units":"in","Rept_Date":"2020-04-09 14"},"coordinates":[728,5629]},{"type":"Point","properties":{"Station_ID":"MN-DS-9","Station_Nam":"ALEXANDRIA 0.5 W, MN","Latitude":"45.87828","Longitude":"-95.38273","Snowdepth":"1.000","Units":"in","Rept_Date":"2020-04-09 12"},"coordinates":[382,4121]},{"type":"Point","properties":{"Station_ID":"MN-BM-15","Station_Nam":"BEMIDJI 7.8 ENE, MN","Latitude":"47.52043","Longitude":"-94.72121","Snowdepth":"1.000","Units":"in","Rept_Date":"2020-04-09 14"},"coordinates":[534,5820]},{"type":"Point","properties":{"Station_ID":"MN-BM-14","Station_Nam":"SOLWAY 2.1 S, MN","Latitude":"47.49069","Longitude":"-95.12177","Snowdepth":"1.000","Units":"in","Rept_Date":"2020-04-09 14"},"coordinates":[442,5789]},{"type":"Point","properties":{"Station_ID":"MN-BK-6","Station_Nam":"LAKE PARK 6.0 S, MN","Latitude":"46.79850","Longitude":"-96.12180","Snowdepth":"1.000","Units":"in","Rept_Date":"2020-04-09 13"},"coordinates":[212,5073]},{"type":"Point","properties":{"Station_ID":"CLKM4","Station_Nam":"CLARKSBURG","Latitude":"46.49910","Longitude":"-87.84500","Snowdepth":"1.000","Units":"in","Rept_Date":"2020-04-09 11"},"coordinates":[2112,4763]},{"type":"Point","properties":{"Station_ID":"CAN-MB-56","Station_Nam":"WINNIPEG 7.6 ENE, CAN","Latitude":"49.93264","Longitude":"-97.04752","Snowdepth":"1.000","Units":"in","Rept_Date":"2020-04-09 14"},"coordinates":[0,8317]},{"type":"Point","properties":{"Station_ID":"BRDM1","Station_Nam":"BRIDGEWATER","Latitude":"46.42870","Longitude":"-67.84370","Snowdepth":"1.000","Units":"in","Rept_Date":"2020-04-09 22"},"coordinates":[6701,4690]},{"type":"Point","properties":{"Station_ID":"BAUM5","Station_Nam":"BAUDETTE,MN","Latitude":"48.71670","Longitude":"-94.61670","Snowdepth":"1.000","Units":"in","Rept_Date":"2020-04-09 20"},"coordinates":[558,7058]},{"type":"Point","properties":{"Station_ID":"APXM4","Station_Nam":"GAYLORD 9SSW","Latitude":"44.90720","Longitude":"-84.71880","Snowdepth":"1.000","Units":"in","Rept_Date":"2020-04-10 06"},"coordinates":[2829,3116]},{"type":"Point","properties":{"Station_ID":"ALXM5","Station_Nam":"ALEXANDRIA","Latitude":"45.87820","Longitude":"-95.38270","Snowdepth":"1.000","Units":"in","Rept_Date":"2020-04-09 12"},"coordinates":[382,4121]},{"type":"Point","properties":{"Station_ID":"41.8966_080.1567","Station_Nam":"2 NW EDINBORO  SNOW SPOTTER (CLE0251)","Latitude":"41.89660","Longitude":"-80.15670","Snowdepth":"1.000","Units":"in","Rept_Date":"2020-04-10 01"},"coordinates":[3876,0]}]}},"arcs":[],"transform":{"scale":[0.004357967796779678,0.0009662566256625663],"translate":[-97.04752,41.8966]}}