{"type":"Topology","objects":{"snowdepth_geo":{"type":"GeometryCollection","name":"snowdepth","crs":{"type":"name","properties":{"name":"urn:ogc:def:crs:OGC:1.3:CRS84"}},"geometries":[{"type":"Point","properties":{"Station_ID":"MMNV1","Station_Nam":"MT. MANSFIELD","Latitude":"44.52480","Longitude":"-72.81540","Snowdepth":"83.000","Units":"in","Rept_Date":"2020-02-29 21"},"coordinates":[5732,5717]},{"type":"Point","properties":{"Station_ID":"PRKM4","Station_Nam":"MUNISING EAST","Latitude":"46.42580","Longitude":"-86.62000","Snowdepth":"76.500","Units":"in","Rept_Date":"2020-03-01 06"},"coordinates":[2492,6847]},{"type":"Point","properties":{"Station_ID":"HTLN3","Station_Nam":"HERMIT LAKE SNOWPLOT","Latitude":"44.26130","Longitude":"-71.28330","Snowdepth":"69.000","Units":"in","Rept_Date":"2020-02-29 10"},"coordinates":[6091,5560]},{"type":"Point","properties":{"Station_ID":"OGIQ6","Station_Nam":"OGOKI CAMP","Latitude":"50.76680","Longitude":"-87.85820","Snowdepth":"61.100","Units":"in","Rept_Date":"2020-03-01 06"},"coordinates":[2201,9428]},{"type":"Point","properties":{"Station_ID":"HVCN3","Station_Nam":"HARVARD CABIN SNOWPLOT","Latitude":"44.26630","Longitude":"-71.27790","Snowdepth":"60.000","Units":"in","Rept_Date":"2020-02-29 10"},"coordinates":[6093,5563]},{"type":"Point","properties":{"Station_ID":"PDLM4","Station_Nam":"PAINESDALE","Latitude":"47.04160","Longitude":"-88.67170","Snowdepth":"50.000","Units":"in","Rept_Date":"2020-02-29 13"},"coordinates":[2011,7213]},{"type":"Point","properties":{"Station_ID":"GMSM4","Station_Nam":"GRAND MARAIS 10S","Latitude":"46.50940","Longitude":"-85.96310","Snowdepth":"50.000","Units":"in","Rept_Date":"2020-02-29 12"},"coordinates":[2646,6897]},{"type":"Point","properties":{"Station_ID":"AUDQ6","Station_Nam":"AUDEN","Latitude":"48.52600","Longitude":"-82.57570","Snowdepth":"47.640","Units":"in","Rept_Date":"2020-03-01 06"},"coordinates":[3441,8096]},{"type":"Point","properties":{"Station_ID":"DVLQ6","Station_Nam":"DEVIOUS LAKE","Latitude":"49.19890","Longitude":"-87.76440","Snowdepth":"43.460","Units":"in","Rept_Date":"2020-03-01 06"},"coordinates":[2223,8496]},{"type":"Point","properties":{"Station_ID":"QWE","Station_Nam":"QWE","Latitude":"47.84610","Longitude":"-73.80670","Snowdepth":"41.535","Units":"in","Rept_Date":"2020-02-29 12"},"coordinates":[5499,7692]},{"type":"Point","properties":{"Station_ID":"QCU","Station_Nam":"QCU","Latitude":"47.82750","Longitude":"-76.59830","Snowdepth":"40.512","Units":"in","Rept_Date":"2020-02-29 12"},"coordinates":[4844,7681]},{"type":"Point","properties":{"Station_ID":"QGO","Station_Nam":"QGO","Latitude":"48.85500","Longitude":"-74.20640","Snowdepth":"40.472","Units":"in","Rept_Date":"2020-02-29 12"},"coordinates":[5405,8292]},{"type":"Point","properties":{"Station_ID":"NWCM4","Station_Nam":"NEWBERRY CITY","Latitude":"46.35720","Longitude":"-85.51780","Snowdepth":"40.000","Units":"in","Rept_Date":"2020-02-29 12"},"coordinates":[2751,6806]},{"type":"Point","properties":{"Station_ID":"CAN-NS-39","Station_Nam":"ST. ANNS 2.8 NW, CA","Latitude":"46.25082","Longitude":"-60.64340","Snowdepth":"40.000","Units":"in","Rept_Date":"2020-02-29 12"},"coordinates":[8589,6743]},{"type":"Point","properties":{"Station_ID":"NH-CS-10","Station_Nam":"RANDOLPH 1.4 NE, NH","Latitude":"44.38824","Longitude":"-71.26950","Snowdepth":"38.000","Units":"in","Rept_Date":"2020-02-29 12"},"coordinates":[6095,5636]},{"type":"Point","properties":{"Station_ID":"KSGM4","Station_Nam":"KEARSARGE","Latitude":"47.27520","Longitude":"-88.41700","Snowdepth":"38.000","Units":"in","Rept_Date":"2020-02-29 13"},"coordinates":[2070,7352]},{"type":"Point","properties":{"Station_ID":"WLFM5","Station_Nam":"WOLF RIDGE ENVIRON LEARNING CENTER","Latitude":"47.38240","Longitude":"-91.19730","Snowdepth":"37.000","Units":"in","Rept_Date":"2020-02-29 13"},"coordinates":[1418,7416]},{"type":"Point","properties":{"Station_ID":"VT-OL-12","Station_Nam":"GREENSBORO 3.9 NNE, VT","Latitude":"44.63100","Longitude":"-72.28000","Snowdepth":"37.000","Units":"in","Rept_Date":"2020-02-29 12"},"coordinates":[5858,5780]},{"type":"Point","properties":{"Station_ID":"QOU","Station_Nam":"QOU","Latitude":"50.79250","Longitude":"-69.67470","Snowdepth":"36.417","Units":"in","Rept_Date":"2020-02-29 12"},"coordinates":[6469,9443]},{"type":"Point","properties":{"Station_ID":"MNSM4","Station_Nam":"MUNISING","Latitude":"46.41210","Longitude":"-86.66250","Snowdepth":"36.000","Units":"in","Rept_Date":"2020-02-29 11"},"coordinates":[2482,6839]},{"type":"Point","properties":{"Station_ID":"QGD","Station_Nam":"QGD","Latitude":"51.11140","Longitude":"-67.13940","Snowdepth":"35.591","Units":"in","Rept_Date":"2020-02-29 12"},"coordinates":[7064,9633]},{"type":"Point","properties":{"Station_ID":"CAN-QC-47","Station_Nam":"SAINTE-FOY 1.8 ENE, CAN","Latitude":"46.76934","Longitude":"-71.27124","Snowdepth":"35.200","Units":"in","Rept_Date":"2020-02-29 12"},"coordinates":[6094,7052]},{"type":"Point","properties":{"Station_ID":"RDFN6","Station_Nam":"REDFIELD 8N","Latitude":"43.64130","Longitude":"-75.88400","Snowdepth":"35.000","Units":"in","Rept_Date":"2020-02-29 12"},"coordinates":[5012,5192]},{"type":"Point","properties":{"Station_ID":"QLB","Station_Nam":"QLB","Latitude":"50.72360","Longitude":"-75.10000","Snowdepth":"34.646","Units":"in","Rept_Date":"2020-02-29 12"},"coordinates":[5196,9403]},{"type":"Point","properties":{"Station_ID":"MLZ","Station_Nam":"MLZ","Latitude":"50.66170","Longitude":"-68.82360","Snowdepth":"34.567","Units":"in","Rept_Date":"2020-02-29 12"},"coordinates":[6669,9366]},{"type":"Point","properties":{"Station_ID":"MQT","Station_Nam":"MARQUETTE, MI","Latitude":"46.53140","Longitude":"-87.54920","Snowdepth":"34.000","Units":"in","Rept_Date":"2020-03-01 06"},"coordinates":[2274,6910]},{"type":"Point","properties":{"Station_ID":"MI-BG-3","Station_Nam":"L'ANSE 17.8 SE, MI","Latitude":"46.55730","Longitude":"-88.20770","Snowdepth":"33.500","Units":"in","Rept_Date":"2020-02-29 13"},"coordinates":[2119,6925]},{"type":"Point","properties":{"Station_ID":"CAN-NL-82","Station_Nam":"GANDER 2.7 NW, CAN","Latitude":"48.97737","Longitude":"-54.63396","Snowdepth":"33.100","Units":"in","Rept_Date":"2020-02-29 10"},"coordinates":[9999,8364]},{"type":"Point","properties":{"Station_ID":"STEM4","Station_Nam":"STEUBEN","Latitude":"46.18530","Longitude":"-86.46410","Snowdepth":"33.000","Units":"in","Rept_Date":"2020-02-29 14"},"coordinates":[2529,6704]},{"type":"Point","properties":{"Station_ID":"ME-AR-18","Station_Nam":"NEW SWEDEN 4.9 NNW, ME","Latitude":"47.01080","Longitude":"-68.14390","Snowdepth":"33.000","Units":"in","Rept_Date":"2020-02-29 12"},"coordinates":[6828,7195]},{"type":"Point","properties":{"Station_ID":"IBLM5","Station_Nam":"ISABELLA 14W","Latitude":"47.59360","Longitude":"-91.65140","Snowdepth":"33.000","Units":"in","Rept_Date":"2020-02-29 15"},"coordinates":[1311,7542]},{"type":"Point","properties":{"Station_ID":"QLM","Station_Nam":"QLM","Latitude":"48.92030","Longitude":"-70.25280","Snowdepth":"32.244","Units":"in","Rept_Date":"2020-02-29 12"},"coordinates":[6333,8330]},{"type":"Point","properties":{"Station_ID":"VT-OL-1","Station_Nam":"WESTFIELD 0.7 WNW, VT","Latitude":"44.89160","Longitude":"-72.44350","Snowdepth":"32.000","Units":"in","Rept_Date":"2020-02-29 12"},"coordinates":[5819,5935]},{"type":"Point","properties":{"Station_ID":"QGA","Station_Nam":"QGA","Latitude":"47.25640","Longitude":"-73.73810","Snowdepth":"31.811","Units":"in","Rept_Date":"2020-02-29 12"},"coordinates":[5515,7341]},{"type":"Point","properties":{"Station_ID":"QFT","Station_Nam":"QFT","Latitude":"50.83280","Longitude":"-74.40390","Snowdepth":"30.669","Units":"in","Rept_Date":"2020-02-29 12"},"coordinates":[5359,9467]},{"type":"Point","properties":{"Station_ID":"CAN-NL-65","Station_Nam":"KIPPENS 0.7 NE, CA","Latitude":"48.55436","Longitude":"-58.61850","Snowdepth":"30.500","Units":"in","Rept_Date":"2020-02-29 12"},"coordinates":[9064,8113]},{"type":"Point","properties":{"Station_ID":"QTV","Station_Nam":"QTV","Latitude":"49.66000","Longitude":"-69.35690","Snowdepth":"30.039","Units":"in","Rept_Date":"2020-02-29 12"},"coordinates":[6544,8770]},{"type":"Point","properties":{"Station_ID":"CAN-NB-11","Station_Nam":"MIRAMICHI 3.3 S, CAN","Latitude":"46.99343","Longitude":"-65.50690","Snowdepth":"29.500","Units":"in","Rept_Date":"2020-02-29 11"},"coordinates":[7447,7185]},{"type":"Point","properties":{"Station_ID":"SUTV1","Station_Nam":"SUTTON","Latitude":"44.61220","Longitude":"-72.04810","Snowdepth":"29.000","Units":"in","Rept_Date":"2020-02-29 13"},"coordinates":[5912,5769]},{"type":"Point","properties":{"Station_ID":"LPLN6","Station_Nam":"LAKE PLACID 2 S","Latitude":"44.30420","Longitude":"-73.98390","Snowdepth":"29.000","Units":"in","Rept_Date":"2020-02-29 13"},"coordinates":[5458,5586]},{"type":"Point","properties":{"Station_ID":"HURW3","Station_Nam":"HURLEY","Latitude":"46.46250","Longitude":"-90.19550","Snowdepth":"29.000","Units":"in","Rept_Date":"2020-02-29 14"},"coordinates":[1653,6869]},{"type":"Point","properties":{"Station_ID":"CARM1","Station_Nam":"CARIBOU WFO","Latitude":"46.86810","Longitude":"-68.01250","Snowdepth":"29.000","Units":"in","Rept_Date":"2020-03-01 05"},"coordinates":[6859,7110]},{"type":"Point","properties":{"Station_ID":"CAR","Station_Nam":"CARIBOU, ME","Latitude":"46.86830","Longitude":"-68.01360","Snowdepth":"29.000","Units":"in","Rept_Date":"2020-02-29 12"},"coordinates":[6859,7110]},{"type":"Point","properties":{"Station_ID":"QYR","Station_Nam":"QYR","Latitude":"48.87220","Longitude":"-75.61470","Snowdepth":"28.504","Units":"in","Rept_Date":"2020-02-29 12"},"coordinates":[5075,8302]},{"type":"Point","properties":{"Station_ID":"NY-JF-30","Station_Nam":"WEST CARTHAGE 0.3 ENE, NY","Latitude":"43.97493","Longitude":"-75.61640","Snowdepth":"28.300","Units":"in","Rept_Date":"2020-02-29 12"},"coordinates":[5075,5390]},{"type":"Point","properties":{"Station_ID":"WRPW3","Station_Nam":"WATER PURIFICATION PLANT","Latitude":"44.38800","Longitude":"-89.80550","Snowdepth":"28.000","Units":"in","Rept_Date":"2020-02-29 12"},"coordinates":[1744,5636]},{"type":"Point","properties":{"Station_ID":"VT-CL-40","Station_Nam":"LYNDONVILLE 4.2 NNW, VT","Latitude":"44.59440","Longitude":"-72.02389","Snowdepth":"28.000","Units":"in","Rept_Date":"2020-02-29 12"},"coordinates":[5918,5758]},{"type":"Point","properties":{"Station_ID":"VANM1","Station_Nam":"VAN BUREN","Latitude":"47.16600","Longitude":"-67.93900","Snowdepth":"28.000","Units":"in","Rept_Date":"2020-02-29 12"},"coordinates":[6876,7287]},{"type":"Point","properties":{"Station_ID":"HGHN6","Station_Nam":"HIGHMARKET","Latitude":"43.57520","Longitude":"-75.52070","Snowdepth":"28.000","Units":"in","Rept_Date":"2020-02-29 12"},"coordinates":[5097,5152]},{"type":"Point","properties":{"Station_ID":"HERM4","Station_Nam":"HERMAN,MI","Latitude":"46.65000","Longitude":"-88.33330","Snowdepth":"28.000","Units":"in","Rept_Date":"2020-02-29 13"},"coordinates":[2090,6981]},{"type":"Point","properties":{"Station_ID":"GNLM4","Station_Nam":"GREENLAND 6N","Latitude":"46.87360","Longitude":"-89.10060","Snowdepth":"28.000","Units":"in","Rept_Date":"2020-02-29 13"},"coordinates":[1910,7114]},{"type":"Point","properties":{"Station_ID":"PTLQ6","Station_Nam":"PORTAGE LAKE","Latitude":"49.06950","Longitude":"-86.65940","Snowdepth":"27.830","Units":"in","Rept_Date":"2020-03-01 06"},"coordinates":[2483,8419]},{"type":"Point","properties":{"Station_ID":"VT-OL-9","Station_Nam":"GREENSBORO 2.1 NNW, VT","Latitude":"44.60528","Longitude":"-72.30940","Snowdepth":"27.500","Units":"in","Rept_Date":"2020-02-29 12"},"coordinates":[5851,5765]},{"type":"Point","properties":{"Station_ID":"CAN-ON-452","Station_Nam":"CHATSWORTH 1.8 ENE - GSCA, CAN","Latitude":"44.46118","Longitude":"-80.87506","Snowdepth":"27.200","Units":"in","Rept_Date":"2020-02-29 12"},"coordinates":[3840,5679]},{"type":"Point","properties":{"Station_ID":"QLP","Station_Nam":"QLP","Latitude":"48.13920","Longitude":"-72.63830","Snowdepth":"27.087","Units":"in","Rept_Date":"2020-02-29 12"},"coordinates":[5773,7866]},{"type":"Point","properties":{"Station_ID":"PRDM4","Station_Nam":"PARADISE","Latitude":"46.60380","Longitude":"-85.03960","Snowdepth":"27.000","Units":"in","Rept_Date":"2020-02-29 11"},"coordinates":[2863,6953]},{"type":"Point","properties":{"Station_ID":"CRVW3","Station_Nam":"CRIVITZ HIGH FALLS","Latitude":"45.35750","Longitude":"-88.19190","Snowdepth":"27.000","Units":"in","Rept_Date":"2020-02-29 13"},"coordinates":[2123,6212]},{"type":"Point","properties":{"Station_ID":"CAN-ON-5","Station_Nam":"OWEN SOUND 1.5 NW - GSCA, CAN","Latitude":"44.57837","Longitude":"-80.95461","Snowdepth":"27.000","Units":"in","Rept_Date":"2020-02-29 13"},"coordinates":[3822,5749]},{"type":"Point","properties":{"Station_ID":"QMD","Station_Nam":"QMD","Latitude":"49.29060","Longitude":"-75.84500","Snowdepth":"26.653","Units":"in","Rept_Date":"2020-02-29 12"},"coordinates":[5021,8551]},{"type":"Point","properties":{"Station_ID":"MI-OT-17","Station_Nam":"GAYLORD 4.1 S, MI","Latitude":"44.96388","Longitude":"-84.68467","Snowdepth":"26.500","Units":"in","Rept_Date":"2020-02-29 12"},"coordinates":[2946,5978]},{"type":"Point","properties":{"Station_ID":"VT-OL-2","Station_Nam":"BARTON 3.0 ENE, VT","Latitude":"44.75863","Longitude":"-72.11680","Snowdepth":"26.000","Units":"in","Rept_Date":"2020-02-29 12"},"coordinates":[5896,5856]},{"type":"Point","properties":{"Station_ID":"SSMM4","Station_Nam":"SAULT STE MARIE","Latitude":"46.48660","Longitude":"-84.40250","Snowdepth":"26.000","Units":"in","Rept_Date":"2020-02-29 13"},"coordinates":[3012,6883]},{"type":"Point","properties":{"Station_ID":"PRGN6","Station_Nam":"PERRYSBURG","Latitude":"42.46470","Longitude":"-79.00310","Snowdepth":"26.000","Units":"in","Rept_Date":"2020-02-29 12"},"coordinates":[4280,4492]},{"type":"Point","properties":{"Station_ID":"NH-CS-4","Station_Nam":"PITTSBURG 6.1 NE, NH","Latitude":"45.11060","Longitude":"-71.29760","Snowdepth":"26.000","Units":"in","Rept_Date":"2020-02-29 12"},"coordinates":[6088,6065]},{"type":"Point","properties":{"Station_ID":"ME-PN-45","Station_Nam":"MILLINOCKET 2.7 ESE, ME","Latitude":"45.65002","Longitude":"-68.64472","Snowdepth":"26.000","Units":"in","Rept_Date":"2020-02-29 12"},"coordinates":[6711,6386]},{"type":"Point","properties":{"Station_ID":"ME-AR-15","Station_Nam":"PRESQUE ISLE 1.3 WSW, ME","Latitude":"46.67960","Longitude":"-68.01270","Snowdepth":"26.000","Units":"in","Rept_Date":"2020-02-29 12"},"coordinates":[6859,6998]},{"type":"Point","properties":{"Station_ID":"LVDW3","Station_Nam":"LAC VIEUX DESERT","Latitude":"46.12110","Longitude":"-89.07580","Snowdepth":"26.000","Units":"in","Rept_Date":"2020-02-29 15"},"coordinates":[1916,6666]},{"type":"Point","properties":{"Station_ID":"GHMN3","Station_Nam":"PINKHAM NOTCH","Latitude":"44.25800","Longitude":"-71.25250","Snowdepth":"26.000","Units":"in","Rept_Date":"2020-02-29 10"},"coordinates":[6099,5558]},{"type":"Point","properties":{"Station_ID":"FISM1","Station_Nam":"FORT KENT COOP","Latitude":"47.23850","Longitude":"-68.61240","Snowdepth":"26.000","Units":"in","Rept_Date":"2020-02-29 10"},"coordinates":[6718,7330]},{"type":"Point","properties":{"Station_ID":"CAN-ON-245","Station_Nam":"PHELPSTON 3.1 ESE, CAN","Latitude":"44.50564","Longitude":"-79.81035","Snowdepth":"26.000","Units":"in","Rept_Date":"2020-02-29 14"},"coordinates":[4090,5706]},{"type":"Point","properties":{"Station_ID":"AVLV1","Station_Nam":"AVERILL","Latitude":"45.00570","Longitude":"-71.69030","Snowdepth":"26.000","Units":"in","Rept_Date":"2020-02-29 13"},"coordinates":[5996,6003]},{"type":"Point","properties":{"Station_ID":"CAN-ON-451","Station_Nam":"OWEN SOUND 1.2 N - GSCA, CAN","Latitude":"44.58092","Longitude":"-80.93025","Snowdepth":"25.400","Units":"in","Rept_Date":"2020-02-29 13"},"coordinates":[3827,5750]},{"type":"Point","properties":{"Station_ID":"SVBQ6","Station_Nam":"SAVANT BASE","Latitude":"50.28730","Longitude":"-90.65670","Snowdepth":"25.310","Units":"in","Rept_Date":"2020-03-01 06"},"coordinates":[1545,9143]},{"type":"Point","properties":{"Station_ID":"QIQ","Station_Nam":"QIQ","Latitude":"49.82390","Longitude":"-68.54310","Snowdepth":"25.236","Units":"in","Rept_Date":"2020-02-29 12"},"coordinates":[6735,8868]},{"type":"Point","properties":{"Station_ID":"WI-VL-9","Station_Nam":"LAND O' LAKES 11.7 W, WI","Latitude":"46.19023","Longitude":"-89.45790","Snowdepth":"25.000","Units":"in","Rept_Date":"2020-02-29 13"},"coordinates":[1826,6707]},{"type":"Point","properties":{"Station_ID":"VT-WS-7","Station_Nam":"MIDDLESEX 3.1 ENE, VT","Latitude":"44.31799","Longitude":"-72.62650","Snowdepth":"25.000","Units":"in","Rept_Date":"2020-02-29 13"},"coordinates":[5776,5594]},{"type":"Point","properties":{"Station_ID":"VT-BN-12","Station_Nam":"STAMFORD 5.0 NNE, VT","Latitude":"42.82000","Longitude":"-73.02000","Snowdepth":"25.000","Units":"in","Rept_Date":"2020-02-29 21"},"coordinates":[5684,4703]},{"type":"Point","properties":{"Station_ID":"NY-JF-32","Station_Nam":"WATERTOWN 1.0 ESE, NY","Latitude":"43.96693","Longitude":"-75.89204","Snowdepth":"25.000","Units":"in","Rept_Date":"2020-02-29 12"},"coordinates":[5010,5385]},{"type":"Point","properties":{"Station_ID":"NY-FK-7","Station_Nam":"SARANAC LAKE 6.2 N, NY","Latitude":"44.41359","Longitude":"-74.15211","Snowdepth":"25.000","Units":"in","Rept_Date":"2020-02-29 10"},"coordinates":[5418,5651]},{"type":"Point","properties":{"Station_ID":"MI-HG-1","Station_Nam":"HOUGHTON 1.6 ESE, MI","Latitude":"47.10774","Longitude":"-88.52940","Snowdepth":"25.000","Units":"in","Rept_Date":"2020-02-29 13"},"coordinates":[2044,7253]},{"type":"Point","properties":{"Station_ID":"LNOW3","Station_Nam":"LAND O LAKES","Latitude":"46.19000","Longitude":"-89.45700","Snowdepth":"25.000","Units":"in","Rept_Date":"2020-02-29 13"},"coordinates":[1826,6707]},{"type":"Point","properties":{"Station_ID":"KINM1","Station_Nam":"KINGFIELD","Latitude":"44.95950","Longitude":"-70.17530","Snowdepth":"25.000","Units":"in","Rept_Date":"2020-02-29 12"},"coordinates":[6352,5976]},{"type":"Point","properties":{"Station_ID":"ISLV1","Station_Nam":"ISLAND POND","Latitude":"44.81280","Longitude":"-71.89020","Snowdepth":"25.000","Units":"in","Rept_Date":"2020-02-29 16"},"coordinates":[5949,5888]},{"type":"Point","properties":{"Station_ID":"EAHV1","Station_Nam":"EAST HAVEN","Latitude":"44.64250","Longitude":"-71.89120","Snowdepth":"25.000","Units":"in","Rept_Date":"2020-02-29 12"},"coordinates":[5949,5787]},{"type":"Point","properties":{"Station_ID":"CAN-NB-18","Station_Nam":"MCLEOD HILL 1.1 ENE, CA","Latitude":"46.02725","Longitude":"-66.67460","Snowdepth":"25.000","Units":"in","Rept_Date":"2020-02-29 12"},"coordinates":[7173,6610]},{"type":"Point","properties":{"Station_ID":"ANJM4","Station_Nam":"SNOW PAID OBSERVER FOR KANJ","Latitude":"46.48670","Longitude":"-84.40260","Snowdepth":"25.000","Units":"in","Rept_Date":"2020-02-29 18"},"coordinates":[3012,6883]},{"type":"Point","properties":{"Station_ID":"ANJ","Station_Nam":"SAULT STE MARIE","Latitude":"46.46670","Longitude":"-84.36670","Snowdepth":"25.000","Units":"in","Rept_Date":"2020-03-01 00"},"coordinates":[3021,6872]},{"type":"Point","properties":{"Station_ID":"MI-OT-16","Station_Nam":"GAYLORD 2.2 SSE, MI","Latitude":"44.99441","Longitude":"-84.65820","Snowdepth":"24.500","Units":"in","Rept_Date":"2020-02-29 11"},"coordinates":[2952,5996]},{"type":"Point","properties":{"Station_ID":"QLI","Station_Nam":"QLI","Latitude":"50.27080","Longitude":"-73.92280","Snowdepth":"24.331","Units":"in","Rept_Date":"2020-02-29 12"},"coordinates":[5472,9133]},{"type":"Point","properties":{"Station_ID":"WI-OC-1","Station_Nam":"MOUNTAIN 1.1 SW, WI","Latitude":"45.17239","Longitude":"-88.48990","Snowdepth":"24.000","Units":"in","Rept_Date":"2020-02-29 13"},"coordinates":[2053,6102]},{"type":"Point","properties":{"Station_ID":"SUAW3","Station_Nam":"SUAMICO","Latitude":"44.60190","Longitude":"-88.09780","Snowdepth":"24.000","Units":"in","Rept_Date":"2020-02-29 12"},"coordinates":[2145,5763]},{"type":"Point","properties":{"Station_ID":"STGW3","Station_Nam":"ST GERMAIN","Latitude":"45.91550","Longitude":"-89.48940","Snowdepth":"24.000","Units":"in","Rept_Date":"2020-02-29 12"},"coordinates":[1819,6544]},{"type":"Point","properties":{"Station_ID":"NY-HR-18","Station_Nam":"SALISBURY CENTER 1.8 NW, NY","Latitude":"43.16260","Longitude":"-74.80880","Snowdepth":"24.000","Units":"in","Rept_Date":"2020-02-29 11"},"coordinates":[5264,4907]},{"type":"Point","properties":{"Station_ID":"NY-FK-9","Station_Nam":"GABRIELS 1.3 SE, NY","Latitude":"44.41934","Longitude":"-74.16194","Snowdepth":"24.000","Units":"in","Rept_Date":"2020-02-29 12"},"coordinates":[5416,5654]},{"type":"Point","properties":{"Station_ID":"MOUW3","Station_Nam":"MOUNTAIN 1 SW","Latitude":"45.17220","Longitude":"-88.49390","Snowdepth":"24.000","Units":"in","Rept_Date":"2020-02-29 13"},"coordinates":[2052,6102]},{"type":"Point","properties":{"Station_ID":"JEFV1","Station_Nam":"JEFFERSONVILLE","Latitude":"44.58430","Longitude":"-72.78700","Snowdepth":"24.000","Units":"in","Rept_Date":"2020-02-29 12"},"coordinates":[5739,5752]},{"type":"Point","properties":{"Station_ID":"EVRW3","Station_Nam":"EAGLE RIVER-4 E","Latitude":"45.91890","Longitude":"-89.15280","Snowdepth":"24.000","Units":"in","Rept_Date":"2020-02-29 12"},"coordinates":[1898,6546]},{"type":"Point","properties":{"Station_ID":"BBEM4","Station_Nam":"BIG BAY 9SW","Latitude":"46.74620","Longitude":"-87.88160","Snowdepth":"24.000","Units":"in","Rept_Date":"2020-02-29 13"},"coordinates":[2196,7038]},{"type":"Point","properties":{"Station_ID":"BABM5","Station_Nam":"BABBITT","Latitude":"47.71210","Longitude":"-91.95330","Snowdepth":"24.000","Units":"in","Rept_Date":"2020-02-29 13"},"coordinates":[1240,7612]},{"type":"Point","properties":{"Station_ID":"CAN-ON-132","Station_Nam":"ORANGEVILLE 5.1 SSW - CANWARN, CAN","Latitude":"43.87372","Longitude":"-80.13428","Snowdepth":"23.600","Units":"in","Rept_Date":"2020-02-29 14"},"coordinates":[4014,5330]},{"type":"Point","properties":{"Station_ID":"CAN-NB-96","Station_Nam":"SAINT-IGNACE 2.6 NE, CAN","Latitude":"46.71424","Longitude":"-65.05609","Snowdepth":"23.600","Units":"in","Rept_Date":"2020-02-29 11"},"coordinates":[7553,7019]},{"type":"Point","properties":{"Station_ID":"WI-IR-3","Station_Nam":"PENCE 0.1 E, WI","Latitude":"46.41555","Longitude":"-90.27013","Snowdepth":"23.500","Units":"in","Rept_Date":"2020-02-29 13"},"coordinates":[1635,6841]},{"type":"Point","properties":{"Station_ID":"VT-WS-30","Station_Nam":"WOODBURY 3.4 NNW, VT","Latitude":"44.48825","Longitude":"-72.43258","Snowdepth":"23.500","Units":"in","Rept_Date":"2020-02-29 12"},"coordinates":[5822,5695]},{"type":"Point","properties":{"Station_ID":"TRIQ6","Station_Nam":"TRIO LAKE","Latitude":"49.22880","Longitude":"-87.22920","Snowdepth":"23.390","Units":"in","Rept_Date":"2020-03-01 06"},"coordinates":[2349,8514]},{"type":"Point","properties":{"Station_ID":"PDGM4","Station_Nam":"PAULDING","Latitude":"46.39760","Longitude":"-89.17940","Snowdepth":"23.000","Units":"in","Rept_Date":"2020-02-29 13"},"coordinates":[1891,6831]},{"type":"Point","properties":{"Station_ID":"NOHM5","Station_Nam":"NORTHOME","Latitude":"47.83590","Longitude":"-94.25550","Snowdepth":"23.000","Units":"in","Rept_Date":"2020-02-29 13"},"coordinates":[700,7686]},{"type":"Point","properties":{"Station_ID":"JKMM1","Station_Nam":"JACKMAN","Latitude":"45.62600","Longitude":"-70.24600","Snowdepth":"23.000","Units":"in","Rept_Date":"2020-02-29 12"},"coordinates":[6335,6372]},{"type":"Point","properties":{"Station_ID":"GLDM4","Station_Nam":"GLADSTONE NO. 2","Latitude":"45.84330","Longitude":"-87.03910","Snowdepth":"23.000","Units":"in","Rept_Date":"2020-02-29 12"},"coordinates":[2394,6501]},{"type":"Point","properties":{"Station_ID":"BRMM5","Station_Nam":"BRIMSON 2S","Latitude":"47.24720","Longitude":"-91.86240","Snowdepth":"23.000","Units":"in","Rept_Date":"2020-03-01 01"},"coordinates":[1262,7336]},{"type":"Point","properties":{"Station_ID":"MN-SL-105","Station_Nam":"DULUTH 11.8 NNE, MN","Latitude":"46.94680","Longitude":"-92.03925","Snowdepth":"22.500","Units":"in","Rept_Date":"2020-02-29 13"},"coordinates":[1220,7157]},{"type":"Point","properties":{"Station_ID":"MN-IT-23","Station_Nam":"BOVEY 13.4 N, MN","Latitude":"47.48855","Longitude":"-93.43497","Snowdepth":"22.500","Units":"in","Rept_Date":"2020-02-29 12"},"coordinates":[893,7479]},{"type":"Point","properties":{"Station_ID":"KABQ6","Station_Nam":"CAB LAKE","Latitude":"49.59950","Longitude":"-89.17990","Snowdepth":"22.170","Units":"in","Rept_Date":"2020-03-01 06"},"coordinates":[1891,8734]},{"type":"Point","properties":{"Station_ID":"WRSN6","Station_Nam":"WARSAW 6SW","Latitude":"42.68550","Longitude":"-78.22020","Snowdepth":"22.000","Units":"in","Rept_Date":"2020-02-29 12"},"coordinates":[4463,4624]},{"type":"Point","properties":{"Station_ID":"WRSM5","Station_Nam":"WRENSHALL","Latitude":"46.61550","Longitude":"-92.38380","Snowdepth":"22.000","Units":"in","Rept_Date":"2020-02-29 14"},"coordinates":[1139,6960]},{"type":"Point","properties":{"Station_ID":"WI-VL-14","Station_Nam":"BOULDER JUNCTION 1.4 NE, WI","Latitude":"46.12840","Longitude":"-89.62470","Snowdepth":"22.000","Units":"in","Rept_Date":"2020-02-29 13"},"coordinates":[1787,6670]},{"type":"Point","properties":{"Station_ID":"NY-ER-77","Station_Nam":"COLDEN 2.4 ENE, NY","Latitude":"42.65088","Longitude":"-78.61060","Snowdepth":"22.000","Units":"in","Rept_Date":"2020-02-29 13"},"coordinates":[4372,4603]},{"type":"Point","properties":{"Station_ID":"MN-SL-15","Station_Nam":"CHISHOLM 0.4 WSW, MN","Latitude":"47.48557","Longitude":"-92.88690","Snowdepth":"22.000","Units":"in","Rept_Date":"2020-02-29 13"},"coordinates":[1021,7477]},{"type":"Point","properties":{"Station_ID":"MN-IT-17","Station_Nam":"GRAND RAPIDS 6.1 N, MN","Latitude":"47.31165","Longitude":"-93.55036","Snowdepth":"22.000","Units":"in","Rept_Date":"2020-02-29 13"},"coordinates":[866,7374]},{"type":"Point","properties":{"Station_ID":"MI-MQ-19","Station_Nam":"ISHPEMING 7.2 SW, MI","Latitude":"46.40550","Longitude":"-87.75670","Snowdepth":"22.000","Units":"in","Rept_Date":"2020-02-29 11"},"coordinates":[2225,6835]},{"type":"Point","properties":{"Station_ID":"MI-GG-4","Station_Nam":"WATERSMEET 5.0 SE, MI","Latitude":"46.20333","Longitude":"-89.13170","Snowdepth":"22.000","Units":"in","Rept_Date":"2020-02-29 14"},"coordinates":[1903,6715]},{"type":"Point","properties":{"Station_ID":"LBKV1","Station_Nam":"LYE BROOK","Latitude":"43.05000","Longitude":"-73.03330","Snowdepth":"22.000","Units":"in","Rept_Date":"2020-03-01 06"},"coordinates":[5681,4840]},{"type":"Point","properties":{"Station_ID":"INDN6","Station_Nam":"INDIAN LAKE","Latitude":"43.75500","Longitude":"-74.27560","Snowdepth":"22.000","Units":"in","Rept_Date":"2020-02-29 13"},"coordinates":[5389,5259]},{"type":"Point","properties":{"Station_ID":"GGRM4","Station_Nam":"GREEN GARDEN NO.2","Latitude":"46.45330","Longitude":"-87.30380","Snowdepth":"22.000","Units":"in","Rept_Date":"2020-02-29 13"},"coordinates":[2332,6864]},{"type":"Point","properties":{"Station_ID":"CAN-NS-60","Station_Nam":"SYDNEY FORKS, CAN","Latitude":"46.05645","Longitude":"-60.31510","Snowdepth":"22.000","Units":"in","Rept_Date":"2020-02-29 13"},"coordinates":[8666,6628]},{"type":"Point","properties":{"Station_ID":"BRDM1","Station_Nam":"BRIDGEWATER","Latitude":"46.42870","Longitude":"-67.84370","Snowdepth":"22.000","Units":"in","Rept_Date":"2020-02-29 23"},"coordinates":[6899,6849]},{"type":"Point","properties":{"Station_ID":"BNDM5","Station_Nam":"ELY 25E","Latitude":"47.97190","Longitude":"-91.44860","Snowdepth":"22.000","Units":"in","Rept_Date":"2020-02-29 13"},"coordinates":[1359,7767]},{"type":"Point","properties":{"Station_ID":"SOCQ6","Station_Nam":"SOCKET LAKE","Latitude":"50.77870","Longitude":"-91.79300","Snowdepth":"21.540","Units":"in","Rept_Date":"2020-03-01 06"},"coordinates":[1278,9435]},{"type":"Point","properties":{"Station_ID":"WI-BY-2","Station_Nam":"MELLEN 18.6 SW, WI","Latitude":"46.16937","Longitude":"-90.98090","Snowdepth":"21.000","Units":"in","Rept_Date":"2020-02-29 13"},"coordinates":[1469,6695]},{"type":"Point","properties":{"Station_ID":"VT-WS-15","Station_Nam":"EAST CALAIS 1.5 SW, VT","Latitude":"44.35523","Longitude":"-72.45540","Snowdepth":"21.000","Units":"in","Rept_Date":"2020-02-29 12"},"coordinates":[5816,5616]},{"type":"Point","properties":{"Station_ID":"PTBN3","Station_Nam":"PITTSBURG RESERVOIR","Latitude":"45.04690","Longitude":"-71.38300","Snowdepth":"21.000","Units":"in","Rept_Date":"2020-02-29 12"},"coordinates":[6068,6027]},{"type":"Point","properties":{"Station_ID":"NY-ES-6","Station_Nam":"OLMSTEDVILLE 4.6 NNE, NY","Latitude":"43.83350","Longitude":"-73.89780","Snowdepth":"21.000","Units":"in","Rept_Date":"2020-02-29 13"},"coordinates":[5478,5306]},{"type":"Point","properties":{"Station_ID":"MI-OT-4","Station_Nam":"GAYLORD 1.7 WNW, MI","Latitude":"45.03280","Longitude":"-84.71090","Snowdepth":"21.000","Units":"in","Rept_Date":"2020-02-29 13"},"coordinates":[2940,6019]},{"type":"Point","properties":{"Station_ID":"IRMM4","Station_Nam":"WWTP","Latitude":"46.46670","Longitude":"-90.18330","Snowdepth":"21.000","Units":"in","Rept_Date":"2020-02-29 13"},"coordinates":[1656,6872]},{"type":"Point","properties":{"Station_ID":"GAYM4","Station_Nam":"GAYLORD","Latitude":"45.03320","Longitude":"-84.71130","Snowdepth":"21.000","Units":"in","Rept_Date":"2020-02-29 13"},"coordinates":[2940,6019]},{"type":"Point","properties":{"Station_ID":"DLHM5","Station_Nam":"DULUTH NWS","Latitude":"46.83680","Longitude":"-92.21080","Snowdepth":"21.000","Units":"in","Rept_Date":"2020-03-01 06"},"coordinates":[1180,7092]},{"type":"Point","properties":{"Station_ID":"DLH","Station_Nam":"DULUTH, MN","Latitude":"46.83690","Longitude":"-92.21030","Snowdepth":"21.000","Units":"in","Rept_Date":"2020-03-01 00"},"coordinates":[1180,7092]},{"type":"Point","properties":{"Station_ID":"CMKW3","Station_Nam":"CLAM LAKE 4W","Latitude":"46.16940","Longitude":"-90.98080","Snowdepth":"21.000","Units":"in","Rept_Date":"2020-02-29 13"},"coordinates":[1469,6695]},{"type":"Point","properties":{"Station_ID":"APXM4","Station_Nam":"GAYLORD 9SSW","Latitude":"44.90720","Longitude":"-84.71880","Snowdepth":"21.000","Units":"in","Rept_Date":"2020-03-01 06"},"coordinates":[2938,5944]},{"type":"Point","properties":{"Station_ID":"QMA","Station_Nam":"QMA","Latitude":"50.10330","Longitude":"-70.47190","Snowdepth":"20.866","Units":"in","Rept_Date":"2020-02-29 12"},"coordinates":[6282,9034]},{"type":"Point","properties":{"Station_ID":"QTM","Station_Nam":"QTM","Latitude":"51.05780","Longitude":"-72.57190","Snowdepth":"20.630","Units":"in","Rept_Date":"2020-02-29 12"},"coordinates":[5789,9601]},{"type":"Point","properties":{"Station_ID":"CAN-NB-2","Station_Nam":"GRAFTON 2.7 NNE, CA","Latitude":"46.17062","Longitude":"-67.55330","Snowdepth":"20.500","Units":"in","Rept_Date":"2020-02-29 10"},"coordinates":[6967,6696]},{"type":"Point","properties":{"Station_ID":"TOGM5","Station_Nam":"CELINA 2E","Latitude":"47.86630","Longitude":"-93.02660","Snowdepth":"20.000","Units":"in","Rept_Date":"2020-02-29 15"},"coordinates":[988,7704]},{"type":"Point","properties":{"Station_ID":"SGVN6","Station_Nam":"SPRINGVILLE","Latitude":"42.54970","Longitude":"-78.57670","Snowdepth":"20.000","Units":"in","Rept_Date":"2020-02-29 23"},"coordinates":[4380,4543]},{"type":"Point","properties":{"Station_ID":"PEKN6","Station_Nam":"PECK LAKE","Latitude":"43.11500","Longitude":"-74.42360","Snowdepth":"20.000","Units":"in","Rept_Date":"2020-02-29 13"},"coordinates":[5354,4879]},{"type":"Point","properties":{"Station_ID":"OCON6","Station_Nam":"OSCEOLA","Latitude":"43.49910","Longitude":"-75.71210","Snowdepth":"20.000","Units":"in","Rept_Date":"2020-02-29 12"},"coordinates":[5052,5107]},{"type":"Point","properties":{"Station_ID":"NCBN6","Station_Nam":"NEWCOMB","Latitude":"43.97070","Longitude":"-74.22200","Snowdepth":"20.000","Units":"in","Rept_Date":"2020-02-29 14"},"coordinates":[5402,5388]},{"type":"Point","properties":{"Station_ID":"MN-CK-6","Station_Nam":"GRAND MARAIS 4.4 W, MN","Latitude":"47.74865","Longitude":"-90.43760","Snowdepth":"20.000","Units":"in","Rept_Date":"2020-02-29 13"},"coordinates":[1596,7634]},{"type":"Point","properties":{"Station_ID":"KABM5","Station_Nam":"KABETOGAMA LAKE VISITOR CTR","Latitude":"48.40880","Longitude":"-93.04840","Snowdepth":"20.000","Units":"in","Rept_Date":"2020-02-29 13"},"coordinates":[983,8026]},{"type":"Point","properties":{"Station_ID":"INL","Station_Nam":"FALLS INTERNATIONAL ARPT","Latitude":"48.56640","Longitude":"-93.40310","Snowdepth":"20.000","Units":"in","Rept_Date":"2020-03-01 00"},"coordinates":[900,8120]},{"type":"Point","properties":{"Station_ID":"ESGM1","Station_Nam":"EAST SANGERVILLE","Latitude":"45.13690","Longitude":"-69.28060","Snowdepth":"20.000","Units":"in","Rept_Date":"2020-02-29 12"},"coordinates":[6562,6081]},{"type":"Point","properties":{"Station_ID":"EMBM5","Station_Nam":"EMBARASS,MN","Latitude":"47.65810","Longitude":"-92.19580","Snowdepth":"20.000","Units":"in","Rept_Date":"2020-02-29 12"},"coordinates":[1183,7580]},{"type":"Point","properties":{"Station_ID":"AURW3","Station_Nam":"AURORA","Latitude":"45.77000","Longitude":"-88.11810","Snowdepth":"20.000","Units":"in","Rept_Date":"2020-02-29 13"},"coordinates":[2140,6457]},{"type":"Point","properties":{"Station_ID":"MN-SL-108","Station_Nam":"IRON JUNCTION 3.4 NNW, MN","Latitude":"47.46150","Longitude":"-92.63130","Snowdepth":"19.500","Units":"in","Rept_Date":"2020-02-29 13"},"coordinates":[1081,7463]},{"type":"Point","properties":{"Station_ID":"CAN-ON-92","Station_Nam":"DUNROBIN 1.9 W - MVCA, CAN","Latitude":"45.42318","Longitude":"-76.04525","Snowdepth":"19.300","Units":"in","Rept_Date":"2020-02-29 12"},"coordinates":[4974,6251]},{"type":"Point","properties":{"Station_ID":"WTTN6","Station_Nam":"WATERTOWN","Latitude":"43.97610","Longitude":"-75.87530","Snowdepth":"19.000","Units":"in","Rept_Date":"2020-02-29 13"},"coordinates":[5014,5391]},{"type":"Point","properties":{"Station_ID":"WSWN6","Station_Nam":"WARSAW","Latitude":"42.74220","Longitude":"-78.20850","Snowdepth":"19.000","Units":"in","Rept_Date":"2020-02-29 12"},"coordinates":[4466,4657]},{"type":"Point","properties":{"Station_ID":"VT-ES-3","Station_Nam":"LUNENBURG 2.3 NNW, VT","Latitude":"44.49324","Longitude":"-71.70446","Snowdepth":"19.000","Units":"in","Rept_Date":"2020-02-29 11"},"coordinates":[5993,5698]},{"type":"Point","properties":{"Station_ID":"NY-ER-166","Station_Nam":"BOSTON 2.5 NE, NY","Latitude":"42.65480","Longitude":"-78.70300","Snowdepth":"19.000","Units":"in","Rept_Date":"2020-02-29 12"},"coordinates":[4350,4605]},{"type":"Point","properties":{"Station_ID":"NUNV1","Station_Nam":"NORTH UNDERHILL","Latitude":"44.58760","Longitude":"-72.92150","Snowdepth":"19.000","Units":"in","Rept_Date":"2020-02-29 11"},"coordinates":[5707,5754]},{"type":"Point","properties":{"Station_ID":"MWN","Station_Nam":"MOUNT WASHINGTON","Latitude":"44.26670","Longitude":"-71.30000","Snowdepth":"19.000","Units":"in","Rept_Date":"2020-03-01 05"},"coordinates":[6088,5564]},{"type":"Point","properties":{"Station_ID":"MN-BK-6","Station_Nam":"LAKE PARK 6.0 S, MN","Latitude":"46.79850","Longitude":"-96.12180","Snowdepth":"19.000","Units":"in","Rept_Date":"2020-02-29 13"},"coordinates":[262,7069]},{"type":"Point","properties":{"Station_ID":"MI-DL-1","Station_Nam":"GARDEN CORNERS 0.8 NW, MI","Latitude":"45.89815","Longitude":"-86.54850","Snowdepth":"19.000","Units":"in","Rept_Date":"2020-02-29 13"},"coordinates":[2509,6534]},{"type":"Point","properties":{"Station_ID":"LOWN6","Station_Nam":"LOWVILLE","Latitude":"43.79280","Longitude":"-75.48290","Snowdepth":"19.000","Units":"in","Rept_Date":"2020-02-29 12"},"coordinates":[5106,5282]},{"type":"Point","properties":{"Station_ID":"LILM1","Station_Nam":"LILLE","Latitude":"47.27770","Longitude":"-68.10520","Snowdepth":"19.000","Units":"in","Rept_Date":"2020-02-29 12"},"coordinates":[6837,7354]},{"type":"Point","properties":{"Station_ID":"LEIM5","Station_Nam":"ORR 3E","Latitude":"48.05810","Longitude":"-92.75220","Snowdepth":"19.000","Units":"in","Rept_Date":"2020-02-29 12"},"coordinates":[1053,7818]},{"type":"Point","properties":{"Station_ID":"KMWN","Station_Nam":"MOUNT WASHINGTON","Latitude":"44.26666","Longitude":"-71.30000","Snowdepth":"19.000","Units":"in","Rept_Date":"2020-03-01 06"},"coordinates":[6088,5564]},{"type":"Point","properties":{"Station_ID":"GDCM4","Station_Nam":"GARDEN CORNERS","Latitude":"45.89830","Longitude":"-86.54850","Snowdepth":"19.000","Units":"in","Rept_Date":"2020-02-29 13"},"coordinates":[2509,6534]},{"type":"Point","properties":{"Station_ID":"ELYM5","Station_Nam":"ELY","Latitude":"47.90560","Longitude":"-91.82830","Snowdepth":"19.000","Units":"in","Rept_Date":"2020-02-29 15"},"coordinates":[1270,7727]},{"type":"Point","properties":{"Station_ID":"COKM5","Station_Nam":"COOK","Latitude":"47.85060","Longitude":"-92.69250","Snowdepth":"19.000","Units":"in","Rept_Date":"2020-02-29 12"},"coordinates":[1067,7694]},{"type":"Point","properties":{"Station_ID":"CAN-NB-64","Station_Nam":"KESWICK RIDGE 4.0 SE, CAN","Latitude":"45.97014","Longitude":"-66.85538","Snowdepth":"19.000","Units":"in","Rept_Date":"2020-02-29 13"},"coordinates":[7131,6576]},{"type":"Point","properties":{"Station_ID":"41.9034_079.6523","Station_Nam":"CORRY (CLE0230)","Latitude":"41.90340","Longitude":"-79.65230","Snowdepth":"19.000","Units":"in","Rept_Date":"2020-02-29 14"},"coordinates":[4127,4159]},{"type":"Point","properties":{"Station_ID":"CAN-PE-19","Station_Nam":"CHARLOTTETOWN 6.5 NNW, CAN","Latitude":"46.29235","Longitude":"-63.17271","Snowdepth":"18.900","Units":"in","Rept_Date":"2020-02-29 12"},"coordinates":[7995,6768]},{"type":"Point","properties":{"Station_ID":"WI-BY-22","Station_Nam":"MASON 11.5 WNW, WI","Latitude":"46.50198","Longitude":"-91.28339","Snowdepth":"18.500","Units":"in","Rept_Date":"2020-02-29 14"},"coordinates":[1398,6893]},{"type":"Point","properties":{"Station_ID":"VT-WS-33","Station_Nam":"WAITSFIELD 3.5 WNW, VT","Latitude":"44.20052","Longitude":"-72.89421","Snowdepth":"18.500","Units":"in","Rept_Date":"2020-02-29 13"},"coordinates":[5713,5524]},{"type":"Point","properties":{"Station_ID":"WYON6","Station_Nam":"WYOMING 3W","Latitude":"42.82060","Longitude":"-78.14810","Snowdepth":"18.000","Units":"in","Rept_Date":"2020-02-29 12"},"coordinates":[4480,4704]},{"type":"Point","properties":{"Station_ID":"WTRM4","Station_Nam":"WATERSMEET 12WSW","Latitude":"46.22310","Longitude":"-89.40850","Snowdepth":"18.000","Units":"in","Rept_Date":"2020-02-29 12"},"coordinates":[1838,6727]},{"type":"Point","properties":{"Station_ID":"WORV1","Station_Nam":"WORCESTER 2 W","Latitude":"44.37470","Longitude":"-72.58220","Snowdepth":"18.000","Units":"in","Rept_Date":"2020-02-29 12"},"coordinates":[5787,5628]},{"type":"Point","properties":{"Station_ID":"TAKW3","Station_Nam":"RICE RESERVOIR NO. 2","Latitude":"45.53770","Longitude":"-89.73220","Snowdepth":"18.000","Units":"in","Rept_Date":"2020-02-29 13"},"coordinates":[1762,6319]},{"type":"Point","properties":{"Station_ID":"RHIW3","Station_Nam":"RHINELANDER","Latitude":"45.59860","Longitude":"-89.45080","Snowdepth":"18.000","Units":"in","Rept_Date":"2020-02-29 13"},"coordinates":[1828,6355]},{"type":"Point","properties":{"Station_ID":"NY-WY-10","Station_Nam":"WYOMING COOP, NY","Latitude":"42.82060","Longitude":"-78.14810","Snowdepth":"18.000","Units":"in","Rept_Date":"2020-02-29 12"},"coordinates":[4480,4704]},{"type":"Point","properties":{"Station_ID":"NSFN3","Station_Nam":"NORTH STRATFORD","Latitude":"44.68190","Longitude":"-71.58570","Snowdepth":"18.000","Units":"in","Rept_Date":"2020-02-29 12"},"coordinates":[6021,5810]},{"type":"Point","properties":{"Station_ID":"NPTV1","Station_Nam":"NEWPORT","Latitude":"44.94900","Longitude":"-72.19120","Snowdepth":"18.000","Units":"in","Rept_Date":"2020-02-29 12"},"coordinates":[5878,5969]},{"type":"Point","properties":{"Station_ID":"MRRN6","Station_Nam":"MORRISVILLE 6 SW","Latitude":"42.84160","Longitude":"-75.72630","Snowdepth":"18.000","Units":"in","Rept_Date":"2020-02-29 12"},"coordinates":[5049,4716]},{"type":"Point","properties":{"Station_ID":"MI-CX-7","Station_Nam":"EAST JORDAN 2.1 NNW, MI","Latitude":"45.18639","Longitude":"-85.14750","Snowdepth":"18.000","Units":"in","Rept_Date":"2020-02-29 13"},"coordinates":[2838,6110]},{"type":"Point","properties":{"Station_ID":"ME-FR-4","Station_Nam":"NEW SHARON 2.0 NW, ME","Latitude":"44.66582","Longitude":"-70.02720","Snowdepth":"18.000","Units":"in","Rept_Date":"2020-02-29 12"},"coordinates":[6386,5801]},{"type":"Point","properties":{"Station_ID":"IFSM5","Station_Nam":"INTERNATIONAL FALLS SNOW","Latitude":"48.57780","Longitude":"-93.39640","Snowdepth":"18.000","Units":"in","Rept_Date":"2020-02-29 12"},"coordinates":[902,8127]},{"type":"Point","properties":{"Station_ID":"GFDN6","Station_Nam":"CHASES LAKE","Latitude":"43.75920","Longitude":"-75.29980","Snowdepth":"18.000","Units":"in","Rept_Date":"2020-02-29 11"},"coordinates":[5149,5262]},{"type":"Point","properties":{"Station_ID":"EJNM4","Station_Nam":"EAST JORDAN 2NW","Latitude":"45.18630","Longitude":"-85.14770","Snowdepth":"18.000","Units":"in","Rept_Date":"2020-02-29 13"},"coordinates":[2838,6110]},{"type":"Point","properties":{"Station_ID":"CORV1","Station_Nam":"CORINTH","Latitude":"44.00690","Longitude":"-72.31940","Snowdepth":"18.000","Units":"in","Rept_Date":"2020-02-29 12"},"coordinates":[5848,5409]},{"type":"Point","properties":{"Station_ID":"CLKM4","Station_Nam":"CLARKSBURG","Latitude":"46.49910","Longitude":"-87.84500","Snowdepth":"18.000","Units":"in","Rept_Date":"2020-02-29 12"},"coordinates":[2205,6891]},{"type":"Point","properties":{"Station_ID":"CAN-ON-118","Station_Nam":"DURHAM 1.4 S, CAN","Latitude":"44.16525","Longitude":"-80.82064","Snowdepth":"18.000","Units":"in","Rept_Date":"2020-02-29 12"},"coordinates":[3853,5503]},{"type":"Point","properties":{"Station_ID":"ASTW3","Station_Nam":"ATHELSTANE","Latitude":"45.42500","Longitude":"-88.05750","Snowdepth":"18.000","Units":"in","Rept_Date":"2020-02-29 12"},"coordinates":[2155,6252]},{"type":"Point","properties":{"Station_ID":"MN-IT-1","Station_Nam":"GRAND RAPIDS 2.0 E, MN","Latitude":"47.22266","Longitude":"-93.49600","Snowdepth":"17.500","Units":"in","Rept_Date":"2020-02-29 14"},"coordinates":[878,7321]},{"type":"Point","properties":{"Station_ID":"MFU","Station_Nam":"MFU","Latitude":"51.52170","Longitude":"-66.91110","Snowdepth":"17.283","Units":"in","Rept_Date":"2020-02-29 12"},"coordinates":[7118,9877]},{"type":"Point","properties":{"Station_ID":"QCO","Station_Nam":"QCO","Latitude":"51.45280","Longitude":"-72.20110","Snowdepth":"17.126","Units":"in","Rept_Date":"2020-02-29 12"},"coordinates":[5876,9836]},{"type":"Point","properties":{"Station_ID":"ZNOM4","Station_Nam":"NORWAY","Latitude":"45.77810","Longitude":"-87.89560","Snowdepth":"17.000","Units":"in","Rept_Date":"2020-03-01 01"},"coordinates":[2193,6462]},{"type":"Point","properties":{"Station_ID":"WTNM4","Station_Nam":"WATTON 2WSW","Latitude":"46.52660","Longitude":"-88.64240","Snowdepth":"17.000","Units":"in","Rept_Date":"2020-02-29 13"},"coordinates":[2017,6907]},{"type":"Point","properties":{"Station_ID":"WI-ON-6","Station_Nam":"RHINELANDER 5.2 N, WI","Latitude":"45.71388","Longitude":"-89.42150","Snowdepth":"17.000","Units":"in","Rept_Date":"2020-02-29 14"},"coordinates":[1835,6424]},{"type":"Point","properties":{"Station_ID":"WI-BN-6","Station_Nam":"SUAMICO 4.4 WNW, WI","Latitude":"44.66111","Longitude":"-88.11780","Snowdepth":"17.000","Units":"in","Rept_Date":"2020-02-29 13"},"coordinates":[2140,5798]},{"type":"Point","properties":{"Station_ID":"TOHM5","Station_Nam":"TWO HARBORS WWTP","Latitude":"47.01760","Longitude":"-91.66480","Snowdepth":"17.000","Units":"in","Rept_Date":"2020-02-29 13"},"coordinates":[1308,7199]},{"type":"Point","properties":{"Station_ID":"SULW3","Station_Nam":"SUMMIT LAKE","Latitude":"45.37880","Longitude":"-89.19410","Snowdepth":"17.000","Units":"in","Rept_Date":"2020-02-29 17"},"coordinates":[1888,6225]},{"type":"Point","properties":{"Station_ID":"NUMN3","Station_Nam":"NORTHUMBERLAND","Latitude":"44.52830","Longitude":"-71.50440","Snowdepth":"17.000","Units":"in","Rept_Date":"2020-02-29 13"},"coordinates":[6040,5719]},{"type":"Point","properties":{"Station_ID":"NH-CS-7","Station_Nam":"LANCASTER 0.5 N, NH","Latitude":"44.49611","Longitude":"-71.57640","Snowdepth":"17.000","Units":"in","Rept_Date":"2020-02-29 12"},"coordinates":[6023,5700]},{"type":"Point","properties":{"Station_ID":"NH-CR-15","Station_Nam":"JACKSON 3.7 NW, NH","Latitude":"44.19069","Longitude":"-71.22598","Snowdepth":"17.000","Units":"in","Rept_Date":"2020-02-29 12"},"coordinates":[6105,5518]},{"type":"Point","properties":{"Station_ID":"MN-CW-22","Station_Nam":"FORT RIPLEY 0.8 N, MN","Latitude":"46.18089","Longitude":"-94.36510","Snowdepth":"17.000","Units":"in","Rept_Date":"2020-02-29 13"},"coordinates":[674,6702]},{"type":"Point","properties":{"Station_ID":"MI-CP-14","Station_Nam":"SAULT STE. MARIE 2.2 E, MI","Latitude":"46.48933","Longitude":"-84.31971","Snowdepth":"17.000","Units":"in","Rept_Date":"2020-02-29 13"},"coordinates":[3032,6885]},{"type":"Point","properties":{"Station_ID":"ME-FR-22","Station_Nam":"FARMINGTON 4.8 NNW, ME","Latitude":"44.73396","Longitude":"-70.18007","Snowdepth":"17.000","Units":"in","Rept_Date":"2020-02-29 14"},"coordinates":[6350,5841]},{"type":"Point","properties":{"Station_ID":"MALN6","Station_Nam":"MALONE","Latitude":"44.84180","Longitude":"-74.30600","Snowdepth":"17.000","Units":"in","Rept_Date":"2020-02-29 12"},"coordinates":[5382,5906]},{"type":"Point","properties":{"Station_ID":"LNCM1","Station_Nam":"LINCOLN WATER DISTRICT","Latitude":"45.32410","Longitude":"-68.58300","Snowdepth":"17.000","Units":"in","Rept_Date":"2020-02-29 12"},"coordinates":[6725,6192]},{"type":"Point","properties":{"Station_ID":"JCBM4","Station_Nam":"JACOBSVILLE","Latitude":"47.00830","Longitude":"-88.43180","Snowdepth":"17.000","Units":"in","Rept_Date":"2020-02-29 12"},"coordinates":[2067,7194]},{"type":"Point","properties":{"Station_ID":"FLAM4","Station_Nam":"FIFE LAKE 2WNW","Latitude":"44.58480","Longitude":"-85.36530","Snowdepth":"17.000","Units":"in","Rept_Date":"2020-02-29 12"},"coordinates":[2786,5753]},{"type":"Point","properties":{"Station_ID":"COUW3","Station_Nam":"COUDERAY,WI","Latitude":"45.86670","Longitude":"-91.45000","Snowdepth":"17.000","Units":"in","Rept_Date":"2020-02-29 22"},"coordinates":[1358,6515]},{"type":"Point","properties":{"Station_ID":"CAN-NS-103","Station_Nam":"TRAFALGAR 4.9 WSW, CAN","Latitude":"45.26217","Longitude":"-62.72285","Snowdepth":"17.000","Units":"in","Rept_Date":"2020-02-29 12"},"coordinates":[8101,6155]},{"type":"Point","properties":{"Station_ID":"BTLN3","Station_Nam":"BARTLETT","Latitude":"44.08380","Longitude":"-71.29340","Snowdepth":"17.000","Units":"in","Rept_Date":"2020-02-29 12"},"coordinates":[6089,5455]},{"type":"Point","properties":{"Station_ID":"BREW3","Station_Nam":"SURING","Latitude":"44.99580","Longitude":"-88.37860","Snowdepth":"17.000","Units":"in","Rept_Date":"2020-02-29 13"},"coordinates":[2079,5997]},{"type":"Point","properties":{"Station_ID":"AGNW3","Station_Nam":"ARGONNE-1.5 NW","Latitude":"45.67360","Longitude":"-88.90380","Snowdepth":"17.000","Units":"in","Rept_Date":"2020-02-29 13"},"coordinates":[1956,6400]},{"type":"Point","properties":{"Station_ID":"WI-SR-1","Station_Nam":"HAYWARD 9.2 NNE, WI","Latitude":"46.13255","Longitude":"-91.40500","Snowdepth":"16.600","Units":"in","Rept_Date":"2020-02-29 12"},"coordinates":[1369,6673]},{"type":"Point","properties":{"Station_ID":"VT-WS-19","Station_Nam":"WATERBURY 3.0 NW, VT","Latitude":"44.36060","Longitude":"-72.80770","Snowdepth":"16.500","Units":"in","Rept_Date":"2020-02-29 11"},"coordinates":[5734,5619]},{"type":"Point","properties":{"Station_ID":"NY-OD-2","Station_Nam":"POINT ROCK 0.6 SE, NY","Latitude":"43.37335","Longitude":"-75.53840","Snowdepth":"16.500","Units":"in","Rept_Date":"2020-02-29 13"},"coordinates":[5093,5032]},{"type":"Point","properties":{"Station_ID":"NH-CR-11","Station_Nam":"NORTH CONWAY 1.4 SSW, NH","Latitude":"44.03556","Longitude":"-71.14010","Snowdepth":"16.500","Units":"in","Rept_Date":"2020-02-29 12"},"coordinates":[6125,5426]},{"type":"Point","properties":{"Station_ID":"CAN-ON-42","Station_Nam":"VANKLEEK HILL 3.4 S, CA","Latitude":"45.48987","Longitude":"-74.64570","Snowdepth":"16.500","Units":"in","Rept_Date":"2020-02-29 12"},"coordinates":[5302,6291]},{"type":"Point","properties":{"Station_ID":"CAN-ON-757","Station_Nam":"SAULT STE. MARIE 2.8 ESE - GLFC, CAN","Latitude":"46.50300","Longitude":"-84.30300","Snowdepth":"16.200","Units":"in","Rept_Date":"2020-02-29 13"},"coordinates":[3036,6893]},{"type":"Point","properties":{"Station_ID":"CATQ6","Station_Nam":"CAT LAKE","Latitude":"51.72690","Longitude":"-91.82210","Snowdepth":"16.020","Units":"in","Rept_Date":"2020-03-01 06"},"coordinates":[1271,9999]},{"type":"Point","properties":{"Station_ID":"WLKW3","Station_Nam":"WHITE LAKE 1 SE","Latitude":"45.14520","Longitude":"-88.74160","Snowdepth":"16.000","Units":"in","Rept_Date":"2020-02-29 14"},"coordinates":[1994,6086]},{"type":"Point","properties":{"Station_ID":"WI-RS-1","Station_Nam":"LADYSMITH 2.8 WNW, WI","Latitude":"45.48180","Longitude":"-91.14680","Snowdepth":"16.000","Units":"in","Rept_Date":"2020-02-29 13"},"coordinates":[1430,6286]},{"type":"Point","properties":{"Station_ID":"WI-BY-1","Station_Nam":"BAYFIELD 8.8 N, WI","Latitude":"46.93855","Longitude":"-90.83490","Snowdepth":"16.000","Units":"in","Rept_Date":"2020-02-29 13"},"coordinates":[1503,7152]},{"type":"Point","properties":{"Station_ID":"VT-CH-11","Station_Nam":"UNDERHILL 5.1 NNE, VT","Latitude":"44.59811","Longitude":"-72.91880","Snowdepth":"16.000","Units":"in","Rept_Date":"2020-02-29 12"},"coordinates":[5708,5761]},{"type":"Point","properties":{"Station_ID":"STMM4","Station_Nam":"STAMBAUGH 2SSE","Latitude":"46.05550","Longitude":"-88.62780","Snowdepth":"16.000","Units":"in","Rept_Date":"2020-02-29 13"},"coordinates":[2021,6627]},{"type":"Point","properties":{"Station_ID":"RHLW3","Station_Nam":"RHINELANDER 4NE","Latitude":"45.65270","Longitude":"-89.30740","Snowdepth":"16.000","Units":"in","Rept_Date":"2020-02-29 12"},"coordinates":[1861,6388]},{"type":"Point","properties":{"Station_ID":"NY-ER-63","Station_Nam":"GLENWOOD 1.5 SE, NY","Latitude":"42.60195","Longitude":"-78.63910","Snowdepth":"16.000","Units":"in","Rept_Date":"2020-02-29 13"},"coordinates":[4365,4574]},{"type":"Point","properties":{"Station_ID":"NH-CR-26","Station_Nam":"CENTER SANDWICH 4.9 E, NH","Latitude":"43.80976","Longitude":"-71.34150","Snowdepth":"16.000","Units":"in","Rept_Date":"2020-02-29 12"},"coordinates":[6078,5292]},{"type":"Point","properties":{"Station_ID":"NCKN6","Station_Nam":"NORTH CREEK 5 SE","Latitude":"43.66110","Longitude":"-73.89690","Snowdepth":"16.000","Units":"in","Rept_Date":"2020-02-29 12"},"coordinates":[5478,5204]},{"type":"Point","properties":{"Station_ID":"MTQM4","Station_Nam":"MANISTIQUE WWTP","Latitude":"45.95120","Longitude":"-86.25130","Snowdepth":"16.000","Units":"in","Rept_Date":"2020-02-29 12"},"coordinates":[2579,6565]},{"type":"Point","properties":{"Station_ID":"MRAM4","Station_Nam":"MORAN","Latitude":"45.99030","Longitude":"-84.83610","Snowdepth":"16.000","Units":"in","Rept_Date":"2020-02-29 13"},"coordinates":[2911,6588]},{"type":"Point","properties":{"Station_ID":"MN-MW-8","Station_Nam":"AUSTIN 2.4 W, MN","Latitude":"43.67190","Longitude":"-93.02280","Snowdepth":"16.000","Units":"in","Rept_Date":"2020-02-29 13"},"coordinates":[989,5210]},{"type":"Point","properties":{"Station_ID":"MIEM4","Station_Nam":"MICHIGAMME 3WNW","Latitude":"46.54530","Longitude":"-88.18000","Snowdepth":"16.000","Units":"in","Rept_Date":"2020-02-29 13"},"coordinates":[2126,6918]},{"type":"Point","properties":{"Station_ID":"KSEM4","Station_Nam":"KALKASKA 11SE","Latitude":"44.58970","Longitude":"-85.04860","Snowdepth":"16.000","Units":"in","Rept_Date":"2020-02-29 13"},"coordinates":[2861,5756]},{"type":"Point","properties":{"Station_ID":"FARM1","Station_Nam":"FARMINGTON","Latitude":"44.68930","Longitude":"-70.15640","Snowdepth":"16.000","Units":"in","Rept_Date":"2020-02-29 12"},"coordinates":[6356,5815]},{"type":"Point","properties":{"Station_ID":"ESDN3","Station_Nam":"EAST SANDWICH","Latitude":"43.80990","Longitude":"-71.34250","Snowdepth":"16.000","Units":"in","Rept_Date":"2020-02-29 11"},"coordinates":[6078,5292]},{"type":"Point","properties":{"Station_ID":"BRLN3","Station_Nam":"BERLIN","Latitude":"44.45350","Longitude":"-71.18540","Snowdepth":"16.000","Units":"in","Rept_Date":"2020-02-29 12"},"coordinates":[6114,5675]},{"type":"Point","properties":{"Station_ID":"BRAM5","Station_Nam":"BRAINERD","Latitude":"46.34320","Longitude":"-94.20900","Snowdepth":"16.000","Units":"in","Rept_Date":"2020-02-29 13"},"coordinates":[711,6798]},{"type":"Point","properties":{"Station_ID":"BFHW3","Station_Nam":"BAYFIELD FISH HATCHERY","Latitude":"46.78670","Longitude":"-90.86420","Snowdepth":"16.000","Units":"in","Rept_Date":"2020-02-29 14"},"coordinates":[1496,7062]},{"type":"Point","properties":{"Station_ID":"AUW","Station_Nam":"WAUSAU MUNICIPAL AIRPORT","Latitude":"44.92580","Longitude":"-89.62560","Snowdepth":"16.000","Units":"in","Rept_Date":"2020-03-01 00"},"coordinates":[1787,5955]},{"type":"Point","properties":{"Station_ID":"QWG","Station_Nam":"QWG","Latitude":"48.48890","Longitude":"-73.45940","Snowdepth":"15.905","Units":"in","Rept_Date":"2020-02-29 12"},"coordinates":[5581,8074]},{"type":"Point","properties":{"Station_ID":"WI-AS-4","Station_Nam":"ASHLAND 0.5 WNW, WI","Latitude":"46.58240","Longitude":"-90.88390","Snowdepth":"15.500","Units":"in","Rept_Date":"2020-02-29 13"},"coordinates":[1491,6940]},{"type":"Point","properties":{"Station_ID":"CAN-NB-16","Station_Nam":"DORCHESTER 1.0 SSE, CAN","Latitude":"45.89160","Longitude":"-64.51269","Snowdepth":"15.500","Units":"in","Rept_Date":"2020-02-29 11"},"coordinates":[7681,6530]},{"type":"Point","properties":{"Station_ID":"WUNW3","Station_Nam":"WAUSAU-NORTHEAST","Latitude":"44.97310","Longitude":"-89.61690","Snowdepth":"15.000","Units":"in","Rept_Date":"2020-02-29 13"},"coordinates":[1789,5984]},{"type":"Point","properties":{"Station_ID":"WI-PR-6","Station_Nam":"PHILLIPS 1.3 S, WI","Latitude":"45.67677","Longitude":"-90.39543","Snowdepth":"15.000","Units":"in","Rept_Date":"2020-02-29 12"},"coordinates":[1606,6402]},{"type":"Point","properties":{"Station_ID":"VT-LM-1","Station_Nam":"STOWE 0.2 SW, VT","Latitude":"44.46399","Longitude":"-72.69070","Snowdepth":"15.000","Units":"in","Rept_Date":"2020-02-29 12"},"coordinates":[5761,5681]},{"type":"Point","properties":{"Station_ID":"VT-FR-21","Station_Nam":"FAIRFAX 4.9 WNW, VT","Latitude":"44.68880","Longitude":"-73.10340","Snowdepth":"15.000","Units":"in","Rept_Date":"2020-02-29 14"},"coordinates":[5664,5815]},{"type":"Point","properties":{"Station_ID":"VT-BN-3","Station_Nam":"LANDGROVE 1.1 NNE, VT","Latitude":"43.29092","Longitude":"-72.83260","Snowdepth":"15.000","Units":"in","Rept_Date":"2020-02-29 11"},"coordinates":[5728,4983]},{"type":"Point","properties":{"Station_ID":"SAUW3","Station_Nam":"WAUSAU WSAW TV","Latitude":"44.94630","Longitude":"-89.62220","Snowdepth":"15.000","Units":"in","Rept_Date":"2020-03-01 05"},"coordinates":[1787,5968]},{"type":"Point","properties":{"Station_ID":"PELW3","Station_Nam":"PELLA 3SE","Latitude":"44.73580","Longitude":"-88.73780","Snowdepth":"15.000","Units":"in","Rept_Date":"2020-02-29 11"},"coordinates":[1995,5843]},{"type":"Point","properties":{"Station_ID":"NY-ER-65","Station_Nam":"BOSTON 1.5 NE, NY","Latitude":"42.65470","Longitude":"-78.72010","Snowdepth":"15.000","Units":"in","Rept_Date":"2020-02-29 12"},"coordinates":[4346,4605]},{"type":"Point","properties":{"Station_ID":"NVLV1","Station_Nam":"NASHVILLE","Latitude":"44.44970","Longitude":"-72.92640","Snowdepth":"15.000","Units":"in","Rept_Date":"2020-02-29 12"},"coordinates":[5706,5672]},{"type":"Point","properties":{"Station_ID":"MXON6","Station_Nam":"MEXICO","Latitude":"43.43830","Longitude":"-76.26560","Snowdepth":"15.000","Units":"in","Rept_Date":"2020-02-29 12"},"coordinates":[4922,5071]},{"type":"Point","properties":{"Station_ID":"MQRW3","Station_Nam":"MINOCQUA","Latitude":"45.88630","Longitude":"-89.73220","Snowdepth":"15.000","Units":"in","Rept_Date":"2020-02-29 12"},"coordinates":[1762,6527]},{"type":"Point","properties":{"Station_ID":"JOHV1","Station_Nam":"JOHNSON 2 N","Latitude":"44.65790","Longitude":"-72.67850","Snowdepth":"15.000","Units":"in","Rept_Date":"2020-02-29 12"},"coordinates":[5764,5796]},{"type":"Point","properties":{"Station_ID":"JEFN3","Station_Nam":"JEFFERSON","Latitude":"44.41690","Longitude":"-71.50080","Snowdepth":"15.000","Units":"in","Rept_Date":"2020-02-29 12"},"coordinates":[6040,5653]},{"type":"Point","properties":{"Station_ID":"GRFN8","Station_Nam":"UNIVERSITY","Latitude":"47.93330","Longitude":"-97.08330","Snowdepth":"15.000","Units":"in","Rept_Date":"2020-03-01 06"},"coordinates":[36,7744]},{"type":"Point","properties":{"Station_ID":"ENFV1","Station_Nam":"ENOSBURG FALLS 2","Latitude":"44.90960","Longitude":"-72.81370","Snowdepth":"15.000","Units":"in","Rept_Date":"2020-02-29 12"},"coordinates":[5732,5946]},{"type":"Point","properties":{"Station_ID":"CODN6","Station_Nam":"COLDEN","Latitude":"42.64720","Longitude":"-78.71110","Snowdepth":"15.000","Units":"in","Rept_Date":"2020-02-29 12"},"coordinates":[4348,4601]},{"type":"Point","properties":{"Station_ID":"CNNW3","Station_Nam":"CRANDON","Latitude":"45.55110","Longitude":"-88.89830","Snowdepth":"15.000","Units":"in","Rept_Date":"2020-02-29 12"},"coordinates":[1957,6327]},{"type":"Point","properties":{"Station_ID":"AWXW3","Station_Nam":"ASHLAND","Latitude":"46.58240","Longitude":"-90.88390","Snowdepth":"15.000","Units":"in","Rept_Date":"2020-02-29 13"},"coordinates":[1491,6940]},{"type":"Point","properties":{"Station_ID":"41.8966_080.1567","Station_Nam":"2 NW EDINBORO  SNOW SPOTTER (CLE0251)","Latitude":"41.89660","Longitude":"-80.15670","Snowdepth":"15.000","Units":"in","Rept_Date":"2020-02-29 22"},"coordinates":[4009,4154]},{"type":"Point","properties":{"Station_ID":"WI-PR-8","Station_Nam":"PHILLIPS 0.4 SSW, WI","Latitude":"45.69086","Longitude":"-90.40200","Snowdepth":"14.500","Units":"in","Rept_Date":"2020-02-29 13"},"coordinates":[1604,6410]},{"type":"Point","properties":{"Station_ID":"VT-WS-10","Station_Nam":"NORTHFIELD 1.5 N, VT","Latitude":"44.16986","Longitude":"-72.65200","Snowdepth":"14.500","Units":"in","Rept_Date":"2020-02-29 12"},"coordinates":[5770,5506]},{"type":"Point","properties":{"Station_ID":"NH-CR-27","Station_Nam":"TAMWORTH 0.4 NNW, NH","Latitude":"43.86449","Longitude":"-71.26610","Snowdepth":"14.500","Units":"in","Rept_Date":"2020-02-29 12"},"coordinates":[6096,5324]},{"type":"Point","properties":{"Station_ID":"MN-PK-15","Station_Nam":"MENTOR 2.5 SSW, MN","Latitude":"47.66625","Longitude":"-96.17328","Snowdepth":"14.500","Units":"in","Rept_Date":"2020-02-29 13"},"coordinates":[250,7585]},{"type":"Point","properties":{"Station_ID":"MN-BK-10","Station_Nam":"DETROIT LAKES 5.7 N, MN","Latitude":"46.88666","Longitude":"-95.84444","Snowdepth":"14.500","Units":"in","Rept_Date":"2020-02-29 12"},"coordinates":[327,7121]},{"type":"Point","properties":{"Station_ID":"CAN-PE-3","Station_Nam":"WELLINGTON 1.6 NE, CA","Latitude":"46.46672","Longitude":"-63.98920","Snowdepth":"14.500","Units":"in","Rept_Date":"2020-02-29 11"},"coordinates":[7803,6872]},{"type":"Point","properties":{"Station_ID":"VT-WR-17","Station_Nam":"ROCHESTER 2.3 NE, VT","Latitude":"43.89418","Longitude":"-72.76992","Snowdepth":"14.000","Units":"in","Rept_Date":"2020-02-29 12"},"coordinates":[5743,5342]},{"type":"Point","properties":{"Station_ID":"TMWN3","Station_Nam":"TAMWORTH 4","Latitude":"43.86390","Longitude":"-71.26610","Snowdepth":"14.000","Units":"in","Rept_Date":"2020-02-29 12"},"coordinates":[6096,5324]},{"type":"Point","properties":{"Station_ID":"SVSN6","Station_Nam":"SILVER SPRINGS 3N","Latitude":"42.70580","Longitude":"-78.09370","Snowdepth":"14.000","Units":"in","Rept_Date":"2020-02-29 12"},"coordinates":[4493,4636]},{"type":"Point","properties":{"Station_ID":"SD-CD-30","Station_Nam":"WATERTOWN 2.3 E, SD","Latitude":"44.91604","Longitude":"-97.11925","Snowdepth":"14.000","Units":"in","Rept_Date":"2020-02-29 13"},"coordinates":[28,5950]},{"type":"Point","properties":{"Station_ID":"RHRW3","Station_Nam":"RHINELANDER WJFW TV-12","Latitude":"45.62220","Longitude":"-89.41000","Snowdepth":"14.000","Units":"in","Rept_Date":"2020-03-01 04"},"coordinates":[1837,6370]},{"type":"Point","properties":{"Station_ID":"RHI","Station_Nam":"RHINELANDER-ONEIDA COUNTY AIRPORT","Latitude":"45.63080","Longitude":"-89.46530","Snowdepth":"14.000","Units":"in","Rept_Date":"2020-03-01 00"},"coordinates":[1824,6375]},{"type":"Point","properties":{"Station_ID":"PGVN6","Station_Nam":"PORTAGEVILLE","Latitude":"42.57580","Longitude":"-78.06720","Snowdepth":"14.000","Units":"in","Rept_Date":"2020-02-29 13"},"coordinates":[4499,4558]},{"type":"Point","properties":{"Station_ID":"NY-WY-11","Station_Nam":"SILVER SPRINGS COOP, NY","Latitude":"42.70580","Longitude":"-78.09370","Snowdepth":"14.000","Units":"in","Rept_Date":"2020-02-29 12"},"coordinates":[4493,4636]},{"type":"Point","properties":{"Station_ID":"NY-JF-26","Station_Nam":"MANNSVILLE 0.3 SE, NY","Latitude":"43.71225","Longitude":"-76.06210","Snowdepth":"14.000","Units":"in","Rept_Date":"2020-02-29 12"},"coordinates":[4970,5234]},{"type":"Point","properties":{"Station_ID":"NALN6","Station_Nam":"CATTARAUGUS","Latitude":"42.32450","Longitude":"-78.86700","Snowdepth":"14.000","Units":"in","Rept_Date":"2020-02-29 13"},"coordinates":[4312,4409]},{"type":"Point","properties":{"Station_ID":"MNLGGILP","Station_Nam":"LONG PRAIRIE 1.1 WSW","Latitude":"45.96913","Longitude":"-94.88686","Snowdepth":"14.000","Units":"in","Rept_Date":"2020-02-29 12"},"coordinates":[552,6576]},{"type":"Point","properties":{"Station_ID":"MN-BM-15","Station_Nam":"BEMIDJI 7.8 ENE, MN","Latitude":"47.52043","Longitude":"-94.72121","Snowdepth":"14.000","Units":"in","Rept_Date":"2020-02-29 13"},"coordinates":[591,7498]},{"type":"Point","properties":{"Station_ID":"MLLW3","Station_Nam":"MERRILL 8W","Latitude":"45.17810","Longitude":"-89.84810","Snowdepth":"14.000","Units":"in","Rept_Date":"2020-02-29 12"},"coordinates":[1734,6105]},{"type":"Point","properties":{"Station_ID":"LNGM5","Station_Nam":"LONG PRAIRIE","Latitude":"45.96460","Longitude":"-94.88920","Snowdepth":"14.000","Units":"in","Rept_Date":"2020-02-29 12"},"coordinates":[551,6573]},{"type":"Point","properties":{"Station_ID":"EPTW3","Station_Nam":"EAU PLEINE TENDER","Latitude":"44.77220","Longitude":"-89.76720","Snowdepth":"14.000","Units":"in","Rept_Date":"2020-02-29 13"},"coordinates":[1753,5864]},{"type":"Point","properties":{"Station_ID":"EGRW3","Station_Nam":"EAGLE RIVER-SOUTH","Latitude":"45.91360","Longitude":"-89.24360","Snowdepth":"14.000","Units":"in","Rept_Date":"2020-02-29 13"},"coordinates":[1876,6543]},{"type":"Point","properties":{"Station_ID":"CHRM4","Station_Nam":"CHARLEVOIX","Latitude":"45.31720","Longitude":"-85.26720","Snowdepth":"14.000","Units":"in","Rept_Date":"2020-02-29 13"},"coordinates":[2810,6188]},{"type":"Point","properties":{"Station_ID":"CAN-ON-208","Station_Nam":"PAKENHAM 7.8 NNW, CAN","Latitude":"45.39166","Longitude":"-76.34111","Snowdepth":"14.000","Units":"in","Rept_Date":"2020-02-29 12"},"coordinates":[4904,6232]},{"type":"Point","properties":{"Station_ID":"BETM1","Station_Nam":"BETHEL 6 SSE","Latitude":"44.32000","Longitude":"-70.75680","Snowdepth":"14.000","Units":"in","Rept_Date":"2020-02-29 12"},"coordinates":[6215,5595]},{"type":"Point","properties":{"Station_ID":"AROM4","Station_Nam":"ARNOLD,MI","Latitude":"46.06670","Longitude":"-87.48330","Snowdepth":"14.000","Units":"in","Rept_Date":"2020-02-29 13"},"coordinates":[2289,6634]},{"type":"Point","properties":{"Station_ID":"42.2002_079.8021","Station_Nam":"2 ESE North East  Trained Spotter (CLE0183)","Latitude":"42.20018","Longitude":"-79.80210","Snowdepth":"14.000","Units":"in","Rept_Date":"2020-03-01 00"},"coordinates":[4092,4335]},{"type":"Point","properties":{"Station_ID":"41.7396_080.5416","Station_Nam":"PIERPONT 2SE (CLE1412)","Latitude":"41.73960","Longitude":"-80.54160","Snowdepth":"14.000","Units":"in","Rept_Date":"2020-02-29 13"},"coordinates":[3919,4061]},{"type":"Point","properties":{"Station_ID":"WI-LN-2","Station_Nam":"MERRILL 7.0 W, WI","Latitude":"45.17746","Longitude":"-89.84820","Snowdepth":"13.500","Units":"in","Rept_Date":"2020-02-29 12"},"coordinates":[1734,6105]},{"type":"Point","properties":{"Station_ID":"NH-GR-49","Station_Nam":"PLYMOUTH 3.7 N, NH","Latitude":"43.79048","Longitude":"-71.68413","Snowdepth":"13.500","Units":"in","Rept_Date":"2020-02-29 12"},"coordinates":[5997,5280]},{"type":"Point","properties":{"Station_ID":"FTHQ6","Station_Nam":"FORT HOPE","Latitude":"51.55820","Longitude":"-87.90510","Snowdepth":"13.190","Units":"in","Rept_Date":"2020-03-01 06"},"coordinates":[2190,9899]},{"type":"Point","properties":{"Station_ID":"WI-PT-8","Station_Nam":"RUDOLPH 2.1 NNE, WI","Latitude":"44.52553","Longitude":"-89.78677","Snowdepth":"13.000","Units":"in","Rept_Date":"2020-02-29 11"},"coordinates":[1749,5717]},{"type":"Point","properties":{"Station_ID":"WI-DR-5","Station_Nam":"ELLISON BAY 2.2 E, WI","Latitude":"45.25750","Longitude":"-87.02670","Snowdepth":"13.000","Units":"in","Rept_Date":"2020-02-29 13"},"coordinates":[2397,6153]},{"type":"Point","properties":{"Station_ID":"VT-WR-2","Station_Nam":"POMFRET 2.6 N, VT","Latitude":"43.74230","Longitude":"-72.52550","Snowdepth":"13.000","Units":"in","Rept_Date":"2020-02-29 12"},"coordinates":[5800,5252]},{"type":"Point","properties":{"Station_ID":"VT-OG-11","Station_Nam":"VERSHIRE 1.5 ESE, VT","Latitude":"43.96138","Longitude":"-72.29777","Snowdepth":"13.000","Units":"in","Rept_Date":"2020-02-29 12"},"coordinates":[5853,5382]},{"type":"Point","properties":{"Station_ID":"TOPM1","Station_Nam":"TOPSFIELD","Latitude":"45.43470","Longitude":"-67.72020","Snowdepth":"13.000","Units":"in","Rept_Date":"2020-02-29 12"},"coordinates":[6928,6258]},{"type":"Point","properties":{"Station_ID":"STRW3","Station_Nam":"STRATFORD 1NW","Latitude":"44.81750","Longitude":"-90.08990","Snowdepth":"13.000","Units":"in","Rept_Date":"2020-02-29 13"},"coordinates":[1678,5891]},{"type":"Point","properties":{"Station_ID":"SBOP1","Station_Nam":"SPRINGBORO","Latitude":"41.81660","Longitude":"-80.43330","Snowdepth":"13.000","Units":"in","Rept_Date":"2020-02-29 12"},"coordinates":[3944,4107]},{"type":"Point","properties":{"Station_ID":"SBNM5","Station_Nam":"SABIN","Latitude":"46.77690","Longitude":"-96.65610","Snowdepth":"13.000","Units":"in","Rept_Date":"2020-02-29 14"},"coordinates":[137,7056]},{"type":"Point","properties":{"Station_ID":"PLFV1","Station_Nam":"PLAINFIELD","Latitude":"44.27610","Longitude":"-72.41500","Snowdepth":"13.000","Units":"in","Rept_Date":"2020-02-29 12"},"coordinates":[5826,5569]},{"type":"Point","properties":{"Station_ID":"PERV1","Station_Nam":"PERU","Latitude":"43.26670","Longitude":"-72.90000","Snowdepth":"13.000","Units":"in","Rept_Date":"2020-02-29 12"},"coordinates":[5712,4969]},{"type":"Point","properties":{"Station_ID":"PA-CW-8","Station_Nam":"SPRINGBORO 3.0 WNW, PA","Latitude":"41.81654","Longitude":"-80.42540","Snowdepth":"13.000","Units":"in","Rept_Date":"2020-02-29 12"},"coordinates":[3946,4107]},{"type":"Point","properties":{"Station_ID":"NYMM5","Station_Nam":"NEW YORK MILLS","Latitude":"46.50920","Longitude":"-95.37990","Snowdepth":"13.000","Units":"in","Rept_Date":"2020-02-29 14"},"coordinates":[436,6897]},{"type":"Point","properties":{"Station_ID":"NY-CQ-39","Station_Nam":"GERRY 0.8 N, NY","Latitude":"42.20500","Longitude":"-79.24700","Snowdepth":"13.000","Units":"in","Rept_Date":"2020-02-29 13"},"coordinates":[4222,4338]},{"type":"Point","properties":{"Station_ID":"NUMM5","Station_Nam":"NEW ULM 3SE","Latitude":"44.29450","Longitude":"-94.40840","Snowdepth":"13.000","Units":"in","Rept_Date":"2020-02-29 11"},"coordinates":[664,5580]},{"type":"Point","properties":{"Station_ID":"ND-CS-25","Station_Nam":"FARGO 2.1 N, ND","Latitude":"46.90816","Longitude":"-96.77937","Snowdepth":"13.000","Units":"in","Rept_Date":"2020-02-29 14"},"coordinates":[108,7134]},{"type":"Point","properties":{"Station_ID":"MNF74YNU","Station_Nam":"NEW ULM 3.3 ESE","Latitude":"44.29029","Longitude":"-94.40196","Snowdepth":"13.000","Units":"in","Rept_Date":"2020-02-29 11"},"coordinates":[666,5578]},{"type":"Point","properties":{"Station_ID":"LBRM5","Station_Nam":"LAKE BRONSON DAM","Latitude":"48.72410","Longitude":"-96.62180","Snowdepth":"13.000","Units":"in","Rept_Date":"2020-02-29 14"},"coordinates":[145,8214]},{"type":"Point","properties":{"Station_ID":"HRTM1","Station_Nam":"HARTFORD","Latitude":"44.37440","Longitude":"-70.31620","Snowdepth":"13.000","Units":"in","Rept_Date":"2020-02-29 12"},"coordinates":[6318,5628]},{"type":"Point","properties":{"Station_ID":"GRBM5","Station_Nam":"GRAND RAPIDS 12N","Latitude":"47.39800","Longitude":"-93.51330","Snowdepth":"13.000","Units":"in","Rept_Date":"2020-02-29 21"},"coordinates":[874,7425]},{"type":"Point","properties":{"Station_ID":"CAN-NB-98","Station_Nam":"HOYT 4.2 S, CAN","Latitude":"45.54763","Longitude":"-66.55440","Snowdepth":"13.000","Units":"in","Rept_Date":"2020-02-29 11"},"coordinates":[7201,6325]},{"type":"Point","properties":{"Station_ID":"BAGM4","Station_Nam":"BARAGA 7NW","Latitude":"46.82100","Longitude":"-88.60590","Snowdepth":"13.000","Units":"in","Rept_Date":"2020-02-29 13"},"coordinates":[2026,7082]},{"type":"Point","properties":{"Station_ID":"42.1284_079.8945","Station_Nam":"NORTHEAST 6SW (CLE0249)","Latitude":"42.12840","Longitude":"-79.89450","Snowdepth":"13.000","Units":"in","Rept_Date":"2020-02-29 23"},"coordinates":[4070,4292]},{"type":"Point","properties":{"Station_ID":"41.8166_080.4333","Station_Nam":"3 WNW Springboro  Co-Op Observer (SBOP1)","Latitude":"41.81660","Longitude":"-80.43330","Snowdepth":"13.000","Units":"in","Rept_Date":"2020-02-29 12"},"coordinates":[3944,4107]},{"type":"Point","properties":{"Station_ID":"41.8165_080.4254","Station_Nam":"3 WNW Springboro  CoCoRaHS (PA-CW-8)","Latitude":"41.81650","Longitude":"-80.42540","Snowdepth":"13.000","Units":"in","Rept_Date":"2020-02-29 12"},"coordinates":[3946,4107]},{"type":"Point","properties":{"Station_ID":"CAN-MB-298","Station_Nam":"GARDENTON 4.2 W - SRRCD, CAN","Latitude":"49.09480","Longitude":"-96.75446","Snowdepth":"12.600","Units":"in","Rept_Date":"2020-02-29 14"},"coordinates":[114,8434]},{"type":"Point","properties":{"Station_ID":"WI-BT-14","Station_Nam":"OAKLAND 9.0 ENE, WI","Latitude":"45.95184","Longitude":"-92.21653","Snowdepth":"12.500","Units":"in","Rept_Date":"2020-02-29 13"},"coordinates":[1179,6565]},{"type":"Point","properties":{"Station_ID":"MI-GT-21","Station_Nam":"KINGSLEY 2.7 ENE, MI","Latitude":"44.59871","Longitude":"-85.48426","Snowdepth":"12.500","Units":"in","Rept_Date":"2020-02-29 13"},"coordinates":[2759,5761]},{"type":"Point","properties":{"Station_ID":"QGT","Station_Nam":"QGT","Latitude":"49.64720","Longitude":"-67.62640","Snowdepth":"12.205","Units":"in","Rept_Date":"2020-02-29 12"},"coordinates":[6950,8763]},{"type":"Point","properties":{"Station_ID":"CAN-ON-187","Station_Nam":"WATERLOO 1.9 E - UOFW, CAN","Latitude":"43.47024","Longitude":"-80.50634","Snowdepth":"12.200","Units":"in","Rept_Date":"2020-02-29 13"},"coordinates":[3927,5090]},{"type":"Point","properties":{"Station_ID":"CAN-ON-120","Station_Nam":"DUNROBIN 5.8 NE MIVCA, CA","Latitude":"45.46243","Longitude":"-75.97120","Snowdepth":"12.200","Units":"in","Rept_Date":"2020-02-29 12"},"coordinates":[4991,6275]},{"type":"Point","properties":{"Station_ID":"WLKM5","Station_Nam":"AH-GWAH-CHING","Latitude":"47.15000","Longitude":"-94.65000","Snowdepth":"12.000","Units":"in","Rept_Date":"2020-02-29 14"},"coordinates":[607,7278]},{"type":"Point","properties":{"Station_ID":"WILW3","Station_Nam":"RESERVOIR","Latitude":"45.70000","Longitude":"-89.83330","Snowdepth":"12.000","Units":"in","Rept_Date":"2020-02-29 12"},"coordinates":[1738,6416]},{"type":"Point","properties":{"Station_ID":"WI-BR-2","Station_Nam":"CHETEK 2.0 SE, WI","Latitude":"45.29427","Longitude":"-91.62470","Snowdepth":"12.000","Units":"in","Rept_Date":"2020-02-29 13"},"coordinates":[1317,6175]},{"type":"Point","properties":{"Station_ID":"WASW3","Station_Nam":"WASHINGTON IS","Latitude":"45.35800","Longitude":"-86.89110","Snowdepth":"12.000","Units":"in","Rept_Date":"2020-02-29 12"},"coordinates":[2428,6212]},{"type":"Point","properties":{"Station_ID":"VT-FR-19","Station_Nam":"SWANTON 0.5 NNE, VT","Latitude":"44.92590","Longitude":"-73.12145","Snowdepth":"12.000","Units":"in","Rept_Date":"2020-02-29 12"},"coordinates":[5660,5956]},{"type":"Point","properties":{"Station_ID":"VT-CH-13","Station_Nam":"RICHMOND 3.4 SSE, VT","Latitude":"44.36084","Longitude":"-72.96400","Snowdepth":"12.000","Units":"in","Rept_Date":"2020-02-29 12"},"coordinates":[5697,5620]},{"type":"Point","properties":{"Station_ID":"SNOW2","Station_Nam":"SNOWSHOE","Latitude":"38.39900","Longitude":"-79.99490","Snowdepth":"12.000","Units":"in","Rept_Date":"2020-02-29 11"},"coordinates":[4047,2075]},{"type":"Point","properties":{"Station_ID":"RRVM4","Station_Nam":"RAPID RIVER 9S","Latitude":"45.78750","Longitude":"-86.93920","Snowdepth":"12.000","Units":"in","Rept_Date":"2020-02-29 13"},"coordinates":[2417,6468]},{"type":"Point","properties":{"Station_ID":"PVRW3","Station_Nam":"PLOVER-2-E WATER TREATMENT PLANT","Latitude":"44.45920","Longitude":"-89.49530","Snowdepth":"12.000","Units":"in","Rept_Date":"2020-02-29 13"},"coordinates":[1817,5678]},{"type":"Point","properties":{"Station_ID":"PULN6","Station_Nam":"PULASKI","Latitude":"43.56960","Longitude":"-76.11630","Snowdepth":"12.000","Units":"in","Rept_Date":"2020-02-29 11"},"coordinates":[4957,5149]},{"type":"Point","properties":{"Station_ID":"OTTM5","Station_Nam":"OTTERTAIL,MN","Latitude":"46.41670","Longitude":"-95.56670","Snowdepth":"12.000","Units":"in","Rept_Date":"2020-02-29 13"},"coordinates":[392,6842]},{"type":"Point","properties":{"Station_ID":"NY-ES-7","Station_Nam":"KEESEVILLE 0.8 SE, NY","Latitude":"44.49504","Longitude":"-73.47109","Snowdepth":"12.000","Units":"in","Rept_Date":"2020-02-29 12"},"coordinates":[5578,5699]},{"type":"Point","properties":{"Station_ID":"NH-MR-6","Station_Nam":"DANBURY 2.2 ESE, NH","Latitude":"43.52000","Longitude":"-71.81900","Snowdepth":"12.000","Units":"in","Rept_Date":"2020-02-29 13"},"coordinates":[5966,5120]},{"type":"Point","properties":{"Station_ID":"MNEY8CTB","Station_Nam":"MIDLAND JUNCTION 2.2 ENE","Latitude":"44.33041","Longitude":"-91.95891","Snowdepth":"12.000","Units":"in","Rept_Date":"2020-02-29 14"},"coordinates":[1239,5601]},{"type":"Point","properties":{"Station_ID":"MI-BZ-1","Station_Nam":"BENZONIA 5.3 S, MI","Latitude":"44.53976","Longitude":"-86.10650","Snowdepth":"12.000","Units":"in","Rept_Date":"2020-02-29 14"},"coordinates":[2613,5726]},{"type":"Point","properties":{"Station_ID":"MAPM4","Station_Nam":"MAPLE CITY 1E","Latitude":"44.85500","Longitude":"-85.83520","Snowdepth":"12.000","Units":"in","Rept_Date":"2020-03-01 02"},"coordinates":[2676,5913]},{"type":"Point","properties":{"Station_ID":"LTVN6","Station_Nam":"LITTLE VALLEY","Latitude":"42.24730","Longitude":"-78.81250","Snowdepth":"12.000","Units":"in","Rept_Date":"2020-02-29 12"},"coordinates":[4324,4363]},{"type":"Point","properties":{"Station_ID":"KGFK","Station_Nam":"GRAND FORKS INTERNATIONAL","Latitude":"47.95000","Longitude":"-97.18333","Snowdepth":"12.000","Units":"in","Rept_Date":"2020-03-01 06"},"coordinates":[13,7753]},{"type":"Point","properties":{"Station_ID":"ILEW3","Station_Nam":"STILES 1S","Latitude":"44.84190","Longitude":"-88.05420","Snowdepth":"12.000","Units":"in","Rept_Date":"2020-02-29 13"},"coordinates":[2155,5906]},{"type":"Point","properties":{"Station_ID":"GFK","Station_Nam":"GRAND FORKS INTERNATIONAL AIRPORT","Latitude":"47.94920","Longitude":"-97.17610","Snowdepth":"12.000","Units":"in","Rept_Date":"2020-03-01 00"},"coordinates":[15,7753]},{"type":"Point","properties":{"Station_ID":"CAN-MB-32","Station_Nam":"PINAWA 1.0 SW, CA","Latitude":"50.14747","Longitude":"-95.89020","Snowdepth":"12.000","Units":"in","Rept_Date":"2020-02-29 13"},"coordinates":[316,9060]},{"type":"Point","properties":{"Station_ID":"BALW3","Station_Nam":"BALDWIN","Latitude":"44.96330","Longitude":"-92.39050","Snowdepth":"12.000","Units":"in","Rept_Date":"2020-02-29 13"},"coordinates":[1138,5978]},{"type":"Point","properties":{"Station_ID":"ATAN6","Station_Nam":"ATTICA 7 SW","Latitude":"42.81070","Longitude":"-78.39790","Snowdepth":"12.000","Units":"in","Rept_Date":"2020-02-29 11"},"coordinates":[4422,4698]},{"type":"Point","properties":{"Station_ID":"ABGW3","Station_Nam":"AMBERG 9 E","Latitude":"45.48250","Longitude":"-87.81190","Snowdepth":"12.000","Units":"in","Rept_Date":"2020-02-29 12"},"coordinates":[2212,6286]},{"type":"Point","properties":{"Station_ID":"41.8717_080.0850","Station_Nam":"EDINBORO 2E  SNOW SPOTTER (X4190801)","Latitude":"41.87170","Longitude":"-80.08500","Snowdepth":"12.000","Units":"in","Rept_Date":"2020-03-01 00"},"coordinates":[4026,4140]},{"type":"Point","properties":{"Station_ID":"41.8210_079.8343","Station_Nam":"CANADOHTA LAKE (CLE0326)","Latitude":"41.82100","Longitude":"-79.83430","Snowdepth":"12.000","Units":"in","Rept_Date":"2020-02-29 14"},"coordinates":[4085,4110]},{"type":"Point","properties":{"Station_ID":"41.6346_080.6614","Station_Nam":"1 E DORSET  SNOW SPOTTER (CLE1453)","Latitude":"41.63460","Longitude":"-80.66140","Snowdepth":"12.000","Units":"in","Rept_Date":"2020-02-29 12"},"coordinates":[3890,3999]},{"type":"Point","properties":{"Station_ID":"38.3990_079.9949","Station_Nam":"SNOWSHOE  CO-OP OBSERVER (X3840800)","Latitude":"38.39900","Longitude":"-79.99490","Snowdepth":"12.000","Units":"in","Rept_Date":"2020-02-29 11"},"coordinates":[4047,2075]},{"type":"Point","properties":{"Station_ID":"WI-WN-9","Station_Nam":"NEENAH 1.1 ENE, WI","Latitude":"44.17370","Longitude":"-88.45130","Snowdepth":"11.500","Units":"in","Rept_Date":"2020-02-29 13"},"coordinates":[2062,5508]},{"type":"Point","properties":{"Station_ID":"WI-GN-5","Station_Nam":"MONTICELLO 2.2 SE, WI","Latitude":"42.71990","Longitude":"-89.56360","Snowdepth":"11.500","Units":"in","Rept_Date":"2020-02-29 13"},"coordinates":[1801,4644]},{"type":"Point","properties":{"Station_ID":"ND-CS-1","Station_Nam":"WEST FARGO 3.8 SSE, ND","Latitude":"46.82750","Longitude":"-96.85280","Snowdepth":"11.500","Units":"in","Rept_Date":"2020-02-29 13"},"coordinates":[90,7086]},{"type":"Point","properties":{"Station_ID":"MI-GT-25","Station_Nam":"TRAVERSE CITY 4.7 ESE, MI","Latitude":"44.73370","Longitude":"-85.51189","Snowdepth":"11.500","Units":"in","Rept_Date":"2020-02-29 12"},"coordinates":[2752,5841]},{"type":"Point","properties":{"Station_ID":"MI-CF-9","Station_Nam":"GRAYLING 15.8 NE, MI","Latitude":"44.80464","Longitude":"-84.46313","Snowdepth":"11.500","Units":"in","Rept_Date":"2020-02-29 12"},"coordinates":[2998,5883]},{"type":"Point","properties":{"Station_ID":"CAN-PE-7","Station_Nam":"MORELL 1.4 NNW, CA","Latitude":"46.42741","Longitude":"-62.70870","Snowdepth":"11.200","Units":"in","Rept_Date":"2020-02-29 12"},"coordinates":[8104,6848]},{"type":"Point","properties":{"Station_ID":"WSFW3","Station_Nam":"TOWN OF WESTFORD","Latitude":"43.47190","Longitude":"-88.88250","Snowdepth":"11.000","Units":"in","Rept_Date":"2020-02-29 13"},"coordinates":[1961,5091]},{"type":"Point","properties":{"Station_ID":"WRUM5","Station_Nam":"WARROAD 4W","Latitude":"48.89600","Longitude":"-95.40700","Snowdepth":"11.000","Units":"in","Rept_Date":"2020-03-01 04"},"coordinates":[430,8316]},{"type":"Point","properties":{"Station_ID":"WNNM5","Station_Nam":"WINNEBAGO","Latitude":"43.76920","Longitude":"-94.18730","Snowdepth":"11.000","Units":"in","Rept_Date":"2020-02-29 13"},"coordinates":[716,5268]},{"type":"Point","properties":{"Station_ID":"WI-DD-16","Station_Nam":"BEAVER DAM 2.4 WNW, WI","Latitude":"43.47210","Longitude":"-88.88280","Snowdepth":"11.000","Units":"in","Rept_Date":"2020-02-29 13"},"coordinates":[1961,5091]},{"type":"Point","properties":{"Station_ID":"WI-CH-7","Station_Nam":"CHIPPEWA FALLS 1.2 E, WI","Latitude":"44.92920","Longitude":"-91.36730","Snowdepth":"11.000","Units":"in","Rept_Date":"2020-02-29 13"},"coordinates":[1378,5957]},{"type":"Point","properties":{"Station_ID":"WAIV1","Station_Nam":"WAITSFIELD","Latitude":"44.17560","Longitude":"-72.79610","Snowdepth":"11.000","Units":"in","Rept_Date":"2020-02-29 12"},"coordinates":[5736,5509]},{"type":"Point","properties":{"Station_ID":"VT-WS-11","Station_Nam":"WAITSFIELD 1.8 SE, VT","Latitude":"44.17551","Longitude":"-72.79540","Snowdepth":"11.000","Units":"in","Rept_Date":"2020-02-29 12"},"coordinates":[5737,5509]},{"type":"Point","properties":{"Station_ID":"TCMM4","Station_Nam":"TRAVERSE CITY MUNSON","Latitude":"44.76070","Longitude":"-85.64430","Snowdepth":"11.000","Units":"in","Rept_Date":"2020-02-29 11"},"coordinates":[2721,5857]},{"type":"Point","properties":{"Station_ID":"TCEM4","Station_Nam":"TRAVERSE CITY 5ESE","Latitude":"44.73370","Longitude":"-85.51180","Snowdepth":"11.000","Units":"in","Rept_Date":"2020-02-29 12"},"coordinates":[2752,5841]},{"type":"Point","properties":{"Station_ID":"STPW3","Station_Nam":"STEVENS POINT","Latitude":"44.51130","Longitude":"-89.58550","Snowdepth":"11.000","Units":"in","Rept_Date":"2020-02-29 13"},"coordinates":[1796,5709]},{"type":"Point","properties":{"Station_ID":"RUHN6","Station_Nam":"RUSHFORD","Latitude":"42.42610","Longitude":"-78.19220","Snowdepth":"11.000","Units":"in","Rept_Date":"2020-02-29 13"},"coordinates":[4470,4469]},{"type":"Point","properties":{"Station_ID":"RRLW3","Station_Nam":"MERRILL,WI","Latitude":"45.17860","Longitude":"-89.66170","Snowdepth":"11.000","Units":"in","Rept_Date":"2020-02-29 14"},"coordinates":[1778,6106]},{"type":"Point","properties":{"Station_ID":"RCEM5","Station_Nam":"RICE","Latitude":"45.75760","Longitude":"-94.20720","Snowdepth":"11.000","Units":"in","Rept_Date":"2020-02-29 13"},"coordinates":[711,6450]},{"type":"Point","properties":{"Station_ID":"PULW3","Station_Nam":"PULASKI WWTP","Latitude":"44.67830","Longitude":"-88.22750","Snowdepth":"11.000","Units":"in","Rept_Date":"2020-02-29 12"},"coordinates":[2115,5808]},{"type":"Point","properties":{"Station_ID":"NY-SL-6","Station_Nam":"HANNAWA FALLS 0.1 SW, NY","Latitude":"44.61154","Longitude":"-74.97190","Snowdepth":"11.000","Units":"in","Rept_Date":"2020-02-29 12"},"coordinates":[5226,5769]},{"type":"Point","properties":{"Station_ID":"NY-OS-15","Station_Nam":"MINETTO 0.1 SE, NY","Latitude":"43.39771","Longitude":"-76.47960","Snowdepth":"11.000","Units":"in","Rept_Date":"2020-02-29 13"},"coordinates":[4872,5047]},{"type":"Point","properties":{"Station_ID":"NY-NG-12","Station_Nam":"LOCKPORT 0.8 NE, NY","Latitude":"43.17645","Longitude":"-78.68340","Snowdepth":"11.000","Units":"in","Rept_Date":"2020-02-29 12"},"coordinates":[4355,4915]},{"type":"Point","properties":{"Station_ID":"NY-CT-2","Station_Nam":"RANDOLPH 1.1 ENE, NY","Latitude":"42.17056","Longitude":"-78.96120","Snowdepth":"11.000","Units":"in","Rept_Date":"2020-02-29 12"},"coordinates":[4290,4317]},{"type":"Point","properties":{"Station_ID":"NCON3","Station_Nam":"NORTH CONWAY","Latitude":"44.05620","Longitude":"-71.12970","Snowdepth":"11.000","Units":"in","Rept_Date":"2020-02-29 12"},"coordinates":[6128,5438]},{"type":"Point","properties":{"Station_ID":"MRQM4","Station_Nam":"MARQUETTE WFP","Latitude":"46.54580","Longitude":"-87.37950","Snowdepth":"11.000","Units":"in","Rept_Date":"2020-02-29 13"},"coordinates":[2314,6919]},{"type":"Point","properties":{"Station_ID":"MN-SH-10","Station_Nam":"BIG LAKE 5.6 NNE, MN","Latitude":"45.41409","Longitude":"-93.69190","Snowdepth":"11.000","Units":"in","Rept_Date":"2020-02-29 13"},"coordinates":[832,6246]},{"type":"Point","properties":{"Station_ID":"MN-FM-10","Station_Nam":"WYKOFF 3.1 NW, MN","Latitude":"43.74340","Longitude":"-92.30650","Snowdepth":"11.000","Units":"in","Rept_Date":"2020-02-29 13"},"coordinates":[1157,5252]},{"type":"Point","properties":{"Station_ID":"MCLN8","Station_Nam":"MC LEOD,ND","Latitude":"46.40250","Longitude":"-97.23810","Snowdepth":"11.000","Units":"in","Rept_Date":"2020-02-29 12"},"coordinates":[0,6833]},{"type":"Point","properties":{"Station_ID":"FDRN8","Station_Nam":"FARGO 3S","Latitude":"46.82930","Longitude":"-96.79620","Snowdepth":"11.000","Units":"in","Rept_Date":"2020-03-01 00"},"coordinates":[104,7087]},{"type":"Point","properties":{"Station_ID":"ESAM4","Station_Nam":"ESCANABA","Latitude":"45.74380","Longitude":"-87.04060","Snowdepth":"11.000","Units":"in","Rept_Date":"2020-02-29 11"},"coordinates":[2393,6442]},{"type":"Point","properties":{"Station_ID":"CAN-NS-163","Station_Nam":"SYDNEY MINES 2.2 WNW, CAN","Latitude":"46.24851","Longitude":"-60.25161","Snowdepth":"11.000","Units":"in","Rept_Date":"2020-02-29 12"},"coordinates":[8681,6742]},{"type":"Point","properties":{"Station_ID":"BKBW2","Station_Nam":"DAVIS.","Latitude":"39.09830","Longitude":"-79.43190","Snowdepth":"11.000","Units":"in","Rept_Date":"2020-02-29 12"},"coordinates":[4179,2491]},{"type":"Point","properties":{"Station_ID":"ARTM5","Station_Nam":"ARTICHOKE LAKE 1 E","Latitude":"45.38560","Longitude":"-96.12570","Snowdepth":"11.000","Units":"in","Rept_Date":"2020-03-01 03"},"coordinates":[261,6229]},{"type":"Point","properties":{"Station_ID":"41.9492_079.7821","Station_Nam":"AMITY TWP (CLE0216)","Latitude":"41.94920","Longitude":"-79.78210","Snowdepth":"11.000","Units":"in","Rept_Date":"2020-03-01 00"},"coordinates":[4097,4186]},{"type":"Point","properties":{"Station_ID":"41.8222_080.1028","Station_Nam":"CAMBRIDGE SPRINGS  SNOW SPOTTER (CLE0344)","Latitude":"41.82220","Longitude":"-80.10280","Snowdepth":"11.000","Units":"in","Rept_Date":"2020-03-01 02"},"coordinates":[4022,4110]},{"type":"Point","properties":{"Station_ID":"41.6972_080.9056","Station_Nam":"3 ENE Trumbull  Trained Spotter (CLE1480)","Latitude":"41.69720","Longitude":"-80.90557","Snowdepth":"11.000","Units":"in","Rept_Date":"2020-02-29 15"},"coordinates":[3833,4036]},{"type":"Point","properties":{"Station_ID":"MN-SH-985","Station_Nam":"PRINCETON 3.3 WSW, MN","Latitude":"45.55211","Longitude":"-93.64481","Snowdepth":"10.500","Units":"in","Rept_Date":"2020-02-29 13"},"coordinates":[843,6328]},{"type":"Point","properties":{"Station_ID":"MN-MR-13","Station_Nam":"LITTLE FALLS 8.0 NE, MN","Latitude":"46.06785","Longitude":"-94.24789","Snowdepth":"10.500","Units":"in","Rept_Date":"2020-02-29 13"},"coordinates":[702,6634]},{"type":"Point","properties":{"Station_ID":"MN-MC-16","Station_Nam":"HUTCHINSON 0.1 ENE, MN","Latitude":"44.88633","Longitude":"-94.37503","Snowdepth":"10.500","Units":"in","Rept_Date":"2020-02-29 13"},"coordinates":[672,5932]},{"type":"Point","properties":{"Station_ID":"CAN-ON-748","Station_Nam":"WHITBY 2.4 SW, CAN","Latitude":"43.88036","Longitude":"-78.95664","Snowdepth":"10.500","Units":"in","Rept_Date":"2020-02-29 12"},"coordinates":[4291,5334]},{"type":"Point","properties":{"Station_ID":"WMRM5","Station_Nam":"WILLMAR 5N","Latitude":"45.19010","Longitude":"-95.05860","Snowdepth":"10.000","Units":"in","Rept_Date":"2020-02-29 12"},"coordinates":[512,6113]},{"type":"Point","properties":{"Station_ID":"WIRW3","Station_Nam":"WIS RAPIDS GRAND AV B","Latitude":"44.39940","Longitude":"-89.83050","Snowdepth":"10.000","Units":"in","Rept_Date":"2020-02-29 13"},"coordinates":[1739,5643]},{"type":"Point","properties":{"Station_ID":"WI-EC-23","Station_Nam":"EAU CLAIRE 3.7 S, WI","Latitude":"44.76858","Longitude":"-91.49898","Snowdepth":"10.000","Units":"in","Rept_Date":"2020-02-29 14"},"coordinates":[1347,5862]},{"type":"Point","properties":{"Station_ID":"VT-CH-38","Station_Nam":"WILLISTON 0.2 WSW, VT","Latitude":"44.43669","Longitude":"-73.07154","Snowdepth":"10.000","Units":"in","Rept_Date":"2020-02-29 12"},"coordinates":[5672,5665]},{"type":"Point","properties":{"Station_ID":"THLM5","Station_Nam":"THEILMAN 1SSW","Latitude":"44.28130","Longitude":"-92.19430","Snowdepth":"10.000","Units":"in","Rept_Date":"2020-02-29 13"},"coordinates":[1184,5572]},{"type":"Point","properties":{"Station_ID":"THEN6","Station_Nam":"THERESA 4 NW","Latitude":"44.27540","Longitude":"-75.83690","Snowdepth":"10.000","Units":"in","Rept_Date":"2020-02-29 14"},"coordinates":[5023,5569]},{"type":"Point","properties":{"Station_ID":"SHIW3","Station_Nam":"SHIOCTON","Latitude":"44.43890","Longitude":"-88.58390","Snowdepth":"10.000","Units":"in","Rept_Date":"2020-02-29 13"},"coordinates":[2031,5666]},{"type":"Point","properties":{"Station_ID":"SANI4","Station_Nam":"ST ANSGAR","Latitude":"43.38170","Longitude":"-92.92320","Snowdepth":"10.000","Units":"in","Rept_Date":"2020-02-29 12"},"coordinates":[1013,5037]},{"type":"Point","properties":{"Station_ID":"ROWM3","Station_Nam":"ROWE 3NE","Latitude":"42.73500","Longitude":"-72.86920","Snowdepth":"10.000","Units":"in","Rept_Date":"2020-02-29 12"},"coordinates":[5719,4653]},{"type":"Point","properties":{"Station_ID":"PARM4","Station_Nam":"PARENT BAY","Latitude":"45.79610","Longitude":"-86.40110","Snowdepth":"10.000","Units":"in","Rept_Date":"2020-02-29 14"},"coordinates":[2543,6473]},{"type":"Point","properties":{"Station_ID":"NONW3","Station_Nam":"NEW LONDON","Latitude":"44.35890","Longitude":"-88.71890","Snowdepth":"10.000","Units":"in","Rept_Date":"2020-02-29 12"},"coordinates":[1999,5618]},{"type":"Point","properties":{"Station_ID":"NH-GR-47","Station_Nam":"LITTLETON 7.3 W, NH","Latitude":"44.31847","Longitude":"-71.91086","Snowdepth":"10.000","Units":"in","Rept_Date":"2020-02-29 13"},"coordinates":[5944,5594]},{"type":"Point","properties":{"Station_ID":"NH-CR-9","Station_Nam":"MADISON 1.7 SE, NH","Latitude":"43.87928","Longitude":"-71.12660","Snowdepth":"10.000","Units":"in","Rept_Date":"2020-02-29 12"},"coordinates":[6128,5333]},{"type":"Point","properties":{"Station_ID":"MN7M8EBJ","Station_Nam":"LUTSEN 15.7 NNW","Latitude":"47.85324","Longitude":"-89.92908","Snowdepth":"10.000","Units":"in","Rept_Date":"2020-02-29 14"},"coordinates":[1715,7696]},{"type":"Point","properties":{"Station_ID":"MN-SR-29","Station_Nam":"ALBANY 3.8 S, MN","Latitude":"45.57441","Longitude":"-94.55543","Snowdepth":"10.000","Units":"in","Rept_Date":"2020-02-29 13"},"coordinates":[630,6341]},{"type":"Point","properties":{"Station_ID":"MN-MR-4","Station_Nam":"LITTLE FALLS 1.2 SW, MN","Latitude":"45.96886","Longitude":"-94.37720","Snowdepth":"10.000","Units":"in","Rept_Date":"2020-02-29 13"},"coordinates":[671,6576]},{"type":"Point","properties":{"Station_ID":"MN-HN-181","Station_Nam":"MINNEAPOLIS 0.4 NE, MN","Latitude":"44.96708","Longitude":"-93.26222","Snowdepth":"10.000","Units":"in","Rept_Date":"2020-02-29 13"},"coordinates":[933,5980]},{"type":"Point","properties":{"Station_ID":"MN-AA-76","Station_Nam":"NOWTHEN 2.9 SSE, MN","Latitude":"45.30360","Longitude":"-93.42620","Snowdepth":"10.000","Units":"in","Rept_Date":"2020-02-29 13"},"coordinates":[895,6180]},{"type":"Point","properties":{"Station_ID":"MMTN7","Station_Nam":"MOUNT MITCHELL STATE PARK","Latitude":"35.75940","Longitude":"-82.27110","Snowdepth":"10.000","Units":"in","Rept_Date":"2020-02-29 12"},"coordinates":[3513,506]},{"type":"Point","properties":{"Station_ID":"MLCM5","Station_Nam":"MILACA","Latitude":"45.75320","Longitude":"-93.66170","Snowdepth":"10.000","Units":"in","Rept_Date":"2020-02-29 13"},"coordinates":[839,6447]},{"type":"Point","properties":{"Station_ID":"MI-EM-5","Station_Nam":"HARBOR SPRINGS 0.7 ENE, MI","Latitude":"45.43450","Longitude":"-84.97540","Snowdepth":"10.000","Units":"in","Rept_Date":"2020-02-29 12"},"coordinates":[2878,6258]},{"type":"Point","properties":{"Station_ID":"MEDW3","Station_Nam":"MEDFORD","Latitude":"45.13080","Longitude":"-90.34390","Snowdepth":"10.000","Units":"in","Rept_Date":"2020-02-29 14"},"coordinates":[1618,6077]},{"type":"Point","properties":{"Station_ID":"ME-YK-3","Station_Nam":"HOLLIS CENTER 5.4 NW, ME","Latitude":"43.64750","Longitude":"-70.67510","Snowdepth":"10.000","Units":"in","Rept_Date":"2020-02-29 12"},"coordinates":[6234,5195]},{"type":"Point","properties":{"Station_ID":"ME-CM-86","Station_Nam":"POWNAL 4.1 S, ME","Latitude":"43.85370","Longitude":"-70.17210","Snowdepth":"10.000","Units":"in","Rept_Date":"2020-02-29 12"},"coordinates":[6352,5318]},{"type":"Point","properties":{"Station_ID":"ME-CM-125","Station_Nam":"CUMBERLAND CENTER 4.4 NW, ME","Latitude":"43.84640","Longitude":"-70.31340","Snowdepth":"10.000","Units":"in","Rept_Date":"2020-02-29 12"},"coordinates":[6319,5314]},{"type":"Point","properties":{"Station_ID":"MA-HS-7","Station_Nam":"PLAINFIELD 2.2 SW, MA","Latitude":"42.49272","Longitude":"-72.94540","Snowdepth":"10.000","Units":"in","Rept_Date":"2020-02-29 13"},"coordinates":[5701,4509]},{"type":"Point","properties":{"Station_ID":"JSTN6","Station_Nam":"JAMESTOWN 4 ENE","Latitude":"42.11000","Longitude":"-79.15910","Snowdepth":"10.000","Units":"in","Rept_Date":"2020-02-29 12"},"coordinates":[4243,4281]},{"type":"Point","properties":{"Station_ID":"HYTS2","Station_Nam":"HAYTI 1W","Latitude":"44.66330","Longitude":"-97.22670","Snowdepth":"10.000","Units":"in","Rept_Date":"2020-02-29 14"},"coordinates":[3,5799]},{"type":"Point","properties":{"Station_ID":"HTLM4","Station_Nam":"SNOW PAID OBSERVER FOR KHTL","Latitude":"44.34470","Longitude":"-84.67730","Snowdepth":"10.000","Units":"in","Rept_Date":"2020-02-29 18"},"coordinates":[2948,5610]},{"type":"Point","properties":{"Station_ID":"HTL","Station_Nam":"ROSCOMMON COUNTY AIRPORT","Latitude":"44.35000","Longitude":"-84.66670","Snowdepth":"10.000","Units":"in","Rept_Date":"2020-03-01 00"},"coordinates":[2950,5613]},{"type":"Point","properties":{"Station_ID":"HOLM1","Station_Nam":"HOLLIS","Latitude":"43.64750","Longitude":"-70.67490","Snowdepth":"10.000","Units":"in","Rept_Date":"2020-02-29 12"},"coordinates":[6234,5195]},{"type":"Point","properties":{"Station_ID":"DTVM4","Station_Nam":"DETOUR VILLAGE","Latitude":"45.99830","Longitude":"-83.90130","Snowdepth":"10.000","Units":"in","Rept_Date":"2020-02-29 13"},"coordinates":[3130,6593]},{"type":"Point","properties":{"Station_ID":"CVWP1","Station_Nam":"CHANDLER VALLEY 1SE","Latitude":"41.93010","Longitude":"-79.29700","Snowdepth":"10.000","Units":"in","Rept_Date":"2020-02-29 12"},"coordinates":[4211,4174]},{"type":"Point","properties":{"Station_ID":"CANM5","Station_Nam":"CANBY","Latitude":"44.71840","Longitude":"-96.26960","Snowdepth":"10.000","Units":"in","Rept_Date":"2020-02-29 14"},"coordinates":[227,5832]},{"type":"Point","properties":{"Station_ID":"CAN-QC-16","Station_Nam":"SAINT-ARMAND 3.6 W, CAN","Latitude":"45.02631","Longitude":"-73.08795","Snowdepth":"10.000","Units":"in","Rept_Date":"2020-02-29 12"},"coordinates":[5668,6015]},{"type":"Point","properties":{"Station_ID":"BYNM4","Station_Nam":"BOYNE FALLS","Latitude":"45.16720","Longitude":"-84.91380","Snowdepth":"10.000","Units":"in","Rept_Date":"2020-02-29 22"},"coordinates":[2892,6099]},{"type":"Point","properties":{"Station_ID":"BKEM5","Station_Nam":"BRECKENRIDGE 4NE","Latitude":"46.30470","Longitude":"-96.52170","Snowdepth":"10.000","Units":"in","Rept_Date":"2020-02-29 13"},"coordinates":[168,6775]},{"type":"Point","properties":{"Station_ID":"BFSW3","Station_Nam":"BIG FALLS-5 NW","Latitude":"44.63980","Longitude":"-89.11330","Snowdepth":"10.000","Units":"in","Rept_Date":"2020-02-29 13"},"coordinates":[1907,5785]},{"type":"Point","properties":{"Station_ID":"ATW","Station_Nam":"OUTAGAMIE COUNTY AIRPORT","Latitude":"44.25750","Longitude":"-88.51940","Snowdepth":"10.000","Units":"in","Rept_Date":"2020-02-29 12"},"coordinates":[2046,5558]},{"type":"Point","properties":{"Station_ID":"APPW3","Station_Nam":"APPLETON","Latitude":"44.27690","Longitude":"-88.43770","Snowdepth":"10.000","Units":"in","Rept_Date":"2020-02-29 12"},"coordinates":[2065,5570]},{"type":"Point","properties":{"Station_ID":"APN","Station_Nam":"PHELPS COLLINS FIELD","Latitude":"45.07810","Longitude":"-83.56030","Snowdepth":"10.000","Units":"in","Rept_Date":"2020-03-01 00"},"coordinates":[3210,6046]},{"type":"Point","properties":{"Station_ID":"ALPM4","Station_Nam":"SNOW PAID OBSERVER FOR KAPN","Latitude":"45.03110","Longitude":"-83.55970","Snowdepth":"10.000","Units":"in","Rept_Date":"2020-02-29 18"},"coordinates":[3210,6018]},{"type":"Point","properties":{"Station_ID":"42.0800_080.0143","Station_Nam":"ERIE 5SE  SNOW SPOTTER (X4210800)","Latitude":"42.08000","Longitude":"-80.01430","Snowdepth":"10.000","Units":"in","Rept_Date":"2020-03-01 00"},"coordinates":[4042,4264]},{"type":"Point","properties":{"Station_ID":"41.8275_080.5321","Station_Nam":"MONROE TWP  SNOW SPOTTER (X4180805)","Latitude":"41.82750","Longitude":"-80.53210","Snowdepth":"10.000","Units":"in","Rept_Date":"2020-02-29 15"},"coordinates":[3921,4113]},{"type":"Point","properties":{"Station_ID":"41.5844_081.2035","Station_Nam":"CHARDON (CLE1302)","Latitude":"41.58440","Longitude":"-81.20350","Snowdepth":"10.000","Units":"in","Rept_Date":"2020-02-29 14"},"coordinates":[3763,3969]},{"type":"Point","properties":{"Station_ID":"WI-CT-4","Station_Nam":"MENASHA 5.4 ESE, WI","Latitude":"44.19640","Longitude":"-88.33070","Snowdepth":"9.500","Units":"in","Rept_Date":"2020-02-29 13"},"coordinates":[2091,5522]},{"type":"Point","properties":{"Station_ID":"OH-GG-17","Station_Nam":"CHAGRIN FALLS 5.2 ESE, OH","Latitude":"41.41352","Longitude":"-81.29255","Snowdepth":"9.500","Units":"in","Rept_Date":"2020-02-29 12"},"coordinates":[3742,3867]},{"type":"Point","properties":{"Station_ID":"NY-OG-46","Station_Nam":"BALDWINSVILLE 3.5 NE, NY","Latitude":"43.19506","Longitude":"-76.28830","Snowdepth":"9.500","Units":"in","Rept_Date":"2020-02-29 13"},"coordinates":[4917,4926]},{"type":"Point","properties":{"Station_ID":"ME-CM-3","Station_Nam":"NEW GLOUCESTER 3.0 SE, ME","Latitude":"43.92372","Longitude":"-70.25790","Snowdepth":"9.500","Units":"in","Rept_Date":"2020-02-29 12"},"coordinates":[6332,5360]},{"type":"Point","properties":{"Station_ID":"ME-CM-54","Station_Nam":"WINDHAM 3.9 NW, ME","Latitude":"43.85787","Longitude":"-70.46200","Snowdepth":"9.400","Units":"in","Rept_Date":"2020-02-29 12"},"coordinates":[6284,5321]},{"type":"Point","properties":{"Station_ID":"VT-CL-23","Station_Nam":"RYEGATE 1.5 N, VT","Latitude":"44.23024","Longitude":"-72.10523","Snowdepth":"9.200","Units":"in","Rept_Date":"2020-02-29 12"},"coordinates":[5899,5542]},{"type":"Point","properties":{"Station_ID":"CAN-ON-525","Station_Nam":"WOODSTOCK 1.2 ENE, CAN","Latitude":"43.13734","Longitude":"-80.73688","Snowdepth":"9.100","Units":"in","Rept_Date":"2020-02-29 12"},"coordinates":[3873,4892]},{"type":"Point","properties":{"Station_ID":"WTBW3","Station_Nam":"WEST BEND PUBLIC WORKS","Latitude":"43.41110","Longitude":"-88.19380","Snowdepth":"9.000","Units":"in","Rept_Date":"2020-02-29 13"},"coordinates":[2123,5055]},{"type":"Point","properties":{"Station_ID":"WNDM1","Station_Nam":"WINDHAM 2NW","Latitude":"43.85670","Longitude":"-70.46630","Snowdepth":"9.000","Units":"in","Rept_Date":"2020-02-29 12"},"coordinates":[6283,5320]},{"type":"Point","properties":{"Station_ID":"WABM5","Station_Nam":"WABASHA","Latitude":"44.38500","Longitude":"-92.04860","Snowdepth":"9.000","Units":"in","Rept_Date":"2020-02-29 13"},"coordinates":[1218,5634]},{"type":"Point","properties":{"Station_ID":"VQAW3","Station_Nam":"VIROQUA","Latitude":"43.55970","Longitude":"-90.87560","Snowdepth":"9.000","Units":"in","Rept_Date":"2020-02-29 13"},"coordinates":[1493,5143]},