{"type":"Topology","objects":{"snowdepth_geo":{"type":"GeometryCollection","name":"snowdepth","crs":{"type":"name","properties":{"name":"urn:ogc:def:crs:OGC:1.3:CRS84"}},"geometries":[{"type":"Point","properties":{"Station_ID":"PRKM4","Station_Nam":"MUNISING EAST","Latitude":"46.42580","Longitude":"-86.62000","Snowdepth":"76.500","Units":"in","Rept_Date":"2020-03-12 06"},"coordinates":[2492,5181]},{"type":"Point","properties":{"Station_ID":"OGIQ6","Station_Nam":"OGOKI CAMP","Latitude":"50.76680","Longitude":"-87.85820","Snowdepth":"61.100","Units":"in","Rept_Date":"2020-03-12 06"},"coordinates":[2202,9126]},{"type":"Point","properties":{"Station_ID":"HTLN3","Station_Nam":"HERMIT LAKE SNOWPLOT","Latitude":"44.26130","Longitude":"-71.28330","Snowdepth":"60.000","Units":"in","Rept_Date":"2020-03-11 09"},"coordinates":[6092,3213]},{"type":"Point","properties":{"Station_ID":"AUDQ6","Station_Nam":"AUDEN","Latitude":"48.52600","Longitude":"-82.57570","Snowdepth":"47.640","Units":"in","Rept_Date":"2020-03-12 06"},"coordinates":[3441,7090]},{"type":"Point","properties":{"Station_ID":"GMSM4","Station_Nam":"GRAND MARAIS 10S","Latitude":"46.50940","Longitude":"-85.96310","Snowdepth":"44.000","Units":"in","Rept_Date":"2020-03-11 11"},"coordinates":[2646,5257]},{"type":"Point","properties":{"Station_ID":"DVLQ6","Station_Nam":"DEVIOUS LAKE","Latitude":"49.19890","Longitude":"-87.76440","Snowdepth":"43.460","Units":"in","Rept_Date":"2020-03-12 06"},"coordinates":[2224,7701]},{"type":"Point","properties":{"Station_ID":"PDLM4","Station_Nam":"PAINESDALE","Latitude":"47.04160","Longitude":"-88.67170","Snowdepth":"43.000","Units":"in","Rept_Date":"2020-03-11 12"},"coordinates":[2011,5740]},{"type":"Point","properties":{"Station_ID":"CAN-NL-82","Station_Nam":"GANDER 2.7 NW, CAN","Latitude":"48.97737","Longitude":"-54.63396","Snowdepth":"40.900","Units":"in","Rept_Date":"2020-03-11 10"},"coordinates":[9999,7500]},{"type":"Point","properties":{"Station_ID":"CAN-NS-61","Station_Nam":"ASPY  BAY 0.9 SW, CA","Latitude":"46.91621","Longitude":"-60.49460","Snowdepth":"39.500","Units":"in","Rept_Date":"2020-03-11 11"},"coordinates":[8624,5626]},{"type":"Point","properties":{"Station_ID":"MNSM4","Station_Nam":"MUNISING","Latitude":"46.41210","Longitude":"-86.66250","Snowdepth":"37.000","Units":"in","Rept_Date":"2020-03-11 10"},"coordinates":[2482,5168]},{"type":"Point","properties":{"Station_ID":"KSGM4","Station_Nam":"KEARSARGE","Latitude":"47.27520","Longitude":"-88.41700","Snowdepth":"35.000","Units":"in","Rept_Date":"2020-03-11 12"},"coordinates":[2070,5953]},{"type":"Point","properties":{"Station_ID":"WLFM5","Station_Nam":"WOLF RIDGE ENVIRON LEARNING CENTER","Latitude":"47.38240","Longitude":"-91.19730","Snowdepth":"34.000","Units":"in","Rept_Date":"2020-03-11 12"},"coordinates":[1418,6050]},{"type":"Point","properties":{"Station_ID":"STEM4","Station_Nam":"STEUBEN","Latitude":"46.18530","Longitude":"-86.46410","Snowdepth":"33.000","Units":"in","Rept_Date":"2020-03-11 13"},"coordinates":[2529,4962]},{"type":"Point","properties":{"Station_ID":"CAN-NL-65","Station_Nam":"KIPPENS 0.7 NE, CA","Latitude":"48.55436","Longitude":"-58.61850","Snowdepth":"33.000","Units":"in","Rept_Date":"2020-03-11 12"},"coordinates":[9064,7115]},{"type":"Point","properties":{"Station_ID":"CAN-NB-105","Station_Nam":"SISSON BROOK 3.8 E, CAN","Latitude":"46.98305","Longitude":"-67.32532","Snowdepth":"32.700","Units":"in","Rept_Date":"2020-03-11 12"},"coordinates":[7020,5687]},{"type":"Point","properties":{"Station_ID":"MQT","Station_Nam":"MARQUETTE, MI","Latitude":"46.53140","Longitude":"-87.54920","Snowdepth":"32.000","Units":"in","Rept_Date":"2020-03-12 06"},"coordinates":[2274,5277]},{"type":"Point","properties":{"Station_ID":"CAN-QC-47","Station_Nam":"SAINTE-FOY 1.8 ENE, CAN","Latitude":"46.76934","Longitude":"-71.27124","Snowdepth":"31.900","Units":"in","Rept_Date":"2020-03-11 12"},"coordinates":[6094,5493]},{"type":"Point","properties":{"Station_ID":"MI-BG-3","Station_Nam":"L'ANSE 17.8 SE, MI","Latitude":"46.55730","Longitude":"-88.20770","Snowdepth":"31.500","Units":"in","Rept_Date":"2020-03-11 13"},"coordinates":[2119,5300]},{"type":"Point","properties":{"Station_ID":"CAN-NB-13","Station_Nam":"BATHURST 3.8 NW, CAN","Latitude":"47.64212","Longitude":"-65.68756","Snowdepth":"31.500","Units":"in","Rept_Date":"2020-03-11 11"},"coordinates":[7405,6286]},{"type":"Point","properties":{"Station_ID":"QNCM4","Station_Nam":"QUINCY HILL","Latitude":"47.13640","Longitude":"-88.57950","Snowdepth":"31.000","Units":"in","Rept_Date":"2020-03-11 11"},"coordinates":[2032,5827]},{"type":"Point","properties":{"Station_ID":"VANM1","Station_Nam":"VAN BUREN","Latitude":"47.16600","Longitude":"-67.93900","Snowdepth":"30.000","Units":"in","Rept_Date":"2020-03-11 11"},"coordinates":[6876,5853]},{"type":"Point","properties":{"Station_ID":"NWCM4","Station_Nam":"NEWBERRY CITY","Latitude":"46.35720","Longitude":"-85.51780","Snowdepth":"30.000","Units":"in","Rept_Date":"2020-03-11 11"},"coordinates":[2751,5118]},{"type":"Point","properties":{"Station_ID":"CARM1","Station_Nam":"CARIBOU WFO","Latitude":"46.86810","Longitude":"-68.01250","Snowdepth":"29.000","Units":"in","Rept_Date":"2020-03-12 04"},"coordinates":[6859,5583]},{"type":"Point","properties":{"Station_ID":"CAR","Station_Nam":"CARIBOU, ME","Latitude":"46.86830","Longitude":"-68.01360","Snowdepth":"29.000","Units":"in","Rept_Date":"2020-03-11 12"},"coordinates":[6859,5583]},{"type":"Point","properties":{"Station_ID":"SVBQ6","Station_Nam":"SAVANT BASE","Latitude":"50.28730","Longitude":"-90.65670","Snowdepth":"28.150","Units":"in","Rept_Date":"2020-03-12 06"},"coordinates":[1545,8691]},{"type":"Point","properties":{"Station_ID":"CAN-NB-11","Station_Nam":"MIRAMICHI 3.3 S, CAN","Latitude":"46.99343","Longitude":"-65.50690","Snowdepth":"28.000","Units":"in","Rept_Date":"2020-03-11 12"},"coordinates":[7447,5697]},{"type":"Point","properties":{"Station_ID":"IBLM5","Station_Nam":"ISABELLA 14W","Latitude":"47.59360","Longitude":"-91.65140","Snowdepth":"27.000","Units":"in","Rept_Date":"2020-03-11 14"},"coordinates":[1311,6242]},{"type":"Point","properties":{"Station_ID":"HERM4","Station_Nam":"HERMAN,MI","Latitude":"46.65000","Longitude":"-88.33330","Snowdepth":"27.000","Units":"in","Rept_Date":"2020-03-11 12"},"coordinates":[2090,5384]},{"type":"Point","properties":{"Station_ID":"FISM1","Station_Nam":"FORT KENT COOP","Latitude":"47.23850","Longitude":"-68.61240","Snowdepth":"27.000","Units":"in","Rept_Date":"2020-03-11 11"},"coordinates":[6718,5919]},{"type":"Point","properties":{"Station_ID":"PTLQ6","Station_Nam":"PORTAGE LAKE","Latitude":"49.06950","Longitude":"-86.65940","Snowdepth":"26.650","Units":"in","Rept_Date":"2020-03-12 06"},"coordinates":[2483,7584]},{"type":"Point","properties":{"Station_ID":"CAN-NB-96","Station_Nam":"SAINT-IGNACE 2.6 NE, CAN","Latitude":"46.71424","Longitude":"-65.05609","Snowdepth":"24.400","Units":"in","Rept_Date":"2020-03-11 11"},"coordinates":[7553,5443]},{"type":"Point","properties":{"Station_ID":"TRIQ6","Station_Nam":"TRIO LAKE","Latitude":"49.22880","Longitude":"-87.22920","Snowdepth":"24.020","Units":"in","Rept_Date":"2020-03-12 06"},"coordinates":[2349,7728]},{"type":"Point","properties":{"Station_ID":"MI-HG-6","Station_Nam":"CALUMET 5.8 ENE, MI","Latitude":"47.27200","Longitude":"-88.33400","Snowdepth":"24.000","Units":"in","Rept_Date":"2020-03-11 11"},"coordinates":[2090,5950]},{"type":"Point","properties":{"Station_ID":"ME-AR-15","Station_Nam":"PRESQUE ISLE 1.3 WSW, ME","Latitude":"46.67960","Longitude":"-68.01270","Snowdepth":"24.000","Units":"in","Rept_Date":"2020-03-11 12"},"coordinates":[6859,5411]},{"type":"Point","properties":{"Station_ID":"GNLM4","Station_Nam":"GREENLAND 6N","Latitude":"46.87360","Longitude":"-89.10060","Snowdepth":"24.000","Units":"in","Rept_Date":"2020-03-11 12"},"coordinates":[1910,5588]},{"type":"Point","properties":{"Station_ID":"GLDM4","Station_Nam":"GLADSTONE NO. 2","Latitude":"45.84330","Longitude":"-87.03910","Snowdepth":"24.000","Units":"in","Rept_Date":"2020-03-11 12"},"coordinates":[2394,4651]},{"type":"Point","properties":{"Station_ID":"CRVW3","Station_Nam":"CRIVITZ HIGH FALLS","Latitude":"45.35750","Longitude":"-88.19190","Snowdepth":"24.000","Units":"in","Rept_Date":"2020-03-11 12"},"coordinates":[2123,4210]},{"type":"Point","properties":{"Station_ID":"SOCQ6","Station_Nam":"SOCKET LAKE","Latitude":"50.77870","Longitude":"-91.79300","Snowdepth":"23.430","Units":"in","Rept_Date":"2020-03-12 06"},"coordinates":[1278,9137]},{"type":"Point","properties":{"Station_ID":"KABQ6","Station_Nam":"CAB LAKE","Latitude":"49.59950","Longitude":"-89.17990","Snowdepth":"23.150","Units":"in","Rept_Date":"2020-03-12 06"},"coordinates":[1891,8065]},{"type":"Point","properties":{"Station_ID":"WRPW3","Station_Nam":"WATER PURIFICATION PLANT","Latitude":"44.38800","Longitude":"-89.80550","Snowdepth":"23.000","Units":"in","Rept_Date":"2020-03-11 11"},"coordinates":[1744,3329]},{"type":"Point","properties":{"Station_ID":"MI-HG-1","Station_Nam":"HOUGHTON 1.6 ESE, MI","Latitude":"47.10774","Longitude":"-88.52940","Snowdepth":"23.000","Units":"in","Rept_Date":"2020-03-11 13"},"coordinates":[2044,5801]},{"type":"Point","properties":{"Station_ID":"LNOW3","Station_Nam":"LAND O LAKES","Latitude":"46.19000","Longitude":"-89.45700","Snowdepth":"23.000","Units":"in","Rept_Date":"2020-03-11 12"},"coordinates":[1826,4966]},{"type":"Point","properties":{"Station_ID":"HURW3","Station_Nam":"HURLEY","Latitude":"46.46250","Longitude":"-90.19550","Snowdepth":"23.000","Units":"in","Rept_Date":"2020-03-11 13"},"coordinates":[1653,5214]},{"type":"Point","properties":{"Station_ID":"WI-VL-9","Station_Nam":"LAND O' LAKES 11.7 W, WI","Latitude":"46.19023","Longitude":"-89.45790","Snowdepth":"22.500","Units":"in","Rept_Date":"2020-03-11 13"},"coordinates":[1826,4967]},{"type":"Point","properties":{"Station_ID":"SSMM4","Station_Nam":"SAULT STE MARIE","Latitude":"46.48660","Longitude":"-84.40250","Snowdepth":"22.000","Units":"in","Rept_Date":"2020-03-11 12"},"coordinates":[3013,5236]},{"type":"Point","properties":{"Station_ID":"LILM1","Station_Nam":"LILLE","Latitude":"47.27770","Longitude":"-68.10520","Snowdepth":"22.000","Units":"in","Rept_Date":"2020-03-11 11"},"coordinates":[6837,5955]},{"type":"Point","properties":{"Station_ID":"ANJM4","Station_Nam":"SNOW PAID OBSERVER FOR KANJ","Latitude":"46.48670","Longitude":"-84.40260","Snowdepth":"22.000","Units":"in","Rept_Date":"2020-03-12 00"},"coordinates":[3013,5236]},{"type":"Point","properties":{"Station_ID":"ANJ","Station_Nam":"SAULT STE MARIE","Latitude":"46.46670","Longitude":"-84.36670","Snowdepth":"22.000","Units":"in","Rept_Date":"2020-03-12 00"},"coordinates":[3021,5218]},{"type":"Point","properties":{"Station_ID":"PDGM4","Station_Nam":"PAULDING","Latitude":"46.39760","Longitude":"-89.17940","Snowdepth":"21.000","Units":"in","Rept_Date":"2020-03-11 12"},"coordinates":[1891,5155]},{"type":"Point","properties":{"Station_ID":"NH-CS-10","Station_Nam":"RANDOLPH 1.4 NE, NH","Latitude":"44.38824","Longitude":"-71.26950","Snowdepth":"21.000","Units":"in","Rept_Date":"2020-03-11 12"},"coordinates":[6095,3329]},{"type":"Point","properties":{"Station_ID":"MI-MQ-19","Station_Nam":"ISHPEMING 7.2 SW, MI","Latitude":"46.40550","Longitude":"-87.75670","Snowdepth":"21.000","Units":"in","Rept_Date":"2020-03-11 11"},"coordinates":[2225,5162]},{"type":"Point","properties":{"Station_ID":"HRVM4","Station_Nam":"HARVEY","Latitude":"46.49080","Longitude":"-87.35470","Snowdepth":"21.000","Units":"in","Rept_Date":"2020-03-11 11"},"coordinates":[2320,5240]},{"type":"Point","properties":{"Station_ID":"EVRW3","Station_Nam":"EAGLE RIVER-4 E","Latitude":"45.91890","Longitude":"-89.15280","Snowdepth":"21.000","Units":"in","Rept_Date":"2020-03-11 11"},"coordinates":[1898,4720]},{"type":"Point","properties":{"Station_ID":"BRAM1","Station_Nam":"BRASSUA DAM","Latitude":"45.66020","Longitude":"-69.81190","Snowdepth":"21.000","Units":"in","Rept_Date":"2020-03-11 11"},"coordinates":[6437,4485]},{"type":"Point","properties":{"Station_ID":"BBEM4","Station_Nam":"BIG BAY 9SW","Latitude":"46.74620","Longitude":"-87.88160","Snowdepth":"21.000","Units":"in","Rept_Date":"2020-03-11 12"},"coordinates":[2196,5472]},{"type":"Point","properties":{"Station_ID":"CATQ6","Station_Nam":"CAT LAKE","Latitude":"51.72690","Longitude":"-91.82210","Snowdepth":"20.590","Units":"in","Rept_Date":"2020-03-12 06"},"coordinates":[1271,9999]},{"type":"Point","properties":{"Station_ID":"ME-PN-45","Station_Nam":"MILLINOCKET 2.7 ESE, ME","Latitude":"45.65002","Longitude":"-68.64472","Snowdepth":"20.500","Units":"in","Rept_Date":"2020-03-11 12"},"coordinates":[6711,4476]},{"type":"Point","properties":{"Station_ID":"CAN-PE-19","Station_Nam":"CHARLOTTETOWN 6.5 NNW, CAN","Latitude":"46.29235","Longitude":"-63.17271","Snowdepth":"20.100","Units":"in","Rept_Date":"2020-03-11 12"},"coordinates":[7995,5059]},{"type":"Point","properties":{"Station_ID":"VT-OL-12","Station_Nam":"GREENSBORO 3.9 NNE, VT","Latitude":"44.63100","Longitude":"-72.28000","Snowdepth":"20.000","Units":"in","Rept_Date":"2020-03-11 11"},"coordinates":[5858,3549]},{"type":"Point","properties":{"Station_ID":"RKWM1","Station_Nam":"MOOSEHEAD LAKE","Latitude":"45.58330","Longitude":"-69.71670","Snowdepth":"20.000","Units":"in","Rept_Date":"2020-03-11 11"},"coordinates":[6459,4415]},{"type":"Point","properties":{"Station_ID":"LVDW3","Station_Nam":"LAC VIEUX DESERT","Latitude":"46.12110","Longitude":"-89.07580","Snowdepth":"20.000","Units":"in","Rept_Date":"2020-03-11 14"},"coordinates":[1916,4904]},{"type":"Point","properties":{"Station_ID":"GGRM4","Station_Nam":"GREEN GARDEN NO.2","Latitude":"46.45330","Longitude":"-87.30380","Snowdepth":"20.000","Units":"in","Rept_Date":"2020-03-11 10"},"coordinates":[2332,5206]},{"type":"Point","properties":{"Station_ID":"ELVM5","Station_Nam":"EVELETH,MN","Latitude":"47.46670","Longitude":"-92.56670","Snowdepth":"20.000","Units":"in","Rept_Date":"2020-03-11 12"},"coordinates":[1096,6127]},{"type":"Point","properties":{"Station_ID":"CAN-NB-18","Station_Nam":"MCLEOD HILL 1.1 ENE, CA","Latitude":"46.02725","Longitude":"-66.67460","Snowdepth":"20.000","Units":"in","Rept_Date":"2020-03-11 12"},"coordinates":[7173,4818]},{"type":"Point","properties":{"Station_ID":"SUAW3","Station_Nam":"SUAMICO","Latitude":"44.60190","Longitude":"-88.09780","Snowdepth":"19.000","Units":"in","Rept_Date":"2020-03-11 11"},"coordinates":[2145,3523]},{"type":"Point","properties":{"Station_ID":"RGNM1","Station_Nam":"RANGELEY 2NW","Latitude":"44.98940","Longitude":"-70.67220","Snowdepth":"19.000","Units":"in","Rept_Date":"2020-03-11 10"},"coordinates":[6235,3875]},{"type":"Point","properties":{"Station_ID":"MI-CP-14","Station_Nam":"SAULT STE. MARIE 2.2 E, MI","Latitude":"46.48933","Longitude":"-84.31971","Snowdepth":"19.000","Units":"in","Rept_Date":"2020-03-11 14"},"coordinates":[3032,5238]},{"type":"Point","properties":{"Station_ID":"IWOM4","Station_Nam":"IRONWOOD#2","Latitude":"46.46520","Longitude":"-90.13820","Snowdepth":"19.000","Units":"in","Rept_Date":"2020-03-11 12"},"coordinates":[1666,5217]},{"type":"Point","properties":{"Station_ID":"DFXM1","Station_Nam":"DOVER-FOXCROFT","Latitude":"45.18720","Longitude":"-69.18350","Snowdepth":"19.000","Units":"in","Rept_Date":"2020-03-11 11"},"coordinates":[6584,4055]},{"type":"Point","properties":{"Station_ID":"VT-CL-3","Station_Nam":"GROTON 4.4 WSW, VT","Latitude":"44.19440","Longitude":"-72.28240","Snowdepth":"18.800","Units":"in","Rept_Date":"2020-03-11 11"},"coordinates":[5857,3153]},{"type":"Point","properties":{"Station_ID":"MN-IT-23","Station_Nam":"BOVEY 13.4 N, MN","Latitude":"47.48855","Longitude":"-93.43497","Snowdepth":"18.500","Units":"in","Rept_Date":"2020-03-11 13"},"coordinates":[893,6147]},{"type":"Point","properties":{"Station_ID":"MN-IT-17","Station_Nam":"GRAND RAPIDS 6.1 N, MN","Latitude":"47.31165","Longitude":"-93.55036","Snowdepth":"18.500","Units":"in","Rept_Date":"2020-03-11 13"},"coordinates":[866,5986]},{"type":"Point","properties":{"Station_ID":"CAN-ON-526","Station_Nam":"HILTON BEACH 0.7 SW - MNRF, CAN","Latitude":"46.25357","Longitude":"-83.90014","Snowdepth":"18.500","Units":"in","Rept_Date":"2020-03-11 12"},"coordinates":[3130,5024]},{"type":"Point","properties":{"Station_ID":"WTNM4","Station_Nam":"WATTON 2WSW","Latitude":"46.52660","Longitude":"-88.64240","Snowdepth":"18.000","Units":"in","Rept_Date":"2020-03-11 12"},"coordinates":[2017,5272]},{"type":"Point","properties":{"Station_ID":"WI-ON-8","Station_Nam":"HAZELHURST 2.1 SSE, WI","Latitude":"45.78186","Longitude":"-89.70330","Snowdepth":"18.000","Units":"in","Rept_Date":"2020-03-11 13"},"coordinates":[1768,4595]},{"type":"Point","properties":{"Station_ID":"WI-BY-2","Station_Nam":"MELLEN 18.6 SW, WI","Latitude":"46.16937","Longitude":"-90.98090","Snowdepth":"18.000","Units":"in","Rept_Date":"2020-03-11 14"},"coordinates":[1469,4948]},{"type":"Point","properties":{"Station_ID":"UPSW3","Station_Nam":"UPSON,WI","Latitude":"46.36780","Longitude":"-90.41220","Snowdepth":"18.000","Units":"in","Rept_Date":"2020-03-11 23"},"coordinates":[1602,5128]},{"type":"Point","properties":{"Station_ID":"STGW3","Station_Nam":"ST GERMAIN","Latitude":"45.91550","Longitude":"-89.48940","Snowdepth":"18.000","Units":"in","Rept_Date":"2020-03-11 11"},"coordinates":[1819,4717]},{"type":"Point","properties":{"Station_ID":"MN-CK-6","Station_Nam":"GRAND MARAIS 4.4 W, MN","Latitude":"47.74865","Longitude":"-90.43760","Snowdepth":"18.000","Units":"in","Rept_Date":"2020-03-11 13"},"coordinates":[1596,6383]},{"type":"Point","properties":{"Station_ID":"MIEM4","Station_Nam":"MICHIGAMME 3WNW","Latitude":"46.54530","Longitude":"-88.18000","Snowdepth":"18.000","Units":"in","Rept_Date":"2020-03-11 12"},"coordinates":[2126,5289]},{"type":"Point","properties":{"Station_ID":"MI-DL-1","Station_Nam":"GARDEN CORNERS 0.8 NW, MI","Latitude":"45.89815","Longitude":"-86.54850","Snowdepth":"18.000","Units":"in","Rept_Date":"2020-03-11 13"},"coordinates":[2509,4701]},{"type":"Point","properties":{"Station_ID":"GDCM4","Station_Nam":"GARDEN CORNERS","Latitude":"45.89830","Longitude":"-86.54850","Snowdepth":"18.000","Units":"in","Rept_Date":"2020-03-11 12"},"coordinates":[2509,4701]},{"type":"Point","properties":{"Station_ID":"DLHM5","Station_Nam":"DULUTH NWS","Latitude":"46.83680","Longitude":"-92.21080","Snowdepth":"18.000","Units":"in","Rept_Date":"2020-03-12 00"},"coordinates":[1180,5554]},{"type":"Point","properties":{"Station_ID":"DLH","Station_Nam":"DULUTH, MN","Latitude":"46.83690","Longitude":"-92.21030","Snowdepth":"18.000","Units":"in","Rept_Date":"2020-03-12 00"},"coordinates":[1180,5554]},{"type":"Point","properties":{"Station_ID":"CSLM5","Station_Nam":"CASS LAKE,MN","Latitude":"47.38470","Longitude":"-94.61470","Snowdepth":"18.000","Units":"in","Rept_Date":"2020-03-11 13"},"coordinates":[616,6052]},{"type":"Point","properties":{"Station_ID":"CMKW3","Station_Nam":"CLAM LAKE 4W","Latitude":"46.16940","Longitude":"-90.98080","Snowdepth":"18.000","Units":"in","Rept_Date":"2020-03-11 13"},"coordinates":[1469,4948]},{"type":"Point","properties":{"Station_ID":"CAN-NS-60","Station_Nam":"SYDNEY FORKS, CAN","Latitude":"46.05645","Longitude":"-60.31510","Snowdepth":"18.000","Units":"in","Rept_Date":"2020-03-11 13"},"coordinates":[8666,4845]},{"type":"Point","properties":{"Station_ID":"BNDM5","Station_Nam":"ELY 25E","Latitude":"47.97190","Longitude":"-91.44860","Snowdepth":"18.000","Units":"in","Rept_Date":"2020-03-11 12"},"coordinates":[1359,6586]},{"type":"Point","properties":{"Station_ID":"WI-BY-22","Station_Nam":"MASON 11.5 WNW, WI","Latitude":"46.50198","Longitude":"-91.28339","Snowdepth":"17.000","Units":"in","Rept_Date":"2020-03-11 14"},"coordinates":[1398,5250]},{"type":"Point","properties":{"Station_ID":"WI-BY-14","Station_Nam":"ASHLAND 9.8 W, WI","Latitude":"46.59742","Longitude":"-91.07856","Snowdepth":"17.000","Units":"in","Rept_Date":"2020-03-11 12"},"coordinates":[1446,5337]},{"type":"Point","properties":{"Station_ID":"NY-ES-6","Station_Nam":"OLMSTEDVILLE 4.6 NNE, NY","Latitude":"43.83350","Longitude":"-73.89780","Snowdepth":"17.000","Units":"in","Rept_Date":"2020-03-11 13"},"coordinates":[5478,2825]},{"type":"Point","properties":{"Station_ID":"MNV905PW","Station_Nam":"ROOSEVELT 5.3 N","Latitude":"48.87933","Longitude":"-95.08224","Snowdepth":"17.000","Units":"in","Rept_Date":"2020-03-11 12"},"coordinates":[506,7411]},{"type":"Point","properties":{"Station_ID":"LPLN6","Station_Nam":"LAKE PLACID 2 S","Latitude":"44.30420","Longitude":"-73.98390","Snowdepth":"17.000","Units":"in","Rept_Date":"2020-03-11 12"},"coordinates":[5458,3252]},{"type":"Point","properties":{"Station_ID":"CAN-NS-103","Station_Nam":"TRAFALGAR 4.9 WSW, CAN","Latitude":"45.26217","Longitude":"-62.72285","Snowdepth":"17.000","Units":"in","Rept_Date":"2020-03-11 12"},"coordinates":[8101,4123]},{"type":"Point","properties":{"Station_ID":"BABM5","Station_Nam":"BABBITT","Latitude":"47.71210","Longitude":"-91.95330","Snowdepth":"17.000","Units":"in","Rept_Date":"2020-03-11 12"},"coordinates":[1240,6350]},{"type":"Point","properties":{"Station_ID":"CAN-ON-757","Station_Nam":"SAULT STE. MARIE 2.8 ESE - GLFC, CAN","Latitude":"46.50300","Longitude":"-84.30300","Snowdepth":"16.700","Units":"in","Rept_Date":"2020-03-11 13"},"coordinates":[3036,5251]},{"type":"Point","properties":{"Station_ID":"FTHQ6","Station_Nam":"FORT HOPE","Latitude":"51.55820","Longitude":"-87.90510","Snowdepth":"16.100","Units":"in","Rept_Date":"2020-03-12 06"},"coordinates":[2191,9846]},{"type":"Point","properties":{"Station_ID":"WRSM5","Station_Nam":"WRENSHALL","Latitude":"46.61550","Longitude":"-92.38380","Snowdepth":"16.000","Units":"in","Rept_Date":"2020-03-11 13"},"coordinates":[1139,5353]},{"type":"Point","properties":{"Station_ID":"WI-IR-3","Station_Nam":"PENCE 0.1 E, WI","Latitude":"46.41555","Longitude":"-90.27013","Snowdepth":"16.000","Units":"in","Rept_Date":"2020-03-11 13"},"coordinates":[1635,5171]},{"type":"Point","properties":{"Station_ID":"MN-BK-6","Station_Nam":"LAKE PARK 6.0 S, MN","Latitude":"46.79850","Longitude":"-96.12180","Snowdepth":"16.000","Units":"in","Rept_Date":"2020-03-11 13"},"coordinates":[262,5519]},{"type":"Point","properties":{"Station_ID":"LEIM5","Station_Nam":"ORR 3E","Latitude":"48.05810","Longitude":"-92.75220","Snowdepth":"16.000","Units":"in","Rept_Date":"2020-03-11 11"},"coordinates":[1053,6664]},{"type":"Point","properties":{"Station_ID":"KABM5","Station_Nam":"KABETOGAMA LAKE VISITOR CTR","Latitude":"48.40880","Longitude":"-93.04840","Snowdepth":"16.000","Units":"in","Rept_Date":"2020-03-11 12"},"coordinates":[983,6983]},{"type":"Point","properties":{"Station_ID":"JKMM1","Station_Nam":"JACKMAN","Latitude":"45.62600","Longitude":"-70.24600","Snowdepth":"16.000","Units":"in","Rept_Date":"2020-03-11 11"},"coordinates":[6335,4454]},{"type":"Point","properties":{"Station_ID":"IRMM4","Station_Nam":"WWTP","Latitude":"46.46670","Longitude":"-90.18330","Snowdepth":"16.000","Units":"in","Rept_Date":"2020-03-11 12"},"coordinates":[1656,5218]},{"type":"Point","properties":{"Station_ID":"INL","Station_Nam":"FALLS INTERNATIONAL ARPT","Latitude":"48.56640","Longitude":"-93.40310","Snowdepth":"16.000","Units":"in","Rept_Date":"2020-03-12 00"},"coordinates":[900,7126]},{"type":"Point","properties":{"Station_ID":"IMNM4","Station_Nam":"IRON MOUTAIN 5N","Latitude":"45.87580","Longitude":"-88.04030","Snowdepth":"16.000","Units":"in","Rept_Date":"2020-03-11 12"},"coordinates":[2159,4681]},{"type":"Point","properties":{"Station_ID":"IFSM5","Station_Nam":"INTERNATIONAL FALLS SNOW","Latitude":"48.57780","Longitude":"-93.39640","Snowdepth":"16.000","Units":"in","Rept_Date":"2020-03-11 12"},"coordinates":[902,7137]},{"type":"Point","properties":{"Station_ID":"EMBM5","Station_Nam":"EMBARASS,MN","Latitude":"47.65810","Longitude":"-92.19580","Snowdepth":"16.000","Units":"in","Rept_Date":"2020-03-11 11"},"coordinates":[1184,6301]},{"type":"Point","properties":{"Station_ID":"ELYM5","Station_Nam":"ELY","Latitude":"47.90560","Longitude":"-91.82830","Snowdepth":"16.000","Units":"in","Rept_Date":"2020-03-11 15"},"coordinates":[1270,6526]},{"type":"Point","properties":{"Station_ID":"CAN-NB-2","Station_Nam":"GRAFTON 2.7 NNE, CA","Latitude":"46.17062","Longitude":"-67.55330","Snowdepth":"16.000","Units":"in","Rept_Date":"2020-03-11 11"},"coordinates":[6967,4949]},{"type":"Point","properties":{"Station_ID":"AVLV1","Station_Nam":"AVERILL","Latitude":"45.00570","Longitude":"-71.69030","Snowdepth":"16.000","Units":"in","Rept_Date":"2020-03-11 12"},"coordinates":[5996,3890]},{"type":"Point","properties":{"Station_ID":"AURW3","Station_Nam":"AURORA","Latitude":"45.77000","Longitude":"-88.11810","Snowdepth":"16.000","Units":"in","Rept_Date":"2020-03-11 12"},"coordinates":[2141,4585]},{"type":"Point","properties":{"Station_ID":"AMAM4","Station_Nam":"AMASA 1W","Latitude":"46.23470","Longitude":"-88.45440","Snowdepth":"16.000","Units":"in","Rept_Date":"2020-03-11 13"},"coordinates":[2062,5007]},{"type":"Point","properties":{"Station_ID":"CAN-NB-1","Station_Nam":"FREDERICTON 4.0 SSE, CA","Latitude":"45.92897","Longitude":"-66.62830","Snowdepth":"15.600","Units":"in","Rept_Date":"2020-03-11 12"},"coordinates":[7184,4729]},{"type":"Point","properties":{"Station_ID":"ZNOM4","Station_Nam":"NORWAY","Latitude":"45.77810","Longitude":"-87.89560","Snowdepth":"15.000","Units":"in","Rept_Date":"2020-03-11 12"},"coordinates":[2193,4592]},{"type":"Point","properties":{"Station_ID":"VT-BN-12","Station_Nam":"STAMFORD 5.0 NNE, VT","Latitude":"42.82000","Longitude":"-73.02000","Snowdepth":"15.000","Units":"in","Rept_Date":"2020-03-11 21"},"coordinates":[5684,1903]},{"type":"Point","properties":{"Station_ID":"TAKW3","Station_Nam":"RICE RESERVOIR NO. 2","Latitude":"45.53770","Longitude":"-89.73220","Snowdepth":"15.000","Units":"in","Rept_Date":"2020-03-11 12"},"coordinates":[1762,4373]},{"type":"Point","properties":{"Station_ID":"MWN","Station_Nam":"MOUNT WASHINGTON","Latitude":"44.26670","Longitude":"-71.30000","Snowdepth":"15.000","Units":"in","Rept_Date":"2020-03-11 12"},"coordinates":[6088,3218]},{"type":"Point","properties":{"Station_ID":"MRAM4","Station_Nam":"MORAN","Latitude":"45.99030","Longitude":"-84.83610","Snowdepth":"15.000","Units":"in","Rept_Date":"2020-03-11 12"},"coordinates":[2911,4785]},{"type":"Point","properties":{"Station_ID":"MN-SL-15","Station_Nam":"CHISHOLM 0.4 WSW, MN","Latitude":"47.48557","Longitude":"-92.88690","Snowdepth":"15.000","Units":"in","Rept_Date":"2020-03-11 13"},"coordinates":[1021,6144]},{"type":"Point","properties":{"Station_ID":"MI-DL-4","Station_Nam":"GLADSTONE 2.1 SW, MI","Latitude":"45.83218","Longitude":"-87.05727","Snowdepth":"15.000","Units":"in","Rept_Date":"2020-03-11 12"},"coordinates":[2389,4641]},{"type":"Point","properties":{"Station_ID":"KMWN","Station_Nam":"MOUNT WASHINGTON","Latitude":"44.26666","Longitude":"-71.30000","Snowdepth":"15.000","Units":"in","Rept_Date":"2020-03-12 06"},"coordinates":[6088,3218]},{"type":"Point","properties":{"Station_ID":"KINM1","Station_Nam":"KINGFIELD","Latitude":"44.95950","Longitude":"-70.17530","Snowdepth":"15.000","Units":"in","Rept_Date":"2020-03-11 11"},"coordinates":[6352,3848]},{"type":"Point","properties":{"Station_ID":"JCBM4","Station_Nam":"JACOBSVILLE","Latitude":"47.00830","Longitude":"-88.43180","Snowdepth":"15.000","Units":"in","Rept_Date":"2020-03-11 11"},"coordinates":[2067,5710]},{"type":"Point","properties":{"Station_ID":"CAN-PE-3","Station_Nam":"WELLINGTON 1.6 NE, CA","Latitude":"46.46672","Longitude":"-63.98920","Snowdepth":"15.000","Units":"in","Rept_Date":"2020-03-11 11"},"coordinates":[7803,5218]},{"type":"Point","properties":{"Station_ID":"CAN-NS-94","Station_Nam":"MARGAREE FORKS 2.6 SSE CBN, CAN","Latitude":"46.30937","Longitude":"-61.07603","Snowdepth":"15.000","Units":"in","Rept_Date":"2020-03-11 13"},"coordinates":[8487,5075]},{"type":"Point","properties":{"Station_ID":"AVTW3","Station_Nam":"ARBOR VITAE-JOHNSON LAKE","Latitude":"45.89940","Longitude":"-89.72670","Snowdepth":"15.000","Units":"in","Rept_Date":"2020-03-11 11"},"coordinates":[1763,4702]},{"type":"Point","properties":{"Station_ID":"ASTW3","Station_Nam":"ATHELSTANE","Latitude":"45.42500","Longitude":"-88.05750","Snowdepth":"15.000","Units":"in","Rept_Date":"2020-03-11 11"},"coordinates":[2155,4271]},{"type":"Point","properties":{"Station_ID":"AGNW3","Station_Nam":"ARGONNE-1.5 NW","Latitude":"45.67360","Longitude":"-88.90380","Snowdepth":"15.000","Units":"in","Rept_Date":"2020-03-11 13"},"coordinates":[1956,4497]},{"type":"Point","properties":{"Station_ID":"WI-BY-1","Station_Nam":"BAYFIELD 8.8 N, WI","Latitude":"46.93855","Longitude":"-90.83490","Snowdepth":"14.500","Units":"in","Rept_Date":"2020-03-11 13"},"coordinates":[1503,5647]},{"type":"Point","properties":{"Station_ID":"MI-AT-6","Station_Nam":"MANCELONA 0.5 ESE, MI","Latitude":"44.89981","Longitude":"-85.05100","Snowdepth":"14.500","Units":"in","Rept_Date":"2020-03-11 13"},"coordinates":[2860,3794]},{"type":"Point","properties":{"Station_ID":"CAN-NB-97","Station_Nam":"NEW MARYLAND 0.6 NW, CAN","Latitude":"45.90112","Longitude":"-66.68739","Snowdepth":"14.200","Units":"in","Rept_Date":"2020-03-11 11"},"coordinates":[7170,4704]},{"type":"Point","properties":{"Station_ID":"WI-BN-6","Station_Nam":"SUAMICO 4.4 WNW, WI","Latitude":"44.66111","Longitude":"-88.11780","Snowdepth":"14.000","Units":"in","Rept_Date":"2020-03-11 13"},"coordinates":[2141,3577]},{"type":"Point","properties":{"Station_ID":"VT-OL-1","Station_Nam":"WESTFIELD 0.7 WNW, VT","Latitude":"44.89160","Longitude":"-72.44350","Snowdepth":"14.000","Units":"in","Rept_Date":"2020-03-11 13"},"coordinates":[5819,3786]},{"type":"Point","properties":{"Station_ID":"SUTV1","Station_Nam":"SUTTON","Latitude":"44.61220","Longitude":"-72.04810","Snowdepth":"14.000","Units":"in","Rept_Date":"2020-03-11 11"},"coordinates":[5912,3532]},{"type":"Point","properties":{"Station_ID":"RANM1","Station_Nam":"RANGELEY","Latitude":"44.98910","Longitude":"-70.67190","Snowdepth":"14.000","Units":"in","Rept_Date":"2020-03-11 10"},"coordinates":[6235,3875]},{"type":"Point","properties":{"Station_ID":"NY-FK-7","Station_Nam":"SARANAC LAKE 6.2 N, NY","Latitude":"44.41359","Longitude":"-74.15211","Snowdepth":"14.000","Units":"in","Rept_Date":"2020-03-11 12"},"coordinates":[5418,3352]},{"type":"Point","properties":{"Station_ID":"MN-SL-108","Station_Nam":"IRON JUNCTION 3.4 NNW, MN","Latitude":"47.46150","Longitude":"-92.63130","Snowdepth":"14.000","Units":"in","Rept_Date":"2020-03-11 13"},"coordinates":[1081,6122]},{"type":"Point","properties":{"Station_ID":"MI-OT-17","Station_Nam":"GAYLORD 4.1 S, MI","Latitude":"44.96388","Longitude":"-84.68467","Snowdepth":"14.000","Units":"in","Rept_Date":"2020-03-11 10"},"coordinates":[2946,3852]},{"type":"Point","properties":{"Station_ID":"LBKV1","Station_Nam":"LYE BROOK","Latitude":"43.05000","Longitude":"-73.03330","Snowdepth":"14.000","Units":"in","Rept_Date":"2020-03-12 06"},"coordinates":[5681,2112]},{"type":"Point","properties":{"Station_ID":"INDN6","Station_Nam":"INDIAN LAKE","Latitude":"43.75500","Longitude":"-74.27560","Snowdepth":"14.000","Units":"in","Rept_Date":"2020-03-11 13"},"coordinates":[5389,2753]},{"type":"Point","properties":{"Station_ID":"INDM5","Station_Nam":"INDUS,MN","Latitude":"48.61670","Longitude":"-93.90000","Snowdepth":"14.000","Units":"in","Rept_Date":"2020-03-11 13"},"coordinates":[784,7172]},{"type":"Point","properties":{"Station_ID":"GHMN3","Station_Nam":"PINKHAM NOTCH","Latitude":"44.25800","Longitude":"-71.25250","Snowdepth":"14.000","Units":"in","Rept_Date":"2020-03-11 10"},"coordinates":[6099,3210]},{"type":"Point","properties":{"Station_ID":"FLNW3","Station_Nam":"FLORENCE","Latitude":"45.93360","Longitude":"-88.25830","Snowdepth":"14.000","Units":"in","Rept_Date":"2020-03-11 12"},"coordinates":[2108,4733]},{"type":"Point","properties":{"Station_ID":"COKM5","Station_Nam":"COOK","Latitude":"47.85060","Longitude":"-92.69250","Snowdepth":"14.000","Units":"in","Rept_Date":"2020-03-11 11"},"coordinates":[1067,6476]},{"type":"Point","properties":{"Station_ID":"CAN-ON-92","Station_Nam":"DUNROBIN 1.9 W - MVCA, CAN","Latitude":"45.42318","Longitude":"-76.04525","Snowdepth":"14.000","Units":"in","Rept_Date":"2020-03-11 12"},"coordinates":[4974,4269]},{"type":"Point","properties":{"Station_ID":"BREW3","Station_Nam":"SURING","Latitude":"44.99580","Longitude":"-88.37860","Snowdepth":"14.000","Units":"in","Rept_Date":"2020-03-11 13"},"coordinates":[2079,3881]},{"type":"Point","properties":{"Station_ID":"CAN-NB-16","Station_Nam":"DORCHESTER 1.0 SSE, CAN","Latitude":"45.89160","Longitude":"-64.51269","Snowdepth":"13.900","Units":"in","Rept_Date":"2020-03-11 11"},"coordinates":[7681,4695]},{"type":"Point","properties":{"Station_ID":"MN-IT-1","Station_Nam":"GRAND RAPIDS 2.0 E, MN","Latitude":"47.22266","Longitude":"-93.49600","Snowdepth":"13.500","Units":"in","Rept_Date":"2020-03-11 12"},"coordinates":[878,5905]},{"type":"Point","properties":{"Station_ID":"WTRM4","Station_Nam":"WATERSMEET 12WSW","Latitude":"46.22310","Longitude":"-89.40850","Snowdepth":"13.000","Units":"in","Rept_Date":"2020-03-11 11"},"coordinates":[1838,4996]},{"type":"Point","properties":{"Station_ID":"WLKW3","Station_Nam":"WHITE LAKE 1 SE","Latitude":"45.14520","Longitude":"-88.74160","Snowdepth":"13.000","Units":"in","Rept_Date":"2020-03-11 13"},"coordinates":[1994,4017]},{"type":"Point","properties":{"Station_ID":"VT-ES-1","Station_Nam":"GRANBY 1.4 NW, VT","Latitude":"44.58330","Longitude":"-71.77870","Snowdepth":"13.000","Units":"in","Rept_Date":"2020-03-11 14"},"coordinates":[5975,3506]},{"type":"Point","properties":{"Station_ID":"RSTW3","Station_Nam":"ROSHOLT","Latitude":"44.62710","Longitude":"-89.30600","Snowdepth":"13.000","Units":"in","Rept_Date":"2020-03-11 10"},"coordinates":[1862,3546]},{"type":"Point","properties":{"Station_ID":"RHIW3","Station_Nam":"RHINELANDER","Latitude":"45.59860","Longitude":"-89.45080","Snowdepth":"13.000","Units":"in","Rept_Date":"2020-03-11 12"},"coordinates":[1828,4429]},{"type":"Point","properties":{"Station_ID":"MI-OT-16","Station_Nam":"GAYLORD 2.2 SSE, MI","Latitude":"44.99441","Longitude":"-84.65820","Snowdepth":"13.000","Units":"in","Rept_Date":"2020-03-11 14"},"coordinates":[2953,3880]},{"type":"Point","properties":{"Station_ID":"ME-FR-4","Station_Nam":"NEW SHARON 2.0 NW, ME","Latitude":"44.66582","Longitude":"-70.02720","Snowdepth":"13.000","Units":"in","Rept_Date":"2020-03-11 12"},"coordinates":[6386,3581]},{"type":"Point","properties":{"Station_ID":"HOKN6","Station_Nam":"HOOKER 12 NNW","Latitude":"43.85240","Longitude":"-75.71580","Snowdepth":"13.000","Units":"in","Rept_Date":"2020-03-11 11"},"coordinates":[5051,2842]},{"type":"Point","properties":{"Station_ID":"FEDM5","Station_Nam":"LEECH LAKE DAM","Latitude":"47.24670","Longitude":"-94.22280","Snowdepth":"13.000","Units":"in","Rept_Date":"2020-03-11 13"},"coordinates":[708,5927]},{"type":"Point","properties":{"Station_ID":"EAHV1","Station_Nam":"EAST HAVEN","Latitude":"44.64250","Longitude":"-71.89120","Snowdepth":"13.000","Units":"in","Rept_Date":"2020-03-11 11"},"coordinates":[5949,3560]},{"type":"Point","properties":{"Station_ID":"BAUM5","Station_Nam":"BAUDETTE,MN","Latitude":"48.71670","Longitude":"-94.61670","Snowdepth":"13.000","Units":"in","Rept_Date":"2020-03-11 20"},"coordinates":[615,7263]},{"type":"Point","properties":{"Station_ID":"WI-ON-6","Station_Nam":"RHINELANDER 5.2 N, WI","Latitude":"45.71388","Longitude":"-89.42150","Snowdepth":"12.500","Units":"in","Rept_Date":"2020-03-11 13"},"coordinates":[1835,4534]},{"type":"Point","properties":{"Station_ID":"CAN-MB-32","Station_Nam":"PINAWA 1.0 SW, CA","Latitude":"50.14747","Longitude":"-95.89020","Snowdepth":"12.500","Units":"in","Rept_Date":"2020-03-11 13"},"coordinates":[316,8563]},{"type":"Point","properties":{"Station_ID":"CAN-NS-163","Station_Nam":"SYDNEY MINES 2.2 WNW, CAN","Latitude":"46.24851","Longitude":"-60.25161","Snowdepth":"12.200","Units":"in","Rept_Date":"2020-03-11 12"},"coordinates":[8681,5020]},{"type":"Point","properties":{"Station_ID":"WI-SR-1","Station_Nam":"HAYWARD 9.2 NNE, WI","Latitude":"46.13255","Longitude":"-91.40500","Snowdepth":"12.000","Units":"in","Rept_Date":"2020-03-11 12"},"coordinates":[1369,4914]},{"type":"Point","properties":{"Station_ID":"PTBN3","Station_Nam":"PITTSBURG RESERVOIR","Latitude":"45.04690","Longitude":"-71.38300","Snowdepth":"12.000","Units":"in","Rept_Date":"2020-03-11 12"},"coordinates":[6068,3927]},{"type":"Point","properties":{"Station_ID":"PELW3","Station_Nam":"PELLA 3SE","Latitude":"44.73580","Longitude":"-88.73780","Snowdepth":"12.000","Units":"in","Rept_Date":"2020-03-11 10"},"coordinates":[1995,3645]},{"type":"Point","properties":{"Station_ID":"NH-CR-15","Station_Nam":"JACKSON 3.7 NW, NH","Latitude":"44.19069","Longitude":"-71.22598","Snowdepth":"12.000","Units":"in","Rept_Date":"2020-03-11 12"},"coordinates":[6105,3149]},{"type":"Point","properties":{"Station_ID":"LNKM1","Station_Nam":"LINCOLN SANITARY DISTRICT/WTP","Latitude":"45.37520","Longitude":"-68.50820","Snowdepth":"12.000","Units":"in","Rept_Date":"2020-03-11 11"},"coordinates":[6743,4226]},{"type":"Point","properties":{"Station_ID":"LNGM5","Station_Nam":"LONG PRAIRIE","Latitude":"45.96460","Longitude":"-94.88920","Snowdepth":"12.000","Units":"in","Rept_Date":"2020-03-11 11"},"coordinates":[551,4762]},{"type":"Point","properties":{"Station_ID":"LBRM5","Station_Nam":"LAKE BRONSON DAM","Latitude":"48.72410","Longitude":"-96.62180","Snowdepth":"12.000","Units":"in","Rept_Date":"2020-03-11 13"},"coordinates":[145,7270]},{"type":"Point","properties":{"Station_ID":"GRBM5","Station_Nam":"GRAND RAPIDS 12N","Latitude":"47.39800","Longitude":"-93.51330","Snowdepth":"12.000","Units":"in","Rept_Date":"2020-03-11 12"},"coordinates":[874,6064]},{"type":"Point","properties":{"Station_ID":"EGRW3","Station_Nam":"EAGLE RIVER-SOUTH","Latitude":"45.91360","Longitude":"-89.24360","Snowdepth":"12.000","Units":"in","Rept_Date":"2020-03-11 12"},"coordinates":[1876,4715]},{"type":"Point","properties":{"Station_ID":"CORV1","Station_Nam":"CORINTH","Latitude":"44.00690","Longitude":"-72.31940","Snowdepth":"12.000","Units":"in","Rept_Date":"2020-03-11 11"},"coordinates":[5848,2982]},{"type":"Point","properties":{"Station_ID":"CLKM4","Station_Nam":"CLARKSBURG","Latitude":"46.49910","Longitude":"-87.84500","Snowdepth":"12.000","Units":"in","Rept_Date":"2020-03-11 11"},"coordinates":[2205,5247]},{"type":"Point","properties":{"Station_ID":"CAN-ON-245","Station_Nam":"PHELPSTON 3.1 ESE, CAN","Latitude":"44.50564","Longitude":"-79.81035","Snowdepth":"12.000","Units":"in","Rept_Date":"2020-03-11 14"},"coordinates":[4090,3435]},{"type":"Point","properties":{"Station_ID":"BRAM5","Station_Nam":"BRAINERD","Latitude":"46.34320","Longitude":"-94.20900","Snowdepth":"12.000","Units":"in","Rept_Date":"2020-03-11 12"},"coordinates":[711,5106]},{"type":"Point","properties":{"Station_ID":"AROM4","Station_Nam":"ARNOLD,MI","Latitude":"46.06670","Longitude":"-87.48330","Snowdepth":"12.000","Units":"in","Rept_Date":"2020-03-11 12"},"coordinates":[2290,4854]},{"type":"Point","properties":{"Station_ID":"WI-PR-2","Station_Nam":"BUTTERNUT 5.9 SW, WI","Latitude":"45.96501","Longitude":"-90.59750","Snowdepth":"11.500","Units":"in","Rept_Date":"2020-03-11 12"},"coordinates":[1559,4762]},{"type":"Point","properties":{"Station_ID":"WI-PR-6","Station_Nam":"PHILLIPS 1.3 S, WI","Latitude":"45.67677","Longitude":"-90.39543","Snowdepth":"11.000","Units":"in","Rept_Date":"2020-03-11 12"},"coordinates":[1606,4500]},{"type":"Point","properties":{"Station_ID":"WI-MT-14","Station_Nam":"MOSINEE 2.7 WSW, WI","Latitude":"44.77240","Longitude":"-89.73441","Snowdepth":"11.000","Units":"in","Rept_Date":"2020-03-11 15"},"coordinates":[1761,3678]},{"type":"Point","properties":{"Station_ID":"WI-AS-4","Station_Nam":"ASHLAND 0.5 WNW, WI","Latitude":"46.58240","Longitude":"-90.88390","Snowdepth":"11.000","Units":"in","Rept_Date":"2020-03-11 13"},"coordinates":[1491,5323]},{"type":"Point","properties":{"Station_ID":"VT-CL-18","Station_Nam":"WHEELOCK 1.6 S, VT","Latitude":"44.56491","Longitude":"-72.08830","Snowdepth":"11.000","Units":"in","Rept_Date":"2020-03-11 12"},"coordinates":[5903,3489]},{"type":"Point","properties":{"Station_ID":"VANM4","Station_Nam":"VANDERBILT 11ENE","Latitude":"45.17020","Longitude":"-84.43970","Snowdepth":"11.000","Units":"in","Rept_Date":"2020-03-11 12"},"coordinates":[3004,4039]},{"type":"Point","properties":{"Station_ID":"RRVM4","Station_Nam":"RAPID RIVER 9S","Latitude":"45.78750","Longitude":"-86.93920","Snowdepth":"11.000","Units":"in","Rept_Date":"2020-03-11 17"},"coordinates":[2417,4601]},{"type":"Point","properties":{"Station_ID":"NH-CS-4","Station_Nam":"PITTSBURG 6.1 NE, NH","Latitude":"45.11060","Longitude":"-71.29760","Snowdepth":"11.000","Units":"in","Rept_Date":"2020-03-11 12"},"coordinates":[6088,3985]},{"type":"Point","properties":{"Station_ID":"MWTM1","Station_Nam":"MILLINOCKET WWTP","Latitude":"45.64030","Longitude":"-68.67480","Snowdepth":"11.000","Units":"in","Rept_Date":"2020-03-11 11"},"coordinates":[6704,4467]},{"type":"Point","properties":{"Station_ID":"MTQM4","Station_Nam":"MANISTIQUE WWTP","Latitude":"45.95120","Longitude":"-86.25130","Snowdepth":"11.000","Units":"in","Rept_Date":"2020-03-11 11"},"coordinates":[2579,4749]},{"type":"Point","properties":{"Station_ID":"ME-OX-2","Station_Nam":"HARTFORD 1.4 N, ME","Latitude":"44.39318","Longitude":"-70.34760","Snowdepth":"11.000","Units":"in","Rept_Date":"2020-03-11 12"},"coordinates":[6311,3333]},{"type":"Point","properties":{"Station_ID":"ISLV1","Station_Nam":"ISLAND POND","Latitude":"44.81280","Longitude":"-71.89020","Snowdepth":"11.000","Units":"in","Rept_Date":"2020-03-11 14"},"coordinates":[5949,3715]},{"type":"Point","properties":{"Station_ID":"COTM5","Station_Nam":"COTTON","Latitude":"47.16870","Longitude":"-92.46290","Snowdepth":"11.000","Units":"in","Rept_Date":"2020-03-11 11"},"coordinates":[1121,5856]},{"type":"Point","properties":{"Station_ID":"BTLN3","Station_Nam":"BARTLETT","Latitude":"44.08380","Longitude":"-71.29340","Snowdepth":"11.000","Units":"in","Rept_Date":"2020-03-11 11"},"coordinates":[6089,3052]},{"type":"Point","properties":{"Station_ID":"AWXW3","Station_Nam":"ASHLAND","Latitude":"46.58240","Longitude":"-90.88390","Snowdepth":"11.000","Units":"in","Rept_Date":"2020-03-11 12"},"coordinates":[1491,5323]},{"type":"Point","properties":{"Station_ID":"MN-IT-7","Station_Nam":"GRAND RAPIDS 6.2 SSW, MN","Latitude":"47.13687","Longitude":"-93.56660","Snowdepth":"10.800","Units":"in","Rept_Date":"2020-03-11 12"},"coordinates":[862,5827]},{"type":"Point","properties":{"Station_ID":"CAN-PE-7","Station_Nam":"MORELL 1.4 NNW, CA","Latitude":"46.42741","Longitude":"-62.70870","Snowdepth":"10.700","Units":"in","Rept_Date":"2020-03-11 12"},"coordinates":[8104,5182]},{"type":"Point","properties":{"Station_ID":"WI-SR-5","Station_Nam":"HAYWARD 9.7 NE, WI","Latitude":"46.12030","Longitude":"-91.35370","Snowdepth":"10.500","Units":"in","Rept_Date":"2020-03-11 14"},"coordinates":[1381,4903]},{"type":"Point","properties":{"Station_ID":"NY-HR-18","Station_Nam":"SALISBURY CENTER 1.8 NW, NY","Latitude":"43.16260","Longitude":"-74.80880","Snowdepth":"10.500","Units":"in","Rept_Date":"2020-03-11 11"},"coordinates":[5264,2215]},{"type":"Point","properties":{"Station_ID":"MN-PK-15","Station_Nam":"MENTOR 2.5 SSW, MN","Latitude":"47.66625","Longitude":"-96.17328","Snowdepth":"10.500","Units":"in","Rept_Date":"2020-03-11 13"},"coordinates":[250,6308]},{"type":"Point","properties":{"Station_ID":"MN-BK-10","Station_Nam":"DETROIT LAKES 5.7 N, MN","Latitude":"46.88666","Longitude":"-95.84444","Snowdepth":"10.500","Units":"in","Rept_Date":"2020-03-11 10"},"coordinates":[327,5600]},{"type":"Point","properties":{"Station_ID":"MI-CX-7","Station_Nam":"EAST JORDAN 2.1 NNW, MI","Latitude":"45.18639","Longitude":"-85.14750","Snowdepth":"10.500","Units":"in","Rept_Date":"2020-03-11 13"},"coordinates":[2838,4054]},{"type":"Point","properties":{"Station_ID":"WLKM5","Station_Nam":"AH-GWAH-CHING","Latitude":"47.15000","Longitude":"-94.65000","Snowdepth":"10.000","Units":"in","Rept_Date":"2020-03-11 10"},"coordinates":[608,5839]},{"type":"Point","properties":{"Station_ID":"WI-WB-2","Station_Nam":"STONE LAKE 2.0 NW, WI","Latitude":"45.85960","Longitude":"-91.57710","Snowdepth":"10.000","Units":"in","Rept_Date":"2020-03-11 13"},"coordinates":[1329,4666]},{"type":"Point","properties":{"Station_ID":"VT-CL-14","Station_Nam":"LYNDONVILLE 1.1 W, VT","Latitude":"44.53582","Longitude":"-72.02867","Snowdepth":"10.000","Units":"in","Rept_Date":"2020-03-11 13"},"coordinates":[5917,3463]},{"type":"Point","properties":{"Station_ID":"NH-CR-26","Station_Nam":"CENTER SANDWICH 4.9 E, NH","Latitude":"43.80976","Longitude":"-71.34150","Snowdepth":"10.000","Units":"in","Rept_Date":"2020-03-11 11"},"coordinates":[6078,2803]},{"type":"Point","properties":{"Station_ID":"NCKN6","Station_Nam":"NORTH CREEK 5 SE","Latitude":"43.66110","Longitude":"-73.89690","Snowdepth":"10.000","Units":"in","Rept_Date":"2020-03-11 11"},"coordinates":[5478,2668]},{"type":"Point","properties":{"Station_ID":"MNP0GYWA","Station_Nam":"WALKER 2.0 SSE","Latitude":"47.07505","Longitude":"-94.56757","Snowdepth":"10.000","Units":"in","Rept_Date":"2020-03-11 10"},"coordinates":[627,5771]},{"type":"Point","properties":{"Station_ID":"MN7M8EBJ","Station_Nam":"LUTSEN 15.7 NNW","Latitude":"47.85324","Longitude":"-89.92908","Snowdepth":"10.000","Units":"in","Rept_Date":"2020-03-11 13"},"coordinates":[1715,6478]},{"type":"Point","properties":{"Station_ID":"MN-AT-5","Station_Nam":"TAMARACK 1.4 SW, MN","Latitude":"46.63760","Longitude":"-93.14554","Snowdepth":"10.000","Units":"in","Rept_Date":"2020-03-11 11"},"coordinates":[961,5373]},{"type":"Point","properties":{"Station_ID":"MI-OT-4","Station_Nam":"GAYLORD 1.7 WNW, MI","Latitude":"45.03280","Longitude":"-84.71090","Snowdepth":"10.000","Units":"in","Rept_Date":"2020-03-11 13"},"coordinates":[2940,3915]},{"type":"Point","properties":{"Station_ID":"ME-FR-22","Station_Nam":"FARMINGTON 4.8 NNW, ME","Latitude":"44.73396","Longitude":"-70.18007","Snowdepth":"10.000","Units":"in","Rept_Date":"2020-03-11 14"},"coordinates":[6350,3643]},{"type":"Point","properties":{"Station_ID":"HOLW3","Station_Nam":"HOLCOMBE","Latitude":"45.22370","Longitude":"-91.12700","Snowdepth":"10.000","Units":"in","Rept_Date":"2020-03-11 12"},"coordinates":[1434,4088]},{"type":"Point","properties":{"Station_ID":"GRFN8","Station_Nam":"UNIVERSITY","Latitude":"47.93330","Longitude":"-97.08330","Snowdepth":"10.000","Units":"in","Rept_Date":"2020-03-12 05"},"coordinates":[36,6551]},{"type":"Point","properties":{"Station_ID":"GAYM4","Station_Nam":"GAYLORD","Latitude":"45.03320","Longitude":"-84.71130","Snowdepth":"10.000","Units":"in","Rept_Date":"2020-03-11 12"},"coordinates":[2940,3915]},{"type":"Point","properties":{"Station_ID":"ESGM1","Station_Nam":"EAST SANGERVILLE","Latitude":"45.13690","Longitude":"-69.28060","Snowdepth":"10.000","Units":"in","Rept_Date":"2020-03-11 11"},"coordinates":[6562,4009]},{"type":"Point","properties":{"Station_ID":"ESDN3","Station_Nam":"EAST SANDWICH","Latitude":"43.80990","Longitude":"-71.34250","Snowdepth":"10.000","Units":"in","Rept_Date":"2020-03-11 10"},"coordinates":[6078,2803]},{"type":"Point","properties":{"Station_ID":"ENGM4","Station_Nam":"ENGADINE MDOT","Latitude":"46.12800","Longitude":"-85.56960","Snowdepth":"10.000","Units":"in","Rept_Date":"2020-03-11 11"},"coordinates":[2739,4910]},{"type":"Point","properties":{"Station_ID":"EJNM4","Station_Nam":"EAST JORDAN 2NW","Latitude":"45.18630","Longitude":"-85.14770","Snowdepth":"10.000","Units":"in","Rept_Date":"2020-03-11 12"},"coordinates":[2838,4054]},{"type":"Point","properties":{"Station_ID":"COUW3","Station_Nam":"COUDERAY,WI","Latitude":"45.86670","Longitude":"-91.45000","Snowdepth":"10.000","Units":"in","Rept_Date":"2020-03-11 21"},"coordinates":[1359,4673]},{"type":"Point","properties":{"Station_ID":"CAN-NB-98","Station_Nam":"HOYT 4.2 S, CAN","Latitude":"45.54763","Longitude":"-66.55440","Snowdepth":"10.000","Units":"in","Rept_Date":"2020-03-11 11"},"coordinates":[7201,4383]},{"type":"Point","properties":{"Station_ID":"BAGM4","Station_Nam":"BARAGA 7NW","Latitude":"46.82100","Longitude":"-88.60590","Snowdepth":"10.000","Units":"in","Rept_Date":"2020-03-11 12"},"coordinates":[2026,5540]},{"type":"Point","properties":{"Station_ID":"APXM4","Station_Nam":"GAYLORD 9SSW","Latitude":"44.90720","Longitude":"-84.71880","Snowdepth":"10.000","Units":"in","Rept_Date":"2020-03-12 04"},"coordinates":[2938,3800]},{"type":"Point","properties":{"Station_ID":"NH-CR-41","Station_Nam":"ALBANY 2.8 SW, NH","Latitude":"43.92648","Longitude":"-71.21556","Snowdepth":"9.500","Units":"in","Rept_Date":"2020-03-11 13"},"coordinates":[6107,2909]},{"type":"Point","properties":{"Station_ID":"NH-CR-11","Station_Nam":"NORTH CONWAY 1.4 SSW, NH","Latitude":"44.03556","Longitude":"-71.14010","Snowdepth":"9.500","Units":"in","Rept_Date":"2020-03-11 12"},"coordinates":[6125,3008]},{"type":"Point","properties":{"Station_ID":"ND-CS-1","Station_Nam":"WEST FARGO 3.8 SSE, ND","Latitude":"46.82750","Longitude":"-96.85280","Snowdepth":"9.500","Units":"in","Rept_Date":"2020-03-11 13"},"coordinates":[91,5546]},{"type":"Point","properties":{"Station_ID":"WI-RS-1","Station_Nam":"LADYSMITH 2.8 WNW, WI","Latitude":"45.48180","Longitude":"-91.14680","Snowdepth":"9.000","Units":"in","Rept_Date":"2020-03-11 13"},"coordinates":[1430,4323]},{"type":"Point","properties":{"Station_ID":"WHFN6","Station_Nam":"WILMINGTON 2W","Latitude":"44.39310","Longitude":"-73.85890","Snowdepth":"9.000","Units":"in","Rept_Date":"2020-03-11 12"},"coordinates":[5487,3333]},{"type":"Point","properties":{"Station_ID":"VT-WS-30","Station_Nam":"WOODBURY 3.4 NNW, VT","Latitude":"44.48825","Longitude":"-72.43258","Snowdepth":"9.000","Units":"in","Rept_Date":"2020-03-11 12"},"coordinates":[5822,3420]},{"type":"Point","properties":{"Station_ID":"TOHM5","Station_Nam":"TWO HARBORS WWTP","Latitude":"47.01760","Longitude":"-91.66480","Snowdepth":"9.000","Units":"in","Rept_Date":"2020-03-11 12"},"coordinates":[1308,5719]},{"type":"Point","properties":{"Station_ID":"SULW3","Station_Nam":"SUMMIT LAKE","Latitude":"45.37880","Longitude":"-89.19410","Snowdepth":"9.000","Units":"in","Rept_Date":"2020-03-11 10"},"coordinates":[1888,4229]},{"type":"Point","properties":{"Station_ID":"SBNM5","Station_Nam":"SABIN","Latitude":"46.77690","Longitude":"-96.65610","Snowdepth":"9.000","Units":"in","Rept_Date":"2020-03-11 13"},"coordinates":[137,5500]},{"type":"Point","properties":{"Station_ID":"RHLW3","Station_Nam":"RHINELANDER 4NE","Latitude":"45.65270","Longitude":"-89.30740","Snowdepth":"9.000","Units":"in","Rept_Date":"2020-03-11 11"},"coordinates":[1861,4478]},{"type":"Point","properties":{"Station_ID":"RDYM4","Station_Nam":"RUDYARD 4S","Latitude":"46.18170","Longitude":"-84.60140","Snowdepth":"9.000","Units":"in","Rept_Date":"2020-03-11 11"},"coordinates":[2966,4959]},{"type":"Point","properties":{"Station_ID":"PBAN8","Station_Nam":"SITE 1-3MI.N","Latitude":"48.97420","Longitude":"-97.23860","Snowdepth":"9.000","Units":"in","Rept_Date":"2020-03-11 12"},"coordinates":[0,7497]},{"type":"Point","properties":{"Station_ID":"OTTM5","Station_Nam":"OTTERTAIL,MN","Latitude":"46.41670","Longitude":"-95.56670","Snowdepth":"9.000","Units":"in","Rept_Date":"2020-03-11 13"},"coordinates":[392,5172]},{"type":"Point","properties":{"Station_ID":"NY-ES-11","Station_Nam":"VERMONTVILLE 2.8 S, NY","Latitude":"44.41205","Longitude":"-74.06760","Snowdepth":"9.000","Units":"in","Rept_Date":"2020-03-11 12"},"coordinates":[5438,3350]},{"type":"Point","properties":{"Station_ID":"NUMN3","Station_Nam":"NORTHUMBERLAND","Latitude":"44.52830","Longitude":"-71.50440","Snowdepth":"9.000","Units":"in","Rept_Date":"2020-03-11 12"},"coordinates":[6040,3456]},{"type":"Point","properties":{"Station_ID":"MRQM4","Station_Nam":"MARQUETTE WFP","Latitude":"46.54580","Longitude":"-87.37950","Snowdepth":"9.000","Units":"in","Rept_Date":"2020-03-11 12"},"coordinates":[2314,5290]},{"type":"Point","properties":{"Station_ID":"MQRW3","Station_Nam":"MINOCQUA","Latitude":"45.88630","Longitude":"-89.73220","Snowdepth":"9.000","Units":"in","Rept_Date":"2020-03-11 11"},"coordinates":[1762,4690]},{"type":"Point","properties":{"Station_ID":"MNMQO9OI","Station_Nam":"OTTERTAIL 1.5 WNW","Latitude":"46.43378","Longitude":"-95.58416","Snowdepth":"9.000","Units":"in","Rept_Date":"2020-03-11 12"},"coordinates":[388,5188]},{"type":"Point","properties":{"Station_ID":"MN-BM-15","Station_Nam":"BEMIDJI 7.8 ENE, MN","Latitude":"47.52043","Longitude":"-94.72121","Snowdepth":"9.000","Units":"in","Rept_Date":"2020-03-11 13"},"coordinates":[591,6176]},{"type":"Point","properties":{"Station_ID":"MI-CP-7","Station_Nam":"DRUMMOND 2.9 NE, MI","Latitude":"46.05329","Longitude":"-83.69060","Snowdepth":"9.000","Units":"in","Rept_Date":"2020-03-11 14"},"coordinates":[3180,4842]},{"type":"Point","properties":{"Station_ID":"KSEM4","Station_Nam":"KALKASKA 11SE","Latitude":"44.58970","Longitude":"-85.04860","Snowdepth":"9.000","Units":"in","Rept_Date":"2020-03-11 12"},"coordinates":[2861,3512]},{"type":"Point","properties":{"Station_ID":"GLRM5","Station_Nam":"GLACIAL RIDGE","Latitude":"47.71670","Longitude":"-96.26670","Snowdepth":"9.000","Units":"in","Rept_Date":"2020-03-12 06"},"coordinates":[228,6354]},{"type":"Point","properties":{"Station_ID":"FARM1","Station_Nam":"FARMINGTON","Latitude":"44.68930","Longitude":"-70.15640","Snowdepth":"9.000","Units":"in","Rept_Date":"2020-03-11 12"},"coordinates":[6356,3602]},{"type":"Point","properties":{"Station_ID":"CAN-PE-10","Station_Nam":"NEW LONDON 1.6 ENE, CA","Latitude":"46.46985","Longitude":"-63.49200","Snowdepth":"9.000","Units":"in","Rept_Date":"2020-03-11 12"},"coordinates":[7920,5221]},{"type":"Point","properties":{"Station_ID":"CAN-ON-208","Station_Nam":"PAKENHAM 7.8 NNW, CAN","Latitude":"45.39166","Longitude":"-76.34111","Snowdepth":"9.000","Units":"in","Rept_Date":"2020-03-11 12"},"coordinates":[4904,4241]},{"type":"Point","properties":{"Station_ID":"ANTW3","Station_Nam":"ANTIGO,WI","Latitude":"45.13330","Longitude":"-89.15000","Snowdepth":"9.000","Units":"in","Rept_Date":"2020-03-11 13"},"coordinates":[1898,4006]},{"type":"Point","properties":{"Station_ID":"AMDW3","Station_Nam":"ALMOND-5 NE","Latitude":"44.30830","Longitude":"-89.34640","Snowdepth":"9.000","Units":"in","Rept_Date":"2020-03-11 13"},"coordinates":[1852,3256]},{"type":"Point","properties":{"Station_ID":"ALXM5","Station_Nam":"ALEXANDRIA","Latitude":"45.87820","Longitude":"-95.38270","Snowdepth":"9.000","Units":"in","Rept_Date":"2020-03-11 11"},"coordinates":[436,4683]},{"type":"Point","properties":{"Station_ID":"WI-PR-8","Station_Nam":"PHILLIPS 0.4 SSW, WI","Latitude":"45.69086","Longitude":"-90.40200","Snowdepth":"8.500","Units":"in","Rept_Date":"2020-03-11 13"},"coordinates":[1605,4513]},{"type":"Point","properties":{"Station_ID":"NH-CR-27","Station_Nam":"TAMWORTH 0.4 NNW, NH","Latitude":"43.86449","Longitude":"-71.26610","Snowdepth":"8.500","Units":"in","Rept_Date":"2020-03-11 12"},"coordinates":[6096,2853]},{"type":"Point","properties":{"Station_ID":"CAN-ON-42","Station_Nam":"VANKLEEK HILL 3.4 S, CA","Latitude":"45.48987","Longitude":"-74.64570","Snowdepth":"8.500","Units":"in","Rept_Date":"2020-03-11 12"},"coordinates":[5302,4330]},{"type":"Point","properties":{"Station_ID":"WI-RS-3","Station_Nam":"BRUCE 1.9 E, WI","Latitude":"45.45415","Longitude":"-91.23510","Snowdepth":"8.000","Units":"in","Rept_Date":"2020-03-11 13"},"coordinates":[1409,4298]},{"type":"Point","properties":{"Station_ID":"WI-DN-1","Station_Nam":"BOYCEVILLE 3.3 N, WI","Latitude":"45.08913","Longitude":"-92.02760","Snowdepth":"8.000","Units":"in","Rept_Date":"2020-03-11 13"},"coordinates":[1223,3966]},{"type":"Point","properties":{"Station_ID":"VT-ES-3","Station_Nam":"LUNENBURG 2.3 NNW, VT","Latitude":"44.49324","Longitude":"-71.70446","Snowdepth":"8.000","Units":"in","Rept_Date":"2020-03-11 10"},"coordinates":[5993,3424]},{"type":"Point","properties":{"Station_ID":"TOPM1","Station_Nam":"TOPSFIELD","Latitude":"45.43470","Longitude":"-67.72020","Snowdepth":"8.000","Units":"in","Rept_Date":"2020-03-11 11"},"coordinates":[6928,4280]},{"type":"Point","properties":{"Station_ID":"TMWN3","Station_Nam":"TAMWORTH 4","Latitude":"43.86390","Longitude":"-71.26610","Snowdepth":"8.000","Units":"in","Rept_Date":"2020-03-11 11"},"coordinates":[6096,2852]},{"type":"Point","properties":{"Station_ID":"STMM4","Station_Nam":"STAMBAUGH 2SSE","Latitude":"46.05550","Longitude":"-88.62780","Snowdepth":"8.000","Units":"in","Rept_Date":"2020-03-11 12"},"coordinates":[2021,4844]},{"type":"Point","properties":{"Station_ID":"RHRW3","Station_Nam":"RHINELANDER WJFW TV-12","Latitude":"45.62220","Longitude":"-89.41000","Snowdepth":"8.000","Units":"in","Rept_Date":"2020-03-12 03"},"coordinates":[1837,4450]},{"type":"Point","properties":{"Station_ID":"PEKN6","Station_Nam":"PECK LAKE","Latitude":"43.11500","Longitude":"-74.42360","Snowdepth":"8.000","Units":"in","Rept_Date":"2020-03-11 11"},"coordinates":[5355,2171]},{"type":"Point","properties":{"Station_ID":"ND-CS-25","Station_Nam":"FARGO 2.1 N, ND","Latitude":"46.90816","Longitude":"-96.77937","Snowdepth":"8.000","Units":"in","Rept_Date":"2020-03-11 14"},"coordinates":[108,5619]},{"type":"Point","properties":{"Station_ID":"KGFK","Station_Nam":"GRAND FORKS INTERNATIONAL","Latitude":"47.95000","Longitude":"-97.18333","Snowdepth":"8.000","Units":"in","Rept_Date":"2020-03-11 12"},"coordinates":[13,6566]},{"type":"Point","properties":{"Station_ID":"JEFV1","Station_Nam":"JEFFERSONVILLE","Latitude":"44.58430","Longitude":"-72.78700","Snowdepth":"8.000","Units":"in","Rept_Date":"2020-03-11 11"},"coordinates":[5739,3507]},{"type":"Point","properties":{"Station_ID":"GFK","Station_Nam":"GRAND FORKS INTERNATIONAL AIRPORT","Latitude":"47.94920","Longitude":"-97.17610","Snowdepth":"8.000","Units":"in","Rept_Date":"2020-03-12 00"},"coordinates":[15,6565]},{"type":"Point","properties":{"Station_ID":"CVZW3","Station_Nam":"WISCONSIN PUBLIC SERVICE","Latitude":"45.23530","Longitude":"-88.01360","Snowdepth":"8.000","Units":"in","Rept_Date":"2020-03-11 12"},"coordinates":[2165,4099]},{"type":"Point","properties":{"Station_ID":"CNNW3","Station_Nam":"CRANDON","Latitude":"45.55110","Longitude":"-88.89830","Snowdepth":"8.000","Units":"in","Rept_Date":"2020-03-11 11"},"coordinates":[1957,4386]},{"type":"Point","properties":{"Station_ID":"BFHW3","Station_Nam":"BAYFIELD FISH HATCHERY","Latitude":"46.78670","Longitude":"-90.86420","Snowdepth":"8.000","Units":"in","Rept_Date":"2020-03-11 13"},"coordinates":[1496,5509]},{"type":"Point","properties":{"Station_ID":"ABGW3","Station_Nam":"AMBERG 9 E","Latitude":"45.48250","Longitude":"-87.81190","Snowdepth":"8.000","Units":"in","Rept_Date":"2020-03-11 11"},"coordinates":[2212,4323]},{"type":"Point","properties":{"Station_ID":"CAN-ON-5","Station_Nam":"OWEN SOUND 1.5 NW - GSCA, CAN","Latitude":"44.57837","Longitude":"-80.95461","Snowdepth":"7.500","Units":"in","Rept_Date":"2020-03-11 13"},"coordinates":[3822,3502]},{"type":"Point","properties":{"Station_ID":"WUNW3","Station_Nam":"WAUSAU-NORTHEAST","Latitude":"44.97310","Longitude":"-89.61690","Snowdepth":"7.000","Units":"in","Rept_Date":"2020-03-11 11"},"coordinates":[1789,3860]},{"type":"Point","properties":{"Station_ID":"WSKW3","Station_Nam":"WAUSAUKEE","Latitude":"45.38020","Longitude":"-87.95660","Snowdepth":"7.000","Units":"in","Rept_Date":"2020-03-11 13"},"coordinates":[2178,4230]},{"type":"Point","properties":{"Station_ID":"WILW3","Station_Nam":"RESERVOIR","Latitude":"45.70000","Longitude":"-89.83330","Snowdepth":"7.000","Units":"in","Rept_Date":"2020-03-11 11"},"coordinates":[1738,4521]},{"type":"Point","properties":{"Station_ID":"WI-BT-14","Station_Nam":"OAKLAND 9.0 ENE, WI","Latitude":"45.95184","Longitude":"-92.21653","Snowdepth":"7.000","Units":"in","Rept_Date":"2020-03-11 13"},"coordinates":[1179,4750]},{"type":"Point","properties":{"Station_ID":"VT-WR-2","Station_Nam":"POMFRET 2.6 N, VT","Latitude":"43.74230","Longitude":"-72.52550","Snowdepth":"7.000","Units":"in","Rept_Date":"2020-03-11 12"},"coordinates":[5800,2742]},{"type":"Point","properties":{"Station_ID":"SAUW3","Station_Nam":"WAUSAU WSAW TV","Latitude":"44.94630","Longitude":"-89.62220","Snowdepth":"7.000","Units":"in","Rept_Date":"2020-03-12 03"},"coordinates":[1788,3836]},{"type":"Point","properties":{"Station_ID":"PERV1","Station_Nam":"PERU","Latitude":"43.26670","Longitude":"-72.90000","Snowdepth":"7.000","Units":"in","Rept_Date":"2020-03-11 11"},"coordinates":[5712,2309]},{"type":"Point","properties":{"Station_ID":"NYMM5","Station_Nam":"NEW YORK MILLS","Latitude":"46.50920","Longitude":"-95.37990","Snowdepth":"7.000","Units":"in","Rept_Date":"2020-03-11 12"},"coordinates":[436,5257]},{"type":"Point","properties":{"Station_ID":"MN1867TA","Station_Nam":"LAKE FREMONT 0.9 NW","Latitude":"45.45049","Longitude":"-93.60337","Snowdepth":"7.000","Units":"in","Rept_Date":"2020-03-11 12"},"coordinates":[853,4294]},{"type":"Point","properties":{"Station_ID":"MN-CY-1","Station_Nam":"MOORHEAD 2.0 N, MN","Latitude":"46.88766","Longitude":"-96.74800","Snowdepth":"7.000","Units":"in","Rept_Date":"2020-03-11 13"},"coordinates":[115,5601]},{"type":"Point","properties":{"Station_ID":"HMYM1","Station_Nam":"HARMONY","Latitude":"44.94660","Longitude":"-69.54560","Snowdepth":"7.000","Units":"in","Rept_Date":"2020-03-11 11"},"coordinates":[6499,3836]},{"type":"Point","properties":{"Station_ID":"FLDM5","Station_Nam":"FLOODWOOD,MN","Latitude":"47.00000","Longitude":"-92.91670","Snowdepth":"7.000","Units":"in","Rept_Date":"2020-03-11 13"},"coordinates":[1014,5703]},{"type":"Point","properties":{"Station_ID":"FLAM4","Station_Nam":"FIFE LAKE 2WNW","Latitude":"44.58480","Longitude":"-85.36530","Snowdepth":"7.000","Units":"in","Rept_Date":"2020-03-11 11"},"coordinates":[2787,3507]},{"type":"Point","properties":{"Station_ID":"FDRN8","Station_Nam":"FARGO 3S","Latitude":"46.82930","Longitude":"-96.79620","Snowdepth":"7.000","Units":"in","Rept_Date":"2020-03-12 05"},"coordinates":[104,5547]},{"type":"Point","properties":{"Station_ID":"FAR","Station_Nam":"HECTOR INTERNATIONAL ARPT","Latitude":"46.91560","Longitude":"-96.81440","Snowdepth":"7.000","Units":"in","Rept_Date":"2020-03-12 00"},"coordinates":[100,5626]},{"type":"Point","properties":{"Station_ID":"BOON6","Station_Nam":"BOONVILLE 4 SSW","Latitude":"43.43610","Longitude":"-75.36970","Snowdepth":"7.000","Units":"in","Rept_Date":"2020-03-11 11"},"coordinates":[5132,2463]},{"type":"Point","properties":{"Station_ID":"MI-BZ-1","Station_Nam":"BENZONIA 5.3 S, MI","Latitude":"44.53976","Longitude":"-86.10650","Snowdepth":"6.500","Units":"in","Rept_Date":"2020-03-11 14"},"coordinates":[2613,3466]},{"type":"Point","properties":{"Station_ID":"CAN-ON-109","Station_Nam":"MILDMAY 5.9 SSE, CA","Latitude":"43.98733","Longitude":"-81.10330","Snowdepth":"6.500","Units":"in","Rept_Date":"2020-03-11 13"},"coordinates":[3787,2964]},{"type":"Point","properties":{"Station_ID":"WRTS2","Station_Nam":"WATERTOWN,SD","Latitude":"44.90280","Longitude":"-97.11360","Snowdepth":"6.000","Units":"in","Rept_Date":"2020-03-11 14"},"coordinates":[29,3796]},{"type":"Point","properties":{"Station_ID":"WI-LN-2","Station_Nam":"MERRILL 7.0 W, WI","Latitude":"45.17746","Longitude":"-89.84820","Snowdepth":"6.000","Units":"in","Rept_Date":"2020-03-11 12"},"coordinates":[1734,4046]},{"type":"Point","properties":{"Station_ID":"VT-WS-19","Station_Nam":"WATERBURY 3.0 NW, VT","Latitude":"44.36060","Longitude":"-72.80770","Snowdepth":"6.000","Units":"in","Rept_Date":"2020-03-11 11"},"coordinates":[5734,3304]},{"type":"Point","properties":{"Station_ID":"VT-OL-2","Station_Nam":"BARTON 3.0 ENE, VT","Latitude":"44.75863","Longitude":"-72.11680","Snowdepth":"6.000","Units":"in","Rept_Date":"2020-03-11 12"},"coordinates":[5896,3665]},{"type":"Point","properties":{"Station_ID":"RARM4","Station_Nam":"RAPID RIVER 1 SW","Latitude":"45.91500","Longitude":"-86.98800","Snowdepth":"6.000","Units":"in","Rept_Date":"2020-03-11 11"},"coordinates":[2406,4716]},{"type":"Point","properties":{"Station_ID":"PARM4","Station_Nam":"PARENT BAY","Latitude":"45.79610","Longitude":"-86.40110","Snowdepth":"6.000","Units":"in","Rept_Date":"2020-03-11 14"},"coordinates":[2543,4608]},{"type":"Point","properties":{"Station_ID":"NH-MR-60","Station_Nam":"SOUTH SUTTON 1.3 SE, NH","Latitude":"43.29531","Longitude":"-71.90238","Snowdepth":"6.000","Units":"in","Rept_Date":"2020-03-11 13"},"coordinates":[5946,2335]},{"type":"Point","properties":{"Station_ID":"MLLW3","Station_Nam":"MERRILL 8W","Latitude":"45.17810","Longitude":"-89.84810","Snowdepth":"6.000","Units":"in","Rept_Date":"2020-03-11 11"},"coordinates":[1735,4047]},{"type":"Point","properties":{"Station_ID":"MI-GT-21","Station_Nam":"KINGSLEY 2.7 ENE, MI","Latitude":"44.59871","Longitude":"-85.48426","Snowdepth":"6.000","Units":"in","Rept_Date":"2020-03-11 13"},"coordinates":[2759,3520]},{"type":"Point","properties":{"Station_ID":"ME-CM-98","Station_Nam":"SEBAGO 2.4 ESE, ME","Latitude":"43.88000","Longitude":"-70.63000","Snowdepth":"6.000","Units":"in","Rept_Date":"2020-03-11 16"},"coordinates":[6245,2867]},{"type":"Point","properties":{"Station_ID":"MCLN8","Station_Nam":"MC LEOD,ND","Latitude":"46.40250","Longitude":"-97.23810","Snowdepth":"6.000","Units":"in","Rept_Date":"2020-03-11 14"},"coordinates":[0,5160]},{"type":"Point","properties":{"Station_ID":"LNCM1","Station_Nam":"LINCOLN WATER DISTRICT","Latitude":"45.32410","Longitude":"-68.58300","Snowdepth":"6.000","Units":"in","Rept_Date":"2020-03-11 12"},"coordinates":[6725,4179]},{"type":"Point","properties":{"Station_ID":"GFDN6","Station_Nam":"CHASES LAKE","Latitude":"43.75920","Longitude":"-75.29980","Snowdepth":"6.000","Units":"in","Rept_Date":"2020-03-11 10"},"coordinates":[5149,2757]},{"type":"Point","properties":{"Station_ID":"EPTW3","Station_Nam":"EAU PLEINE TENDER","Latitude":"44.77220","Longitude":"-89.76720","Snowdepth":"6.000","Units":"in","Rept_Date":"2020-03-11 12"},"coordinates":[1753,3678]},{"type":"Point","properties":{"Station_ID":"DTVM4","Station_Nam":"DETOUR VILLAGE","Latitude":"45.99830","Longitude":"-83.90130","Snowdepth":"6.000","Units":"in","Rept_Date":"2020-03-11 12"},"coordinates":[3130,4792]},{"type":"Point","properties":{"Station_ID":"BRLN3","Station_Nam":"BERLIN","Latitude":"44.45350","Longitude":"-71.18540","Snowdepth":"6.000","Units":"in","Rept_Date":"2020-03-11 10"},"coordinates":[6115,3388]},{"type":"Point","properties":{"Station_ID":"BETM1","Station_Nam":"BETHEL 6 SSE","Latitude":"44.32000","Longitude":"-70.75680","Snowdepth":"6.000","Units":"in","Rept_Date":"2020-03-11 11"},"coordinates":[6215,3267]},{"type":"Point","properties":{"Station_ID":"ATY","Station_Nam":"WATERTOWN MUNICIPAL AIRPORT","Latitude":"44.91420","Longitude":"-97.15440","Snowdepth":"6.000","Units":"in","Rept_Date":"2020-03-11 12"},"coordinates":[20,3807]},{"type":"Point","properties":{"Station_ID":"APN","Station_Nam":"PHELPS COLLINS FIELD","Latitude":"45.07810","Longitude":"-83.56030","Snowdepth":"6.000","Units":"in","Rept_Date":"2020-03-12 00"},"coordinates":[3210,3956]},{"type":"Point","properties":{"Station_ID":"ALPM4","Station_Nam":"SNOW PAID OBSERVER FOR KAPN","Latitude":"45.03110","Longitude":"-83.55970","Snowdepth":"6.000","Units":"in","Rept_Date":"2020-03-11 18"},"coordinates":[3210,3913]},{"type":"Point","properties":{"Station_ID":"WI-WN-9","Station_Nam":"NEENAH 1.1 ENE, WI","Latitude":"44.17370","Longitude":"-88.45130","Snowdepth":"5.500","Units":"in","Rept_Date":"2020-03-11 13"},"coordinates":[2062,3134]},{"type":"Point","properties":{"Station_ID":"WIRW3","Station_Nam":"WIS RAPIDS GRAND AV B","Latitude":"44.39940","Longitude":"-89.83050","Snowdepth":"5.000","Units":"in","Rept_Date":"2020-03-11 12"},"coordinates":[1739,3339]},{"type":"Point","properties":{"Station_ID":"WI-CT-4","Station_Nam":"MENASHA 5.4 ESE, WI","Latitude":"44.19640","Longitude":"-88.33070","Snowdepth":"5.000","Units":"in","Rept_Date":"2020-03-11 13"},"coordinates":[2091,3154]},{"type":"Point","properties":{"Station_ID":"VT-OG-11","Station_Nam":"VERSHIRE 1.5 ESE, VT","Latitude":"43.96138","Longitude":"-72.29777","Snowdepth":"5.000","Units":"in","Rept_Date":"2020-03-11 13"},"coordinates":[5853,2941]},{"type":"Point","properties":{"Station_ID":"STPW3","Station_Nam":"STEVENS POINT","Latitude":"44.51130","Longitude":"-89.58550","Snowdepth":"5.000","Units":"in","Rept_Date":"2020-03-11 12"},"coordinates":[1796,3441]},{"type":"Point","properties":{"Station_ID":"ROWM3","Station_Nam":"ROWE 3NE","Latitude":"42.73500","Longitude":"-72.86920","Snowdepth":"5.000","Units":"in","Rept_Date":"2020-03-11 12"},"coordinates":[5719,1826]},{"type":"Point","properties":{"Station_ID":"PLFV1","Station_Nam":"PLAINFIELD","Latitude":"44.27610","Longitude":"-72.41500","Snowdepth":"5.000","Units":"in","Rept_Date":"2020-03-11 11"},"coordinates":[5826,3227]},{"type":"Point","properties":{"Station_ID":"NH-MR-6","Station_Nam":"DANBURY 2.2 ESE, NH","Latitude":"43.52000","Longitude":"-71.81900","Snowdepth":"5.000","Units":"in","Rept_Date":"2020-03-11 13"},"coordinates":[5966,2540]},{"type":"Point","properties":{"Station_ID":"MN-MR-4","Station_Nam":"LITTLE FALLS 1.2 SW, MN","Latitude":"45.96886","Longitude":"-94.37720","Snowdepth":"5.000","Units":"in","Rept_Date":"2020-03-11 13"},"coordinates":[672,4765]},{"type":"Point","properties":{"Station_ID":"KLKM4","Station_Nam":"KALKASKA","Latitude":"44.72800","Longitude":"-85.17270","Snowdepth":"5.000","Units":"in","Rept_Date":"2020-03-11 12"},"coordinates":[2832,3638]},{"type":"Point","properties":{"Station_ID":"HRTM1","Station_Nam":"HARTFORD","Latitude":"44.37440","Longitude":"-70.31620","Snowdepth":"5.000","Units":"in","Rept_Date":"2020-03-11 11"},"coordinates":[6318,3316]},{"type":"Point","properties":{"Station_ID":"HGHN6","Station_Nam":"HIGHMARKET","Latitude":"43.57520","Longitude":"-75.52070","Snowdepth":"5.000","Units":"in","Rept_Date":"2020-03-11 10"},"coordinates":[5097,2590]},{"type":"Point","properties":{"Station_ID":"CAN-NS-13","Station_Nam":"TRURO 5.0 ENE, CA","Latitude":"45.38252","Longitude":"-63.22810","Snowdepth":"4.700","Units":"in","Rept_Date":"2020-03-11 11"},"coordinates":[7982,4232]},{"type":"Point","properties":{"Station_ID":"WI-CK-3","Station_Nam":"COLBY 5.9 WSW, WI","Latitude":"44.87209","Longitude":"-90.42463","Snowdepth":"4.500","Units":"in","Rept_Date":"2020-03-12 01"},"coordinates":[1599,3769]},{"type":"Point","properties":{"Station_ID":"VT-WR-17","Station_Nam":"ROCHESTER 2.3 NE, VT","Latitude":"43.89418","Longitude":"-72.76992","Snowdepth":"4.500","Units":"in","Rept_Date":"2020-03-11 12"},"coordinates":[5743,2880]},{"type":"Point","properties":{"Station_ID":"MN-MR-13","Station_Nam":"LITTLE FALLS 8.0 NE, MN","Latitude":"46.06785","Longitude":"-94.24789","Snowdepth":"4.500","Units":"in","Rept_Date":"2020-03-11 13"},"coordinates":[702,4855]},{"type":"Point","properties":{"Station_ID":"CAN-NB-29","Station_Nam":"SUSSEX 1.0 WNW - KWRC, CAN","Latitude":"45.72670","Longitude":"-65.52858","Snowdepth":"4.500","Units":"in","Rept_Date":"2020-03-11 12"},"coordinates":[7442,4545]},{"type":"Point","properties":{"Station_ID":"WSFW3","Station_Nam":"TOWN OF WESTFORD","Latitude":"43.47190","Longitude":"-88.88250","Snowdepth":"4.000","Units":"in","Rept_Date":"2020-03-11 12"},"coordinates":[1961,2496]},{"type":"Point","properties":{"Station_ID":"WLDM5","Station_Nam":"WILD RIVER STATE PARK","Latitude":"45.52310","Longitude":"-92.74890","Snowdepth":"4.000","Units":"in","Rept_Date":"2020-03-11 13"},"coordinates":[1054,4360]},{"type":"Point","properties":{"Station_ID":"WI-PT-8","Station_Nam":"RUDOLPH 2.1 NNE, WI","Latitude":"44.52553","Longitude":"-89.78677","Snowdepth":"4.000","Units":"in","Rept_Date":"2020-03-11 11"},"coordinates":[1749,3454]},{"type":"Point","properties":{"Station_ID":"WI-DD-16","Station_Nam":"BEAVER DAM 2.4 WNW, WI","Latitude":"43.47210","Longitude":"-88.88280","Snowdepth":"4.000","Units":"in","Rept_Date":"2020-03-11 13"},"coordinates":[1961,2496]},{"type":"Point","properties":{"Station_ID":"WI-CH-7","Station_Nam":"CHIPPEWA FALLS 1.2 E, WI","Latitude":"44.92920","Longitude":"-91.36730","Snowdepth":"4.000","Units":"in","Rept_Date":"2020-03-11 13"},"coordinates":[1378,3820]},{"type":"Point","properties":{"Station_ID":"VT-LM-1","Station_Nam":"STOWE 0.2 SW, VT","Latitude":"44.46399","Longitude":"-72.69070","Snowdepth":"4.000","Units":"in","Rept_Date":"2020-03-11 12"},"coordinates":[5761,3398]},{"type":"Point","properties":{"Station_ID":"TOPN6","Station_Nam":"TUPPER LAKE SUNMOUNT","Latitude":"44.23070","Longitude":"-74.43820","Snowdepth":"4.000","Units":"in","Rept_Date":"2020-03-11 11"},"coordinates":[5351,3186]},{"type":"Point","properties":{"Station_ID":"STRW3","Station_Nam":"STRATFORD 1NW","Latitude":"44.81750","Longitude":"-90.08990","Snowdepth":"4.000","Units":"in","Rept_Date":"2020-03-11 11"},"coordinates":[1678,3719]},{"type":"Point","properties":{"Station_ID":"STIM4","Station_Nam":"ST IGNACE","Latitude":"45.86080","Longitude":"-84.71960","Snowdepth":"4.000","Units":"in","Rept_Date":"2020-03-11 11"},"coordinates":[2938,4667]},{"type":"Point","properties":{"Station_ID":"SD-CD-30","Station_Nam":"WATERTOWN 2.3 E, SD","Latitude":"44.91604","Longitude":"-97.11925","Snowdepth":"4.000","Units":"in","Rept_Date":"2020-03-11 14"},"coordinates":[28,3808]},{"type":"Point","properties":{"Station_ID":"RCEM5","Station_Nam":"RICE","Latitude":"45.75760","Longitude":"-94.20720","Snowdepth":"4.000","Units":"in","Rept_Date":"2020-03-11 12"},"coordinates":[711,4573]},{"type":"Point","properties":{"Station_ID":"PSHW3","Station_Nam":"PESHTIGO","Latitude":"45.02810","Longitude":"-87.73560","Snowdepth":"4.000","Units":"in","Rept_Date":"2020-03-11 12"},"coordinates":[2230,3910]},{"type":"Point","properties":{"Station_ID":"NWSM1","Station_Nam":"NEW SHARON","Latitude":"44.63520","Longitude":"-70.00020","Snowdepth":"4.000","Units":"in","Rept_Date":"2020-03-11 11"},"coordinates":[6393,3553]},{"type":"Point","properties":{"Station_ID":"NSFN3","Station_Nam":"NORTH STRATFORD","Latitude":"44.68190","Longitude":"-71.58570","Snowdepth":"4.000","Units":"in","Rept_Date":"2020-03-11 11"},"coordinates":[6021,3596]},{"type":"Point","properties":{"Station_ID":"NH-MR-45","Station_Nam":"NORTHFIELD 2.8 E, NH","Latitude":"43.43945","Longitude":"-71.53730","Snowdepth":"4.000","Units":"in","Rept_Date":"2020-03-11 11"},"coordinates":[6032,2466]},{"type":"Point","properties":{"Station_ID":"NH-MR-41","Station_Nam":"NEWBURY 1.6 NW, NH","Latitude":"43.33667","Longitude":"-72.06060","Snowdepth":"4.000","Units":"in","Rept_Date":"2020-03-11 11"},"coordinates":[5909,2373]},{"type":"Point","properties":{"Station_ID":"MRAM5","Station_Nam":"MORA","Latitude":"45.87760","Longitude":"-93.31470","Snowdepth":"4.000","Units":"in","Rept_Date":"2020-03-11 12"},"coordinates":[921,4682]},{"type":"Point","properties":{"Station_ID":"MN-SH-10","Station_Nam":"BIG LAKE 5.6 NNE, MN","Latitude":"45.41409","Longitude":"-93.69190","Snowdepth":"4.000","Units":"in","Rept_Date":"2020-03-11 13"},"coordinates":[832,4261]},{"type":"Point","properties":{"Station_ID":"MN-SE-2","Station_Nam":"OWATONNA 0.8 E, MN","Latitude":"44.09170","Longitude":"-93.21380","Snowdepth":"4.000","Units":"in","Rept_Date":"2020-03-11 12"},"coordinates":[945,3059]},{"type":"Point","properties":{"Station_ID":"MN-AA-76","Station_Nam":"NOWTHEN 2.9 SSE, MN","Latitude":"45.30360","Longitude":"-93.42620","Snowdepth":"4.000","Units":"in","Rept_Date":"2020-03-11 13"},"coordinates":[895,4161]},{"type":"Point","properties":{"Station_ID":"MLCM5","Station_Nam":"MILACA","Latitude":"45.75320","Longitude":"-93.66170","Snowdepth":"4.000","Units":"in","Rept_Date":"2020-03-11 12"},"coordinates":[839,4569]},{"type":"Point","properties":{"Station_ID":"MI-MC-4","Station_Nam":"ST. IGNACE 0.5SE, MI","Latitude":"45.86057","Longitude":"-84.71980","Snowdepth":"4.000","Units":"in","Rept_Date":"2020-03-11 12"},"coordinates":[2938,4667]},{"type":"Point","properties":{"Station_ID":"MI-CF-9","Station_Nam":"GRAYLING 15.8 NE, MI","Latitude":"44.80464","Longitude":"-84.46313","Snowdepth":"4.000","Units":"in","Rept_Date":"2020-03-11 12"},"coordinates":[2998,3707]},{"type":"Point","properties":{"Station_ID":"ME-CM-3","Station_Nam":"NEW GLOUCESTER 3.0 SE, ME","Latitude":"43.92372","Longitude":"-70.25790","Snowdepth":"4.000","Units":"in","Rept_Date":"2020-03-11 12"},"coordinates":[6332,2907]},{"type":"Point","properties":{"Station_ID":"ME-AN-32","Station_Nam":"WINTHROP 9.4 W, ME","Latitude":"44.30476","Longitude":"-70.15835","Snowdepth":"4.000","Units":"in","Rept_Date":"2020-03-11 11"},"coordinates":[6356,3253]},{"type":"Point","properties":{"Station_ID":"LADW3","Station_Nam":"LADYSMITH WTP","Latitude":"45.44290","Longitude":"-91.08970","Snowdepth":"4.000","Units":"in","Rept_Date":"2020-03-11 12"},"coordinates":[1443,4287]},{"type":"Point","properties":{"Station_ID":"JEFN3","Station_Nam":"JEFFERSON","Latitude":"44.41690","Longitude":"-71.50080","Snowdepth":"4.000","Units":"in","Rept_Date":"2020-03-11 11"},"coordinates":[6040,3355]},{"type":"Point","properties":{"Station_ID":"ILEW3","Station_Nam":"STILES 1S","Latitude":"44.84190","Longitude":"-88.05420","Snowdepth":"4.000","Units":"in","Rept_Date":"2020-03-11 12"},"coordinates":[2156,3741]},{"type":"Point","properties":{"Station_ID":"CORM1","Station_Nam":"CORINNA","Latitude":"44.91980","Longitude":"-69.24180","Snowdepth":"4.000","Units":"in","Rept_Date":"2020-03-11 13"},"coordinates":[6571,3812]},{"type":"Point","properties":{"Station_ID":"CBLW3","Station_Nam":"CUMBERLAND","Latitude":"45.53310","Longitude":"-92.02260","Snowdepth":"4.000","Units":"in","Rept_Date":"2020-03-11 12"},"coordinates":[1224,4369]},{"type":"Point","properties":{"Station_ID":"BFSW3","Station_Nam":"BIG FALLS-5 NW","Latitude":"44.63980","Longitude":"-89.11330","Snowdepth":"4.000","Units":"in","Rept_Date":"2020-03-11 12"},"coordinates":[1907,3557]},{"type":"Point","properties":{"Station_ID":"BENN6","Station_Nam":"BENNETTS BRIDGE","Latitude":"43.53180","Longitude":"-75.95260","Snowdepth":"4.000","Units":"in","Rept_Date":"2020-03-11 11"},"coordinates":[4996,2550]},{"type":"Point","properties":{"Station_ID":"WI-DN-15","Station_Nam":"MENOMONIE 0.9 NW, WI","Latitude":"44.89832","Longitude":"-91.92398","Snowdepth":"3.500","Units":"in","Rept_Date":"2020-03-11 13"},"coordinates":[1247,3792]},{"type":"Point","properties":{"Station_ID":"NY-OD-2","Station_Nam":"POINT ROCK 0.6 SE, NY","Latitude":"43.37335","Longitude":"-75.53840","Snowdepth":"3.500","Units":"in","Rept_Date":"2020-03-11 13"},"coordinates":[5093,2406]},{"type":"Point","properties":{"Station_ID":"MN-WC-8","Station_Nam":"WASECA 2.0 N, MN","Latitude":"44.11194","Longitude":"-93.49972","Snowdepth":"3.500","Units":"in","Rept_Date":"2020-03-11 12"},"coordinates":[877,3078]},{"type":"Point","properties":{"Station_ID":"MN-GH-28","Station_Nam":"CANNON FALLS 0.5 SE, MN","Latitude":"44.50866","Longitude":"-92.89526","Snowdepth":"3.500","Units":"in","Rept_Date":"2020-03-11 14"},"coordinates":[1019,3438]},{"type":"Point","properties":{"Station_ID":"CAN-NS-159","Station_Nam":"NORTHPORT 0.1 NE, CAN","Latitude":"45.93299","Longitude":"-63.86711","Snowdepth":"3.100","Units":"in","Rept_Date":"2020-03-11 11"},"coordinates":[7832,4733]},{"type":"Point","properties":{"Station_ID":"WMRM5","Station_Nam":"WILLMAR 5N","Latitude":"45.19010","Longitude":"-95.05860","Snowdepth":"3.000","Units":"in","Rept_Date":"2020-03-11 11"},"coordinates":[512,4058]},{"type":"Point","properties":{"Station_ID":"WI-SB-18","Station_Nam":"PLYMOUTH 5.4 NE, WI","Latitude":"43.81185","Longitude":"-87.91054","Snowdepth":"3.000","Units":"in","Rept_Date":"2020-03-11 13"},"coordinates":[2189,2805]},{"type":"Point","properties":{"Station_ID":"WI-SB-10","Station_Nam":"RANDOM LAKE 0.5 SSE, WI","Latitude":"43.54812","Longitude":"-87.95050","Snowdepth":"3.000","Units":"in","Rept_Date":"2020-03-11 13"},"coordinates":[2180,2565]},{"type":"Point","properties":{"Station_ID":"WI-OG-12","Station_Nam":"KAUKAUNA 1.5 SW, WI","Latitude":"44.26062","Longitude":"-88.28590","Snowdepth":"3.000","Units":"in","Rept_Date":"2020-03-11 12"},"coordinates":[2101,3213]},{"type":"Point","properties":{"Station_ID":"WI-BR-2","Station_Nam":"CHETEK 2.0 SE, WI","Latitude":"45.29427","Longitude":"-91.62470","Snowdepth":"3.000","Units":"in","Rept_Date":"2020-03-11 13"},"coordinates":[1318,4152]},{"type":"Point","properties":{"Station_ID":"WI-BN-14","Station_Nam":"GREEN BAY 3.8 SSE, WI","Latitude":"44.46772","Longitude":"-87.97350","Snowdepth":"3.000","Units":"in","Rept_Date":"2020-03-11 13"},"coordinates":[2174,3401]},{"type":"Point","properties":{"Station_ID":"WASW3","Station_Nam":"WASHINGTON IS","Latitude":"45.35800","Longitude":"-86.89110","Snowdepth":"3.000","Units":"in","Rept_Date":"2020-03-11 13"},"coordinates":[2428,4210]},{"type":"Point","properties":{"Station_ID":"VT-LM-7","Station_Nam":"HYDE PARK 2.9 NE, VT","Latitude":"44.62080","Longitude":"-72.57250","Snowdepth":"3.000","Units":"in","Rept_Date":"2020-03-11 12"},"coordinates":[5789,3540]},{"type":"Point","properties":{"Station_ID":"VT-AD-20","Station_Nam":"HANCOCK 0.3 S, VT","Latitude":"43.92166","Longitude":"-72.84042","Snowdepth":"3.000","Units":"in","Rept_Date":"2020-03-11 12"},"coordinates":[5726,2905]},{"type":"Point","properties":{"Station_ID":"THLM5","Station_Nam":"THEILMAN 1SSW","Latitude":"44.28130","Longitude":"-92.19430","Snowdepth":"3.000","Units":"in","Rept_Date":"2020-03-11 12"},"coordinates":[1184,3232]},{"type":"Point","properties":{"Station_ID":"PLOW3","Station_Nam":"PLOVER","Latitude":"44.44280","Longitude":"-89.54530","Snowdepth":"3.000","Units":"in","Rept_Date":"2020-03-11 12"},"coordinates":[1806,3378]},{"type":"Point","properties":{"Station_ID":"OKHW3","Station_Nam":"OSHKOSH,WI","Latitude":"44.03330","Longitude":"-88.55560","Snowdepth":"3.000","Units":"in","Rept_Date":"2020-03-11 12"},"coordinates":[2038,3006]},{"type":"Point","properties":{"Station_ID":"NY-WR-15","Station_Nam":"LAKE GEORGE 5.0 ESE, NY","Latitude":"43.40039","Longitude":"-73.62266","Snowdepth":"3.000","Units":"in","Rept_Date":"2020-03-11 12"},"coordinates":[5542,2431]},{"type":"Point","properties":{"Station_ID":"NUMM5","Station_Nam":"NEW ULM 3SE","Latitude":"44.29450","Longitude":"-94.40840","Snowdepth":"3.000","Units":"in","Rept_Date":"2020-03-11 11"},"coordinates":[664,3244]},{"type":"Point","properties":{"Station_ID":"NPTM4","Station_Nam":"NORTHPORT 2W","Latitude":"45.13220","Longitude":"-85.64720","Snowdepth":"3.000","Units":"in","Rept_Date":"2020-03-11 12"},"coordinates":[2720,4005]},{"type":"Point","properties":{"Station_ID":"NHNW3","Station_Nam":"NEW HOLSTEIN-EAST-WWTP","Latitude":"43.95310","Longitude":"-88.07720","Snowdepth":"3.000","Units":"in","Rept_Date":"2020-03-11 13"},"coordinates":[2150,2933]},{"type":"Point","properties":{"Station_ID":"NAZW3","Station_Nam":"ST. NAZIANZ-2 W","Latitude":"44.00420","Longitude":"-87.96360","Snowdepth":"3.000","Units":"in","Rept_Date":"2020-03-11 12"},"coordinates":[2177,2980]},{"type":"Point","properties":{"Station_ID":"MYOM4","Station_Nam":"MIO WWTP","Latitude":"44.64660","Longitude":"-84.11580","Snowdepth":"3.000","Units":"in","Rept_Date":"2020-03-11 12"},"coordinates":[3080,3564]},{"type":"Point","properties":{"Station_ID":"MNEY8CTB","Station_Nam":"MIDLAND JUNCTION 2.2 ENE","Latitude":"44.33041","Longitude":"-91.95891","Snowdepth":"3.000","Units":"in","Rept_Date":"2020-03-11 13"},"coordinates":[1239,3276]},{"type":"Point","properties":{"Station_ID":"MN76ACVS","Station_Nam":"GRAND MARAIS 3.0 WNW","Latitude":"47.76602","Longitude":"-90.26427","Snowdepth":"3.000","Units":"in","Rept_Date":"2020-03-11 12"},"coordinates":[1637,6399]},{"type":"Point","properties":{"Station_ID":"MN0GWSNW","Station_Nam":"LAKE ELMO 2.9 SE","Latitude":"44.97220","Longitude":"-92.83065","Snowdepth":"3.000","Units":"in","Rept_Date":"2020-03-11 12"},"coordinates":[1035,3860]},{"type":"Point","properties":{"Station_ID":"MN-SR-29","Station_Nam":"ALBANY 3.8 S, MN","Latitude":"45.57441","Longitude":"-94.55543","Snowdepth":"3.000","Units":"in","Rept_Date":"2020-03-11 13"},"coordinates":[630,4407]},{"type":"Point","properties":{"Station_ID":"MN-SH-985","Station_Nam":"PRINCETON 3.3 WSW, MN","Latitude":"45.55211","Longitude":"-93.64481","Snowdepth":"3.000","Units":"in","Rept_Date":"2020-03-11 10"},"coordinates":[843,4387]},{"type":"Point","properties":{"Station_ID":"MN-RC-11","Station_Nam":"NEW PRAGUE 4.8 ESE, MN","Latitude":"44.51999","Longitude":"-93.48470","Snowdepth":"3.000","Units":"in","Rept_Date":"2020-03-11 11"},"coordinates":[881,3448]},{"type":"Point","properties":{"Station_ID":"MN-BN-6","Station_Nam":"RICE 6.5 SSE, MN","Latitude":"45.67037","Longitude":"-94.16679","Snowdepth":"3.000","Units":"in","Rept_Date":"2020-03-11 13"},"coordinates":[721,4494]},{"type":"Point","properties":{"Station_ID":"MLRM5","Station_Nam":"MELROSE","Latitude":"45.67710","Longitude":"-94.80200","Snowdepth":"3.000","Units":"in","Rept_Date":"2020-03-11 12"},"coordinates":[572,4500]},{"type":"Point","properties":{"Station_ID":"MEDW3","Station_Nam":"MEDFORD","Latitude":"45.13080","Longitude":"-90.34390","Snowdepth":"3.000","Units":"in","Rept_Date":"2020-03-11 13"},"coordinates":[1618,4004]},{"type":"Point","properties":{"Station_ID":"MAPM4","Station_Nam":"MAPLE CITY 1E","Latitude":"44.85500","Longitude":"-85.83520","Snowdepth":"3.000","Units":"in","Rept_Date":"2020-03-11 22"},"coordinates":[2676,3753]},{"type":"Point","properties":{"Station_ID":"LUCW3","Station_Nam":"LUCK","Latitude":"45.57330","Longitude":"-92.48520","Snowdepth":"3.000","Units":"in","Rept_Date":"2020-03-11 21"},"coordinates":[1116,4406]},{"type":"Point","properties":{"Station_ID":"LAKM5","Station_Nam":"LAKE CITY","Latitude":"44.43630","Longitude":"-92.27930","Snowdepth":"3.000","Units":"in","Rept_Date":"2020-03-11 12"},"coordinates":[1164,3372]},{"type":"Point","properties":{"Station_ID":"FRKM4","Station_Nam":"FRANKFORT 2NE","Latitude":"44.64800","Longitude":"-86.21000","Snowdepth":"3.000","Units":"in","Rept_Date":"2020-03-11 22"},"coordinates":[2588,3565]},{"type":"Point","properties":{"Station_ID":"FORW3","Station_Nam":"FORESTVILLE-4E","Latitude":"44.69780","Longitude":"-87.39690","Snowdepth":"3.000","Units":"in","Rept_Date":"2020-03-11 12"},"coordinates":[2310,3610]},{"type":"Point","properties":{"Station_ID":"EJDM4","Station_Nam":"EAST JORDAN","Latitude":"45.15190","Longitude":"-85.13220","Snowdepth":"3.000","Units":"in","Rept_Date":"2020-03-11 12"},"coordinates":[2841,4023]},{"type":"Point","properties":{"Station_ID":"DENW3","Station_Nam":"DENMARK WWTP","Latitude":"44.35130","Longitude":"-87.81190","Snowdepth":"3.000","Units":"in","Rept_Date":"2020-03-11 13"},"coordinates":[2212,3295]},{"type":"Point","properties":{"Station_ID":"CHIW3","Station_Nam":"CHILTON,WI","Latitude":"44.03330","Longitude":"-88.15000","Snowdepth":"3.000","Units":"in","Rept_Date":"2020-03-11 12"},"coordinates":[2133,3006]},{"type":"Point","properties":{"Station_ID":"BMRW3","Station_Nam":"BLOOMER","Latitude":"45.09070","Longitude":"-91.48640","Snowdepth":"3.000","Units":"in","Rept_Date":"2020-03-11 13"},"coordinates":[1350,3967]},{"type":"Point","properties":{"Station_ID":"CAN-NB-5","Station_Nam":"OAK POINT 0.9 SSW, CA","Latitude":"45.50752","Longitude":"-66.09860","Snowdepth":"2.800","Units":"in","Rept_Date":"2020-03-11 12"},"coordinates":[7308,4346]},{"type":"Point","properties":{"Station_ID":"MN-DK-112","Station_Nam":"HASTINGS 5.8 W, MN","Latitude":"44.72325","Longitude":"-92.97235","Snowdepth":"2.600","Units":"in","Rept_Date":"2020-03-11 13"},"coordinates":[1001,3633]},{"type":"Point","properties":{"Station_ID":"WI-SB-19","Station_Nam":"SHEBOYGAN 0.7 SSW, WI","Latitude":"43.73560","Longitude":"-87.73490","Snowdepth":"2.500","Units":"in","Rept_Date":"2020-03-11 13"},"coordinates":[2230,2736]},{"type":"Point","properties":{"Station_ID":"MN-GH-4","Station_Nam":"NERSTRAND 4.2 E, MN","Latitude":"44.34247","Longitude":"-92.97920","Snowdepth":"2.500","Units":"in","Rept_Date":"2020-03-11 13"},"coordinates":[1000,3287]},{"type":"Point","properties":{"Station_ID":"MN-DK-73","Station_Nam":"LAKEVILLE 2.6 NNE, MN","Latitude":"44.71250","Longitude":"-93.23043","Snowdepth":"2.500","Units":"in","Rept_Date":"2020-03-11 13"},"coordinates":[941,3623]},{"type":"Point","properties":{"Station_ID":"ME-CM-125","Station_Nam":"CUMBERLAND CENTER 4.4 NW, ME","Latitude":"43.84640","Longitude":"-70.31340","Snowdepth":"2.500","Units":"in","Rept_Date":"2020-03-11 12"},"coordinates":[6319,2836]},{"type":"Point","properties":{"Station_ID":"MA-HS-7","Station_Nam":"PLAINFIELD 2.2 SW, MA","Latitude":"42.49272","Longitude":"-72.94540","Snowdepth":"2.500","Units":"in","Rept_Date":"2020-03-11 13"},"coordinates":[5701,1606]},{"type":"Point","properties":{"Station_ID":"WI-SB-12","Station_Nam":"SHEBOYGAN 3.2 NW, WI","Latitude":"43.78470","Longitude":"-87.76640","Snowdepth":"2.200","Units":"in","Rept_Date":"2020-03-11 13"},"coordinates":[2223,2780]},{"type":"Point","properties":{"Station_ID":"WWWW3","Station_Nam":"WAUPACA","Latitude":"44.35470","Longitude":"-89.05920","Snowdepth":"2.000","Units":"in","Rept_Date":"2020-03-11 13"},"coordinates":[1920,3298]},{"type":"Point","properties":{"Station_ID":"WTBW3","Station_Nam":"WEST BEND PUBLIC WORKS","Latitude":"43.41110","Longitude":"-88.19380","Snowdepth":"2.000","Units":"in","Rept_Date":"2020-03-11 15"},"coordinates":[2123,2441]},{"type":"Point","properties":{"Station_ID":"WORV1","Station_Nam":"WORCESTER 2 W","Latitude":"44.37470","Longitude":"-72.58220","Snowdepth":"2.000","Units":"in","Rept_Date":"2020-03-11 11"},"coordinates":[5787,3316]},{"type":"Point","properties":{"Station_ID":"WIPW3","Station_Nam":"WISCONSIN RAPIDS-SOUTHEAST","Latitude":"44.38190","Longitude":"-89.80470","Snowdepth":"2.000","Units":"in","Rept_Date":"2020-03-11 11"},"coordinates":[1745,3323]},{"type":"Point","properties":{"Station_ID":"WI-WS-4","Station_Nam":"KEWASKUM 1.8 WNW, WI","Latitude":"43.52880","Longitude":"-88.26570","Snowdepth":"2.000","Units":"in","Rept_Date":"2020-03-11 13"},"coordinates":[2106,2548]},{"type":"Point","properties":{"Station_ID":"WI-WS-35","Station_Nam":"WEST BEND 1.4 W, WI","Latitude":"43.42115","Longitude":"-88.21203","Snowdepth":"2.000","Units":"in","Rept_Date":"2020-03-11 14"},"coordinates":[2118,2450]},{"type":"Point","properties":{"Station_ID":"WI-WN-5","Station_Nam":"OSHKOSH 5.2 N, WI","Latitude":"44.09351","Longitude":"-88.55310","Snowdepth":"2.000","Units":"in","Rept_Date":"2020-03-11 13"},"coordinates":[2038,3061]},{"type":"Point","properties":{"Station_ID":"WI-WN-19","Station_Nam":"OSHKOSH 1.6 ESE, WI","Latitude":"44.01097","Longitude":"-88.52354","Snowdepth":"2.000","Units":"in","Rept_Date":"2020-03-11 13"},"coordinates":[2045,2986]},{"type":"Point","properties":{"Station_ID":"WI-WN-15","Station_Nam":"OSHKOSH 2.0 W, WI","Latitude":"44.01962","Longitude":"-88.59359","Snowdepth":"2.000","Units":"in","Rept_Date":"2020-03-11 13"},"coordinates":[2029,2994]},{"type":"Point","properties":{"Station_ID":"WI-WD-2","Station_Nam":"WISCONSIN RAPIDS 4.6 SSE, WI","Latitude":"44.33823","Longitude":"-89.78200","Snowdepth":"2.000","Units":"in","Rept_Date":"2020-03-11 13"},"coordinates":[1750,3283]},{"type":"Point","properties":{"Station_ID":"WI-TR-8","Station_Nam":"ETTRICK 4.0 WNW, WI","Latitude":"44.19004","Longitude":"-91.34249","Snowdepth":"2.000","Units":"in","Rept_Date":"2020-03-11 14"},"coordinates":[1384,3149]},{"type":"Point","properties":{"Station_ID":"WI-DD-14","Station_Nam":"THERESA 0.1 ESE, WI","Latitude":"43.51691","Longitude":"-88.45026","Snowdepth":"2.000","Units":"in","Rept_Date":"2020-03-11 13"},"coordinates":[2063,2537]},{"type":"Point","properties":{"Station_ID":"WHTM5","Station_Nam":"WHEATON,MN","Latitude":"45.80000","Longitude":"-96.48330","Snowdepth":"2.000","Units":"in","Rept_Date":"2020-03-11 13"},"coordinates":[177,4612]},{"type":"Point","properties":{"Station_ID":"UVDV1","Station_Nam":"NERON SITE AT UNION VILLAGE DAM","Latitude":"43.79140","Longitude":"-72.25720","Snowdepth":"2.000","Units":"in","Rept_Date":"2020-03-11 12"},"coordinates":[5863,2786]},{"type":"Point","properties":{"Station_ID":"TAHW3","Station_Nam":"TAYCHEEDAH","Latitude":"43.83390","Longitude":"-88.34690","Snowdepth":"2.000","Units":"in","Rept_Date":"2020-03-11 12"},"coordinates":[2087,2825]},{"type":"Point","properties":{"Station_ID":"SPGM5","Station_Nam":"SPRING VALLEY","Latitude":"43.69330","Longitude":"-92.39260","Snowdepth":"2.000","Units":"in","Rept_Date":"2020-03-11 12"},"coordinates":[1137,2697]},{"type":"Point","properties":{"Station_ID":"SLRW3","Station_Nam":"SLINGER","Latitude":"43.33390","Longitude":"-88.29780","Snowdepth":"2.000","Units":"in","Rept_Date":"2020-03-11 12"},"coordinates":[2098,2370]},{"type":"Point","properties":{"Station_ID":"SHIW3","Station_Nam":"SHIOCTON","Latitude":"44.43890","Longitude":"-88.58390","Snowdepth":"2.000","Units":"in","Rept_Date":"2020-03-11 12"},"coordinates":[2031,3375]},{"type":"Point","properties":{"Station_ID":"SHHW3","Station_Nam":"SHAWANO 2SSW","Latitude":"44.76310","Longitude":"-88.61830","Snowdepth":"2.000","Units":"in","Rept_Date":"2020-03-11 13"},"coordinates":[2023,3669]},{"type":"Point","properties":{"Station_ID":"SBEW3","Station_Nam":"EXP. FARM","Latitude":"44.86670","Longitude":"-87.33330","Snowdepth":"2.000","Units":"in","Rept_Date":"2020-03-11 12"},"coordinates":[2325,3764]},{"type":"Point","properties":{"Station_ID":"RWGM5","Station_Nam":"RED WING","Latitude":"44.57120","Longitude":"-92.52830","Snowdepth":"2.000","Units":"in","Rept_Date":"2020-03-11 13"},"coordinates":[1105,3495]},{"type":"Point","properties":{"Station_ID":"RSMM5","Station_Nam":"ROSEMOUNT RESEARCH AND OUTREACH CENTER","Latitude":"44.71660","Longitude":"-93.09800","Snowdepth":"2.000","Units":"in","Rept_Date":"2020-03-11 13"},"coordinates":[972,3627]},{"type":"Point","properties":{"Station_ID":"ROBM1","Station_Nam":"ROBBINSTON","Latitude":"45.08520","Longitude":"-67.12050","Snowdepth":"2.000","Units":"in","Rept_Date":"2020-03-12 04"},"coordinates":[7069,3962]},{"type":"Point","properties":{"Station_ID":"RCHW3","Station_Nam":"RICHRIELD,WI","Latitude":"43.21080","Longitude":"-88.20940","Snowdepth":"2.000","Units":"in","Rept_Date":"2020-03-11 11"},"coordinates":[2119,2259]},{"type":"Point","properties":{"Station_ID":"PVRW3","Station_Nam":"PLOVER-2-E WATER TREATMENT PLANT","Latitude":"44.45920","Longitude":"-89.49530","Snowdepth":"2.000","Units":"in","Rept_Date":"2020-03-11 12"},"coordinates":[1817,3393]},{"type":"Point","properties":{"Station_ID":"PULW3","Station_Nam":"PULASKI WWTP","Latitude":"44.67830","Longitude":"-88.22750","Snowdepth":"2.000","Units":"in","Rept_Date":"2020-03-11 11"},"coordinates":[2115,3592]},{"type":"Point","properties":{"Station_ID":"OSNW3","Station_Nam":"OSHKOSH-NORTH","Latitude":"44.03500","Longitude":"-88.54390","Snowdepth":"2.000","Units":"in","Rept_Date":"2020-03-11 12"},"coordinates":[2041,3008]},{"type":"Point","properties":{"Station_ID":"ORAN3","Station_Nam":"ORANGE","Latitude":"43.66880","Longitude":"-71.94830","Snowdepth":"2.000","Units":"in","Rept_Date":"2020-03-11 11"},"coordinates":[5935,2675]},{"type":"Point","properties":{"Station_ID":"OOHW3","Station_Nam":"OSHKOSH 5 N","Latitude":"44.09360","Longitude":"-88.55310","Snowdepth":"2.000","Units":"in","Rept_Date":"2020-03-11 12"},"coordinates":[2038,3061]},{"type":"Point","properties":{"Station_ID":"ONAM4","Station_Nam":"ONAWAY 4N","Latitude":"45.41080","Longitude":"-84.22330","Snowdepth":"2.000","Units":"in","Rept_Date":"2020-03-11 22"},"coordinates":[3055,4258]},{"type":"Point","properties":{"Station_ID":"OCON6","Station_Nam":"OSCEOLA","Latitude":"43.49910","Longitude":"-75.71210","Snowdepth":"2.000","Units":"in","Rept_Date":"2020-03-11 11"},"coordinates":[5052,2521]},{"type":"Point","properties":{"Station_ID":"NY-SR-22","Station_Nam":"GREENFIELD CENTER 1.6 W, NY","Latitude":"43.12684","Longitude":"-73.87860","Snowdepth":"2.000","Units":"in","Rept_Date":"2020-03-11 14"},"coordinates":[5482,2182]},{"type":"Point","properties":{"Station_ID":"NVLV1","Station_Nam":"NASHVILLE","Latitude":"44.44970","Longitude":"-72.92640","Snowdepth":"2.000","Units":"in","Rept_Date":"2020-03-11 11"},"coordinates":[5706,3385]},{"type":"Point","properties":{"Station_ID":"NCON3","Station_Nam":"NORTH CONWAY","Latitude":"44.05620","Longitude":"-71.12970","Snowdepth":"2.000","Units":"in","Rept_Date":"2020-03-11 12"},"coordinates":[6128,3027]},{"type":"Point","properties":{"Station_ID":"MRIW3","Station_Nam":"MARINETTE","Latitude":"45.09830","Longitude":"-87.62360","Snowdepth":"2.000","Units":"in","Rept_Date":"2020-03-11 12"},"coordinates":[2257,3974]},{"type":"Point","properties":{"Station_ID":"MNGVNTGN","Station_Nam":"JORDAN 1.1 SSW","Latitude":"44.65244","Longitude":"-93.63402","Snowdepth":"2.000","Units":"in","Rept_Date":"2020-03-11 10"},"coordinates":[846,3569]},{"type":"Point","properties":{"Station_ID":"MNG0GYSN","Station_Nam":"LONSDALE 1.1 SSW","Latitude":"44.46445","Longitude":"-93.43293","Snowdepth":"2.000","Units":"in","Rept_Date":"2020-03-11 11"},"coordinates":[893,3398]},{"type":"Point","properties":{"Station_ID":"MN-SC-2","Station_Nam":"PRIOR LAKE 2.0 W, MN","Latitude":"44.71250","Longitude":"-93.46360","Snowdepth":"2.000","Units":"in","Rept_Date":"2020-03-11 12"},"coordinates":[886,3623]},{"type":"Point","properties":{"Station_ID":"MN-RC-1","Station_Nam":"MONTGOMERY 3.2 ENE, MN","Latitude":"44.46400","Longitude":"-93.51980","Snowdepth":"2.000","Units":"in","Rept_Date":"2020-03-11 11"},"coordinates":[873,3398]},{"type":"Point","properties":{"Station_ID":"MN-OL-18","Station_Nam":"ROCHESTER 2.6 NE, MN","Latitude":"44.03975","Longitude":"-92.43750","Snowdepth":"2.000","Units":"in","Rept_Date":"2020-03-11 12"},"coordinates":[1127,3012]},{"type":"Point","properties":{"Station_ID":"MN-NC-3","Station_Nam":"SAINT PETER 6.2 WSW, MN","Latitude":"44.28846","Longitude":"-94.07640","Snowdepth":"2.000","Units":"in","Rept_Date":"2020-03-11 13"},"coordinates":[742,3238]},{"type":"Point","properties":{"Station_ID":"MN-MC-16","Station_Nam":"HUTCHINSON 0.1 ENE, MN","Latitude":"44.88633","Longitude":"-94.37503","Snowdepth":"2.000","Units":"in","Rept_Date":"2020-03-11 13"},"coordinates":[672,3781]},{"type":"Point","properties":{"Station_ID":"MN-DK-53","Station_Nam":"LAKEVILLE 3.8 ENE, MN","Latitude":"44.70423","Longitude":"-93.18460","Snowdepth":"2.000","Units":"in","Rept_Date":"2020-03-11 13"},"coordinates":[951,3616]},{"type":"Point","properties":{"Station_ID":"MN-DK-104","Station_Nam":"HASTINGS 1.6 NW, MN","Latitude":"44.74458","Longitude":"-92.88035","Snowdepth":"2.000","Units":"in","Rept_Date":"2020-03-11 13"},"coordinates":[1023,3653]},{"type":"Point","properties":{"Station_ID":"MIAM5","Station_Nam":"MILAN 1NW","Latitude":"45.12190","Longitude":"-95.92690","Snowdepth":"2.000","Units":"in","Rept_Date":"2020-03-11 23"},"coordinates":[308,3996]},{"type":"Point","properties":{"Station_ID":"MI-OG-6","Station_Nam":"WEST BRANCH 2.1 SSW, MI","Latitude":"44.24814","Longitude":"-84.25089","Snowdepth":"2.000","Units":"in","Rept_Date":"2020-03-11 12"},"coordinates":[3048,3201]},{"type":"Point","properties":{"Station_ID":"MFDW3","Station_Nam":"MARSHFIELD EXP FARM","Latitude":"44.64110","Longitude":"-90.13330","Snowdepth":"2.000","Units":"in","Rept_Date":"2020-03-11 12"},"coordinates":[1668,3559]},{"type":"Point","properties":{"Station_ID":"MENM4","Station_Nam":"MENOMINEE NO.2","Latitude":"45.11100","Longitude":"-87.61170","Snowdepth":"2.000","Units":"in","Rept_Date":"2020-03-11 13"},"coordinates":[2259,3986]},{"type":"Point","properties":{"Station_ID":"ME-YK-3","Station_Nam":"HOLLIS CENTER 5.4 NW, ME","Latitude":"43.64750","Longitude":"-70.67510","Snowdepth":"2.000","Units":"in","Rept_Date":"2020-03-11 11"},"coordinates":[6234,2655]},