{"type":"Topology","objects":{"snowdepth_geo":{"type":"GeometryCollection","name":"snowdepth","crs":{"type":"name","properties":{"name":"urn:ogc:def:crs:OGC:1.3:CRS84"}},"geometries":[{"type":"Point","properties":{"Station_ID":"MMSV1","Station_Nam":"MOUNT MANSFIELD","Latitude":"44.53330","Longitude":"-72.83330","Snowdepth":"90.000","Units":"in","Rept_Date":"2019-12-02 05"},"coordinates":[5728,5156]},{"type":"Point","properties":{"Station_ID":"PRKM4","Station_Nam":"MUNISING EAST","Latitude":"46.42580","Longitude":"-86.62000","Snowdepth":"76.500","Units":"in","Rept_Date":"2019-12-02 06"},"coordinates":[2492,6430]},{"type":"Point","properties":{"Station_ID":"OGIQ6","Station_Nam":"OGOKI CAMP","Latitude":"50.76680","Longitude":"-87.85820","Snowdepth":"61.100","Units":"in","Rept_Date":"2019-12-02 06"},"coordinates":[2202,9353]},{"type":"Point","properties":{"Station_ID":"AUDQ6","Station_Nam":"AUDEN","Latitude":"48.52600","Longitude":"-82.57570","Snowdepth":"47.640","Units":"in","Rept_Date":"2019-12-02 06"},"coordinates":[3441,7844]},{"type":"Point","properties":{"Station_ID":"DVLQ6","Station_Nam":"DEVIOUS LAKE","Latitude":"49.19890","Longitude":"-87.76440","Snowdepth":"43.460","Units":"in","Rept_Date":"2019-12-02 06"},"coordinates":[2224,8297]},{"type":"Point","properties":{"Station_ID":"IWOM4","Station_Nam":"IRONWOOD#2","Latitude":"46.46520","Longitude":"-90.13820","Snowdepth":"32.000","Units":"in","Rept_Date":"2019-12-01 18"},"coordinates":[1666,6457]},{"type":"Point","properties":{"Station_ID":"MAIW3","Station_Nam":"MADELINE ISLAND","Latitude":"46.78330","Longitude":"-90.76670","Snowdepth":"28.000","Units":"in","Rept_Date":"2019-12-01 13"},"coordinates":[1519,6671]},{"type":"Point","properties":{"Station_ID":"UPSW3","Station_Nam":"UPSON,WI","Latitude":"46.36780","Longitude":"-90.41220","Snowdepth":"27.000","Units":"in","Rept_Date":"2019-12-02 00"},"coordinates":[1602,6391]},{"type":"Point","properties":{"Station_ID":"MQT","Station_Nam":"MARQUETTE, MI","Latitude":"46.53140","Longitude":"-87.54920","Snowdepth":"26.000","Units":"in","Rept_Date":"2019-12-02 06"},"coordinates":[2274,6501]},{"type":"Point","properties":{"Station_ID":"BERM4","Station_Nam":"BERGLAND DAM","Latitude":"46.58690","Longitude":"-89.54750","Snowdepth":"26.000","Units":"in","Rept_Date":"2019-12-01 13"},"coordinates":[1805,6539]},{"type":"Point","properties":{"Station_ID":"WI-DG-16","Station_Nam":"POPLAR 2.0 E, WI","Latitude":"46.58390","Longitude":"-91.74620","Snowdepth":"24.000","Units":"in","Rept_Date":"2019-12-01 13"},"coordinates":[1289,6536]},{"type":"Point","properties":{"Station_ID":"WI-IR-3","Station_Nam":"PENCE 0.1 E, WI","Latitude":"46.41555","Longitude":"-90.27013","Snowdepth":"23.000","Units":"in","Rept_Date":"2019-12-01 13"},"coordinates":[1635,6423]},{"type":"Point","properties":{"Station_ID":"PDLM4","Station_Nam":"PAINESDALE","Latitude":"47.04160","Longitude":"-88.67170","Snowdepth":"23.000","Units":"in","Rept_Date":"2019-12-01 13"},"coordinates":[2011,6845]},{"type":"Point","properties":{"Station_ID":"ILIM5","Station_Nam":"ISLAND LAKE","Latitude":"47.02400","Longitude":"-92.07000","Snowdepth":"23.000","Units":"in","Rept_Date":"2019-12-01 15"},"coordinates":[1213,6833]},{"type":"Point","properties":{"Station_ID":"CAN-NB-50","Station_Nam":"DOYLEVILLE 2.4 WNW, CAN","Latitude":"47.90803","Longitude":"-66.13279","Snowdepth":"22.600","Units":"in","Rept_Date":"2019-12-01 13"},"coordinates":[7300,7428]},{"type":"Point","properties":{"Station_ID":"MN-SL-18","Station_Nam":"DULUTH 1.4 NNW, MN","Latitude":"46.80321","Longitude":"-92.11240","Snowdepth":"22.500","Units":"in","Rept_Date":"2019-12-01 14"},"coordinates":[1203,6684]},{"type":"Point","properties":{"Station_ID":"WLFM5","Station_Nam":"WOLF RIDGE ENVIRON LEARNING CENTER","Latitude":"47.38240","Longitude":"-91.19730","Snowdepth":"22.000","Units":"in","Rept_Date":"2019-12-01 18"},"coordinates":[1418,7074]},{"type":"Point","properties":{"Station_ID":"WI-BY-14","Station_Nam":"ASHLAND 9.8 W, WI","Latitude":"46.59742","Longitude":"-91.07856","Snowdepth":"22.000","Units":"in","Rept_Date":"2019-12-01 12"},"coordinates":[1446,6546]},{"type":"Point","properties":{"Station_ID":"PDGM4","Station_Nam":"PAULDING","Latitude":"46.39760","Longitude":"-89.17940","Snowdepth":"22.000","Units":"in","Rept_Date":"2019-12-01 13"},"coordinates":[1891,6411]},{"type":"Point","properties":{"Station_ID":"HTLN3","Station_Nam":"HERMIT LAKE SNOWPLOT","Latitude":"44.26130","Longitude":"-71.28330","Snowdepth":"22.000","Units":"in","Rept_Date":"2019-12-01 11"},"coordinates":[6092,4973]},{"type":"Point","properties":{"Station_ID":"DLHM5","Station_Nam":"DULUTH NWS","Latitude":"46.83680","Longitude":"-92.21080","Snowdepth":"22.000","Units":"in","Rept_Date":"2019-12-02 06"},"coordinates":[1180,6707]},{"type":"Point","properties":{"Station_ID":"DLH","Station_Nam":"DULUTH, MN","Latitude":"46.83690","Longitude":"-92.21030","Snowdepth":"22.000","Units":"in","Rept_Date":"2019-12-02 00"},"coordinates":[1180,6707]},{"type":"Point","properties":{"Station_ID":"WI-DG-20","Station_Nam":"SOLON SPRINGS 1.2 W, WI","Latitude":"46.35217","Longitude":"-91.84405","Snowdepth":"21.000","Units":"in","Rept_Date":"2019-12-01 13"},"coordinates":[1266,6380]},{"type":"Point","properties":{"Station_ID":"MI-MQ-19","Station_Nam":"ISHPEMING 7.2 SW, MI","Latitude":"46.40550","Longitude":"-87.75670","Snowdepth":"21.000","Units":"in","Rept_Date":"2019-12-01 13"},"coordinates":[2225,6416]},{"type":"Point","properties":{"Station_ID":"MI-IR-1","Station_Nam":"TROUT CREEK 9.6 SSE, MI","Latitude":"46.35963","Longitude":"-88.91219","Snowdepth":"21.000","Units":"in","Rept_Date":"2019-12-01 21"},"coordinates":[1954,6386]},{"type":"Point","properties":{"Station_ID":"GMSM4","Station_Nam":"GRAND MARAIS 10S","Latitude":"46.50940","Longitude":"-85.96310","Snowdepth":"21.000","Units":"in","Rept_Date":"2019-12-01 12"},"coordinates":[2646,6486]},{"type":"Point","properties":{"Station_ID":"MN-LK-4","Station_Nam":"TWO HARBORS 3.6 WNW, MN","Latitude":"47.04118","Longitude":"-91.75280","Snowdepth":"20.500","Units":"in","Rept_Date":"2019-12-01 13"},"coordinates":[1287,6844]},{"type":"Point","properties":{"Station_ID":"WTRM4","Station_Nam":"WATERSMEET 12WSW","Latitude":"46.22310","Longitude":"-89.40850","Snowdepth":"20.000","Units":"in","Rept_Date":"2019-12-01 12"},"coordinates":[1838,6294]},{"type":"Point","properties":{"Station_ID":"SUAW3","Station_Nam":"SUAMICO","Latitude":"44.60190","Longitude":"-88.09780","Snowdepth":"20.000","Units":"in","Rept_Date":"2019-12-01 12"},"coordinates":[2145,5202]},{"type":"Point","properties":{"Station_ID":"LVDW3","Station_Nam":"LAC VIEUX DESERT","Latitude":"46.12110","Longitude":"-89.07580","Snowdepth":"20.000","Units":"in","Rept_Date":"2019-12-01 14"},"coordinates":[1916,6225]},{"type":"Point","properties":{"Station_ID":"LNOW3","Station_Nam":"LAND O LAKES","Latitude":"46.19000","Longitude":"-89.45700","Snowdepth":"20.000","Units":"in","Rept_Date":"2019-12-01 13"},"coordinates":[1826,6271]},{"type":"Point","properties":{"Station_ID":"MI-BG-3","Station_Nam":"L'ANSE 17.8 SE, MI","Latitude":"46.55730","Longitude":"-88.20770","Snowdepth":"19.900","Units":"in","Rept_Date":"2019-12-01 13"},"coordinates":[2119,6519]},{"type":"Point","properties":{"Station_ID":"WI-VL-9","Station_Nam":"LAND O' LAKES 11.7 W, WI","Latitude":"46.19023","Longitude":"-89.45790","Snowdepth":"19.500","Units":"in","Rept_Date":"2019-12-01 13"},"coordinates":[1826,6271]},{"type":"Point","properties":{"Station_ID":"WI-VL-10","Station_Nam":"LAND O LAKES 4.3 WNW, WI","Latitude":"46.17440","Longitude":"-89.30380","Snowdepth":"19.000","Units":"in","Rept_Date":"2019-12-01 13"},"coordinates":[1862,6261]},{"type":"Point","properties":{"Station_ID":"WI-AS-4","Station_Nam":"ASHLAND 0.5 WNW, WI","Latitude":"46.58240","Longitude":"-90.88390","Snowdepth":"19.000","Units":"in","Rept_Date":"2019-12-01 13"},"coordinates":[1491,6535]},{"type":"Point","properties":{"Station_ID":"RLKW3","Station_Nam":"REST LAKE","Latitude":"46.12220","Longitude":"-89.87720","Snowdepth":"19.000","Units":"in","Rept_Date":"2019-12-01 14"},"coordinates":[1728,6226]},{"type":"Point","properties":{"Station_ID":"MN-LK-19","Station_Nam":"TWO HARBORS 2.1 NW, MN","Latitude":"47.04819","Longitude":"-91.71127","Snowdepth":"19.000","Units":"in","Rept_Date":"2019-12-01 13"},"coordinates":[1297,6849]},{"type":"Point","properties":{"Station_ID":"IRMM4","Station_Nam":"WWTP","Latitude":"46.46670","Longitude":"-90.18330","Snowdepth":"19.000","Units":"in","Rept_Date":"2019-12-01 13"},"coordinates":[1656,6458]},{"type":"Point","properties":{"Station_ID":"GGRM4","Station_Nam":"GREEN GARDEN NO.2","Latitude":"46.45330","Longitude":"-87.30380","Snowdepth":"19.000","Units":"in","Rept_Date":"2019-12-02 04"},"coordinates":[2332,6449]},{"type":"Point","properties":{"Station_ID":"COUW3","Station_Nam":"COUDERAY,WI","Latitude":"45.86670","Longitude":"-91.45000","Snowdepth":"19.000","Units":"in","Rept_Date":"2019-12-01 22"},"coordinates":[1359,6054]},{"type":"Point","properties":{"Station_ID":"AWXW3","Station_Nam":"ASHLAND","Latitude":"46.58240","Longitude":"-90.88390","Snowdepth":"19.000","Units":"in","Rept_Date":"2019-12-01 13"},"coordinates":[1491,6535]},{"type":"Point","properties":{"Station_ID":"WI-PR-8","Station_Nam":"PHILLIPS 0.4 SSW, WI","Latitude":"45.69086","Longitude":"-90.40200","Snowdepth":"18.500","Units":"in","Rept_Date":"2019-12-01 13"},"coordinates":[1605,5935]},{"type":"Point","properties":{"Station_ID":"MI-MM-1","Station_Nam":"SPALDING 0.5 NW, MI","Latitude":"45.69894","Longitude":"-87.51530","Snowdepth":"18.500","Units":"in","Rept_Date":"2019-12-01 17"},"coordinates":[2282,5941]},{"type":"Point","properties":{"Station_ID":"WRPW3","Station_Nam":"WATER PURIFICATION PLANT","Latitude":"44.38800","Longitude":"-89.80550","Snowdepth":"18.000","Units":"in","Rept_Date":"2019-12-01 14"},"coordinates":[1744,5058]},{"type":"Point","properties":{"Station_ID":"WRIM5","Station_Nam":"WRIGHT 3E","Latitude":"46.68040","Longitude":"-92.95420","Snowdepth":"18.000","Units":"in","Rept_Date":"2019-12-01 12"},"coordinates":[1006,6601]},{"type":"Point","properties":{"Station_ID":"WI-BY-2","Station_Nam":"MELLEN 18.6 SW, WI","Latitude":"46.16937","Longitude":"-90.98090","Snowdepth":"18.000","Units":"in","Rept_Date":"2019-12-01 14"},"coordinates":[1469,6257]},{"type":"Point","properties":{"Station_ID":"QNCM4","Station_Nam":"QUINCY HILL","Latitude":"47.13640","Longitude":"-88.57950","Snowdepth":"18.000","Units":"in","Rept_Date":"2019-12-01 12"},"coordinates":[2032,6908]},{"type":"Point","properties":{"Station_ID":"MI-HG-16","Station_Nam":"SOUTH RANGE 12.6 WSW, MI","Latitude":"47.02452","Longitude":"-88.90350","Snowdepth":"18.000","Units":"in","Rept_Date":"2019-12-01 13"},"coordinates":[1956,6833]},{"type":"Point","properties":{"Station_ID":"MI-HG-11","Station_Nam":"HOUGHTON 3.0 SSW, MI","Latitude":"47.07704","Longitude":"-88.59680","Snowdepth":"18.000","Units":"in","Rept_Date":"2019-12-01 13"},"coordinates":[2028,6868]},{"type":"Point","properties":{"Station_ID":"IBLM5","Station_Nam":"ISABELLA 14W","Latitude":"47.59360","Longitude":"-91.65140","Snowdepth":"18.000","Units":"in","Rept_Date":"2019-12-01 15"},"coordinates":[1311,7216]},{"type":"Point","properties":{"Station_ID":"CMKW3","Station_Nam":"CLAM LAKE 4W","Latitude":"46.16940","Longitude":"-90.98080","Snowdepth":"18.000","Units":"in","Rept_Date":"2019-12-01 14"},"coordinates":[1469,6257]},{"type":"Point","properties":{"Station_ID":"BRUM5","Station_Nam":"BRUNO,MN","Latitude":"46.28330","Longitude":"-92.50000","Snowdepth":"18.000","Units":"in","Rept_Date":"2019-12-01 14"},"coordinates":[1112,6334]},{"type":"Point","properties":{"Station_ID":"WI-PR-6","Station_Nam":"PHILLIPS 1.3 S, WI","Latitude":"45.67677","Longitude":"-90.39543","Snowdepth":"17.000","Units":"in","Rept_Date":"2019-12-01 12"},"coordinates":[1606,5926]},{"type":"Point","properties":{"Station_ID":"WI-PR-2","Station_Nam":"BUTTERNUT 5.9 SW, WI","Latitude":"45.96501","Longitude":"-90.59750","Snowdepth":"17.000","Units":"in","Rept_Date":"2019-12-01 12"},"coordinates":[1559,6120]},{"type":"Point","properties":{"Station_ID":"WI-BY-6","Station_Nam":"BARNES 2.2 S, WI","Latitude":"46.30264","Longitude":"-91.50320","Snowdepth":"17.000","Units":"in","Rept_Date":"2019-12-01 13"},"coordinates":[1346,6347]},{"type":"Point","properties":{"Station_ID":"PHEW3","Station_Nam":"PHELPS","Latitude":"46.06630","Longitude":"-89.07520","Snowdepth":"17.000","Units":"in","Rept_Date":"2019-12-01 13"},"coordinates":[1916,6188]},{"type":"Point","properties":{"Station_ID":"MI-HG-18","Station_Nam":"CALUMET 0.7 W (TAMARACK), MI","Latitude":"47.24560","Longitude":"-88.46791","Snowdepth":"17.000","Units":"in","Rept_Date":"2019-12-01 13"},"coordinates":[2058,6982]},{"type":"Point","properties":{"Station_ID":"EVRW3","Station_Nam":"EAGLE RIVER-4 E","Latitude":"45.91890","Longitude":"-89.15280","Snowdepth":"17.000","Units":"in","Rept_Date":"2019-12-01 14"},"coordinates":[1898,6089]},{"type":"Point","properties":{"Station_ID":"QGD","Station_Nam":"QGD","Latitude":"51.11140","Longitude":"-67.13940","Snowdepth":"16.535","Units":"in","Rept_Date":"2019-12-01 12"},"coordinates":[7064,9585]},{"type":"Point","properties":{"Station_ID":"WI-WB-2","Station_Nam":"STONE LAKE 2.0 NW, WI","Latitude":"45.85960","Longitude":"-91.57710","Snowdepth":"16.500","Units":"in","Rept_Date":"2019-12-01 13"},"coordinates":[1329,6049]},{"type":"Point","properties":{"Station_ID":"WI-SR-5","Station_Nam":"HAYWARD 9.7 NE, WI","Latitude":"46.12030","Longitude":"-91.35370","Snowdepth":"16.000","Units":"in","Rept_Date":"2019-12-01 14"},"coordinates":[1381,6224]},{"type":"Point","properties":{"Station_ID":"WI-RS-1","Station_Nam":"LADYSMITH 2.8 WNW, WI","Latitude":"45.48180","Longitude":"-91.14680","Snowdepth":"16.000","Units":"in","Rept_Date":"2019-12-01 13"},"coordinates":[1430,5795]},{"type":"Point","properties":{"Station_ID":"TOHM5","Station_Nam":"TWO HARBORS WWTP","Latitude":"47.01760","Longitude":"-91.66480","Snowdepth":"16.000","Units":"in","Rept_Date":"2019-12-01 13"},"coordinates":[1308,6828]},{"type":"Point","properties":{"Station_ID":"TOGM5","Station_Nam":"CELINA 2E","Latitude":"47.86630","Longitude":"-93.02660","Snowdepth":"16.000","Units":"in","Rept_Date":"2019-12-01 16"},"coordinates":[989,7400]},{"type":"Point","properties":{"Station_ID":"RPDM4","Station_Nam":"RAPID RIVER 4SSE","Latitude":"45.87270","Longitude":"-86.94960","Snowdepth":"16.000","Units":"in","Rept_Date":"2019-12-01 14"},"coordinates":[2415,6058]},{"type":"Point","properties":{"Station_ID":"MRQM4","Station_Nam":"MARQUETTE WFP","Latitude":"46.54580","Longitude":"-87.37950","Snowdepth":"16.000","Units":"in","Rept_Date":"2019-12-01 13"},"coordinates":[2314,6511]},{"type":"Point","properties":{"Station_ID":"HERM4","Station_Nam":"HERMAN,MI","Latitude":"46.65000","Longitude":"-88.33330","Snowdepth":"16.000","Units":"in","Rept_Date":"2019-12-01 13"},"coordinates":[2090,6581]},{"type":"Point","properties":{"Station_ID":"CBVM1","Station_Nam":"CARRABASSETT VALLEY","Latitude":"45.08040","Longitude":"-70.30310","Snowdepth":"16.000","Units":"in","Rept_Date":"2019-12-01 12"},"coordinates":[6322,5524]},{"type":"Point","properties":{"Station_ID":"WI-ON-8","Station_Nam":"HAZELHURST 2.1 SSE, WI","Latitude":"45.78186","Longitude":"-89.70330","Snowdepth":"15.500","Units":"in","Rept_Date":"2019-12-01 13"},"coordinates":[1768,5997]},{"type":"Point","properties":{"Station_ID":"MN-SL-139","Station_Nam":"DULUTH 1.2 SE, MN","Latitude":"46.77000","Longitude":"-92.08826","Snowdepth":"15.500","Units":"in","Rept_Date":"2019-12-01 12"},"coordinates":[1209,6662]},{"type":"Point","properties":{"Station_ID":"MN-AT-5","Station_Nam":"TAMARACK 1.4 SW, MN","Latitude":"46.63760","Longitude":"-93.14554","Snowdepth":"15.500","Units":"in","Rept_Date":"2019-12-01 10"},"coordinates":[961,6573]},{"type":"Point","properties":{"Station_ID":"QOU","Station_Nam":"QOU","Latitude":"50.79250","Longitude":"-69.67470","Snowdepth":"15.236","Units":"in","Rept_Date":"2019-12-01 12"},"coordinates":[6469,9370]},{"type":"Point","properties":{"Station_ID":"WI-BT-14","Station_Nam":"OAKLAND 9.0 ENE, WI","Latitude":"45.95184","Longitude":"-92.21653","Snowdepth":"15.000","Units":"in","Rept_Date":"2019-12-01 13"},"coordinates":[1179,6111]},{"type":"Point","properties":{"Station_ID":"SRAW3","Station_Nam":"SARONA","Latitude":"45.80250","Longitude":"-91.86700","Snowdepth":"15.000","Units":"in","Rept_Date":"2019-12-01 14"},"coordinates":[1261,6010]},{"type":"Point","properties":{"Station_ID":"MNSM4","Station_Nam":"MUNISING","Latitude":"46.41210","Longitude":"-86.66250","Snowdepth":"15.000","Units":"in","Rept_Date":"2019-12-01 11"},"coordinates":[2482,6421]},{"type":"Point","properties":{"Station_ID":"MN-CW-10","Station_Nam":"BRAINERD 1.4 NNW, MN","Latitude":"46.37286","Longitude":"-94.21190","Snowdepth":"15.000","Units":"in","Rept_Date":"2019-12-01 15"},"coordinates":[710,6394]},{"type":"Point","properties":{"Station_ID":"MLLW3","Station_Nam":"MERRILL 8W","Latitude":"45.17810","Longitude":"-89.84810","Snowdepth":"15.000","Units":"in","Rept_Date":"2019-12-01 12"},"coordinates":[1735,5590]},{"type":"Point","properties":{"Station_ID":"MI-HG-1","Station_Nam":"HOUGHTON 1.6 ESE, MI","Latitude":"47.10774","Longitude":"-88.52940","Snowdepth":"15.000","Units":"in","Rept_Date":"2019-12-01 13"},"coordinates":[2044,6889]},{"type":"Point","properties":{"Station_ID":"MI-GG-4","Station_Nam":"WATERSMEET 5.0 SE, MI","Latitude":"46.20333","Longitude":"-89.13170","Snowdepth":"15.000","Units":"in","Rept_Date":"2019-12-01 14"},"coordinates":[1903,6280]},{"type":"Point","properties":{"Station_ID":"KSGM4","Station_Nam":"KEARSARGE","Latitude":"47.27520","Longitude":"-88.41700","Snowdepth":"15.000","Units":"in","Rept_Date":"2019-12-01 13"},"coordinates":[2070,7002]},{"type":"Point","properties":{"Station_ID":"ISEM5","Station_Nam":"ISLE 12N","Latitude":"46.31970","Longitude":"-93.50140","Snowdepth":"15.000","Units":"in","Rept_Date":"2019-12-01 14"},"coordinates":[877,6359]},{"type":"Point","properties":{"Station_ID":"GLDM4","Station_Nam":"GLADSTONE NO. 2","Latitude":"45.84330","Longitude":"-87.03910","Snowdepth":"15.000","Units":"in","Rept_Date":"2019-12-01 13"},"coordinates":[2394,6038]},{"type":"Point","properties":{"Station_ID":"BRMM5","Station_Nam":"BRIMSON 2S","Latitude":"47.24720","Longitude":"-91.86240","Snowdepth":"15.000","Units":"in","Rept_Date":"2019-12-02 01"},"coordinates":[1262,6983]},{"type":"Point","properties":{"Station_ID":"BABM5","Station_Nam":"BABBITT","Latitude":"47.71210","Longitude":"-91.95330","Snowdepth":"15.000","Units":"in","Rept_Date":"2019-12-01 13"},"coordinates":[1240,7296]},{"type":"Point","properties":{"Station_ID":"AURW3","Station_Nam":"AURORA","Latitude":"45.77000","Longitude":"-88.11810","Snowdepth":"15.000","Units":"in","Rept_Date":"2019-12-01 13"},"coordinates":[2141,5989]},{"type":"Point","properties":{"Station_ID":"WI-LN-2","Station_Nam":"MERRILL 7.0 W, WI","Latitude":"45.17746","Longitude":"-89.84820","Snowdepth":"14.500","Units":"in","Rept_Date":"2019-12-01 12"},"coordinates":[1734,5590]},{"type":"Point","properties":{"Station_ID":"MN-SL-143","Station_Nam":"CANYON 4.6 NNE, MN","Latitude":"47.09800","Longitude":"-92.42170","Snowdepth":"14.500","Units":"in","Rept_Date":"2019-12-01 14"},"coordinates":[1130,6883]},{"type":"Point","properties":{"Station_ID":"MN-CW-8","Station_Nam":"BRAINERD 11.5 E, MN","Latitude":"46.38556","Longitude":"-93.95720","Snowdepth":"14.500","Units":"in","Rept_Date":"2019-12-01 14"},"coordinates":[770,6403]},{"type":"Point","properties":{"Station_ID":"MN-CW-16","Station_Nam":"TROMMALD 6.1 NW, MN","Latitude":"46.55849","Longitude":"-94.11723","Snowdepth":"14.500","Units":"in","Rept_Date":"2019-12-01 18"},"coordinates":[733,6519]},{"type":"Point","properties":{"Station_ID":"WTNM4","Station_Nam":"WATTON 2WSW","Latitude":"46.52660","Longitude":"-88.64240","Snowdepth":"14.000","Units":"in","Rept_Date":"2019-12-01 13"},"coordinates":[2017,6498]},{"type":"Point","properties":{"Station_ID":"WLKW3","Station_Nam":"WHITE LAKE 1 SE","Latitude":"45.14520","Longitude":"-88.74160","Snowdepth":"14.000","Units":"in","Rept_Date":"2019-12-01 14"},"coordinates":[1994,5568]},{"type":"Point","properties":{"Station_ID":"WI-VL-14","Station_Nam":"BOULDER JUNCTION 1.4 NE, WI","Latitude":"46.12840","Longitude":"-89.62470","Snowdepth":"14.000","Units":"in","Rept_Date":"2019-12-01 13"},"coordinates":[1787,6230]},{"type":"Point","properties":{"Station_ID":"RHLW3","Station_Nam":"RHINELANDER 4NE","Latitude":"45.65270","Longitude":"-89.30740","Snowdepth":"14.000","Units":"in","Rept_Date":"2019-12-01 12"},"coordinates":[1861,5910]},{"type":"Point","properties":{"Station_ID":"RHIW3","Station_Nam":"RHINELANDER","Latitude":"45.59860","Longitude":"-89.45080","Snowdepth":"14.000","Units":"in","Rept_Date":"2019-12-01 13"},"coordinates":[1828,5873]},{"type":"Point","properties":{"Station_ID":"RBLW3","Station_Nam":"RIB LAKE","Latitude":"45.31530","Longitude":"-90.20640","Snowdepth":"14.000","Units":"in","Rept_Date":"2019-12-01 15"},"coordinates":[1650,5682]},{"type":"Point","properties":{"Station_ID":"NH-CS-10","Station_Nam":"RANDOLPH 1.4 NE, NH","Latitude":"44.38824","Longitude":"-71.26950","Snowdepth":"14.000","Units":"in","Rept_Date":"2019-12-01 12"},"coordinates":[6095,5058]},{"type":"Point","properties":{"Station_ID":"MN-WK-5","Station_Nam":"WOLVERTON 1.1 ENE, MN","Latitude":"46.56920","Longitude":"-96.71540","Snowdepth":"14.000","Units":"in","Rept_Date":"2019-12-01 13"},"coordinates":[123,6527]},{"type":"Point","properties":{"Station_ID":"MN-TD-2","Station_Nam":"HEWITT 0.3 ENE, MN","Latitude":"46.32593","Longitude":"-95.08540","Snowdepth":"14.000","Units":"in","Rept_Date":"2019-12-01 12"},"coordinates":[505,6363]},{"type":"Point","properties":{"Station_ID":"MN-SL-15","Station_Nam":"CHISHOLM 0.4 WSW, MN","Latitude":"47.48557","Longitude":"-92.88690","Snowdepth":"14.000","Units":"in","Rept_Date":"2019-12-01 13"},"coordinates":[1021,7144]},{"type":"Point","properties":{"Station_ID":"MMNV1","Station_Nam":"MT. MANSFIELD","Latitude":"44.52480","Longitude":"-72.81540","Snowdepth":"14.000","Units":"in","Rept_Date":"2019-12-01 21"},"coordinates":[5732,5150]},{"type":"Point","properties":{"Station_ID":"MI-HG-12","Station_Nam":"DOLLAR BAY 0.2 ENE, MI","Latitude":"47.12067","Longitude":"-88.49895","Snowdepth":"14.000","Units":"in","Rept_Date":"2019-12-01 13"},"coordinates":[2051,6898]},{"type":"Point","properties":{"Station_ID":"MCLN8","Station_Nam":"MC LEOD,ND","Latitude":"46.40250","Longitude":"-97.23810","Snowdepth":"14.000","Units":"in","Rept_Date":"2019-12-01 14"},"coordinates":[0,6414]},{"type":"Point","properties":{"Station_ID":"JCBM4","Station_Nam":"JACOBSVILLE","Latitude":"47.00830","Longitude":"-88.43180","Snowdepth":"14.000","Units":"in","Rept_Date":"2019-12-01 12"},"coordinates":[2067,6822]},{"type":"Point","properties":{"Station_ID":"IMNM4","Station_Nam":"IRON MOUTAIN 5N","Latitude":"45.87580","Longitude":"-88.04030","Snowdepth":"14.000","Units":"in","Rept_Date":"2019-12-02 01"},"coordinates":[2159,6060]},{"type":"Point","properties":{"Station_ID":"EGRW3","Station_Nam":"EAGLE RIVER-SOUTH","Latitude":"45.91360","Longitude":"-89.24360","Snowdepth":"14.000","Units":"in","Rept_Date":"2019-12-01 13"},"coordinates":[1876,6085]},{"type":"Point","properties":{"Station_ID":"CNNW3","Station_Nam":"CRANDON","Latitude":"45.55110","Longitude":"-88.89830","Snowdepth":"14.000","Units":"in","Rept_Date":"2019-12-01 12"},"coordinates":[1957,5841]},{"type":"Point","properties":{"Station_ID":"CLGM5","Station_Nam":"COLLEGEVILLE ST JOHN","Latitude":"45.57940","Longitude":"-94.39200","Snowdepth":"14.000","Units":"in","Rept_Date":"2019-12-02 00"},"coordinates":[668,5860]},{"type":"Point","properties":{"Station_ID":"BRAM5","Station_Nam":"BRAINERD","Latitude":"46.34320","Longitude":"-94.20900","Snowdepth":"14.000","Units":"in","Rept_Date":"2019-12-01 13"},"coordinates":[711,6374]},{"type":"Point","properties":{"Station_ID":"BGBM4","Station_Nam":"BIG BAY 1NW","Latitude":"46.83250","Longitude":"-87.75040","Snowdepth":"14.000","Units":"in","Rept_Date":"2019-12-01 13"},"coordinates":[2227,6704]},{"type":"Point","properties":{"Station_ID":"WI-SR-1","Station_Nam":"HAYWARD 9.2 NNE, WI","Latitude":"46.13255","Longitude":"-91.40500","Snowdepth":"13.500","Units":"in","Rept_Date":"2019-12-01 12"},"coordinates":[1369,6233]},{"type":"Point","properties":{"Station_ID":"QCU","Station_Nam":"QCU","Latitude":"47.82750","Longitude":"-76.59830","Snowdepth":"13.425","Units":"in","Rept_Date":"2019-12-01 12"},"coordinates":[4844,7374]},{"type":"Point","properties":{"Station_ID":"MLZ","Station_Nam":"MLZ","Latitude":"50.66170","Longitude":"-68.82360","Snowdepth":"13.071","Units":"in","Rept_Date":"2019-12-01 12"},"coordinates":[6669,9282]},{"type":"Point","properties":{"Station_ID":"SULW3","Station_Nam":"SUMMIT LAKE","Latitude":"45.37880","Longitude":"-89.19410","Snowdepth":"13.000","Units":"in","Rept_Date":"2019-12-01 11"},"coordinates":[1888,5725]},{"type":"Point","properties":{"Station_ID":"MN2EOYHJ","Station_Nam":"OGILVIE 5.6 N","Latitude":"45.91288","Longitude":"-93.42259","Snowdepth":"13.000","Units":"in","Rept_Date":"2019-12-01 14"},"coordinates":[896,6085]},{"type":"Point","properties":{"Station_ID":"MN-TD-8","Station_Nam":"BROWERVILLE 0.4 NW, MN","Latitude":"46.08559","Longitude":"-94.87041","Snowdepth":"13.000","Units":"in","Rept_Date":"2019-12-01 11"},"coordinates":[556,6201]},{"type":"Point","properties":{"Station_ID":"MN-TD-4","Station_Nam":"HEWITT 1.1 N, MN","Latitude":"46.34065","Longitude":"-95.09450","Snowdepth":"13.000","Units":"in","Rept_Date":"2019-12-01 14"},"coordinates":[503,6373]},{"type":"Point","properties":{"Station_ID":"MN-CW-29","Station_Nam":"BRAINERD 7.7 SSE, MN","Latitude":"46.24996","Longitude":"-94.14576","Snowdepth":"13.000","Units":"in","Rept_Date":"2019-12-01 13"},"coordinates":[726,6312]},{"type":"Point","properties":{"Station_ID":"MI-HG-17","Station_Nam":"CALUMET 0.5 NE (CALUMET LAKE), MI","Latitude":"47.25300","Longitude":"-88.44652","Snowdepth":"13.000","Units":"in","Rept_Date":"2019-12-01 13"},"coordinates":[2063,6987]},{"type":"Point","properties":{"Station_ID":"ME-AR-18","Station_Nam":"NEW SWEDEN 4.9 NNW, ME","Latitude":"47.01080","Longitude":"-68.14390","Snowdepth":"13.000","Units":"in","Rept_Date":"2019-12-01 12"},"coordinates":[6828,6824]},{"type":"Point","properties":{"Station_ID":"KALB","Station_Nam":"ALBANY INTERNATIONAL AIRPORT","Latitude":"42.75000","Longitude":"-73.80000","Snowdepth":"13.000","Units":"in","Rept_Date":"2019-12-02 06"},"coordinates":[5501,3955]},{"type":"Point","properties":{"Station_ID":"ESGM1","Station_Nam":"EAST SANGERVILLE","Latitude":"45.13690","Longitude":"-69.28060","Snowdepth":"13.000","Units":"in","Rept_Date":"2019-12-01 12"},"coordinates":[6562,5562]},{"type":"Point","properties":{"Station_ID":"CLKM4","Station_Nam":"CLARKSBURG","Latitude":"46.49910","Longitude":"-87.84500","Snowdepth":"13.000","Units":"in","Rept_Date":"2019-12-01 12"},"coordinates":[2205,6479]},{"type":"Point","properties":{"Station_ID":"MN-CV-40","Station_Nam":"EXCELSIOR 0.8 S, MN","Latitude":"44.88996","Longitude":"-93.56646","Snowdepth":"12.500","Units":"in","Rept_Date":"2019-12-01 13"},"coordinates":[862,5396]},{"type":"Point","properties":{"Station_ID":"ME-PN-45","Station_Nam":"MILLINOCKET 2.7 ESE, ME","Latitude":"45.65002","Longitude":"-68.64472","Snowdepth":"12.300","Units":"in","Rept_Date":"2019-12-01 14"},"coordinates":[6711,5908]},{"type":"Point","properties":{"Station_ID":"MFU","Station_Nam":"MFU","Latitude":"51.52170","Longitude":"-66.91110","Snowdepth":"12.283","Units":"in","Rept_Date":"2019-12-01 12"},"coordinates":[7118,9861]},{"type":"Point","properties":{"Station_ID":"QGO","Station_Nam":"QGO","Latitude":"48.85500","Longitude":"-74.20640","Snowdepth":"12.165","Units":"in","Rept_Date":"2019-12-01 12"},"coordinates":[5405,8066]},{"type":"Point","properties":{"Station_ID":"WI-ON-6","Station_Nam":"RHINELANDER 5.2 N, WI","Latitude":"45.71388","Longitude":"-89.42150","Snowdepth":"12.000","Units":"in","Rept_Date":"2019-12-01 15"},"coordinates":[1835,5951]},{"type":"Point","properties":{"Station_ID":"TOWM5","Station_Nam":"TOWER,MN","Latitude":"47.75530","Longitude":"-92.28580","Snowdepth":"12.000","Units":"in","Rept_Date":"2019-12-01 13"},"coordinates":[1162,7325]},{"type":"Point","properties":{"Station_ID":"SAUW3","Station_Nam":"WAUSAU WSAW TV","Latitude":"44.94630","Longitude":"-89.62220","Snowdepth":"12.000","Units":"in","Rept_Date":"2019-12-02 04"},"coordinates":[1788,5434]},{"type":"Point","properties":{"Station_ID":"RRLW3","Station_Nam":"MERRILL,WI","Latitude":"45.17860","Longitude":"-89.66170","Snowdepth":"12.000","Units":"in","Rept_Date":"2019-12-01 14"},"coordinates":[1778,5590]},{"type":"Point","properties":{"Station_ID":"PARM4","Station_Nam":"PARENT BAY","Latitude":"45.79610","Longitude":"-86.40110","Snowdepth":"12.000","Units":"in","Rept_Date":"2019-12-02 01"},"coordinates":[2543,6006]},{"type":"Point","properties":{"Station_ID":"MN-SL-115","Station_Nam":"COTTON 5.7 ESE, MN","Latitude":"47.15142","Longitude":"-92.35772","Snowdepth":"12.000","Units":"in","Rept_Date":"2019-12-01 14"},"coordinates":[1146,6919]},{"type":"Point","properties":{"Station_ID":"MN-MR-4","Station_Nam":"LITTLE FALLS 1.2 SW, MN","Latitude":"45.96886","Longitude":"-94.37720","Snowdepth":"12.000","Units":"in","Rept_Date":"2019-12-01 13"},"coordinates":[672,6122]},{"type":"Point","properties":{"Station_ID":"MN-IT-11","Station_Nam":"NASHWAUK 11.5 N, MN","Latitude":"47.54496","Longitude":"-93.19420","Snowdepth":"12.000","Units":"in","Rept_Date":"2019-12-01 10"},"coordinates":[949,7184]},{"type":"Point","properties":{"Station_ID":"MN-CY-20","Station_Nam":"HAWLEY 5.2 WNW, MN","Latitude":"46.91652","Longitude":"-96.41147","Snowdepth":"12.000","Units":"in","Rept_Date":"2019-12-01 13"},"coordinates":[194,6760]},{"type":"Point","properties":{"Station_ID":"MN-CW-22","Station_Nam":"FORT RIPLEY 0.8 N, MN","Latitude":"46.18089","Longitude":"-94.36510","Snowdepth":"12.000","Units":"in","Rept_Date":"2019-12-01 13"},"coordinates":[674,6265]},{"type":"Point","properties":{"Station_ID":"MI-HG-14","Station_Nam":"HOUGHTON 0.6 SE, MI","Latitude":"47.10847","Longitude":"-88.55235","Snowdepth":"12.000","Units":"in","Rept_Date":"2019-12-01 13"},"coordinates":[2039,6890]},{"type":"Point","properties":{"Station_ID":"MI-HG-13","Station_Nam":"HOUGHTON 1.2 WNW, MI","Latitude":"47.12035","Longitude":"-88.58525","Snowdepth":"12.000","Units":"in","Rept_Date":"2019-12-01 13"},"coordinates":[2031,6898]},{"type":"Point","properties":{"Station_ID":"MEDW3","Station_Nam":"MEDFORD","Latitude":"45.13080","Longitude":"-90.34390","Snowdepth":"12.000","Units":"in","Rept_Date":"2019-12-01 14"},"coordinates":[1618,5558]},{"type":"Point","properties":{"Station_ID":"LBKV1","Station_Nam":"LYE BROOK","Latitude":"43.05000","Longitude":"-73.03330","Snowdepth":"12.000","Units":"in","Rept_Date":"2019-12-02 06"},"coordinates":[5681,4157]},{"type":"Point","properties":{"Station_ID":"EPMW3","Station_Nam":"EPHRAIM-1 NE WWTP","Latitude":"45.17080","Longitude":"-87.15360","Snowdepth":"12.000","Units":"in","Rept_Date":"2019-12-01 13"},"coordinates":[2367,5585]},{"type":"Point","properties":{"Station_ID":"ELYM5","Station_Nam":"ELY","Latitude":"47.90560","Longitude":"-91.82830","Snowdepth":"12.000","Units":"in","Rept_Date":"2019-12-01 14"},"coordinates":[1270,7426]},{"type":"Point","properties":{"Station_ID":"BNDM5","Station_Nam":"ELY 25E","Latitude":"47.97190","Longitude":"-91.44860","Snowdepth":"12.000","Units":"in","Rept_Date":"2019-12-01 13"},"coordinates":[1359,7471]},{"type":"Point","properties":{"Station_ID":"AGNW3","Station_Nam":"ARGONNE-1.5 NW","Latitude":"45.67360","Longitude":"-88.90380","Snowdepth":"12.000","Units":"in","Rept_Date":"2019-12-01 14"},"coordinates":[1956,5924]},{"type":"Point","properties":{"Station_ID":"MN-IT-23","Station_Nam":"BOVEY 13.4 N, MN","Latitude":"47.48855","Longitude":"-93.43497","Snowdepth":"11.500","Units":"in","Rept_Date":"2019-12-01 13"},"coordinates":[893,7146]},{"type":"Point","properties":{"Station_ID":"MN-BK-6","Station_Nam":"LAKE PARK 6.0 S, MN","Latitude":"46.79850","Longitude":"-96.12180","Snowdepth":"11.500","Units":"in","Rept_Date":"2019-12-01 13"},"coordinates":[262,6681]},{"type":"Point","properties":{"Station_ID":"CAN-NB-97","Station_Nam":"NEW MARYLAND 0.6 NW, CAN","Latitude":"45.90112","Longitude":"-66.68739","Snowdepth":"11.400","Units":"in","Rept_Date":"2019-12-01 13"},"coordinates":[7170,6077]},{"type":"Point","properties":{"Station_ID":"QCX","Station_Nam":"QCX","Latitude":"51.32830","Longitude":"-70.08060","Snowdepth":"11.142","Units":"in","Rept_Date":"2019-12-01 12"},"coordinates":[6374,9731]},{"type":"Point","properties":{"Station_ID":"RHRW3","Station_Nam":"RHINELANDER WJFW TV-12","Latitude":"45.62220","Longitude":"-89.41000","Snowdepth":"11.000","Units":"in","Rept_Date":"2019-12-02 04"},"coordinates":[1837,5889]},{"type":"Point","properties":{"Station_ID":"MRAM5","Station_Nam":"MORA","Latitude":"45.87760","Longitude":"-93.31470","Snowdepth":"11.000","Units":"in","Rept_Date":"2019-12-01 13"},"coordinates":[921,6061]},{"type":"Point","properties":{"Station_ID":"MQRW3","Station_Nam":"MINOCQUA","Latitude":"45.88630","Longitude":"-89.73220","Snowdepth":"11.000","Units":"in","Rept_Date":"2019-12-01 12"},"coordinates":[1762,6067]},{"type":"Point","properties":{"Station_ID":"MN-MR-13","Station_Nam":"LITTLE FALLS 8.0 NE, MN","Latitude":"46.06785","Longitude":"-94.24789","Snowdepth":"11.000","Units":"in","Rept_Date":"2019-12-01 13"},"coordinates":[702,6189]},{"type":"Point","properties":{"Station_ID":"LNGM5","Station_Nam":"LONG PRAIRIE","Latitude":"45.96460","Longitude":"-94.88920","Snowdepth":"11.000","Units":"in","Rept_Date":"2019-12-01 12"},"coordinates":[551,6120]},{"type":"Point","properties":{"Station_ID":"EMBM5","Station_Nam":"EMBARASS,MN","Latitude":"47.65810","Longitude":"-92.19580","Snowdepth":"11.000","Units":"in","Rept_Date":"2019-12-01 13"},"coordinates":[1184,7260]},{"type":"Point","properties":{"Station_ID":"CAN-NB-2","Station_Nam":"GRAFTON 2.7 NNE, CA","Latitude":"46.17062","Longitude":"-67.55330","Snowdepth":"11.000","Units":"in","Rept_Date":"2019-12-01 11"},"coordinates":[6967,6258]},{"type":"Point","properties":{"Station_ID":"CAN-NB-105","Station_Nam":"SISSON BROOK 3.8 E, CAN","Latitude":"46.98305","Longitude":"-67.32532","Snowdepth":"11.000","Units":"in","Rept_Date":"2019-12-01 12"},"coordinates":[7020,6805]},{"type":"Point","properties":{"Station_ID":"BALW3","Station_Nam":"BALDWIN","Latitude":"44.96330","Longitude":"-92.39050","Snowdepth":"11.000","Units":"in","Rept_Date":"2019-12-01 13"},"coordinates":[1138,5445]},{"type":"Point","properties":{"Station_ID":"AVLV1","Station_Nam":"AVERILL","Latitude":"45.00570","Longitude":"-71.69030","Snowdepth":"11.000","Units":"in","Rept_Date":"2019-12-01 13"},"coordinates":[5996,5474]},{"type":"Point","properties":{"Station_ID":"ASTW3","Station_Nam":"ATHELSTANE","Latitude":"45.42500","Longitude":"-88.05750","Snowdepth":"11.000","Units":"in","Rept_Date":"2019-12-01 12"},"coordinates":[2155,5756]},{"type":"Point","properties":{"Station_ID":"WI-MT-4","Station_Nam":"WAUSAU 1.7 ENE, WI","Latitude":"44.96943","Longitude":"-89.61090","Snowdepth":"10.500","Units":"in","Rept_Date":"2019-12-01 13"},"coordinates":[1790,5450]},{"type":"Point","properties":{"Station_ID":"WI-CH-7","Station_Nam":"CHIPPEWA FALLS 1.2 E, WI","Latitude":"44.92920","Longitude":"-91.36730","Snowdepth":"10.500","Units":"in","Rept_Date":"2019-12-01 13"},"coordinates":[1378,5422]},{"type":"Point","properties":{"Station_ID":"ZNOM4","Station_Nam":"NORWAY","Latitude":"45.77810","Longitude":"-87.89560","Snowdepth":"10.000","Units":"in","Rept_Date":"2019-12-02 01"},"coordinates":[2193,5994]},{"type":"Point","properties":{"Station_ID":"WI-PK-24","Station_Nam":"ST. CROIX FALLS 0.7 S, WI","Latitude":"45.39944","Longitude":"-92.63274","Snowdepth":"10.000","Units":"in","Rept_Date":"2019-12-01 13"},"coordinates":[1081,5739]},{"type":"Point","properties":{"Station_ID":"WI-CH-3","Station_Nam":"CORNELL 4.1 W, WI","Latitude":"45.17024","Longitude":"-91.23610","Snowdepth":"10.000","Units":"in","Rept_Date":"2019-12-01 14"},"coordinates":[1409,5585]},{"type":"Point","properties":{"Station_ID":"WI-BR-2","Station_Nam":"CHETEK 2.0 SE, WI","Latitude":"45.29427","Longitude":"-91.62470","Snowdepth":"10.000","Units":"in","Rept_Date":"2019-12-01 13"},"coordinates":[1318,5668]},{"type":"Point","properties":{"Station_ID":"QFT","Station_Nam":"QFT","Latitude":"50.83280","Longitude":"-74.40390","Snowdepth":"10.000","Units":"in","Rept_Date":"2019-12-01 12"},"coordinates":[5359,9397]},{"type":"Point","properties":{"Station_ID":"ND-CS-45","Station_Nam":"FARGO 3.6 NNE, ND","Latitude":"46.92599","Longitude":"-96.79321","Snowdepth":"10.000","Units":"in","Rept_Date":"2019-12-01 13"},"coordinates":[105,6767]},{"type":"Point","properties":{"Station_ID":"ND-CS-1","Station_Nam":"WEST FARGO 3.8 SSE, ND","Latitude":"46.82750","Longitude":"-96.85280","Snowdepth":"10.000","Units":"in","Rept_Date":"2019-12-01 13"},"coordinates":[91,6700]},{"type":"Point","properties":{"Station_ID":"MN-OT-5","Station_Nam":"FERGUS FALLS 0.5 E, MN","Latitude":"46.28533","Longitude":"-96.06625","Snowdepth":"10.000","Units":"in","Rept_Date":"2019-12-01 13"},"coordinates":[275,6335]},{"type":"Point","properties":{"Station_ID":"MN-CK-3","Station_Nam":"TOFTE 4.9 NE, MN","Latitude":"47.62394","Longitude":"-90.76100","Snowdepth":"10.000","Units":"in","Rept_Date":"2019-12-01 13"},"coordinates":[1520,7237]},{"type":"Point","properties":{"Station_ID":"MN-AA-73","Station_Nam":"ANOKA 6.5 N, MN","Latitude":"45.30231","Longitude":"-93.41459","Snowdepth":"10.000","Units":"in","Rept_Date":"2019-12-01 13"},"coordinates":[897,5674]},{"type":"Point","properties":{"Station_ID":"MIEM4","Station_Nam":"MICHIGAMME 3WNW","Latitude":"46.54530","Longitude":"-88.18000","Snowdepth":"10.000","Units":"in","Rept_Date":"2019-12-01 13"},"coordinates":[2126,6511]},{"type":"Point","properties":{"Station_ID":"MI-HG-6","Station_Nam":"CALUMET 5.8 ENE, MI","Latitude":"47.27200","Longitude":"-88.33400","Snowdepth":"10.000","Units":"in","Rept_Date":"2019-12-01 11"},"coordinates":[2090,7000]},{"type":"Point","properties":{"Station_ID":"LUCW3","Station_Nam":"LUCK","Latitude":"45.57330","Longitude":"-92.48520","Snowdepth":"10.000","Units":"in","Rept_Date":"2019-12-01 18"},"coordinates":[1116,5856]},{"type":"Point","properties":{"Station_ID":"FLDM5","Station_Nam":"FLOODWOOD,MN","Latitude":"47.00000","Longitude":"-92.91670","Snowdepth":"10.000","Units":"in","Rept_Date":"2019-12-01 14"},"coordinates":[1014,6817]},{"type":"Point","properties":{"Station_ID":"CRVW3","Station_Nam":"CRIVITZ HIGH FALLS","Latitude":"45.35750","Longitude":"-88.19190","Snowdepth":"10.000","Units":"in","Rept_Date":"2019-12-01 13"},"coordinates":[2123,5711]},{"type":"Point","properties":{"Station_ID":"CNRM1","Station_Nam":"CONNOR TWP","Latitude":"46.95830","Longitude":"-68.03330","Snowdepth":"10.000","Units":"in","Rept_Date":"2019-12-01 12"},"coordinates":[6854,6789]},{"type":"Point","properties":{"Station_ID":"CARM1","Station_Nam":"CARIBOU WFO","Latitude":"46.86810","Longitude":"-68.01250","Snowdepth":"10.000","Units":"in","Rept_Date":"2019-12-01 12"},"coordinates":[6859,6728]},{"type":"Point","properties":{"Station_ID":"CAN-NS-103","Station_Nam":"TRAFALGAR 4.9 WSW, CAN","Latitude":"45.26217","Longitude":"-62.72285","Snowdepth":"10.000","Units":"in","Rept_Date":"2019-12-01 12"},"coordinates":[8101,5647]},{"type":"Point","properties":{"Station_ID":"CAN-NB-13","Station_Nam":"BATHURST 3.8 NW, CAN","Latitude":"47.64212","Longitude":"-65.68756","Snowdepth":"10.000","Units":"in","Rept_Date":"2019-12-01 11"},"coordinates":[7405,7249]},{"type":"Point","properties":{"Station_ID":"BREW3","Station_Nam":"SURING","Latitude":"44.99580","Longitude":"-88.37860","Snowdepth":"10.000","Units":"in","Rept_Date":"2019-12-01 23"},"coordinates":[2079,5467]},{"type":"Point","properties":{"Station_ID":"AVTW3","Station_Nam":"ARBOR VITAE-JOHNSON LAKE","Latitude":"45.89940","Longitude":"-89.72670","Snowdepth":"10.000","Units":"in","Rept_Date":"2019-12-01 12"},"coordinates":[1763,6076]},{"type":"Point","properties":{"Station_ID":"QCO","Station_Nam":"QCO","Latitude":"51.45280","Longitude":"-72.20110","Snowdepth":"9.842","Units":"in","Rept_Date":"2019-12-01 12"},"coordinates":[5876,9814]},{"type":"Point","properties":{"Station_ID":"CAN-PE-43","Station_Nam":"GLENCOE 0.3 W, CAN","Latitude":"46.20115","Longitude":"-62.81740","Snowdepth":"9.800","Units":"in","Rept_Date":"2019-12-01 12"},"coordinates":[8078,6279]},{"type":"Point","properties":{"Station_ID":"PTLQ6","Station_Nam":"PORTAGE LAKE","Latitude":"49.06950","Longitude":"-86.65940","Snowdepth":"9.610","Units":"in","Rept_Date":"2019-12-02 06"},"coordinates":[2483,8210]},{"type":"Point","properties":{"Station_ID":"MN-DK-73","Station_Nam":"LAKEVILLE 2.6 NNE, MN","Latitude":"44.71250","Longitude":"-93.23043","Snowdepth":"9.500","Units":"in","Rept_Date":"2019-12-01 13"},"coordinates":[941,5277]},{"type":"Point","properties":{"Station_ID":"QLM","Station_Nam":"QLM","Latitude":"48.92030","Longitude":"-70.25280","Snowdepth":"9.449","Units":"in","Rept_Date":"2019-12-01 12"},"coordinates":[6333,8109]},{"type":"Point","properties":{"Station_ID":"WI-CH-8","Station_Nam":"CHIPPEWA FALLS 4.4 NE, WI","Latitude":"44.98480","Longitude":"-91.33910","Snowdepth":"9.400","Units":"in","Rept_Date":"2019-12-01 14"},"coordinates":[1385,5460]},{"type":"Point","properties":{"Station_ID":"QTV","Station_Nam":"QTV","Latitude":"49.66000","Longitude":"-69.35690","Snowdepth":"9.331","Units":"in","Rept_Date":"2019-12-01 12"},"coordinates":[6544,8607]},{"type":"Point","properties":{"Station_ID":"NY-SC-27","Station_Nam":"NISKAYUNA 2.9 SSE, NY","Latitude":"42.77911","Longitude":"-73.87242","Snowdepth":"9.200","Units":"in","Rept_Date":"2019-12-02 02"},"coordinates":[5484,3975]},{"type":"Point","properties":{"Station_ID":"MN-IT-7","Station_Nam":"GRAND RAPIDS 6.2 SSW, MN","Latitude":"47.13687","Longitude":"-93.56660","Snowdepth":"9.200","Units":"in","Rept_Date":"2019-12-01 12"},"coordinates":[862,6909]},{"type":"Point","properties":{"Station_ID":"CAN-PE-19","Station_Nam":"CHARLOTTETOWN 6.5 NNW, CAN","Latitude":"46.29235","Longitude":"-63.17271","Snowdepth":"9.100","Units":"in","Rept_Date":"2019-12-01 12"},"coordinates":[7995,6340]},{"type":"Point","properties":{"Station_ID":"QWE","Station_Nam":"QWE","Latitude":"47.84610","Longitude":"-73.80670","Snowdepth":"9.055","Units":"in","Rept_Date":"2019-12-01 12"},"coordinates":[5499,7386]},{"type":"Point","properties":{"Station_ID":"WI-MT-1","Station_Nam":"SCHOFIELD 3.3 E, WI","Latitude":"44.91806","Longitude":"-89.54470","Snowdepth":"9.000","Units":"in","Rept_Date":"2019-12-01 13"},"coordinates":[1806,5415]},{"type":"Point","properties":{"Station_ID":"WI-CK-3","Station_Nam":"COLBY 5.9 WSW, WI","Latitude":"44.87209","Longitude":"-90.42463","Snowdepth":"9.000","Units":"in","Rept_Date":"2019-12-02 01"},"coordinates":[1599,5384]},{"type":"Point","properties":{"Station_ID":"VANM1","Station_Nam":"VAN BUREN","Latitude":"47.16600","Longitude":"-67.93900","Snowdepth":"9.000","Units":"in","Rept_Date":"2019-12-01 12"},"coordinates":[6876,6928]},{"type":"Point","properties":{"Station_ID":"SIBI4","Station_Nam":"SIBLEY","Latitude":"43.40470","Longitude":"-95.74830","Snowdepth":"9.000","Units":"in","Rept_Date":"2019-12-01 13"},"coordinates":[350,4396]},{"type":"Point","properties":{"Station_ID":"MWTM1","Station_Nam":"MILLINOCKET WWTP","Latitude":"45.64030","Longitude":"-68.67480","Snowdepth":"9.000","Units":"in","Rept_Date":"2019-12-01 12"},"coordinates":[6704,5901]},{"type":"Point","properties":{"Station_ID":"MN6JKRHL","Station_Nam":"TOFTE 0.6 SSW","Latitude":"47.56557","Longitude":"-90.84117","Snowdepth":"9.000","Units":"in","Rept_Date":"2019-12-01 13"},"coordinates":[1501,7197]},{"type":"Point","properties":{"Station_ID":"MN-SL-108","Station_Nam":"IRON JUNCTION 3.4 NNW, MN","Latitude":"47.46150","Longitude":"-92.63130","Snowdepth":"9.000","Units":"in","Rept_Date":"2019-12-01 19"},"coordinates":[1081,7127]},{"type":"Point","properties":{"Station_ID":"MN-PN-17","Station_Nam":"BROOK PARK 3.9 S, MN","Latitude":"45.89189","Longitude":"-93.06306","Snowdepth":"9.000","Units":"in","Rept_Date":"2019-12-01 13"},"coordinates":[980,6071]},{"type":"Point","properties":{"Station_ID":"MN-IT-19","Station_Nam":"COHASSET 7.6 NNW, MN","Latitude":"47.34204","Longitude":"-93.69765","Snowdepth":"9.000","Units":"in","Rept_Date":"2019-12-01 14"},"coordinates":[831,7047]},{"type":"Point","properties":{"Station_ID":"LKFM5","Station_Nam":"LAKEFIELD,MN","Latitude":"43.68330","Longitude":"-95.18330","Snowdepth":"9.000","Units":"in","Rept_Date":"2019-12-01 13"},"coordinates":[482,4584]},{"type":"Point","properties":{"Station_ID":"LILM1","Station_Nam":"LILLE","Latitude":"47.27770","Longitude":"-68.10520","Snowdepth":"9.000","Units":"in","Rept_Date":"2019-12-01 12"},"coordinates":[6837,7004]},{"type":"Point","properties":{"Station_ID":"LGRN8","Station_Nam":"LIDGERWOOD,ND","Latitude":"46.06670","Longitude":"-97.16670","Snowdepth":"9.000","Units":"in","Rept_Date":"2019-12-01 13"},"coordinates":[17,6188]},{"type":"Point","properties":{"Station_ID":"JKMM1","Station_Nam":"JACKMAN","Latitude":"45.62600","Longitude":"-70.24600","Snowdepth":"9.000","Units":"in","Rept_Date":"2019-12-01 12"},"coordinates":[6335,5892]},{"type":"Point","properties":{"Station_ID":"JIMW3","Station_Nam":"JIM FALLS 3NW","Latitude":"45.08270","Longitude":"-91.33130","Snowdepth":"9.000","Units":"in","Rept_Date":"2019-12-01 12"},"coordinates":[1386,5526]},{"type":"Point","properties":{"Station_ID":"HOLW3","Station_Nam":"HOLCOMBE","Latitude":"45.22370","Longitude":"-91.12700","Snowdepth":"9.000","Units":"in","Rept_Date":"2019-12-01 13"},"coordinates":[1434,5621]},{"type":"Point","properties":{"Station_ID":"GFK","Station_Nam":"GRAND FORKS INTERNATIONAL AIRPORT","Latitude":"47.94920","Longitude":"-97.17610","Snowdepth":"9.000","Units":"in","Rept_Date":"2019-12-02 00"},"coordinates":[15,7456]},{"type":"Point","properties":{"Station_ID":"FDRN8","Station_Nam":"FARGO 3S","Latitude":"46.82930","Longitude":"-96.79620","Snowdepth":"9.000","Units":"in","Rept_Date":"2019-12-02 06"},"coordinates":[104,6702]},{"type":"Point","properties":{"Station_ID":"FAR","Station_Nam":"HECTOR INTERNATIONAL ARPT","Latitude":"46.91560","Longitude":"-96.81440","Snowdepth":"9.000","Units":"in","Rept_Date":"2019-12-02 00"},"coordinates":[100,6760]},{"type":"Point","properties":{"Station_ID":"CSLM5","Station_Nam":"CASS LAKE,MN","Latitude":"47.38470","Longitude":"-94.61470","Snowdepth":"9.000","Units":"in","Rept_Date":"2019-12-01 14"},"coordinates":[616,7076]},{"type":"Point","properties":{"Station_ID":"COKM5","Station_Nam":"COOK","Latitude":"47.85060","Longitude":"-92.69250","Snowdepth":"9.000","Units":"in","Rept_Date":"2019-12-01 12"},"coordinates":[1067,7389]},{"type":"Point","properties":{"Station_ID":"CLBW3","Station_Nam":"COLBY 6SW","Latitude":"44.87080","Longitude":"-90.42480","Snowdepth":"9.000","Units":"in","Rept_Date":"2019-12-02 02"},"coordinates":[1599,5383]},{"type":"Point","properties":{"Station_ID":"CHPW3","Station_Nam":"CHIPPEWA FALLS","Latitude":"44.92770","Longitude":"-91.40810","Snowdepth":"9.000","Units":"in","Rept_Date":"2019-12-01 14"},"coordinates":[1368,5421]},{"type":"Point","properties":{"Station_ID":"BRDM1","Station_Nam":"BRIDGEWATER","Latitude":"46.42870","Longitude":"-67.84370","Snowdepth":"9.000","Units":"in","Rept_Date":"2019-12-01 23"},"coordinates":[6899,6432]},{"type":"Point","properties":{"Station_ID":"ABGW3","Station_Nam":"AMBERG 9 E","Latitude":"45.48250","Longitude":"-87.81190","Snowdepth":"9.000","Units":"in","Rept_Date":"2019-12-01 12"},"coordinates":[2212,5795]},{"type":"Point","properties":{"Station_ID":"QLP","Station_Nam":"QLP","Latitude":"48.13920","Longitude":"-72.63830","Snowdepth":"8.976","Units":"in","Rept_Date":"2019-12-01 12"},"coordinates":[5774,7584]},{"type":"Point","properties":{"Station_ID":"QMD","Station_Nam":"QMD","Latitude":"49.29060","Longitude":"-75.84500","Snowdepth":"8.779","Units":"in","Rept_Date":"2019-12-01 12"},"coordinates":[5021,8359]},{"type":"Point","properties":{"Station_ID":"SD-GT-9","Station_Nam":"LABOLT 0.1 WSW, SD","Latitude":"45.04956","Longitude":"-96.67698","Snowdepth":"8.500","Units":"in","Rept_Date":"2019-12-01 14"},"coordinates":[132,5504]},{"type":"Point","properties":{"Station_ID":"MN-WR-40","Station_Nam":"CLEARWATER 5.4 SSE, MN","Latitude":"45.34795","Longitude":"-94.03374","Snowdepth":"8.500","Units":"in","Rept_Date":"2019-12-01 14"},"coordinates":[752,5704]},{"type":"Point","properties":{"Station_ID":"MN-BK-10","Station_Nam":"DETROIT LAKES 5.7 N, MN","Latitude":"46.88666","Longitude":"-95.84444","Snowdepth":"8.500","Units":"in","Rept_Date":"2019-12-01 13"},"coordinates":[327,6740]},{"type":"Point","properties":{"Station_ID":"QLB","Station_Nam":"QLB","Latitude":"50.72360","Longitude":"-75.10000","Snowdepth":"8.386","Units":"in","Rept_Date":"2019-12-01 12"},"coordinates":[5196,9324]},{"type":"Point","properties":{"Station_ID":"CAN-NS-94","Station_Nam":"MARGAREE FORKS 2.6 SSE CBN, CAN","Latitude":"46.30937","Longitude":"-61.07603","Snowdepth":"8.300","Units":"in","Rept_Date":"2019-12-01 13"},"coordinates":[8487,6352]},{"type":"Point","properties":{"Station_ID":"WUNW3","Station_Nam":"WAUSAU-NORTHEAST","Latitude":"44.97310","Longitude":"-89.61690","Snowdepth":"8.000","Units":"in","Rept_Date":"2019-12-01 11"},"coordinates":[1789,5452]},{"type":"Point","properties":{"Station_ID":"WLDM5","Station_Nam":"WILD RIVER STATE PARK","Latitude":"45.52310","Longitude":"-92.74890","Snowdepth":"8.000","Units":"in","Rept_Date":"2019-12-01 14"},"coordinates":[1054,5822]},{"type":"Point","properties":{"Station_ID":"WI-SC-21","Station_Nam":"CLEAR LAKE 4.0 S, WI","Latitude":"45.19250","Longitude":"-92.27860","Snowdepth":"8.000","Units":"in","Rept_Date":"2019-12-01 14"},"coordinates":[1164,5600]},{"type":"Point","properties":{"Station_ID":"SIWS2","Station_Nam":"SISSETON 3W","Latitude":"45.65870","Longitude":"-97.12450","Snowdepth":"8.000","Units":"in","Rept_Date":"2019-12-01 13"},"coordinates":[27,5914]},{"type":"Point","properties":{"Station_ID":"SHIW3","Station_Nam":"SHIOCTON","Latitude":"44.43890","Longitude":"-88.58390","Snowdepth":"8.000","Units":"in","Rept_Date":"2019-12-01 16"},"coordinates":[2031,5092]},{"type":"Point","properties":{"Station_ID":"SD-RB-1","Station_Nam":"SISSETON 3.8 W, SD","Latitude":"45.65865","Longitude":"-97.12370","Snowdepth":"8.000","Units":"in","Rept_Date":"2019-12-01 13"},"coordinates":[27,5914]},{"type":"Point","properties":{"Station_ID":"ROBW3","Station_Nam":"ROBERTS WWTP","Latitude":"44.97070","Longitude":"-92.56200","Snowdepth":"8.000","Units":"in","Rept_Date":"2019-12-01 14"},"coordinates":[1098,5450]},{"type":"Point","properties":{"Station_ID":"ND-GF-8","Station_Nam":"GRAND FORKS 2.5 SE, ND","Latitude":"47.89136","Longitude":"-97.03386","Snowdepth":"8.000","Units":"in","Rept_Date":"2019-12-01 13"},"coordinates":[48,7417]},{"type":"Point","properties":{"Station_ID":"ND-GF-13","Station_Nam":"GRAND FORKS 3.7 SSE, ND","Latitude":"47.86533","Longitude":"-97.04935","Snowdepth":"8.000","Units":"in","Rept_Date":"2019-12-01 13"},"coordinates":[44,7399]},{"type":"Point","properties":{"Station_ID":"MRAM4","Station_Nam":"MORAN","Latitude":"45.99030","Longitude":"-84.83610","Snowdepth":"8.000","Units":"in","Rept_Date":"2019-12-01 13"},"coordinates":[2911,6137]},{"type":"Point","properties":{"Station_ID":"MN-WG-66","Station_Nam":"MAHTOMEDI 1.3 S, MN","Latitude":"45.04298","Longitude":"-92.96567","Snowdepth":"8.000","Units":"in","Rept_Date":"2019-12-01 12"},"coordinates":[1003,5499]},{"type":"Point","properties":{"Station_ID":"MN-SR-29","Station_Nam":"ALBANY 3.8 S, MN","Latitude":"45.57441","Longitude":"-94.55543","Snowdepth":"8.000","Units":"in","Rept_Date":"2019-12-01 13"},"coordinates":[630,5857]},{"type":"Point","properties":{"Station_ID":"MN-SC-2","Station_Nam":"PRIOR LAKE 2.0 W, MN","Latitude":"44.71250","Longitude":"-93.46360","Snowdepth":"8.000","Units":"in","Rept_Date":"2019-12-01 11"},"coordinates":[886,5277]},{"type":"Point","properties":{"Station_ID":"MN-DS-9","Station_Nam":"ALEXANDRIA 0.5 W, MN","Latitude":"45.87828","Longitude":"-95.38273","Snowdepth":"8.000","Units":"in","Rept_Date":"2019-12-01 13"},"coordinates":[436,6061]},{"type":"Point","properties":{"Station_ID":"MN-CV-22","Station_Nam":"VICTORIA 1.6 WSW, MN","Latitude":"44.85670","Longitude":"-93.68640","Snowdepth":"8.000","Units":"in","Rept_Date":"2019-12-01 13"},"coordinates":[834,5374]},{"type":"Point","properties":{"Station_ID":"MN-CV-1","Station_Nam":"CARVER 0.7 W, MN","Latitude":"44.75728","Longitude":"-93.64160","Snowdepth":"8.000","Units":"in","Rept_Date":"2019-12-01 13"},"coordinates":[844,5307]},{"type":"Point","properties":{"Station_ID":"MLCM5","Station_Nam":"MILACA","Latitude":"45.75320","Longitude":"-93.66170","Snowdepth":"8.000","Units":"in","Rept_Date":"2019-12-01 13"},"coordinates":[839,5977]},{"type":"Point","properties":{"Station_ID":"MI-DL-1","Station_Nam":"GARDEN CORNERS 0.8 NW, MI","Latitude":"45.89815","Longitude":"-86.54850","Snowdepth":"8.000","Units":"in","Rept_Date":"2019-12-01 13"},"coordinates":[2509,6075]},{"type":"Point","properties":{"Station_ID":"LEIM5","Station_Nam":"ORR 3E","Latitude":"48.05810","Longitude":"-92.75220","Snowdepth":"8.000","Units":"in","Rept_Date":"2019-12-01 12"},"coordinates":[1053,7529]},{"type":"Point","properties":{"Station_ID":"KMHT","Station_Nam":"MANCHESTER AIRPORT","Latitude":"42.93333","Longitude":"-71.43333","Snowdepth":"8.000","Units":"in","Rept_Date":"2019-12-02 06"},"coordinates":[6056,4079]},{"type":"Point","properties":{"Station_ID":"KGFK","Station_Nam":"GRAND FORKS INTERNATIONAL","Latitude":"47.95000","Longitude":"-97.18333","Snowdepth":"8.000","Units":"in","Rept_Date":"2019-12-02 06"},"coordinates":[13,7456]},{"type":"Point","properties":{"Station_ID":"IA-DK-11","Station_Nam":"SPIRIT LAKE 1.7 SW, IA","Latitude":"43.40694","Longitude":"-95.13694","Snowdepth":"8.000","Units":"in","Rept_Date":"2019-12-01 14"},"coordinates":[493,4398]},{"type":"Point","properties":{"Station_ID":"GRFN8","Station_Nam":"UNIVERSITY","Latitude":"47.93330","Longitude":"-97.08330","Snowdepth":"8.000","Units":"in","Rept_Date":"2019-12-02 06"},"coordinates":[36,7445]},{"type":"Point","properties":{"Station_ID":"GRBM5","Station_Nam":"GRAND RAPIDS 12N","Latitude":"47.39800","Longitude":"-93.51330","Snowdepth":"8.000","Units":"in","Rept_Date":"2019-12-01 13"},"coordinates":[874,7085]},{"type":"Point","properties":{"Station_ID":"GHMN3","Station_Nam":"PINKHAM NOTCH","Latitude":"44.25800","Longitude":"-71.25250","Snowdepth":"8.000","Units":"in","Rept_Date":"2019-12-01 10"},"coordinates":[6099,4971]},{"type":"Point","properties":{"Station_ID":"GDCM4","Station_Nam":"GARDEN CORNERS","Latitude":"45.89830","Longitude":"-86.54850","Snowdepth":"8.000","Units":"in","Rept_Date":"2019-12-01 13"},"coordinates":[2509,6075]},{"type":"Point","properties":{"Station_ID":"FORM5","Station_Nam":"FOREST LAKE 5NE","Latitude":"45.33170","Longitude":"-92.89820","Snowdepth":"8.000","Units":"in","Rept_Date":"2019-12-01 13"},"coordinates":[1019,5693]},{"type":"Point","properties":{"Station_ID":"ELRW3","Station_Nam":"EAU CLAIRE 3SW","Latitude":"44.78780","Longitude":"-91.51650","Snowdepth":"8.000","Units":"in","Rept_Date":"2019-12-02 06"},"coordinates":[1343,5327]},{"type":"Point","properties":{"Station_ID":"BFSW3","Station_Nam":"BIG FALLS-5 NW","Latitude":"44.63980","Longitude":"-89.11330","Snowdepth":"8.000","Units":"in","Rept_Date":"2019-12-01 13"},"coordinates":[1907,5228]},{"type":"Point","properties":{"Station_ID":"QGA","Station_Nam":"QGA","Latitude":"47.25640","Longitude":"-73.73810","Snowdepth":"7.953","Units":"in","Rept_Date":"2019-12-01 12"},"coordinates":[5515,6989]},{"type":"Point","properties":{"Station_ID":"CAN-NS-111","Station_Nam":"ANTIGONISH 0.6 WSW, CAN","Latitude":"45.62286","Longitude":"-62.00174","Snowdepth":"7.900","Units":"in","Rept_Date":"2019-12-01 11"},"coordinates":[8270,5889]},{"type":"Point","properties":{"Station_ID":"QTM","Station_Nam":"QTM","Latitude":"51.05780","Longitude":"-72.57190","Snowdepth":"7.677","Units":"in","Rept_Date":"2019-12-01 12"},"coordinates":[5789,9549]},{"type":"Point","properties":{"Station_ID":"SVBQ6","Station_Nam":"SAVANT BASE","Latitude":"50.28730","Longitude":"-90.65670","Snowdepth":"7.600","Units":"in","Rept_Date":"2019-12-02 06"},"coordinates":[1545,9030]},{"type":"Point","properties":{"Station_ID":"QIQ","Station_Nam":"QIQ","Latitude":"49.82390","Longitude":"-68.54310","Snowdepth":"7.598","Units":"in","Rept_Date":"2019-12-01 12"},"coordinates":[6735,8718]},{"type":"Point","properties":{"Station_ID":"WI-SC-24","Station_Nam":"DEER PARK 2.6 SSE, WI","Latitude":"45.15739","Longitude":"-92.35759","Snowdepth":"7.500","Units":"in","Rept_Date":"2019-12-01 13"},"coordinates":[1146,5576]},{"type":"Point","properties":{"Station_ID":"WI-EC-23","Station_Nam":"EAU CLAIRE 3.7 S, WI","Latitude":"44.76858","Longitude":"-91.49898","Snowdepth":"7.500","Units":"in","Rept_Date":"2019-12-01 14"},"coordinates":[1347,5314]},{"type":"Point","properties":{"Station_ID":"WI-DN-15","Station_Nam":"MENOMONIE 0.9 NW, WI","Latitude":"44.89832","Longitude":"-91.92398","Snowdepth":"7.500","Units":"in","Rept_Date":"2019-12-01 14"},"coordinates":[1247,5402]},{"type":"Point","properties":{"Station_ID":"MN-RM-99","Station_Nam":"ROSEVILLE 0.7 SSE, MN","Latitude":"45.00583","Longitude":"-93.15040","Snowdepth":"7.500","Units":"in","Rept_Date":"2019-12-01 13"},"coordinates":[959,5474]},{"type":"Point","properties":{"Station_ID":"MN-IT-21","Station_Nam":"BOVEY 15.9 N, MN","Latitude":"47.52679","Longitude":"-93.40270","Snowdepth":"7.500","Units":"in","Rept_Date":"2019-12-01 13"},"coordinates":[900,7171]},{"type":"Point","properties":{"Station_ID":"MN-HN-181","Station_Nam":"MINNEAPOLIS 0.4 NE, MN","Latitude":"44.96708","Longitude":"-93.26222","Snowdepth":"7.500","Units":"in","Rept_Date":"2019-12-01 13"},"coordinates":[933,5448]},{"type":"Point","properties":{"Station_ID":"TRIQ6","Station_Nam":"TRIO LAKE","Latitude":"49.22880","Longitude":"-87.22920","Snowdepth":"7.200","Units":"in","Rept_Date":"2019-12-02 06"},"coordinates":[2349,8317]},{"type":"Point","properties":{"Station_ID":"MN-RM-2","Station_Nam":"NORTH SAINT PAUL 1.0 NNW, MN","Latitude":"45.02629","Longitude":"-93.00790","Snowdepth":"7.100","Units":"in","Rept_Date":"2019-12-01 13"},"coordinates":[993,5488]},{"type":"Point","properties":{"Station_ID":"WLKM5","Station_Nam":"AH-GWAH-CHING","Latitude":"47.15000","Longitude":"-94.65000","Snowdepth":"7.000","Units":"in","Rept_Date":"2019-12-01 16"},"coordinates":[608,6918]},{"type":"Point","properties":{"Station_ID":"WI-PT-8","Station_Nam":"RUDOLPH 2.1 NNE, WI","Latitude":"44.52553","Longitude":"-89.78677","Snowdepth":"7.000","Units":"in","Rept_Date":"2019-12-01 11"},"coordinates":[1749,5151]},{"type":"Point","properties":{"Station_ID":"WI-EC-5","Station_Nam":"ALTOONA 0.4 SW, WI","Latitude":"44.80128","Longitude":"-91.44819","Snowdepth":"7.000","Units":"in","Rept_Date":"2019-12-01 13"},"coordinates":[1359,5336]},{"type":"Point","properties":{"Station_ID":"STRW3","Station_Nam":"STRATFORD 1NW","Latitude":"44.81750","Longitude":"-90.08990","Snowdepth":"7.000","Units":"in","Rept_Date":"2019-12-01 12"},"coordinates":[1678,5347]},{"type":"Point","properties":{"Station_ID":"RSTW3","Station_Nam":"ROSHOLT","Latitude":"44.62710","Longitude":"-89.30600","Snowdepth":"7.000","Units":"in","Rept_Date":"2019-12-01 10"},"coordinates":[1862,5219]},{"type":"Point","properties":{"Station_ID":"RCEM5","Station_Nam":"RICE","Latitude":"45.75760","Longitude":"-94.20720","Snowdepth":"7.000","Units":"in","Rept_Date":"2019-12-01 13"},"coordinates":[711,5980]},{"type":"Point","properties":{"Station_ID":"NYMM5","Station_Nam":"NEW YORK MILLS","Latitude":"46.50920","Longitude":"-95.37990","Snowdepth":"7.000","Units":"in","Rept_Date":"2019-12-01 13"},"coordinates":[436,6486]},{"type":"Point","properties":{"Station_ID":"NONW3","Station_Nam":"NEW LONDON","Latitude":"44.35890","Longitude":"-88.71890","Snowdepth":"7.000","Units":"in","Rept_Date":"2019-12-01 12"},"coordinates":[2000,5039]},{"type":"Point","properties":{"Station_ID":"MTQM4","Station_Nam":"MANISTIQUE WWTP","Latitude":"45.95120","Longitude":"-86.25130","Snowdepth":"7.000","Units":"in","Rept_Date":"2019-12-01 12"},"coordinates":[2579,6111]},{"type":"Point","properties":{"Station_ID":"MSP","Station_Nam":"MINNEAPOLIS-ST PAUL INTL AP","Latitude":"44.88310","Longitude":"-93.22890","Snowdepth":"7.000","Units":"in","Rept_Date":"2019-12-02 00"},"coordinates":[941,5391]},{"type":"Point","properties":{"Station_ID":"MRFS2","Station_Nam":"MADISON,SD","Latitude":"44.00000","Longitude":"-97.23330","Snowdepth":"7.000","Units":"in","Rept_Date":"2019-12-01 15"},"coordinates":[1,4797]},{"type":"Point","properties":{"Station_ID":"MPXM5","Station_Nam":"CHANHASSEN WSFO","Latitude":"44.84960","Longitude":"-93.56440","Snowdepth":"7.000","Units":"in","Rept_Date":"2019-12-02 06"},"coordinates":[862,5369]},{"type":"Point","properties":{"Station_ID":"MNHZK4CP","Station_Nam":"WATERTOWN 0.8 NW","Latitude":"44.97073","Longitude":"-93.85906","Snowdepth":"7.000","Units":"in","Rept_Date":"2019-12-01 13"},"coordinates":[793,5450]},{"type":"Point","properties":{"Station_ID":"MNG0GYSN","Station_Nam":"LONSDALE 1.1 SSW","Latitude":"44.46445","Longitude":"-93.43293","Snowdepth":"7.000","Units":"in","Rept_Date":"2019-12-01 12"},"coordinates":[893,5110]},{"type":"Point","properties":{"Station_ID":"MN228YHJ","Station_Nam":"RICE 2.8 ESE","Latitude":"45.73609","Longitude":"-94.17230","Snowdepth":"7.000","Units":"in","Rept_Date":"2019-12-01 13"},"coordinates":[720,5966]},{"type":"Point","properties":{"Station_ID":"MN-SR-32","Station_Nam":"SAINT CLOUD 2.2 NW, MN","Latitude":"45.57548","Longitude":"-94.17583","Snowdepth":"7.000","Units":"in","Rept_Date":"2019-12-01 13"},"coordinates":[719,5858]},{"type":"Point","properties":{"Station_ID":"MN-SR-24","Station_Nam":"PAYNESVILLE 1.9 SSW, MN","Latitude":"45.35170","Longitude":"-94.73120","Snowdepth":"7.000","Units":"in","Rept_Date":"2019-12-01 13"},"coordinates":[588,5707]},{"type":"Point","properties":{"Station_ID":"MN-RM-56","Station_Nam":"ROSEVILLE 1.6 NW, MN","Latitude":"45.03303","Longitude":"-93.17523","Snowdepth":"7.000","Units":"in","Rept_Date":"2019-12-01 13"},"coordinates":[954,5492]},{"type":"Point","properties":{"Station_ID":"MN-RC-1","Station_Nam":"MONTGOMERY 3.2 ENE, MN","Latitude":"44.46400","Longitude":"-93.51980","Snowdepth":"7.000","Units":"in","Rept_Date":"2019-12-01 12"},"coordinates":[873,5109]},{"type":"Point","properties":{"Station_ID":"MN-MC-16","Station_Nam":"HUTCHINSON 0.1 ENE, MN","Latitude":"44.88633","Longitude":"-94.37503","Snowdepth":"7.000","Units":"in","Rept_Date":"2019-12-01 13"},"coordinates":[672,5394]},{"type":"Point","properties":{"Station_ID":"MN-IT-17","Station_Nam":"GRAND RAPIDS 6.1 N, MN","Latitude":"47.31165","Longitude":"-93.55036","Snowdepth":"7.000","Units":"in","Rept_Date":"2019-12-01 13"},"coordinates":[866,7026]},{"type":"Point","properties":{"Station_ID":"MN-CV-8","Station_Nam":"WATERTOWN 0.5 NNW, MN","Latitude":"44.96631","Longitude":"-93.84890","Snowdepth":"7.000","Units":"in","Rept_Date":"2019-12-01 11"},"coordinates":[796,5447]},{"type":"Point","properties":{"Station_ID":"MN-BM-15","Station_Nam":"BEMIDJI 7.8 ENE, MN","Latitude":"47.52043","Longitude":"-94.72121","Snowdepth":"7.000","Units":"in","Rept_Date":"2019-12-01 13"},"coordinates":[591,7167]},{"type":"Point","properties":{"Station_ID":"MN-AA-85","Station_Nam":"LINO LAKES 1.8 W, MN","Latitude":"45.16640","Longitude":"-93.12063","Snowdepth":"7.000","Units":"in","Rept_Date":"2019-12-01 13"},"coordinates":[966,5582]},{"type":"Point","properties":{"Station_ID":"MLBS2","Station_Nam":"MILBANK","Latitude":"45.22040","Longitude":"-96.62530","Snowdepth":"7.000","Units":"in","Rept_Date":"2019-12-01 14"},"coordinates":[144,5619]},{"type":"Point","properties":{"Station_ID":"KMSP","Station_Nam":"MINNEAPOLIS-ST PAUL INTERNATIONAL","Latitude":"44.86666","Longitude":"-93.21666","Snowdepth":"7.000","Units":"in","Rept_Date":"2019-12-02 00"},"coordinates":[944,5380]},{"type":"Point","properties":{"Station_ID":"KIMM5","Station_Nam":"KIMBALL 3N","Latitude":"45.35330","Longitude":"-94.30560","Snowdepth":"7.000","Units":"in","Rept_Date":"2019-12-01 12"},"coordinates":[688,5708]},{"type":"Point","properties":{"Station_ID":"KCEF","Station_Nam":"CHICOPEE FALLS / WESTOVER AIR FORCE BASE","Latitude":"42.20000","Longitude":"-72.53333","Snowdepth":"7.000","Units":"in","Rept_Date":"2019-12-02 06"},"coordinates":[5798,3585]},{"type":"Point","properties":{"Station_ID":"HMYM1","Station_Nam":"HARMONY","Latitude":"44.94660","Longitude":"-69.54560","Snowdepth":"7.000","Units":"in","Rept_Date":"2019-12-01 12"},"coordinates":[6499,5434]},{"type":"Point","properties":{"Station_ID":"FISM1","Station_Nam":"FORT KENT COOP","Latitude":"47.23850","Longitude":"-68.61240","Snowdepth":"7.000","Units":"in","Rept_Date":"2019-12-01 12"},"coordinates":[6718,6977]},{"type":"Point","properties":{"Station_ID":"EPTW3","Station_Nam":"EAU PLEINE TENDER","Latitude":"44.77220","Longitude":"-89.76720","Snowdepth":"7.000","Units":"in","Rept_Date":"2019-12-01 13"},"coordinates":[1753,5317]},{"type":"Point","properties":{"Station_ID":"ELWW3","Station_Nam":"ELLSWORTH 1E","Latitude":"44.73030","Longitude":"-92.45860","Snowdepth":"7.000","Units":"in","Rept_Date":"2019-12-01 13"},"coordinates":[1122,5289]},{"type":"Point","properties":{"Station_ID":"EAU","Station_Nam":"CHIPPEWA VALLEY REGIONAL AIRPORT","Latitude":"44.86650","Longitude":"-91.48790","Snowdepth":"7.000","Units":"in","Rept_Date":"2019-12-02 00"},"coordinates":[1350,5380]},{"type":"Point","properties":{"Station_ID":"DRDW3","Station_Nam":"DURAND","Latitude":"44.61970","Longitude":"-91.97950","Snowdepth":"7.000","Units":"in","Rept_Date":"2019-12-01 14"},"coordinates":[1234,5214]},{"type":"Point","properties":{"Station_ID":"CLKS2","Station_Nam":"WATERTOWN-23MI.ESE","Latitude":"44.75000","Longitude":"-96.68330","Snowdepth":"7.000","Units":"in","Rept_Date":"2019-12-01 16"},"coordinates":[130,5302]},{"type":"Point","properties":{"Station_ID":"CDLM4","Station_Nam":"CADILLAC 9&10 NEWS","Latitude":"44.21130","Longitude":"-85.40860","Snowdepth":"7.000","Units":"in","Rept_Date":"2019-12-01 12"},"coordinates":[2776,4939]},{"type":"Point","properties":{"Station_ID":"BRVM5","Station_Nam":"BROWNS VALLEY,MN","Latitude":"45.61670","Longitude":"-96.83330","Snowdepth":"7.000","Units":"in","Rept_Date":"2019-12-01 12"},"coordinates":[95,5885]},{"type":"Point","properties":{"Station_ID":"APXM4","Station_Nam":"GAYLORD 9SSW","Latitude":"44.90720","Longitude":"-84.71880","Snowdepth":"7.000","Units":"in","Rept_Date":"2019-12-02 06"},"coordinates":[2938,5408]},{"type":"Point","properties":{"Station_ID":"APPW3","Station_Nam":"APPLETON","Latitude":"44.27690","Longitude":"-88.43770","Snowdepth":"7.000","Units":"in","Rept_Date":"2019-12-01 12"},"coordinates":[2066,4983]},{"type":"Point","properties":{"Station_ID":"QMA","Station_Nam":"QMA","Latitude":"50.10330","Longitude":"-70.47190","Snowdepth":"6.929","Units":"in","Rept_Date":"2019-12-01 12"},"coordinates":[6282,8906]},{"type":"Point","properties":{"Station_ID":"FTHQ6","Station_Nam":"FORT HOPE","Latitude":"51.55820","Longitude":"-87.90510","Snowdepth":"6.730","Units":"in","Rept_Date":"2019-12-02 06"},"coordinates":[2191,9885]},{"type":"Point","properties":{"Station_ID":"CAN-PE-50","Station_Nam":"BEDFORD CORNER 3.9 WNW, CAN","Latitude":"46.34628","Longitude":"-63.06157","Snowdepth":"6.700","Units":"in","Rept_Date":"2019-12-01 11"},"coordinates":[8021,6377]},{"type":"Point","properties":{"Station_ID":"QYR","Station_Nam":"QYR","Latitude":"48.87220","Longitude":"-75.61470","Snowdepth":"6.693","Units":"in","Rept_Date":"2019-12-01 12"},"coordinates":[5075,8077]},{"type":"Point","properties":{"Station_ID":"MN-HN-31","Station_Nam":"MAPLE GROVE 1.0 NNE, MN","Latitude":"45.12261","Longitude":"-93.45790","Snowdepth":"6.500","Units":"in","Rept_Date":"2019-12-01 16"},"coordinates":[887,5553]},{"type":"Point","properties":{"Station_ID":"CAN-NB-11","Station_Nam":"MIRAMICHI 3.3 S, CAN","Latitude":"46.99343","Longitude":"-65.50690","Snowdepth":"6.500","Units":"in","Rept_Date":"2019-12-01 13"},"coordinates":[7447,6812]},{"type":"Point","properties":{"Station_ID":"MN-CV-27","Station_Nam":"CHANHASSEN 3.4 NW, MN","Latitude":"44.88979","Longitude":"-93.60991","Snowdepth":"6.100","Units":"in","Rept_Date":"2019-12-01 14"},"coordinates":[852,5396]},{"type":"Point","properties":{"Station_ID":"WMRM5","Station_Nam":"WILLMAR 5N","Latitude":"45.19010","Longitude":"-95.05860","Snowdepth":"6.000","Units":"in","Rept_Date":"2019-12-01 12"},"coordinates":[512,5598]},{"type":"Point","properties":{"Station_ID":"WI-MT-14","Station_Nam":"MOSINEE 2.7 WSW, WI","Latitude":"44.77240","Longitude":"-89.73441","Snowdepth":"6.000","Units":"in","Rept_Date":"2019-12-01 12"},"coordinates":[1761,5317]},{"type":"Point","properties":{"Station_ID":"WI-DN-5","Station_Nam":"ELK MOUND 1.3 NE, WI","Latitude":"44.88627","Longitude":"-91.66680","Snowdepth":"6.000","Units":"in","Rept_Date":"2019-12-01 13"},"coordinates":[1308,5394]},{"type":"Point","properties":{"Station_ID":"WDOM5","Station_Nam":"WINDOM","Latitude":"43.87700","Longitude":"-95.11590","Snowdepth":"6.000","Units":"in","Rept_Date":"2019-12-01 14"},"coordinates":[498,4714]},{"type":"Point","properties":{"Station_ID":"TOPM1","Station_Nam":"TOPSFIELD","Latitude":"45.43470","Longitude":"-67.72020","Snowdepth":"6.000","Units":"in","Rept_Date":"2019-12-01 11"},"coordinates":[6928,5763]},{"type":"Point","properties":{"Station_ID":"STIM5","Station_Nam":"STILLWATER 2SW","Latitude":"45.04540","Longitude":"-92.85220","Snowdepth":"6.000","Units":"in","Rept_Date":"2019-12-01 14"},"coordinates":[1029,5501]},{"type":"Point","properties":{"Station_ID":"SPCW3","Station_Nam":"SPENCER-WWTP","Latitude":"44.75390","Longitude":"-90.28920","Snowdepth":"6.000","Units":"in","Rept_Date":"2019-12-01 13"},"coordinates":[1631,5304]},{"type":"Point","properties":{"Station_ID":"SHHW3","Station_Nam":"SHAWANO 2SSW","Latitude":"44.76310","Longitude":"-88.61830","Snowdepth":"6.000","Units":"in","Rept_Date":"2019-12-01 14"},"coordinates":[2023,5311]},{"type":"Point","properties":{"Station_ID":"SD-RB-4","Station_Nam":"SISSETON 10.4 ENE, SD","Latitude":"45.69480","Longitude":"-96.83480","Snowdepth":"6.000","Units":"in","Rept_Date":"2019-12-01 13"},"coordinates":[95,5938]},{"type":"Point","properties":{"Station_ID":"SCSM5","Station_Nam":"ST CLOUD STATE","Latitude":"45.55100","Longitude":"-94.14950","Snowdepth":"6.000","Units":"in","Rept_Date":"2019-12-01 12"},"coordinates":[725,5841]},{"type":"Point","properties":{"Station_ID":"SCOM4","Station_Nam":"SCOTTVILLE 2 SE","Latitude":"43.93310","Longitude":"-86.24530","Snowdepth":"6.000","Units":"in","Rept_Date":"2019-12-01 14"},"coordinates":[2580,4752]},{"type":"Point","properties":{"Station_ID":"SBNM5","Station_Nam":"SABIN","Latitude":"46.77690","Longitude":"-96.65610","Snowdepth":"6.000","Units":"in","Rept_Date":"2019-12-01 13"},"coordinates":[137,6666]},{"type":"Point","properties":{"Station_ID":"RRVM4","Station_Nam":"RAPID RIVER 9S","Latitude":"45.78750","Longitude":"-86.93920","Snowdepth":"6.000","Units":"in","Rept_Date":"2019-12-01 13"},"coordinates":[2417,6000]},{"type":"Point","properties":{"Station_ID":"RNBW3","Station_Nam":"WFO GREEN BAY","Latitude":"44.49780","Longitude":"-88.11080","Snowdepth":"6.000","Units":"in","Rept_Date":"2019-12-02 06"},"coordinates":[2142,5132]},{"type":"Point","properties":{"Station_ID":"PRDM4","Station_Nam":"PARADISE","Latitude":"46.60380","Longitude":"-85.03960","Snowdepth":"6.000","Units":"in","Rept_Date":"2019-12-01 12"},"coordinates":[2863,6550]},{"type":"Point","properties":{"Station_ID":"MWN","Station_Nam":"MOUNT WASHINGTON","Latitude":"44.26670","Longitude":"-71.30000","Snowdepth":"6.000","Units":"in","Rept_Date":"2019-12-02 05"},"coordinates":[6088,4976]},{"type":"Point","properties":{"Station_ID":"MN0HS1SL","Station_Nam":"NORTH SAINT PAUL 1.6 NW","Latitude":"45.02800","Longitude":"-93.01506","Snowdepth":"6.000","Units":"in","Rept_Date":"2019-12-01 13"},"coordinates":[991,5489]},{"type":"Point","properties":{"Station_ID":"MN-SR-36","Station_Nam":"SAINT JOSEPH 6.4 N, MN","Latitude":"45.65317","Longitude":"-94.28876","Snowdepth":"6.000","Units":"in","Rept_Date":"2019-12-01 15"},"coordinates":[692,5910]},{"type":"Point","properties":{"Station_ID":"MN-SH-10","Station_Nam":"BIG LAKE 5.6 NNE, MN","Latitude":"45.41409","Longitude":"-93.69190","Snowdepth":"6.000","Units":"in","Rept_Date":"2019-12-01 13"},"coordinates":[832,5749]},{"type":"Point","properties":{"Station_ID":"MN-RM-63","Station_Nam":"NORTH SAINT PAUL 1.0 NW, MN","Latitude":"45.02410","Longitude":"-93.01400","Snowdepth":"6.000","Units":"in","Rept_Date":"2019-12-01 13"},"coordinates":[991,5486]},{"type":"Point","properties":{"Station_ID":"MN-RM-15","Station_Nam":"ROSEVILLE 2.1 NW, MN","Latitude":"45.03502","Longitude":"-93.18620","Snowdepth":"6.000","Units":"in","Rept_Date":"2019-12-01 12"},"coordinates":[951,5494]},{"type":"Point","properties":{"Station_ID":"MN-IT-1","Station_Nam":"GRAND RAPIDS 2.0 E, MN","Latitude":"47.22266","Longitude":"-93.49600","Snowdepth":"6.000","Units":"in","Rept_Date":"2019-12-01 15"},"coordinates":[878,6967]},{"type":"Point","properties":{"Station_ID":"MN-HN-88","Station_Nam":"GOLDEN VALLEY 0.8 WSW, MN","Latitude":"44.98461","Longitude":"-93.37440","Snowdepth":"6.000","Units":"in","Rept_Date":"2019-12-01 13"},"coordinates":[907,5460]},{"type":"Point","properties":{"Station_ID":"MN-HN-78","Station_Nam":"RICHFIELD 1.9 WNW, MN","Latitude":"44.89129","Longitude":"-93.31410","Snowdepth":"6.000","Units":"in","Rept_Date":"2019-12-01 10"},"coordinates":[921,5397]},{"type":"Point","properties":{"Station_ID":"MN-HN-6","Station_Nam":"LONG LAKE 0.2 WSW, MN","Latitude":"44.98290","Longitude":"-93.57360","Snowdepth":"6.000","Units":"in","Rept_Date":"2019-12-01 13"},"coordinates":[860,5459]},{"type":"Point","properties":{"Station_ID":"MN-HN-30","Station_Nam":"PLYMOUTH 2.4 ENE, MN","Latitude":"45.04063","Longitude":"-93.41950","Snowdepth":"6.000","Units":"in","Rept_Date":"2019-12-01 13"},"coordinates":[896,5497]},{"type":"Point","properties":{"Station_ID":"MN-DK-70","Station_Nam":"EAGAN 2.0 NNW, MN","Latitude":"44.84322","Longitude":"-93.17899","Snowdepth":"6.000","Units":"in","Rept_Date":"2019-12-01 20"},"coordinates":[953,5365]},{"type":"Point","properties":{"Station_ID":"MN-CG-16","Station_Nam":"NORTH BRANCH 1.3 NNW, MN","Latitude":"45.53121","Longitude":"-92.97110","Snowdepth":"6.000","Units":"in","Rept_Date":"2019-12-01 12"},"coordinates":[1002,5828]},{"type":"Point","properties":{"Station_ID":"MLRM5","Station_Nam":"MELROSE","Latitude":"45.67710","Longitude":"-94.80200","Snowdepth":"6.000","Units":"in","Rept_Date":"2019-12-01 13"},"coordinates":[572,5926]},{"type":"Point","properties":{"Station_ID":"MIAM5","Station_Nam":"MILAN 1NW","Latitude":"45.12190","Longitude":"-95.92690","Snowdepth":"6.000","Units":"in","Rept_Date":"2019-12-02 00"},"coordinates":[308,5552]},{"type":"Point","properties":{"Station_ID":"MI-BZ-1","Station_Nam":"BENZONIA 5.3 S, MI","Latitude":"44.53976","Longitude":"-86.10650","Snowdepth":"6.000","Units":"in","Rept_Date":"2019-12-01 14"},"coordinates":[2613,5160]},{"type":"Point","properties":{"Station_ID":"KPSM","Station_Nam":"PEASE AIR FORCE BASE / PORTSMOUTH","Latitude":"43.08333","Longitude":"-70.81666","Snowdepth":"6.000","Units":"in","Rept_Date":"2019-12-02 06"},"coordinates":[6201,4180]},{"type":"Point","properties":{"Station_ID":"KMWN","Station_Nam":"MOUNT WASHINGTON","Latitude":"44.26666","Longitude":"-71.30000","Snowdepth":"6.000","Units":"in","Rept_Date":"2019-12-02 06"},"coordinates":[6088,4976]},{"type":"Point","properties":{"Station_ID":"GRB","Station_Nam":"GREEN BAY, WI","Latitude":"44.49860","Longitude":"-88.11170","Snowdepth":"6.000","Units":"in","Rept_Date":"2019-12-02 00"},"coordinates":[2142,5133]},{"type":"Point","properties":{"Station_ID":"GRAM1","Station_Nam":"GRAND LAKE STREAM","Latitude":"45.17760","Longitude":"-67.77420","Snowdepth":"6.000","Units":"in","Rept_Date":"2019-12-01 12"},"coordinates":[6915,5590]},{"type":"Point","properties":{"Station_ID":"FISW3","Station_Nam":"FISH CREEK 1 E WWTP","Latitude":"45.12420","Longitude":"-87.22920","Snowdepth":"6.000","Units":"in","Rept_Date":"2019-12-01 10"},"coordinates":[2349,5554]},{"type":"Point","properties":{"Station_ID":"ESAM4","Station_Nam":"ESCANABA","Latitude":"45.74380","Longitude":"-87.04060","Snowdepth":"6.000","Units":"in","Rept_Date":"2019-12-01 12"},"coordinates":[2393,5971]},{"type":"Point","properties":{"Station_ID":"EGNM5","Station_Nam":"ELGIN 2SSW","Latitude":"44.09700","Longitude":"-92.27010","Snowdepth":"6.000","Units":"in","Rept_Date":"2019-12-01 13"},"coordinates":[1166,4862]},{"type":"Point","properties":{"Station_ID":"COPN6","Station_Nam":"COOPERSTOWN","Latitude":"42.71660","Longitude":"-74.92660","Snowdepth":"6.000","Units":"in","Rept_Date":"2019-12-02 05"},"coordinates":[5236,3933]},{"type":"Point","properties":{"Station_ID":"CAN-PE-26","Station_Nam":"GRAND TRACADIE 2.3 SE, CAN","Latitude":"46.37550","Longitude":"-63.03530","Snowdepth":"6.000","Units":"in","Rept_Date":"2019-12-01 11"},"coordinates":[8027,6396]},{"type":"Point","properties":{"Station_ID":"BVUW3","Station_Nam":"GREEN BAY-EAST","Latitude":"44.49290","Longitude":"-87.92560","Snowdepth":"6.000","Units":"in","Rept_Date":"2019-12-02 00"},"coordinates":[2186,5129]},{"type":"Point","properties":{"Station_ID":"BMRW3","Station_Nam":"BLOOMER","Latitude":"45.09070","Longitude":"-91.48640","Snowdepth":"6.000","Units":"in","Rept_Date":"2019-12-01 14"},"coordinates":[1350,5531]},{"type":"Point","properties":{"Station_ID":"BKEM5","Station_Nam":"BRECKENRIDGE 4NE","Latitude":"46.30470","Longitude":"-96.52170","Snowdepth":"6.000","Units":"in","Rept_Date":"2019-12-01 13"},"coordinates":[168,6349]},{"type":"Point","properties":{"Station_ID":"ANDM1","Station_Nam":"ANDOVER 2","Latitude":"44.65300","Longitude":"-70.79410","Snowdepth":"6.000","Units":"in","Rept_Date":"2019-12-01 10"},"coordinates":[6206,5237]},{"type":"Point","properties":{"Station_ID":"ALPM4","Station_Nam":"SNOW PAID OBSERVER FOR KAPN","Latitude":"45.03110","Longitude":"-83.55970","Snowdepth":"6.000","Units":"in","Rept_Date":"2019-12-02 06"},"coordinates":[3210,5491]},{"type":"Point","properties":{"Station_ID":"MN-WC-8","Station_Nam":"WASECA 2.0 N, MN","Latitude":"44.11194","Longitude":"-93.49972","Snowdepth":"5.900","Units":"in","Rept_Date":"2019-12-01 13"},"coordinates":[877,4872]},{"type":"Point","properties":{"Station_ID":"CAN-PE-1","Station_Nam":"STRATFORD 2.3 NNE, CAN","Latitude":"46.23576","Longitude":"-63.08208","Snowdepth":"5.900","Units":"in","Rept_Date":"2019-12-01 11"},"coordinates":[8016,6302]},{"type":"Point","properties":{"Station_ID":"KABQ6","Station_Nam":"CAB LAKE","Latitude":"49.59950","Longitude":"-89.17990","Snowdepth":"5.830","Units":"in","Rept_Date":"2019-12-02 06"},"coordinates":[1891,8567]},{"type":"Point","properties":{"Station_ID":"ME-FR-22","Station_Nam":"FARMINGTON 4.8 NNW, ME","Latitude":"44.73396","Longitude":"-70.18007","Snowdepth":"5.800","Units":"in","Rept_Date":"2019-12-01 14"},"coordinates":[6350,5291]},{"type":"Point","properties":{"Station_ID":"MN-HN-14","Station_Nam":"MINNETRISTA 1.5 SSE, MN","Latitude":"44.91447","Longitude":"-93.69920","Snowdepth":"5.700","Units":"in","Rept_Date":"2019-12-01 13"},"coordinates":[831,5413]},{"type":"Point","properties":{"Station_ID":"QWG","Station_Nam":"QWG","Latitude":"48.48890","Longitude":"-73.45940","Snowdepth":"5.630","Units":"in","Rept_Date":"2019-12-01 12"},"coordinates":[5581,7819]},{"type":"Point","properties":{"Station_ID":"WI-WN-9","Station_Nam":"NEENAH 1.1 ENE, WI","Latitude":"44.17370","Longitude":"-88.45130","Snowdepth":"5.500","Units":"in","Rept_Date":"2019-12-01 13"},"coordinates":[2062,4914]},{"type":"Point","properties":{"Station_ID":"WI-OG-18","Station_Nam":"NEW LONDON 4.1 N, WI","Latitude":"44.45298","Longitude":"-88.72876","Snowdepth":"5.500","Units":"in","Rept_Date":"2019-12-01 12"},"coordinates":[1997,5102]},{"type":"Point","properties":{"Station_ID":"MN-HN-19","Station_Nam":"EDINA 1.3 SW, MN","Latitude":"44.87830","Longitude":"-93.37890","Snowdepth":"5.500","Units":"in","Rept_Date":"2019-12-01 15"},"coordinates":[906,5388]},{"type":"Point","properties":{"Station_ID":"CATQ6","Station_Nam":"CAT LAKE","Latitude":"51.72690","Longitude":"-91.82210","Snowdepth":"5.470","Units":"in","Rept_Date":"2019-12-02 06"},"coordinates":[1271,9999]},{"type":"Point","properties":{"Station_ID":"WI-BN-6","Station_Nam":"SUAMICO 4.4 WNW, WI","Latitude":"44.66111","Longitude":"-88.11780","Snowdepth":"5.400","Units":"in","Rept_Date":"2019-12-01 13"},"coordinates":[2141,5242]},{"type":"Point","properties":{"Station_ID":"SOCQ6","Station_Nam":"SOCKET LAKE","Latitude":"50.77870","Longitude":"-91.79300","Snowdepth":"5.200","Units":"in","Rept_Date":"2019-12-02 06"},"coordinates":[1278,9361]},{"type":"Point","properties":{"Station_ID":"CAN-QC-47","Station_Nam":"SAINTE-FOY 1.8 ENE, CAN","Latitude":"46.76934","Longitude":"-71.27124","Snowdepth":"5.100","Units":"in","Rept_Date":"2019-12-01 12"},"coordinates":[6094,6661]},{"type":"Point","properties":{"Station_ID":"WNNM5","Station_Nam":"WINNEBAGO","Latitude":"43.76920","Longitude":"-94.18730","Snowdepth":"5.000","Units":"in","Rept_Date":"2019-12-01 13"},"coordinates":[716,4642]},{"type":"Point","properties":{"Station_ID":"WI-SC-44","Station_Nam":"NEW RICHMOND 4.4 SW, WI","Latitude":"45.08201","Longitude":"-92.60651","Snowdepth":"5.000","Units":"in","Rept_Date":"2019-12-01 14"},"coordinates":[1087,5525]},{"type":"Point","properties":{"Station_ID":"WI-PC-5","Station_Nam":"RIVER FALLS 1.2 SSW, WI","Latitude":"44.84032","Longitude":"-92.63500","Snowdepth":"5.000","Units":"in","Rept_Date":"2019-12-01 13"},"coordinates":[1080,5363]},{"type":"Point","properties":{"Station_ID":"WI-OG-12","Station_Nam":"KAUKAUNA 1.5 SW, WI","Latitude":"44.26062","Longitude":"-88.28590","Snowdepth":"5.000","Units":"in","Rept_Date":"2019-12-01 12"},"coordinates":[2101,4972]},{"type":"Point","properties":{"Station_ID":"WI-DR-6","Station_Nam":"SISTER BAY 1.3 NNE, WI","Latitude":"45.20296","Longitude":"-87.11326","Snowdepth":"5.000","Units":"in","Rept_Date":"2019-12-01 13"},"coordinates":[2376,5607]},{"type":"Point","properties":{"Station_ID":"WI-DR-5","Station_Nam":"ELLISON BAY 2.2 E, WI","Latitude":"45.25750","Longitude":"-87.02670","Snowdepth":"5.000","Units":"in","Rept_Date":"2019-12-01 13"},"coordinates":[2397,5643]},{"type":"Point","properties":{"Station_ID":"WHTM5","Station_Nam":"WHEATON,MN","Latitude":"45.80000","Longitude":"-96.48330","Snowdepth":"5.000","Units":"in","Rept_Date":"2019-12-01 14"},"coordinates":[177,6009]},{"type":"Point","properties":{"Station_ID":"WELM5","Station_Nam":"WELLS","Latitude":"43.74680","Longitude":"-93.73680","Snowdepth":"5.000","Units":"in","Rept_Date":"2019-12-01 13"},"coordinates":[822,4626]},{"type":"Point","properties":{"Station_ID":"WELM4","Station_Nam":"WELLSTON TIPPY DAM","Latitude":"44.25860","Longitude":"-85.93940","Snowdepth":"5.000","Units":"in","Rept_Date":"2019-12-01 13"},"coordinates":[2652,4971]},{"type":"Point","properties":{"Station_ID":"WBRM4","Station_Nam":"WEST BRANCH 3SE","Latitude":"44.25410","Longitude":"-84.20110","Snowdepth":"5.000","Units":"in","Rept_Date":"2019-12-01 13"},"coordinates":[3060,4968]},{"type":"Point","properties":{"Station_ID":"WASW3","Station_Nam":"WASHINGTON IS","Latitude":"45.35800","Longitude":"-86.89110","Snowdepth":"5.000","Units":"in","Rept_Date":"2019-12-01 14"},"coordinates":[2428,5711]},{"type":"Point","properties":{"Station_ID":"WACM5","Station_Nam":"WACONIA","Latitude":"44.85330","Longitude":"-93.80260","Snowdepth":"5.000","Units":"in","Rept_Date":"2019-12-01 12"},"coordinates":[806,5371]},{"type":"Point","properties":{"Station_ID":"VT-OL-12","Station_Nam":"GREENSBORO 3.9 NNE, VT","Latitude":"44.63100","Longitude":"-72.28000","Snowdepth":"5.000","Units":"in","Rept_Date":"2019-12-01 11"},"coordinates":[5858,5222]},{"type":"Point","properties":{"Station_ID":"VT-CL-3","Station_Nam":"GROTON 4.4 WSW, VT","Latitude":"44.19440","Longitude":"-72.28240","Snowdepth":"5.000","Units":"in","Rept_Date":"2019-12-01 11"},"coordinates":[5857,4928]},{"type":"Point","properties":{"Station_ID":"SSMM4","Station_Nam":"SAULT STE MARIE","Latitude":"46.48660","Longitude":"-84.40250","Snowdepth":"5.000","Units":"in","Rept_Date":"2019-12-01 13"},"coordinates":[3013,6471]},{"type":"Point","properties":{"Station_ID":"SANI4","Station_Nam":"ST ANSGAR","Latitude":"43.38170","Longitude":"-92.92320","Snowdepth":"5.000","Units":"in","Rept_Date":"2019-12-01 12"},"coordinates":[1013,4381]},{"type":"Point","properties":{"Station_ID":"RFDM5","Station_Nam":"ROCKFORD","Latitude":"45.08960","Longitude":"-93.73990","Snowdepth":"5.000","Units":"in","Rept_Date":"2019-12-01 13"},"coordinates":[821,5530]},{"type":"Point","properties":{"Station_ID":"PULW3","Station_Nam":"PULASKI WWTP","Latitude":"44.67830","Longitude":"-88.22750","Snowdepth":"5.000","Units":"in","Rept_Date":"2019-12-01 12"},"coordinates":[2115,5254]},{"type":"Point","properties":{"Station_ID":"OWAM5","Station_Nam":"OWATONNA","Latitude":"44.09760","Longitude":"-93.23180","Snowdepth":"5.000","Units":"in","Rept_Date":"2019-12-01 12"},"coordinates":[940,4863]},{"type":"Point","properties":{"Station_ID":"ONAM4","Station_Nam":"ONAWAY 4N","Latitude":"45.41080","Longitude":"-84.22330","Snowdepth":"5.000","Units":"in","Rept_Date":"2019-12-01 23"},"coordinates":[3055,5747]},{"type":"Point","properties":{"Station_ID":"MNE9SLWI","Station_Nam":"LEAVENWORTH 5.4 S","Latitude":"44.14481","Longitude":"-94.78882","Snowdepth":"5.000","Units":"in","Rept_Date":"2019-12-01 13"},"coordinates":[575,4894]},{"type":"Point","properties":{"Station_ID":"MN-WG-33","Station_Nam":"COTTAGE GROVE 1.6 NNW, MN","Latitude":"44.83821","Longitude":"-92.93590","Snowdepth":"5.000","Units":"in","Rept_Date":"2019-12-01 13"},"coordinates":[1010,5361]},{"type":"Point","properties":{"Station_ID":"MN-WC-5","Station_Nam":"WASECA 0.9 NNE, MN","Latitude":"44.09451","Longitude":"-93.49289","Snowdepth":"5.000","Units":"in","Rept_Date":"2019-12-01 13"},"coordinates":[879,4861]},{"type":"Point","properties":{"Station_ID":"MN-SC-33","Station_Nam":"SHAKOPEE 2.6 W, MN","Latitude":"44.78173","Longitude":"-93.52868","Snowdepth":"5.000","Units":"in","Rept_Date":"2019-12-01 14"},"coordinates":[871,5323]},{"type":"Point","properties":{"Station_ID":"MN-RM-54","Station_Nam":"SAINT PAUL 5.1 SW, MN","Latitude":"44.90390","Longitude":"-93.18820","Snowdepth":"5.000","Units":"in","Rept_Date":"2019-12-01 13"},"coordinates":[951,5405]},{"type":"Point","properties":{"Station_ID":"MN-RC-11","Station_Nam":"NEW PRAGUE 4.8 ESE, MN","Latitude":"44.51999","Longitude":"-93.48470","Snowdepth":"5.000","Units":"in","Rept_Date":"2019-12-01 11"},"coordinates":[881,5147]},{"type":"Point","properties":{"Station_ID":"MN-OL-18","Station_Nam":"ROCHESTER 2.6 NE, MN","Latitude":"44.03975","Longitude":"-92.43750","Snowdepth":"5.000","Units":"in","Rept_Date":"2019-12-01 12"},"coordinates":[1127,4824]},{"type":"Point","properties":{"Station_ID":"MN-IT-20","Station_Nam":"COLERAINE 1.5 S, MN","Latitude":"47.27686","Longitude":"-93.42335","Snowdepth":"5.000","Units":"in","Rept_Date":"2019-12-01 13"},"coordinates":[895,7003]},{"type":"Point","properties":{"Station_ID":"MN-HS-4","Station_Nam":"CALEDONIA 5.4 S, MN","Latitude":"43.55696","Longitude":"-91.51300","Snowdepth":"5.000","Units":"in","Rept_Date":"2019-12-01 14"},"coordinates":[1344,4499]},{"type":"Point","properties":{"Station_ID":"MN-CK-18","Station_Nam":"GRAND MARAIS 4.4 WSW, MN","Latitude":"47.74462","Longitude":"-90.43796","Snowdepth":"5.000","Units":"in","Rept_Date":"2019-12-01 13"},"coordinates":[1596,7318]},{"type":"Point","properties":{"Station_ID":"MMLM5","Station_Nam":"DIVERSION","Latitude":"44.47060","Longitude":"-95.80000","Snowdepth":"5.000","Units":"in","Rept_Date":"2019-12-01 14"},"coordinates":[338,5114]},{"type":"Point","properties":{"Station_ID":"MAPM4","Station_Nam":"MAPLE CITY 1E","Latitude":"44.85500","Longitude":"-85.83520","Snowdepth":"5.000","Units":"in","Rept_Date":"2019-12-01 22"},"coordinates":[2676,5373]},{"type":"Point","properties":{"Station_ID":"JORM5","Station_Nam":"JORDAN 1SSW","Latitude":"44.65010","Longitude":"-93.63560","Snowdepth":"5.000","Units":"in","Rept_Date":"2019-12-01 11"},"coordinates":[846,5235]},{"type":"Point","properties":{"Station_ID":"JEFN3","Station_Nam":"JEFFERSON","Latitude":"44.41690","Longitude":"-71.50080","Snowdepth":"5.000","Units":"in","Rept_Date":"2019-12-01 12"},"coordinates":[6040,5078]},{"type":"Point","properties":{"Station_ID":"ETTW3","Station_Nam":"ETTRICK 4WNW","Latitude":"44.19000","Longitude":"-91.34240","Snowdepth":"5.000","Units":"in","Rept_Date":"2019-12-01 14"},"coordinates":[1384,4925]},{"type":"Point","properties":{"Station_ID":"EGRM4","Station_Nam":"EAST GRAND RAPIDS","Latitude":"42.93780","Longitude":"-85.61310","Snowdepth":"5.000","Units":"in","Rept_Date":"2019-12-01 12"},"coordinates":[2728,4082]},{"type":"Point","properties":{"Station_ID":"DRYW3","Station_Nam":"APPLETON-4 SE DARBOY","Latitude":"44.24970","Longitude":"-88.32780","Snowdepth":"5.000","Units":"in","Rept_Date":"2019-12-01 13"},"coordinates":[2091,4965]},{"type":"Point","properties":{"Station_ID":"DENW3","Station_Nam":"DENMARK WWTP","Latitude":"44.35130","Longitude":"-87.81190","Snowdepth":"5.000","Units":"in","Rept_Date":"2019-12-01 14"},"coordinates":[2212,5033]},{"type":"Point","properties":{"Station_ID":"CORM1","Station_Nam":"CORINNA","Latitude":"44.91980","Longitude":"-69.24180","Snowdepth":"5.000","Units":"in","Rept_Date":"2019-12-01 16"},"coordinates":[6571,5416]},{"type":"Point","properties":{"Station_ID":"CHES2","Station_Nam":"CHESTER 2N","Latitude":"43.92830","Longitude":"-96.93160","Snowdepth":"5.000","Units":"in","Rept_Date":"2019-12-01 13"},"coordinates":[72,4749]},{"type":"Point","properties":{"Station_ID":"CAN-NB-18","Station_Nam":"MCLEOD HILL 1.1 ENE, CA","Latitude":"46.02725","Longitude":"-66.67460","Snowdepth":"5.000","Units":"in","Rept_Date":"2019-12-01 12"},"coordinates":[7173,6162]},{"type":"Point","properties":{"Station_ID":"BRLW3","Station_Nam":"BRILLION,WI","Latitude":"44.18330","Longitude":"-88.06670","Snowdepth":"5.000","Units":"in","Rept_Date":"2019-12-01 21"},"coordinates":[2153,4920]},{"type":"Point","properties":{"Station_ID":"BEUM4","Station_Nam":"BEULAH 7SSW","Latitude":"44.53160","Longitude":"-86.13110","Snowdepth":"5.000","Units":"in","Rept_Date":"2019-12-01 13"},"coordinates":[2607,5155]},{"type":"Point","properties":{"Station_ID":"APN","Station_Nam":"PHELPS COLLINS FIELD","Latitude":"45.07810","Longitude":"-83.56030","Snowdepth":"5.000","Units":"in","Rept_Date":"2019-12-02 00"},"coordinates":[3210,5523]},{"type":"Point","properties":{"Station_ID":"APLW3","Station_Nam":"APPLETON WHBY RADIO","Latitude":"44.25110","Longitude":"-88.36440","Snowdepth":"5.000","Units":"in","Rept_Date":"2019-12-01 14"},"coordinates":[2083,4966]},{"type":"Point","properties":{"Station_ID":"ANJ","Station_Nam":"SAULT STE MARIE","Latitude":"46.46670","Longitude":"-84.36670","Snowdepth":"5.000","Units":"in","Rept_Date":"2019-12-02 00"},"coordinates":[3021,6458]},{"type":"Point","properties":{"Station_ID":"MI-KN-65","Station_Nam":"BELMONT 1.0 WNW, MI","Latitude":"43.07895","Longitude":"-85.62820","Snowdepth":"4.800","Units":"in","Rept_Date":"2019-12-01 12"},"coordinates":[2725,4177]},{"type":"Point","properties":{"Station_ID":"MI-MM-8","Station_Nam":"MENOMINEE 4.1 NW, MI","Latitude":"45.16128","Longitude":"-87.68621","Snowdepth":"4.700","Units":"in","Rept_Date":"2019-12-01 14"},"coordinates":[2242,5579]},{"type":"Point","properties":{"Station_ID":"WI-BN-22","Station_Nam":"WRIGHTSTOWN 0.4 ENE, WI","Latitude":"44.32735","Longitude":"-88.16669","Snowdepth":"4.500","Units":"in","Rept_Date":"2019-12-01 14"},"coordinates":[2129,5017]},{"type":"Point","properties":{"Station_ID":"MN-GH-28","Station_Nam":"CANNON FALLS 0.5 SE, MN","Latitude":"44.50866","Longitude":"-92.89526","Snowdepth":"4.500","Units":"in","Rept_Date":"2019-12-01 14"},"coordinates":[1019,5139]},{"type":"Point","properties":{"Station_ID":"MN-CK-6","Station_Nam":"GRAND MARAIS 4.4 W, MN","Latitude":"47.74865","Longitude":"-90.43760","Snowdepth":"4.500","Units":"in","Rept_Date":"2019-12-01 13"},"coordinates":[1596,7321]},{"type":"Point","properties":{"Station_ID":"MN-BW-8","Station_Nam":"COMFREY 6.5 ENE, MN","Latitude":"44.15109","Longitude":"-94.78516","Snowdepth":"4.500","Units":"in","Rept_Date":"2019-12-01 13"},"coordinates":[576,4899]},{"type":"Point","properties":{"Station_ID":"ME-PN-30","Station_Nam":"OLD TOWN 4.1 ESE, ME","Latitude":"44.93543","Longitude":"-68.65840","Snowdepth":"4.500","Units":"in","Rept_Date":"2019-12-01 13"},"coordinates":[6708,5427]},{"type":"Point","properties":{"Station_ID":"CAN-PE-47","Station_Nam":"LONG CREEK 0.3 NNW, CAN","Latitude":"46.17420","Longitude":"-63.27320","Snowdepth":"4.500","Units":"in","Rept_Date":"2019-12-01 12"},"coordinates":[7971,6261]},{"type":"Point","properties":{"Station_ID":"CAN-NL-82","Station_Nam":"GANDER 2.7 NW, CAN","Latitude":"48.97737","Longitude":"-54.63396","Snowdepth":"4.500","Units":"in","Rept_Date":"2019-12-01 10"},"coordinates":[9999,8148]},{"type":"Point","properties":{"Station_ID":"ZITW3","Station_Nam":"FREMONT","Latitude":"44.22200","Longitude":"-88.78300","Snowdepth":"4.000","Units":"in","Rept_Date":"2019-12-01 12"},"coordinates":[1984,4946]},{"type":"Point","properties":{"Station_ID":"WRNM5","Station_Nam":"WORTHINGTON,MN","Latitude":"43.65440","Longitude":"-95.57920","Snowdepth":"4.000","Units":"in","Rept_Date":"2019-12-01 13"},"coordinates":[389,4564]},{"type":"Point","properties":{"Station_ID":"WI-PK-4","Station_Nam":"DRESSER 6.1 ESE, WI","Latitude":"45.32436","Longitude":"-92.52080","Snowdepth":"4.000","Units":"in","Rept_Date":"2019-12-01 14"},"coordinates":[1107,5689]},{"type":"Point","properties":{"Station_ID":"WI-PC-10","Station_Nam":"RIVER FALLS 1.4 S, WI","Latitude":"44.83580","Longitude":"-92.62100","Snowdepth":"4.000","Units":"in","Rept_Date":"2019-12-01 13"},"coordinates":[1084,5360]},{"type":"Point","properties":{"Station_ID":"WABM5","Station_Nam":"WABASHA","Latitude":"44.38500","Longitude":"-92.04860","Snowdepth":"4.000","Units":"in","Rept_Date":"2019-12-01 13"},"coordinates":[1218,5056]},{"type":"Point","properties":{"Station_ID":"VADM5","Station_Nam":"VADNAIS LAKE","Latitude":"45.04820","Longitude":"-93.09590","Snowdepth":"4.000","Units":"in","Rept_Date":"2019-12-01 20"},"coordinates":[972,5503]},{"type":"Point","properties":{"Station_ID":"THLM5","Station_Nam":"THEILMAN 1SSW","Latitude":"44.28130","Longitude":"-92.19430","Snowdepth":"4.000","Units":"in","Rept_Date":"2019-12-01 13"},"coordinates":[1184,4986]},{"type":"Point","properties":{"Station_ID":"STPW3","Station_Nam":"STEVENS POINT","Latitude":"44.51130","Longitude":"-89.58550","Snowdepth":"4.000","Units":"in","Rept_Date":"2019-12-01 12"},"coordinates":[1796,5141]},{"type":"Point","properties":{"Station_ID":"SHDI4","Station_Nam":"SHELDON,IA","Latitude":"43.18080","Longitude":"-95.85280","Snowdepth":"4.000","Units":"in","Rept_Date":"2019-12-01 13"},"coordinates":[325,4245]},{"type":"Point","properties":{"Station_ID":"SD-MH-8","Station_Nam":"HARTFORD 6.4 S, SD","Latitude":"43.53128","Longitude":"-96.95020","Snowdepth":"4.000","Units":"in","Rept_Date":"2019-12-01 14"},"coordinates":[68,4481]},{"type":"Point","properties":{"Station_ID":"SD-MH-1","Station_Nam":"SIOUX FALLS 5.0 SE ARPT, SD","Latitude":"43.52360","Longitude":"-96.66780","Snowdepth":"4.000","Units":"in","Rept_Date":"2019-12-01 13"},"coordinates":[134,4476]},{"type":"Point","properties":{"Station_ID":"SD-BK-2","Station_Nam":"ASTORIA 2.2 SSE, SD","Latitude":"44.53093","Longitude":"-96.52270","Snowdepth":"4.000","Units":"in","Rept_Date":"2019-12-01 13"},"coordinates":[168,5154]},{"type":"Point","properties":{"Station_ID":"RST","Station_Nam":"ROCHESTER INTERNATIONAL ARPT","Latitude":"43.90890","Longitude":"-92.49780","Snowdepth":"4.000","Units":"in","Rept_Date":"2019-12-02 00"},"coordinates":[1113,4736]},{"type":"Point","properties":{"Station_ID":"RSRM5","Station_Nam":"ROCHESTER AP 2NE","Latitude":"43.92810","Longitude":"-92.47580","Snowdepth":"4.000","Units":"in","Rept_Date":"2019-12-02 06"},"coordinates":[1118,4748]},{"type":"Point","properties":{"Station_ID":"REWM5","Station_Nam":"REDWOOD FALLS","Latitude":"44.54850","Longitude":"-95.09980","Snowdepth":"4.000","Units":"in","Rept_Date":"2019-12-01 13"},"coordinates":[502,5166]},{"type":"Point","properties":{"Station_ID":"PTBN3","Station_Nam":"DAM WITHIN","Latitude":"45.05000","Longitude":"-71.38330","Snowdepth":"4.000","Units":"in","Rept_Date":"2019-12-01 12"},"coordinates":[6068,5504]},{"type":"Point","properties":{"Station_ID":"PLOW3","Station_Nam":"PLOVER","Latitude":"44.44280","Longitude":"-89.54530","Snowdepth":"4.000","Units":"in","Rept_Date":"2019-12-01 13"},"coordinates":[1806,5095]},{"type":"Point","properties":{"Station_ID":"PELW3","Station_Nam":"PELLA 3SE","Latitude":"44.73580","Longitude":"-88.73780","Snowdepth":"4.000","Units":"in","Rept_Date":"2019-12-01 11"},"coordinates":[1995,5292]},{"type":"Point","properties":{"Station_ID":"NWSM1","Station_Nam":"NEW SHARON","Latitude":"44.63520","Longitude":"-70.00020","Snowdepth":"4.000","Units":"in","Rept_Date":"2019-12-01 12"},"coordinates":[6393,5225]},{"type":"Point","properties":{"Station_ID":"NAZW3","Station_Nam":"ST. NAZIANZ-2 W","Latitude":"44.00420","Longitude":"-87.96360","Snowdepth":"4.000","Units":"in","Rept_Date":"2019-12-01 13"},"coordinates":[2177,4800]},{"type":"Point","properties":{"Station_ID":"MRIW3","Station_Nam":"MARINETTE","Latitude":"45.09830","Longitude":"-87.62360","Snowdepth":"4.000","Units":"in","Rept_Date":"2019-12-01 13"},"coordinates":[2257,5536]},{"type":"Point","properties":{"Station_ID":"MN-SE-2","Station_Nam":"OWATONNA 0.8 E, MN","Latitude":"44.09170","Longitude":"-93.21380","Snowdepth":"4.000","Units":"in","Rept_Date":"2019-12-01 13"},"coordinates":[945,4859]},{"type":"Point","properties":{"Station_ID":"MN-MT-6","Station_Nam":"FAIRMONT 0.7 E, MN","Latitude":"43.64501","Longitude":"-94.44860","Snowdepth":"4.000","Units":"in","Rept_Date":"2019-12-01 13"},"coordinates":[655,4558]},{"type":"Point","properties":{"Station_ID":"MN-MK-11","Station_Nam":"DASSEL 0.4 S, MN","Latitude":"45.07765","Longitude":"-94.31567","Snowdepth":"4.000","Units":"in","Rept_Date":"2019-12-01 13"},"coordinates":[686,5522]},{"type":"Point","properties":{"Station_ID":"MN-HN-110","Station_Nam":"EDINA 1.9 SSE, MN","Latitude":"44.86875","Longitude":"-93.33940","Snowdepth":"4.000","Units":"in","Rept_Date":"2019-12-01 13"},"coordinates":[915,5382]},{"type":"Point","properties":{"Station_ID":"MN-GH-4","Station_Nam":"NERSTRAND 4.2 E, MN","Latitude":"44.34247","Longitude":"-92.97920","Snowdepth":"4.000","Units":"in","Rept_Date":"2019-12-01 13"},"coordinates":[1000,5027]},{"type":"Point","properties":{"Station_ID":"MN-FM-10","Station_Nam":"WYKOFF 3.1 NW, MN","Latitude":"43.74340","Longitude":"-92.30650","Snowdepth":"4.000","Units":"in","Rept_Date":"2019-12-01 13"},"coordinates":[1158,4624]},{"type":"Point","properties":{"Station_ID":"MI-KN-16","Station_Nam":"GRAND RAPIDS 2.5 ENE, MI","Latitude":"42.96970","Longitude":"-85.60750","Snowdepth":"4.000","Units":"in","Rept_Date":"2019-12-01 13"},"coordinates":[2730,4103]},{"type":"Point","properties":{"Station_ID":"MI-AR-2","Station_Nam":"ALGER 2.4 ENE, MI","Latitude":"44.13373","Longitude":"-84.07430","Snowdepth":"4.000","Units":"in","Rept_Date":"2019-12-01 19"},"coordinates":[3090,4887]},