{"type":"Topology","objects":{"snowdepth_geo":{"type":"GeometryCollection","name":"snowdepth","crs":{"type":"name","properties":{"name":"urn:ogc:def:crs:OGC:1.3:CRS84"}},"geometries":[{"type":"Point","properties":{"Station_ID":"PRKM4","Station_Nam":"MUNISING EAST","Latitude":"46.42580","Longitude":"-86.62000","Snowdepth":"76.500","Units":"in","Rept_Date":"2021-01-23 06"},"coordinates":[2385,6710]},{"type":"Point","properties":{"Station_ID":"RDFN6","Station_Nam":"REDFIELD 8N","Latitude":"43.64130","Longitude":"-75.88400","Snowdepth":"40.000","Units":"in","Rept_Date":"2021-01-22 12"},"coordinates":[4797,4982]},{"type":"Point","properties":{"Station_ID":"HGHN6","Station_Nam":"HIGHMARKET","Latitude":"43.60510","Longitude":"-75.55430","Snowdepth":"39.000","Units":"in","Rept_Date":"2021-01-22 11"},"coordinates":[4871,4960]},{"type":"Point","properties":{"Station_ID":"HTLN3","Station_Nam":"HERMIT LAKE SNOWPLOT","Latitude":"44.26130","Longitude":"-71.28330","Snowdepth":"37.000","Units":"in","Rept_Date":"2021-01-22 10"},"coordinates":[5831,5367]},{"type":"Point","properties":{"Station_ID":"MMNV1","Station_Nam":"MT. MANSFIELD","Latitude":"44.52480","Longitude":"-72.81540","Snowdepth":"36.000","Units":"in","Rept_Date":"2021-01-22 21"},"coordinates":[5487,5531]},{"type":"Point","properties":{"Station_ID":"HLSN3","Station_Nam":"HERMIT LAKE SNOTEL","Latitude":"44.26130","Longitude":"-71.28320","Snowdepth":"34.570","Units":"in","Rept_Date":"2021-01-23 06"},"coordinates":[5831,5367]},{"type":"Point","properties":{"Station_ID":"PDLM4","Station_Nam":"PAINESDALE","Latitude":"47.04160","Longitude":"-88.67170","Snowdepth":"30.000","Units":"in","Rept_Date":"2021-01-22 13"},"coordinates":[1925,7092]},{"type":"Point","properties":{"Station_ID":"NY-HM-9","Station_Nam":"HOFFMEISTER 2.0 E, NY","Latitude":"43.38695","Longitude":"-74.67723","Snowdepth":"28.000","Units":"in","Rept_Date":"2021-01-22 13"},"coordinates":[5068,4825]},{"type":"Point","properties":{"Station_ID":"VT-WR-17","Station_Nam":"ROCHESTER 2.3 NE, VT","Latitude":"43.89418","Longitude":"-72.76992","Snowdepth":"27.500","Units":"in","Rept_Date":"2021-01-22 12"},"coordinates":[5497,5139]},{"type":"Point","properties":{"Station_ID":"OCON6","Station_Nam":"OSCEOLA","Latitude":"43.50370","Longitude":"-75.72170","Snowdepth":"27.000","Units":"in","Rept_Date":"2021-01-22 13"},"coordinates":[4834,4897]},{"type":"Point","properties":{"Station_ID":"LBKV1","Station_Nam":"LYE BROOK","Latitude":"43.05000","Longitude":"-73.03330","Snowdepth":"26.000","Units":"in","Rept_Date":"2021-01-23 06"},"coordinates":[5438,4616]},{"type":"Point","properties":{"Station_ID":"CLUM4","Station_Nam":"CALUMET-TAMARACK","Latitude":"47.24550","Longitude":"-88.46790","Snowdepth":"26.000","Units":"in","Rept_Date":"2021-01-22 14"},"coordinates":[1970,7219]},{"type":"Point","properties":{"Station_ID":"VT-BN-12","Station_Nam":"STAMFORD 5.0 NNE, VT","Latitude":"42.82000","Longitude":"-73.02000","Snowdepth":"25.000","Units":"in","Rept_Date":"2021-01-22 21"},"coordinates":[5441,4473]},{"type":"Point","properties":{"Station_ID":"NY-ER-65","Station_Nam":"BOSTON 1.5 NE, NY","Latitude":"42.65470","Longitude":"-78.72010","Snowdepth":"25.000","Units":"in","Rept_Date":"2021-01-22 12"},"coordinates":[4160,4370]},{"type":"Point","properties":{"Station_ID":"MI-KW-2","Station_Nam":"DELAWARE 5.2 SW, MI","Latitude":"47.36928","Longitude":"-88.17919","Snowdepth":"25.000","Units":"in","Rept_Date":"2021-01-22 09"},"coordinates":[2035,7295]},{"type":"Point","properties":{"Station_ID":"TRIQ6","Station_Nam":"TRIO LAKE","Latitude":"49.22880","Longitude":"-87.22920","Snowdepth":"24.170","Units":"in","Rept_Date":"2021-01-23 06"},"coordinates":[2249,8449]},{"type":"Point","properties":{"Station_ID":"PERV1","Station_Nam":"PERU","Latitude":"43.26670","Longitude":"-72.90000","Snowdepth":"24.000","Units":"in","Rept_Date":"2021-01-22 12"},"coordinates":[5468,4750]},{"type":"Point","properties":{"Station_ID":"VT-OG-10","Station_Nam":"BRAINTREE 2.8 SW, VT","Latitude":"43.93570","Longitude":"-72.74830","Snowdepth":"23.500","Units":"in","Rept_Date":"2021-01-22 10"},"coordinates":[5502,5165]},{"type":"Point","properties":{"Station_ID":"NH-CS-10","Station_Nam":"RANDOLPH 1.4 NE, NH","Latitude":"44.38824","Longitude":"-71.26950","Snowdepth":"23.500","Units":"in","Rept_Date":"2021-01-22 12"},"coordinates":[5834,5446]},{"type":"Point","properties":{"Station_ID":"PTLQ6","Station_Nam":"PORTAGE LAKE","Latitude":"49.06950","Longitude":"-86.65940","Snowdepth":"23.460","Units":"in","Rept_Date":"2021-01-23 06"},"coordinates":[2377,8350]},{"type":"Point","properties":{"Station_ID":"QGO","Station_Nam":"QGO","Latitude":"48.85500","Longitude":"-74.20640","Snowdepth":"23.071","Units":"in","Rept_Date":"2021-01-22 12"},"coordinates":[5174,8217]},{"type":"Point","properties":{"Station_ID":"AUDQ6","Station_Nam":"AUDEN","Latitude":"48.52600","Longitude":"-82.57570","Snowdepth":"22.240","Units":"in","Rept_Date":"2021-01-23 06"},"coordinates":[3294,8013]},{"type":"Point","properties":{"Station_ID":"DVLQ6","Station_Nam":"DEVIOUS LAKE","Latitude":"49.19890","Longitude":"-87.76440","Snowdepth":"22.200","Units":"in","Rept_Date":"2021-01-23 06"},"coordinates":[2128,8431]},{"type":"Point","properties":{"Station_ID":"SGVN6","Station_Nam":"SPRINGVILLE","Latitude":"42.54970","Longitude":"-78.57670","Snowdepth":"22.000","Units":"in","Rept_Date":"2021-01-22 23"},"coordinates":[4192,4305]},{"type":"Point","properties":{"Station_ID":"NY-ER-166","Station_Nam":"BOSTON 2.5 NE, NY","Latitude":"42.65480","Longitude":"-78.70300","Snowdepth":"22.000","Units":"in","Rept_Date":"2021-01-22 12"},"coordinates":[4164,4370]},{"type":"Point","properties":{"Station_ID":"KMWN","Station_Nam":"MOUNT WASHINGTON","Latitude":"44.26666","Longitude":"-71.30000","Snowdepth":"22.000","Units":"in","Rept_Date":"2021-01-23 06"},"coordinates":[5827,5370]},{"type":"Point","properties":{"Station_ID":"QLB","Station_Nam":"QLB","Latitude":"50.72360","Longitude":"-75.10000","Snowdepth":"21.772","Units":"in","Rept_Date":"2021-01-22 12"},"coordinates":[4973,9377]},{"type":"Point","properties":{"Station_ID":"VT-BN-3","Station_Nam":"LANDGROVE 1.1 NNE, VT","Latitude":"43.29092","Longitude":"-72.83260","Snowdepth":"21.000","Units":"in","Rept_Date":"2021-01-22 12"},"coordinates":[5483,4765]},{"type":"Point","properties":{"Station_ID":"NY-LW-12","Station_Nam":"CHASES LAKE COOP, NY","Latitude":"43.75924","Longitude":"-75.29982","Snowdepth":"21.000","Units":"in","Rept_Date":"2021-01-22 11"},"coordinates":[4928,5056]},{"type":"Point","properties":{"Station_ID":"NY-ER-56","Station_Nam":"COLDEN 1.4 NNW, NY","Latitude":"42.64740","Longitude":"-78.71120","Snowdepth":"21.000","Units":"in","Rept_Date":"2021-01-22 12"},"coordinates":[4162,4366]},{"type":"Point","properties":{"Station_ID":"MWN","Station_Nam":"MOUNT WASHINGTON","Latitude":"44.26670","Longitude":"-71.30000","Snowdepth":"21.000","Units":"in","Rept_Date":"2021-01-22 12"},"coordinates":[5827,5370]},{"type":"Point","properties":{"Station_ID":"KSGM4","Station_Nam":"KEARSARGE","Latitude":"47.27520","Longitude":"-88.41700","Snowdepth":"21.000","Units":"in","Rept_Date":"2021-01-22 13"},"coordinates":[1982,7237]},{"type":"Point","properties":{"Station_ID":"GFDN6","Station_Nam":"CHASES LAKE","Latitude":"43.75920","Longitude":"-75.29980","Snowdepth":"21.000","Units":"in","Rept_Date":"2021-01-22 11"},"coordinates":[4928,5056]},{"type":"Point","properties":{"Station_ID":"CODN6","Station_Nam":"COLDEN","Latitude":"42.64720","Longitude":"-78.71110","Snowdepth":"21.000","Units":"in","Rept_Date":"2021-01-22 12"},"coordinates":[4162,4366]},{"type":"Point","properties":{"Station_ID":"QCO","Station_Nam":"QCO","Latitude":"51.45280","Longitude":"-72.20110","Snowdepth":"20.354","Units":"in","Rept_Date":"2021-01-22 12"},"coordinates":[5625,9829]},{"type":"Point","properties":{"Station_ID":"NCBN6","Station_Nam":"NEWCOMB","Latitude":"43.97070","Longitude":"-74.22200","Snowdepth":"20.000","Units":"in","Rept_Date":"2021-01-22 12"},"coordinates":[5171,5187]},{"type":"Point","properties":{"Station_ID":"GNLM4","Station_Nam":"GREENLAND 6N","Latitude":"46.87360","Longitude":"-89.10060","Snowdepth":"20.000","Units":"in","Rept_Date":"2021-01-22 13"},"coordinates":[1828,6988]},{"type":"Point","properties":{"Station_ID":"BBEM4","Station_Nam":"BIG BAY 9SW","Latitude":"46.74620","Longitude":"-87.88160","Snowdepth":"20.000","Units":"in","Rept_Date":"2021-01-22 13"},"coordinates":[2102,6909]},{"type":"Point","properties":{"Station_ID":"42.0231_080.0856","Station_Nam":"3 ENE McKean  Trained Spotter (X4200801)","Latitude":"42.02314","Longitude":"-80.08558","Snowdepth":"20.000","Units":"in","Rept_Date":"2021-01-23 00"},"coordinates":[3853,3978]},{"type":"Point","properties":{"Station_ID":"CAN-ON-245","Station_Nam":"PHELPSTON 3.1 ESE, CAN","Latitude":"44.50564","Longitude":"-79.81035","Snowdepth":"19.500","Units":"in","Rept_Date":"2021-01-22 12"},"coordinates":[3915,5519]},{"type":"Point","properties":{"Station_ID":"WORV1","Station_Nam":"WORCESTER 2 W","Latitude":"44.37470","Longitude":"-72.58220","Snowdepth":"19.000","Units":"in","Rept_Date":"2021-01-22 12"},"coordinates":[5539,5437]},{"type":"Point","properties":{"Station_ID":"QNCM4","Station_Nam":"QUINCY HILL","Latitude":"47.13640","Longitude":"-88.57950","Snowdepth":"19.000","Units":"in","Rept_Date":"2021-01-22 12"},"coordinates":[1945,7151]},{"type":"Point","properties":{"Station_ID":"CAN-NL-79","Station_Nam":"MOUNT PEARL 1.3 WNW, CAN","Latitude":"47.51955","Longitude":"-52.82838","Snowdepth":"18.900","Units":"in","Rept_Date":"2021-01-22 12"},"coordinates":[9977,7389]},{"type":"Point","properties":{"Station_ID":"VT-OL-12","Station_Nam":"GREENSBORO 3.9 NNE, VT","Latitude":"44.63100","Longitude":"-72.28000","Snowdepth":"18.500","Units":"in","Rept_Date":"2021-01-22 14"},"coordinates":[5607,5596]},{"type":"Point","properties":{"Station_ID":"MI-HG-20","Station_Nam":"CALUMET 1.1 SSW, MI","Latitude":"47.23165","Longitude":"-88.45823","Snowdepth":"18.500","Units":"in","Rept_Date":"2021-01-22 11"},"coordinates":[1972,7210]},{"type":"Point","properties":{"Station_ID":"QOU","Station_Nam":"QOU","Latitude":"50.79250","Longitude":"-69.67470","Snowdepth":"18.031","Units":"in","Rept_Date":"2021-01-22 12"},"coordinates":[6192,9419]},{"type":"Point","properties":{"Station_ID":"TOPN6","Station_Nam":"TUPPER LAKE SUNMOUNT","Latitude":"44.23070","Longitude":"-74.43820","Snowdepth":"18.000","Units":"in","Rept_Date":"2021-01-22 12"},"coordinates":[5122,5348]},{"type":"Point","properties":{"Station_ID":"NY-ER-63","Station_Nam":"GLENWOOD 1.5 SE, NY","Latitude":"42.60195","Longitude":"-78.63910","Snowdepth":"18.000","Units":"in","Rept_Date":"2021-01-22 13"},"coordinates":[4178,4338]},{"type":"Point","properties":{"Station_ID":"NY-ER-195","Station_Nam":"SPRINGVILLE 0.4 NE, NY","Latitude":"42.51351","Longitude":"-78.66492","Snowdepth":"18.000","Units":"in","Rept_Date":"2021-01-23 05"},"coordinates":[4173,4283]},{"type":"Point","properties":{"Station_ID":"NY-ER-194","Station_Nam":"GLENWOOD 1.0 SE, NY","Latitude":"42.60740","Longitude":"-78.64610","Snowdepth":"18.000","Units":"in","Rept_Date":"2021-01-22 12"},"coordinates":[4177,4341]},{"type":"Point","properties":{"Station_ID":"MNSM4","Station_Nam":"MUNISING","Latitude":"46.41210","Longitude":"-86.66250","Snowdepth":"18.000","Units":"in","Rept_Date":"2021-01-22 11"},"coordinates":[2376,6702]},{"type":"Point","properties":{"Station_ID":"LOWN6","Station_Nam":"LOWVILLE","Latitude":"43.79280","Longitude":"-75.48290","Snowdepth":"18.000","Units":"in","Rept_Date":"2021-01-22 12"},"coordinates":[4887,5076]},{"type":"Point","properties":{"Station_ID":"JOHV1","Station_Nam":"JOHNSON 2 N","Latitude":"44.65790","Longitude":"-72.67850","Snowdepth":"18.000","Units":"in","Rept_Date":"2021-01-22 12"},"coordinates":[5517,5613]},{"type":"Point","properties":{"Station_ID":"NY-FK-9","Station_Nam":"GABRIELS 1.3 SE, NY","Latitude":"44.41934","Longitude":"-74.16194","Snowdepth":"17.500","Units":"in","Rept_Date":"2021-01-22 12"},"coordinates":[5184,5465]},{"type":"Point","properties":{"Station_ID":"QTM","Station_Nam":"QTM","Latitude":"51.05780","Longitude":"-72.57190","Snowdepth":"17.283","Units":"in","Rept_Date":"2021-01-22 12"},"coordinates":[5541,9584]},{"type":"Point","properties":{"Station_ID":"WAIV1","Station_Nam":"WAITSFIELD","Latitude":"44.17560","Longitude":"-72.79610","Snowdepth":"17.000","Units":"in","Rept_Date":"2021-01-22 12"},"coordinates":[5491,5314]},{"type":"Point","properties":{"Station_ID":"VT-WS-33","Station_Nam":"WAITSFIELD 3.5 WNW, VT","Latitude":"44.20052","Longitude":"-72.89421","Snowdepth":"17.000","Units":"in","Rept_Date":"2021-01-22 13"},"coordinates":[5469,5329]},{"type":"Point","properties":{"Station_ID":"VT-WS-30","Station_Nam":"WOODBURY 3.4 NNW, VT","Latitude":"44.48825","Longitude":"-72.43258","Snowdepth":"17.000","Units":"in","Rept_Date":"2021-01-22 12"},"coordinates":[5573,5508]},{"type":"Point","properties":{"Station_ID":"VT-WS-19","Station_Nam":"WATERBURY 3.0 NW, VT","Latitude":"44.36060","Longitude":"-72.80770","Snowdepth":"17.000","Units":"in","Rept_Date":"2021-01-22 11"},"coordinates":[5488,5429]},{"type":"Point","properties":{"Station_ID":"VT-WS-11","Station_Nam":"WAITSFIELD 1.8 SE, VT","Latitude":"44.17551","Longitude":"-72.79540","Snowdepth":"17.000","Units":"in","Rept_Date":"2021-01-22 12"},"coordinates":[5491,5314]},{"type":"Point","properties":{"Station_ID":"ROWM3","Station_Nam":"ROWE 3NE","Latitude":"42.73500","Longitude":"-72.86920","Snowdepth":"17.000","Units":"in","Rept_Date":"2021-01-22 12"},"coordinates":[5475,4420]},{"type":"Point","properties":{"Station_ID":"NY-HM-10","Station_Nam":"LAKE PLEASANT 2.3 WSW, NY","Latitude":"43.45490","Longitude":"-74.45287","Snowdepth":"17.000","Units":"in","Rept_Date":"2021-01-22 12"},"coordinates":[5119,4867]},{"type":"Point","properties":{"Station_ID":"HURW3","Station_Nam":"HURLEY","Latitude":"46.46250","Longitude":"-90.19550","Snowdepth":"17.000","Units":"in","Rept_Date":"2021-01-22 14"},"coordinates":[1582,6733]},{"type":"Point","properties":{"Station_ID":"QWE","Station_Nam":"QWE","Latitude":"47.84610","Longitude":"-73.80670","Snowdepth":"16.890","Units":"in","Rept_Date":"2021-01-22 12"},"coordinates":[5264,7591]},{"type":"Point","properties":{"Station_ID":"NY-HR-18","Station_Nam":"SALISBURY CENTER 1.8 NW, NY","Latitude":"43.16260","Longitude":"-74.80880","Snowdepth":"16.500","Units":"in","Rept_Date":"2021-01-22 10"},"coordinates":[5039,4685]},{"type":"Point","properties":{"Station_ID":"MLZ","Station_Nam":"MLZ","Latitude":"50.66170","Longitude":"-68.82360","Snowdepth":"16.142","Units":"in","Rept_Date":"2021-01-22 12"},"coordinates":[6383,9338]},{"type":"Point","properties":{"Station_ID":"WRSN6","Station_Nam":"WARSAW 6SW","Latitude":"42.68550","Longitude":"-78.22020","Snowdepth":"16.000","Units":"in","Rept_Date":"2021-01-22 12"},"coordinates":[4272,4389]},{"type":"Point","properties":{"Station_ID":"VT-WR-2","Station_Nam":"POMFRET 2.6 N, VT","Latitude":"43.74230","Longitude":"-72.52550","Snowdepth":"16.000","Units":"in","Rept_Date":"2021-01-22 12"},"coordinates":[5552,5045]},{"type":"Point","properties":{"Station_ID":"VT-OL-2","Station_Nam":"BARTON 3.0 ENE, VT","Latitude":"44.75863","Longitude":"-72.11680","Snowdepth":"16.000","Units":"in","Rept_Date":"2021-01-22 12"},"coordinates":[5644,5676]},{"type":"Point","properties":{"Station_ID":"VT-OL-1","Station_Nam":"WESTFIELD 0.7 WNW, VT","Latitude":"44.89160","Longitude":"-72.44350","Snowdepth":"16.000","Units":"in","Rept_Date":"2021-01-22 12"},"coordinates":[5570,5758]},{"type":"Point","properties":{"Station_ID":"JEFV1","Station_Nam":"JEFFERSONVILLE","Latitude":"44.58430","Longitude":"-72.78700","Snowdepth":"16.000","Units":"in","Rept_Date":"2021-01-22 12"},"coordinates":[5493,5567]},{"type":"Point","properties":{"Station_ID":"IWOM4","Station_Nam":"IRONWOOD#2","Latitude":"46.46520","Longitude":"-90.13820","Snowdepth":"16.000","Units":"in","Rept_Date":"2021-01-22 13"},"coordinates":[1595,6734]},{"type":"Point","properties":{"Station_ID":"HERM4","Station_Nam":"HERMAN,MI","Latitude":"46.65000","Longitude":"-88.33330","Snowdepth":"16.000","Units":"in","Rept_Date":"2021-01-22 13"},"coordinates":[2001,6849]},{"type":"Point","properties":{"Station_ID":"42.1284_079.8945","Station_Nam":"NORTHEAST 6SW (CLE0249)","Latitude":"42.12840","Longitude":"-79.89450","Snowdepth":"16.000","Units":"in","Rept_Date":"2021-01-22 23"},"coordinates":[3896,4044]},{"type":"Point","properties":{"Station_ID":"42.1173_079.8962","Station_Nam":"4 W Colt Station  Trained Spotter (CLE0298)","Latitude":"42.11734","Longitude":"-79.89615","Snowdepth":"16.000","Units":"in","Rept_Date":"2021-01-23 01"},"coordinates":[3896,4037]},{"type":"Point","properties":{"Station_ID":"OGIQ6","Station_Nam":"OGOKI CAMP","Latitude":"50.76680","Longitude":"-87.85820","Snowdepth":"15.940","Units":"in","Rept_Date":"2021-01-23 06"},"coordinates":[2107,9403]},{"type":"Point","properties":{"Station_ID":"CAN-ON-699","Station_Nam":"DALHOUSIE MILLS, CAN","Latitude":"45.31670","Longitude":"-74.47120","Snowdepth":"15.600","Units":"in","Rept_Date":"2021-01-22 11"},"coordinates":[5115,6022]},{"type":"Point","properties":{"Station_ID":"NY-ES-6","Station_Nam":"OLMSTEDVILLE 4.6 NNE, NY","Latitude":"43.83350","Longitude":"-73.89780","Snowdepth":"15.500","Units":"in","Rept_Date":"2021-01-22 13"},"coordinates":[5243,5102]},{"type":"Point","properties":{"Station_ID":"MI-BG-3","Station_Nam":"THREE LAKES, MI","Latitude":"46.55730","Longitude":"-88.20770","Snowdepth":"15.500","Units":"in","Rept_Date":"2021-01-22 13"},"coordinates":[2029,6792]},{"type":"Point","properties":{"Station_ID":"WSWN6","Station_Nam":"WARSAW","Latitude":"42.74220","Longitude":"-78.20850","Snowdepth":"15.000","Units":"in","Rept_Date":"2021-01-22 12"},"coordinates":[4275,4425]},{"type":"Point","properties":{"Station_ID":"SUTV1","Station_Nam":"SUTTON","Latitude":"44.61220","Longitude":"-72.04810","Snowdepth":"15.000","Units":"in","Rept_Date":"2021-01-22 13"},"coordinates":[5659,5585]},{"type":"Point","properties":{"Station_ID":"NY-OD-4","Station_Nam":"BOONVILLE 0.2 NW, NY","Latitude":"43.48333","Longitude":"-75.33330","Snowdepth":"15.000","Units":"in","Rept_Date":"2021-01-22 23"},"coordinates":[4921,4884]},{"type":"Point","properties":{"Station_ID":"NY-FK-7","Station_Nam":"SARANAC LAKE 6.2 N, NY","Latitude":"44.41359","Longitude":"-74.15211","Snowdepth":"15.000","Units":"in","Rept_Date":"2021-01-22 12"},"coordinates":[5186,5462]},{"type":"Point","properties":{"Station_ID":"NY-ES-11","Station_Nam":"VERMONTVILLE 2.8 S, NY","Latitude":"44.41205","Longitude":"-74.06760","Snowdepth":"15.000","Units":"in","Rept_Date":"2021-01-22 12"},"coordinates":[5205,5461]},{"type":"Point","properties":{"Station_ID":"MQT","Station_Nam":"MARQUETTE, MI","Latitude":"46.53140","Longitude":"-87.54920","Snowdepth":"15.000","Units":"in","Rept_Date":"2021-01-23 06"},"coordinates":[2177,6776]},{"type":"Point","properties":{"Station_ID":"MALN6","Station_Nam":"MALONE","Latitude":"44.84180","Longitude":"-74.30600","Snowdepth":"15.000","Units":"in","Rept_Date":"2021-01-22 12"},"coordinates":[5152,5727]},{"type":"Point","properties":{"Station_ID":"CLQM5","Station_Nam":"CLOQUET","Latitude":"46.70470","Longitude":"-92.52530","Snowdepth":"15.000","Units":"in","Rept_Date":"2021-01-22 14"},"coordinates":[1059,6883]},{"type":"Point","properties":{"Station_ID":"CAN-MB-32","Station_Nam":"PINAWA 1.0 SW, CA","Latitude":"50.14747","Longitude":"-95.89020","Snowdepth":"15.000","Units":"in","Rept_Date":"2021-01-22 13"},"coordinates":[303,9019]},{"type":"Point","properties":{"Station_ID":"VT-WS-10","Station_Nam":"NORTHFIELD 1.5 N, VT","Latitude":"44.16986","Longitude":"-72.65200","Snowdepth":"14.500","Units":"in","Rept_Date":"2021-01-22 12"},"coordinates":[5523,5310]},{"type":"Point","properties":{"Station_ID":"NY-OD-2","Station_Nam":"POINT ROCK 0.6 SE, NY","Latitude":"43.37335","Longitude":"-75.53840","Snowdepth":"14.500","Units":"in","Rept_Date":"2021-01-22 13"},"coordinates":[4875,4816]},{"type":"Point","properties":{"Station_ID":"SOCQ6","Station_Nam":"SOCKET LAKE","Latitude":"50.77870","Longitude":"-91.79300","Snowdepth":"14.290","Units":"in","Rept_Date":"2021-01-23 06"},"coordinates":[1223,9411]},{"type":"Point","properties":{"Station_ID":"SVBQ6","Station_Nam":"SAVANT BASE","Latitude":"50.28730","Longitude":"-90.65670","Snowdepth":"14.090","Units":"in","Rept_Date":"2021-01-23 06"},"coordinates":[1479,9106]},{"type":"Point","properties":{"Station_ID":"WNDP1","Station_Nam":"WINDBER COUNTY CLUB","Latitude":"40.28780","Longitude":"-78.77530","Snowdepth":"14.000","Units":"in","Rept_Date":"2021-01-22 12"},"coordinates":[4148,2902]},{"type":"Point","properties":{"Station_ID":"VT-WS-23","Station_Nam":"CABOT 2.3 E, VT","Latitude":"44.39807","Longitude":"-72.26570","Snowdepth":"14.000","Units":"in","Rept_Date":"2021-01-22 13"},"coordinates":[5610,5452]},{"type":"Point","properties":{"Station_ID":"VT-CH-4","Station_Nam":"UNDERHILL 4.4 NNE, VT","Latitude":"44.58774","Longitude":"-72.92250","Snowdepth":"14.000","Units":"in","Rept_Date":"2021-01-22 12"},"coordinates":[5463,5570]},{"type":"Point","properties":{"Station_ID":"NY-SL-6","Station_Nam":"HANNAWA FALLS 0.1 SW, NY","Latitude":"44.61154","Longitude":"-74.97190","Snowdepth":"14.000","Units":"in","Rept_Date":"2021-01-22 12"},"coordinates":[5002,5584]},{"type":"Point","properties":{"Station_ID":"NUNV1","Station_Nam":"NORTH UNDERHILL","Latitude":"44.58760","Longitude":"-72.92150","Snowdepth":"14.000","Units":"in","Rept_Date":"2021-01-22 12"},"coordinates":[5463,5570]},{"type":"Point","properties":{"Station_ID":"NH-CS-4","Station_Nam":"PITTSBURG 6.1 NE, NH","Latitude":"45.11060","Longitude":"-71.29760","Snowdepth":"14.000","Units":"in","Rept_Date":"2021-01-22 12"},"coordinates":[5828,5894]},{"type":"Point","properties":{"Station_ID":"MI-OT-4","Station_Nam":"GAYLORD 1.7 WNW, MI","Latitude":"45.03280","Longitude":"-84.71090","Snowdepth":"14.000","Units":"in","Rept_Date":"2021-01-22 13"},"coordinates":[2814,5846]},{"type":"Point","properties":{"Station_ID":"KABM5","Station_Nam":"KABETOGAMA LAKE VISITOR CTR","Latitude":"48.40880","Longitude":"-93.04840","Snowdepth":"14.000","Units":"in","Rept_Date":"2021-01-22 13"},"coordinates":[941,7940]},{"type":"Point","properties":{"Station_ID":"INDN6","Station_Nam":"INDIAN LAKE","Latitude":"43.75500","Longitude":"-74.27560","Snowdepth":"14.000","Units":"in","Rept_Date":"2021-01-22 13"},"coordinates":[5159,5053]},{"type":"Point","properties":{"Station_ID":"GAYM4","Station_Nam":"GAYLORD","Latitude":"45.03320","Longitude":"-84.71130","Snowdepth":"14.000","Units":"in","Rept_Date":"2021-01-22 13"},"coordinates":[2814,5846]},{"type":"Point","properties":{"Station_ID":"EAHV1","Station_Nam":"EAST HAVEN","Latitude":"44.64250","Longitude":"-71.89120","Snowdepth":"14.000","Units":"in","Rept_Date":"2021-01-22 12"},"coordinates":[5694,5604]},{"type":"Point","properties":{"Station_ID":"COVM4","Station_Nam":"COVINGTON","Latitude":"46.55880","Longitude":"-88.54190","Snowdepth":"14.000","Units":"in","Rept_Date":"2021-01-22 13"},"coordinates":[1954,6793]},{"type":"Point","properties":{"Station_ID":"CLKM4","Station_Nam":"CLARKSBURG","Latitude":"46.49910","Longitude":"-87.84500","Snowdepth":"14.000","Units":"in","Rept_Date":"2021-01-22 12"},"coordinates":[2110,6755]},{"type":"Point","properties":{"Station_ID":"ATAN6","Station_Nam":"ATTICA 7 SW","Latitude":"42.81070","Longitude":"-78.39790","Snowdepth":"14.000","Units":"in","Rept_Date":"2021-01-22 11"},"coordinates":[4233,4467]},{"type":"Point","properties":{"Station_ID":"42.0800_080.0143","Station_Nam":"ERIE 5SE  SNOW SPOTTER (X4210800)","Latitude":"42.08000","Longitude":"-80.01430","Snowdepth":"14.000","Units":"in","Rept_Date":"2021-01-23 00"},"coordinates":[3869,4014]},{"type":"Point","properties":{"Station_ID":"CAN-QC-51","Station_Nam":"BELOEIL 0.7 NW, CAN","Latitude":"45.58049","Longitude":"-73.21218","Snowdepth":"13.800","Units":"in","Rept_Date":"2021-01-22 12"},"coordinates":[5397,6186]},{"type":"Point","properties":{"Station_ID":"QGA","Station_Nam":"QGA","Latitude":"47.25640","Longitude":"-73.73810","Snowdepth":"13.740","Units":"in","Rept_Date":"2021-01-22 12"},"coordinates":[5279,7225]},{"type":"Point","properties":{"Station_ID":"KABQ6","Station_Nam":"CAB LAKE","Latitude":"49.59950","Longitude":"-89.17990","Snowdepth":"13.620","Units":"in","Rept_Date":"2021-01-23 06"},"coordinates":[1810,8679]},{"type":"Point","properties":{"Station_ID":"CAN-ON-791","Station_Nam":"METCALFE 4.4 NNW, CAN","Latitude":"45.27286","Longitude":"-75.48952","Snowdepth":"13.600","Units":"in","Rept_Date":"2021-01-22 11"},"coordinates":[4886,5995]},{"type":"Point","properties":{"Station_ID":"VT-WS-15","Station_Nam":"EAST CALAIS 1.5 SW, VT","Latitude":"44.35523","Longitude":"-72.45540","Snowdepth":"13.500","Units":"in","Rept_Date":"2021-01-22 12"},"coordinates":[5567,5425]},{"type":"Point","properties":{"Station_ID":"CAN-NL-11","Station_Nam":"MOUNT PEARL 2.1 SSE, CA","Latitude":"47.50347","Longitude":"-52.79730","Snowdepth":"13.500","Units":"in","Rept_Date":"2021-01-22 12"},"coordinates":[9984,7379]},{"type":"Point","properties":{"Station_ID":"CAN-QC-47","Station_Nam":"SAINTE-FOY 1.8 ENE, CAN","Latitude":"46.76934","Longitude":"-71.27124","Snowdepth":"13.400","Units":"in","Rept_Date":"2021-01-22 12"},"coordinates":[5833,6923]},{"type":"Point","properties":{"Station_ID":"CAN-ON-452","Station_Nam":"CHATSWORTH 1.8 ENE - GSCA, CAN","Latitude":"44.46118","Longitude":"-80.87506","Snowdepth":"13.400","Units":"in","Rept_Date":"2021-01-22 12"},"coordinates":[3676,5491]},{"type":"Point","properties":{"Station_ID":"WLSN6","Station_Nam":"WALES","Latitude":"42.73920","Longitude":"-78.58780","Snowdepth":"13.000","Units":"in","Rept_Date":"2021-01-22 12"},"coordinates":[4190,4423]},{"type":"Point","properties":{"Station_ID":"WLFM5","Station_Nam":"WOLF RIDGE ENVIRON LEARNING CENTER","Latitude":"47.38240","Longitude":"-91.19730","Snowdepth":"13.000","Units":"in","Rept_Date":"2021-01-22 13"},"coordinates":[1357,7304]},{"type":"Point","properties":{"Station_ID":"VT-WH-30","Station_Nam":"MARLBORO 2.0 NNE, VT","Latitude":"42.88484","Longitude":"-72.70935","Snowdepth":"13.000","Units":"in","Rept_Date":"2021-01-22 13"},"coordinates":[5510,4513]},{"type":"Point","properties":{"Station_ID":"VT-ES-3","Station_Nam":"LUNENBURG 2.3 NNW, VT","Latitude":"44.49324","Longitude":"-71.70446","Snowdepth":"13.000","Units":"in","Rept_Date":"2021-01-22 12"},"coordinates":[5736,5511]},{"type":"Point","properties":{"Station_ID":"VT-CH-13","Station_Nam":"RICHMOND 3.4 SSE, VT","Latitude":"44.36084","Longitude":"-72.96400","Snowdepth":"13.000","Units":"in","Rept_Date":"2021-01-22 12"},"coordinates":[5453,5429]},{"type":"Point","properties":{"Station_ID":"SSMM4","Station_Nam":"SAULT STE MARIE","Latitude":"46.48660","Longitude":"-84.40250","Snowdepth":"13.000","Units":"in","Rept_Date":"2021-01-22 13"},"coordinates":[2884,6748]},{"type":"Point","properties":{"Station_ID":"RGNM1","Station_Nam":"RANGELEY 2NW","Latitude":"44.98940","Longitude":"-70.67220","Snowdepth":"13.000","Units":"in","Rept_Date":"2021-01-22 11"},"coordinates":[5968,5819]},{"type":"Point","properties":{"Station_ID":"NUMN3","Station_Nam":"NORTHUMBERLAND","Latitude":"44.52830","Longitude":"-71.50440","Snowdepth":"13.000","Units":"in","Rept_Date":"2021-01-22 13"},"coordinates":[5781,5533]},{"type":"Point","properties":{"Station_ID":"MRLV1","Station_Nam":"MARLBORO","Latitude":"42.86000","Longitude":"-72.72000","Snowdepth":"13.000","Units":"in","Rept_Date":"2021-01-22 13"},"coordinates":[5508,4498]},{"type":"Point","properties":{"Station_ID":"MI-OT-17","Station_Nam":"GAYLORD 4.1 S, MI","Latitude":"44.96388","Longitude":"-84.68467","Snowdepth":"13.000","Units":"in","Rept_Date":"2021-01-22 12"},"coordinates":[2820,5803]},{"type":"Point","properties":{"Station_ID":"MI-HG-1","Station_Nam":"HOUGHTON 1.6 ESE, MI","Latitude":"47.10774","Longitude":"-88.52940","Snowdepth":"13.000","Units":"in","Rept_Date":"2021-01-22 13"},"coordinates":[1957,7133]},{"type":"Point","properties":{"Station_ID":"HUBN3","Station_Nam":"HUBBARD BROOK","Latitude":"43.93330","Longitude":"-71.71670","Snowdepth":"13.000","Units":"in","Rept_Date":"2021-01-23 06"},"coordinates":[5733,5164]},{"type":"Point","properties":{"Station_ID":"CAN-ON-220","Station_Nam":"DEEP RIVER 1.5 SE - MNRF, CAN","Latitude":"46.09592","Longitude":"-77.47853","Snowdepth":"13.000","Units":"in","Rept_Date":"2021-01-22 14"},"coordinates":[4439,6505]},{"type":"Point","properties":{"Station_ID":"CAN-NB-13","Station_Nam":"BATHURST 3.8 NW, CAN","Latitude":"47.64212","Longitude":"-65.68756","Snowdepth":"13.000","Units":"in","Rept_Date":"2021-01-22 11"},"coordinates":[7088,7465]},{"type":"Point","properties":{"Station_ID":"QLP","Station_Nam":"QLP","Latitude":"48.13920","Longitude":"-72.63830","Snowdepth":"12.756","Units":"in","Rept_Date":"2021-01-22 12"},"coordinates":[5526,7773]},{"type":"Point","properties":{"Station_ID":"QMD","Station_Nam":"QMD","Latitude":"49.29060","Longitude":"-75.84500","Snowdepth":"12.716","Units":"in","Rept_Date":"2021-01-22 12"},"coordinates":[4806,8487]},{"type":"Point","properties":{"Station_ID":"CAN-NL-72","Station_Nam":"ST. JOHN'S 3.4 N, CAN","Latitude":"47.59389","Longitude":"-52.72879","Snowdepth":"12.700","Units":"in","Rept_Date":"2021-01-22 13"},"coordinates":[9999,7435]},{"type":"Point","properties":{"Station_ID":"CAN-QC-57","Station_Nam":"ACTON VALE 1.3 N, CAN","Latitude":"45.65868","Longitude":"-72.56645","Snowdepth":"12.600","Units":"in","Rept_Date":"2021-01-22 12"},"coordinates":[5543,6234]},{"type":"Point","properties":{"Station_ID":"WI-IR-3","Station_Nam":"PENCE 0.1 E, WI","Latitude":"46.41555","Longitude":"-90.27013","Snowdepth":"12.500","Units":"in","Rept_Date":"2021-01-22 13"},"coordinates":[1565,6704]},{"type":"Point","properties":{"Station_ID":"WI-BY-14","Station_Nam":"ASHLAND 9.8 W, WI","Latitude":"46.59742","Longitude":"-91.07856","Snowdepth":"12.500","Units":"in","Rept_Date":"2021-01-22 12"},"coordinates":[1384,6816]},{"type":"Point","properties":{"Station_ID":"VT-OL-9","Station_Nam":"GREENSBORO 2.1 NNW, VT","Latitude":"44.60528","Longitude":"-72.30940","Snowdepth":"12.500","Units":"in","Rept_Date":"2021-01-22 13"},"coordinates":[5600,5580]},{"type":"Point","properties":{"Station_ID":"VT-CL-18","Station_Nam":"WHEELOCK 1.6 S, VT","Latitude":"44.56491","Longitude":"-72.08830","Snowdepth":"12.500","Units":"in","Rept_Date":"2021-01-22 12"},"coordinates":[5650,5555]},{"type":"Point","properties":{"Station_ID":"CAN-MB-368","Station_Nam":"WHITESHELL 1.3 NE, CAN","Latitude":"49.74405","Longitude":"-95.19123","Snowdepth":"12.200","Units":"in","Rept_Date":"2021-01-22 14"},"coordinates":[460,8769]},{"type":"Point","properties":{"Station_ID":"QLI","Station_Nam":"QLI","Latitude":"50.27080","Longitude":"-73.92280","Snowdepth":"12.165","Units":"in","Rept_Date":"2021-01-22 12"},"coordinates":[5238,9096]},{"type":"Point","properties":{"Station_ID":"WTNM4","Station_Nam":"WATTON 2WSW","Latitude":"46.52660","Longitude":"-88.64240","Snowdepth":"12.000","Units":"in","Rept_Date":"2021-01-22 13"},"coordinates":[1931,6773]},{"type":"Point","properties":{"Station_ID":"VT-CL-27","Station_Nam":"DANVILLE 0.4 N, VT","Latitude":"44.41769","Longitude":"-72.13936","Snowdepth":"12.000","Units":"in","Rept_Date":"2021-01-22 12"},"coordinates":[5638,5464]},{"type":"Point","properties":{"Station_ID":"VT-CH-7","Station_Nam":"HUNTINGTON 1.1 E, VT","Latitude":"44.32488","Longitude":"-72.96570","Snowdepth":"12.000","Units":"in","Rept_Date":"2021-01-22 12"},"coordinates":[5453,5407]},{"type":"Point","properties":{"Station_ID":"VT-BN-7","Station_Nam":"MANCHESTER 2.8 ENE, VT","Latitude":"43.17274","Longitude":"-73.01811","Snowdepth":"12.000","Units":"in","Rept_Date":"2021-01-22 12"},"coordinates":[5441,4692]},{"type":"Point","properties":{"Station_ID":"SUAW3","Station_Nam":"SUAMICO","Latitude":"44.60190","Longitude":"-88.09780","Snowdepth":"12.000","Units":"in","Rept_Date":"2021-01-22 12"},"coordinates":[2053,5578]},{"type":"Point","properties":{"Station_ID":"SLNV1","Station_Nam":"SOUTH LINCOLN","Latitude":"44.07460","Longitude":"-72.97180","Snowdepth":"12.000","Units":"in","Rept_Date":"2021-01-22 12"},"coordinates":[5451,5251]},{"type":"Point","properties":{"Station_ID":"RANM1","Station_Nam":"RANGELEY","Latitude":"44.98910","Longitude":"-70.67190","Snowdepth":"12.000","Units":"in","Rept_Date":"2021-01-22 11"},"coordinates":[5968,5819]},{"type":"Point","properties":{"Station_ID":"PTBN3","Station_Nam":"PITTSBURG RESERVOIR","Latitude":"45.04690","Longitude":"-71.38300","Snowdepth":"12.000","Units":"in","Rept_Date":"2021-01-22 12"},"coordinates":[5808,5854]},{"type":"Point","properties":{"Station_ID":"PEKN6","Station_Nam":"PECK LAKE","Latitude":"43.11500","Longitude":"-74.42360","Snowdepth":"12.000","Units":"in","Rept_Date":"2021-01-22 12"},"coordinates":[5125,4656]},{"type":"Point","properties":{"Station_ID":"PA-ER-15","Station_Nam":"NORTH EAST 2.0 S, PA","Latitude":"42.18390","Longitude":"-79.83230","Snowdepth":"12.000","Units":"in","Rept_Date":"2021-01-22 13"},"coordinates":[3910,4078]},{"type":"Point","properties":{"Station_ID":"NY-JF-30","Station_Nam":"WEST CARTHAGE 0.3 ENE, NY","Latitude":"43.97493","Longitude":"-75.61640","Snowdepth":"12.000","Units":"in","Rept_Date":"2021-01-22 12"},"coordinates":[4857,5189]},{"type":"Point","properties":{"Station_ID":"NY-CQ-27","Station_Nam":"SILVER CREEK 1.0 SSE, NY","Latitude":"42.53088","Longitude":"-79.15986","Snowdepth":"12.000","Units":"in","Rept_Date":"2021-01-22 11"},"coordinates":[4061,4293]},{"type":"Point","properties":{"Station_ID":"NH-CR-26","Station_Nam":"CENTER SANDWICH 4.9 E, NH","Latitude":"43.80976","Longitude":"-71.34150","Snowdepth":"12.000","Units":"in","Rept_Date":"2021-01-22 12"},"coordinates":[5818,5087]},{"type":"Point","properties":{"Station_ID":"MNPV1","Station_Nam":"MONTPELIER 2","Latitude":"44.25530","Longitude":"-72.60060","Snowdepth":"12.000","Units":"in","Rept_Date":"2021-01-22 12"},"coordinates":[5535,5363]},{"type":"Point","properties":{"Station_ID":"MN-SL-15","Station_Nam":"CHISHOLM 0.4 WSW, MN","Latitude":"47.48557","Longitude":"-92.88690","Snowdepth":"12.000","Units":"in","Rept_Date":"2021-01-22 13"},"coordinates":[978,7368]},{"type":"Point","properties":{"Station_ID":"MN-IT-7","Station_Nam":"GRAND RAPIDS 6.2 SSW, MN","Latitude":"47.13687","Longitude":"-93.56660","Snowdepth":"12.000","Units":"in","Rept_Date":"2021-01-22 12"},"coordinates":[825,7151]},{"type":"Point","properties":{"Station_ID":"MN-IS-18","Station_Nam":"BRAHAM 0.7 SW, MN","Latitude":"45.71379","Longitude":"-93.18095","Snowdepth":"12.000","Units":"in","Rept_Date":"2021-01-22 14"},"coordinates":[912,6268]},{"type":"Point","properties":{"Station_ID":"MIEM4","Station_Nam":"MICHIGAMME 3WNW","Latitude":"46.54530","Longitude":"-88.18000","Snowdepth":"12.000","Units":"in","Rept_Date":"2021-01-22 13"},"coordinates":[2035,6784]},{"type":"Point","properties":{"Station_ID":"MI-OT-16","Station_Nam":"GAYLORD 2.2 SSE, MI","Latitude":"44.99441","Longitude":"-84.65820","Snowdepth":"12.000","Units":"in","Rept_Date":"2021-01-22 13"},"coordinates":[2826,5822]},{"type":"Point","properties":{"Station_ID":"MI-OG-6","Station_Nam":"WEST BRANCH 2.1 SSW, MI","Latitude":"44.24814","Longitude":"-84.25089","Snowdepth":"12.000","Units":"in","Rept_Date":"2021-01-22 13"},"coordinates":[2918,5359]},{"type":"Point","properties":{"Station_ID":"ME-FR-2","Station_Nam":"TEMPLE 1.8 W, ME","Latitude":"44.68329","Longitude":"-70.26420","Snowdepth":"12.000","Units":"in","Rept_Date":"2021-01-22 12"},"coordinates":[6060,5629]},{"type":"Point","properties":{"Station_ID":"IRMM4","Station_Nam":"WWTP","Latitude":"46.46670","Longitude":"-90.18330","Snowdepth":"12.000","Units":"in","Rept_Date":"2021-01-22 13"},"coordinates":[1585,6735]},{"type":"Point","properties":{"Station_ID":"ESDN3","Station_Nam":"EAST SANDWICH","Latitude":"43.80990","Longitude":"-71.34250","Snowdepth":"12.000","Units":"in","Rept_Date":"2021-01-22 11"},"coordinates":[5817,5087]},{"type":"Point","properties":{"Station_ID":"EHYM3","Station_Nam":"EAST HAWLEY","Latitude":"42.57410","Longitude":"-72.86790","Snowdepth":"12.000","Units":"in","Rept_Date":"2021-01-22 13"},"coordinates":[5475,4320]},{"type":"Point","properties":{"Station_ID":"CAN-ON-42","Station_Nam":"VANKLEEK HILL 3.4 S, CA","Latitude":"45.48987","Longitude":"-74.64570","Snowdepth":"12.000","Units":"in","Rept_Date":"2021-01-22 12"},"coordinates":[5075,6129]},{"type":"Point","properties":{"Station_ID":"CAN-NL-63","Station_Nam":"MOUNT CARMEL 0.1 NE, CA","Latitude":"47.15562","Longitude":"-53.47220","Snowdepth":"12.000","Units":"in","Rept_Date":"2021-01-22 12"},"coordinates":[9832,7163]},{"type":"Point","properties":{"Station_ID":"BRAM1","Station_Nam":"BRASSUA DAM","Latitude":"45.66020","Longitude":"-69.81190","Snowdepth":"12.000","Units":"in","Rept_Date":"2021-01-22 12"},"coordinates":[6161,6235]},{"type":"Point","properties":{"Station_ID":"BNDM5","Station_Nam":"ELY 25E","Latitude":"47.97190","Longitude":"-91.44860","Snowdepth":"12.000","Units":"in","Rept_Date":"2021-01-22 13"},"coordinates":[1301,7669]},{"type":"Point","properties":{"Station_ID":"AVLV1","Station_Nam":"AVERILL","Latitude":"45.00570","Longitude":"-71.69030","Snowdepth":"12.000","Units":"in","Rept_Date":"2021-01-22 13"},"coordinates":[5739,5829]},{"type":"Point","properties":{"Station_ID":"ANJM4","Station_Nam":"SNOW PAID OBSERVER FOR KANJ","Latitude":"46.48670","Longitude":"-84.40260","Snowdepth":"12.000","Units":"in","Rept_Date":"2021-01-23 06"},"coordinates":[2884,6748]},{"type":"Point","properties":{"Station_ID":"ANJ","Station_Nam":"SAULT STE MARIE","Latitude":"46.46670","Longitude":"-84.36670","Snowdepth":"12.000","Units":"in","Rept_Date":"2021-01-23 00"},"coordinates":[2892,6735]},{"type":"Point","properties":{"Station_ID":"42.1839_079.8323","Station_Nam":"2 S North East  CoCoRaHS (PA-ER-15)","Latitude":"42.18390","Longitude":"-79.83230","Snowdepth":"12.000","Units":"in","Rept_Date":"2021-01-22 13"},"coordinates":[3910,4078]},{"type":"Point","properties":{"Station_ID":"WV-PR-10","Station_Nam":"TERRA ALTA 4.9 NNE, WV","Latitude":"39.51024","Longitude":"-79.51024","Snowdepth":"11.600","Units":"in","Rept_Date":"2021-01-22 13"},"coordinates":[3983,2419]},{"type":"Point","properties":{"Station_ID":"WI-BY-22","Station_Nam":"MASON 11.5 WNW, WI","Latitude":"46.50198","Longitude":"-91.28339","Snowdepth":"11.500","Units":"in","Rept_Date":"2021-01-22 14"},"coordinates":[1338,6757]},{"type":"Point","properties":{"Station_ID":"VT-LM-1","Station_Nam":"STOWE 0.2 SW, VT","Latitude":"44.46399","Longitude":"-72.69070","Snowdepth":"11.500","Units":"in","Rept_Date":"2021-01-22 12"},"coordinates":[5515,5493]},{"type":"Point","properties":{"Station_ID":"VT-AD-20","Station_Nam":"HANCOCK 0.3 S, VT","Latitude":"43.92166","Longitude":"-72.84042","Snowdepth":"11.500","Units":"in","Rept_Date":"2021-01-22 12"},"coordinates":[5481,5156]},{"type":"Point","properties":{"Station_ID":"MI-AT-6","Station_Nam":"MANCELONA 0.5 ESE, MI","Latitude":"44.89981","Longitude":"-85.05100","Snowdepth":"11.500","Units":"in","Rept_Date":"2021-01-22 13"},"coordinates":[2738,5763]},{"type":"Point","properties":{"Station_ID":"CAN-ON-5","Station_Nam":"OWEN SOUND 1.5 NW - GSCA, CAN","Latitude":"44.57837","Longitude":"-80.95461","Snowdepth":"11.500","Units":"in","Rept_Date":"2021-01-22 13"},"coordinates":[3658,5564]},{"type":"Point","properties":{"Station_ID":"WRSM5","Station_Nam":"WRENSHALL","Latitude":"46.61550","Longitude":"-92.38380","Snowdepth":"11.000","Units":"in","Rept_Date":"2021-01-22 14"},"coordinates":[1091,6828]},{"type":"Point","properties":{"Station_ID":"WI-VL-9","Station_Nam":"LAND O' LAKES 11.7 W, WI","Latitude":"46.19023","Longitude":"-89.45790","Snowdepth":"11.000","Units":"in","Rept_Date":"2021-01-22 13"},"coordinates":[1748,6564]},{"type":"Point","properties":{"Station_ID":"WI-BY-2","Station_Nam":"MELLEN 18.6 SW, WI","Latitude":"46.16937","Longitude":"-90.98090","Snowdepth":"11.000","Units":"in","Rept_Date":"2021-01-22 13"},"coordinates":[1406,6551]},{"type":"Point","properties":{"Station_ID":"VT-FR-21","Station_Nam":"FAIRFAX 4.9 WNW, VT","Latitude":"44.68880","Longitude":"-73.10340","Snowdepth":"11.000","Units":"in","Rept_Date":"2021-01-22 14"},"coordinates":[5422,5632]},{"type":"Point","properties":{"Station_ID":"VT-CL-14","Station_Nam":"LYNDONVILLE 1.1 W, VT","Latitude":"44.53582","Longitude":"-72.02867","Snowdepth":"11.000","Units":"in","Rept_Date":"2021-01-22 13"},"coordinates":[5663,5537]},{"type":"Point","properties":{"Station_ID":"TOGM5","Station_Nam":"CELINA 2E","Latitude":"47.86630","Longitude":"-93.02660","Snowdepth":"11.000","Units":"in","Rept_Date":"2021-01-22 15"},"coordinates":[946,7604]},{"type":"Point","properties":{"Station_ID":"SILN6","Station_Nam":"SILVER CREEK","Latitude":"42.53800","Longitude":"-79.16990","Snowdepth":"11.000","Units":"in","Rept_Date":"2021-01-22 12"},"coordinates":[4059,4298]},{"type":"Point","properties":{"Station_ID":"PRDM4","Station_Nam":"PARADISE","Latitude":"46.60380","Longitude":"-85.03960","Snowdepth":"11.000","Units":"in","Rept_Date":"2021-01-22 11"},"coordinates":[2740,6820]},{"type":"Point","properties":{"Station_ID":"PLFV1","Station_Nam":"PLAINFIELD","Latitude":"44.27610","Longitude":"-72.41500","Snowdepth":"11.000","Units":"in","Rept_Date":"2021-01-22 12"},"coordinates":[5577,5376]},{"type":"Point","properties":{"Station_ID":"NY-ER-158","Station_Nam":"EAST AURORA 2.7 SSE, NY","Latitude":"42.72936","Longitude":"-78.60561","Snowdepth":"11.000","Units":"in","Rept_Date":"2021-01-22 14"},"coordinates":[4186,4417]},{"type":"Point","properties":{"Station_ID":"NY-DL-32","Station_Nam":"DELHI 6.6 WNW, NY","Latitude":"42.32118","Longitude":"-75.02991","Snowdepth":"11.000","Units":"in","Rept_Date":"2021-01-22 12"},"coordinates":[4989,4163]},{"type":"Point","properties":{"Station_ID":"NY-BM-21","Station_Nam":"WINDSOR 8.0 SE, NY","Latitude":"42.00992","Longitude":"-75.51420","Snowdepth":"11.000","Units":"in","Rept_Date":"2021-01-22 12"},"coordinates":[4880,3970]},{"type":"Point","properties":{"Station_ID":"NVLV1","Station_Nam":"NASHVILLE","Latitude":"44.44970","Longitude":"-72.92640","Snowdepth":"11.000","Units":"in","Rept_Date":"2021-01-22 12"},"coordinates":[5462,5484]},{"type":"Point","properties":{"Station_ID":"NH-MR-41","Station_Nam":"NEWBURY 1.6 NW, NH","Latitude":"43.33667","Longitude":"-72.06060","Snowdepth":"11.000","Units":"in","Rept_Date":"2021-01-22 12"},"coordinates":[5656,4793]},{"type":"Point","properties":{"Station_ID":"NH-CS-19","Station_Nam":"CARROLL 4.6 NE, NH","Latitude":"44.33765","Longitude":"-71.46461","Snowdepth":"11.000","Units":"in","Rept_Date":"2021-01-22 12"},"coordinates":[5790,5414]},{"type":"Point","properties":{"Station_ID":"MN-SL-108","Station_Nam":"IRON JUNCTION 3.4 NNW, MN","Latitude":"47.46150","Longitude":"-92.63130","Snowdepth":"11.000","Units":"in","Rept_Date":"2021-01-22 11"},"coordinates":[1035,7353]},{"type":"Point","properties":{"Station_ID":"MA-HS-7","Station_Nam":"PLAINFIELD 2.2 SW, MA","Latitude":"42.49272","Longitude":"-72.94540","Snowdepth":"11.000","Units":"in","Rept_Date":"2021-01-22 13"},"coordinates":[5457,4270]},{"type":"Point","properties":{"Station_ID":"LNOW3","Station_Nam":"LAND O LAKES","Latitude":"46.19000","Longitude":"-89.45700","Snowdepth":"11.000","Units":"in","Rept_Date":"2021-01-22 13"},"coordinates":[1748,6564]},{"type":"Point","properties":{"Station_ID":"ISLV1","Station_Nam":"ISLAND POND","Latitude":"44.81280","Longitude":"-71.89020","Snowdepth":"11.000","Units":"in","Rept_Date":"2021-01-22 14"},"coordinates":[5694,5709]},{"type":"Point","properties":{"Station_ID":"FLDM5","Station_Nam":"FLOODWOOD,MN","Latitude":"47.00000","Longitude":"-92.91670","Snowdepth":"11.000","Units":"in","Rept_Date":"2021-01-22 14"},"coordinates":[971,7066]},{"type":"Point","properties":{"Station_ID":"ELYM5","Station_Nam":"ELY","Latitude":"47.90560","Longitude":"-91.82830","Snowdepth":"11.000","Units":"in","Rept_Date":"2021-01-22 14"},"coordinates":[1215,7628]},{"type":"Point","properties":{"Station_ID":"CMKW3","Station_Nam":"CLAM LAKE 4W","Latitude":"46.16940","Longitude":"-90.98080","Snowdepth":"11.000","Units":"in","Rept_Date":"2021-01-22 13"},"coordinates":[1406,6551]},{"type":"Point","properties":{"Station_ID":"BRLN3","Station_Nam":"BERLIN","Latitude":"44.45350","Longitude":"-71.18540","Snowdepth":"11.000","Units":"in","Rept_Date":"2021-01-22 12"},"coordinates":[5853,5486]},{"type":"Point","properties":{"Station_ID":"41.9034_079.6523","Station_Nam":"CORRY (CLE0230)","Latitude":"41.90340","Longitude":"-79.65230","Snowdepth":"11.000","Units":"in","Rept_Date":"2021-01-22 14"},"coordinates":[3951,3904]},{"type":"Point","properties":{"Station_ID":"QTV","Station_Nam":"QTV","Latitude":"49.66000","Longitude":"-69.35690","Snowdepth":"10.945","Units":"in","Rept_Date":"2021-01-22 12"},"coordinates":[6264,8717]},{"type":"Point","properties":{"Station_ID":"QCX","Station_Nam":"QCX","Latitude":"51.32830","Longitude":"-70.08060","Snowdepth":"10.669","Units":"in","Rept_Date":"2021-01-22 12"},"coordinates":[6101,9752]},{"type":"Point","properties":{"Station_ID":"NY-SR-22","Station_Nam":"GREENFIELD CENTER 1.6 W, NY","Latitude":"43.12684","Longitude":"-73.87860","Snowdepth":"10.500","Units":"in","Rept_Date":"2021-01-22 12"},"coordinates":[5248,4663]},{"type":"Point","properties":{"Station_ID":"NY-CQ-22","Station_Nam":"FREDONIA 0.8 WNW, NY","Latitude":"42.44414","Longitude":"-79.34610","Snowdepth":"10.500","Units":"in","Rept_Date":"2021-01-22 10"},"coordinates":[4020,4240]},{"type":"Point","properties":{"Station_ID":"FTHQ6","Station_Nam":"FORT HOPE","Latitude":"51.55820","Longitude":"-87.90510","Snowdepth":"10.430","Units":"in","Rept_Date":"2021-01-22 20"},"coordinates":[2097,9894]},{"type":"Point","properties":{"Station_ID":"VT-WR-22","Station_Nam":"ROCHESTER 0.3 NE, VT","Latitude":"43.87816","Longitude":"-72.80459","Snowdepth":"10.200","Units":"in","Rept_Date":"2021-01-22 12"},"coordinates":[5489,5129]},{"type":"Point","properties":{"Station_ID":"WI-WB-2","Station_Nam":"STONE LAKE 2.0 NW, WI","Latitude":"45.85960","Longitude":"-91.57710","Snowdepth":"10.000","Units":"in","Rept_Date":"2021-01-22 13"},"coordinates":[1272,6359]},{"type":"Point","properties":{"Station_ID":"WI-PR-2","Station_Nam":"BUTTERNUT 5.9 SW, WI","Latitude":"45.96501","Longitude":"-90.59750","Snowdepth":"10.000","Units":"in","Rept_Date":"2021-01-22 12"},"coordinates":[1492,6424]},{"type":"Point","properties":{"Station_ID":"WI-BY-29","Station_Nam":"BAYFIELD 5.1 NNW, WI","Latitude":"46.88063","Longitude":"-90.85854","Snowdepth":"10.000","Units":"in","Rept_Date":"2021-01-22 14"},"coordinates":[1433,6992]},{"type":"Point","properties":{"Station_ID":"QIQ","Station_Nam":"QIQ","Latitude":"49.82390","Longitude":"-68.54310","Snowdepth":"10.000","Units":"in","Rept_Date":"2021-01-22 12"},"coordinates":[6446,8818]},{"type":"Point","properties":{"Station_ID":"PDGM4","Station_Nam":"PAULDING","Latitude":"46.39760","Longitude":"-89.17940","Snowdepth":"10.000","Units":"in","Rept_Date":"2021-01-22 14"},"coordinates":[1810,6693]},{"type":"Point","properties":{"Station_ID":"NY-CR-5","Station_Nam":"MARATHON 1.0 NW, NY","Latitude":"42.45161","Longitude":"-76.04370","Snowdepth":"10.000","Units":"in","Rept_Date":"2021-01-22 12"},"coordinates":[4761,4244]},{"type":"Point","properties":{"Station_ID":"NY-CQ-42","Station_Nam":"DEWITTVILLE 1.0 SSE, NY","Latitude":"42.22540","Longitude":"-79.43815","Snowdepth":"10.000","Units":"in","Rept_Date":"2021-01-22 11"},"coordinates":[3999,4104]},{"type":"Point","properties":{"Station_ID":"NY-CL-7","Station_Nam":"PERU 4.1 ESE, NY","Latitude":"44.56461","Longitude":"-73.45390","Snowdepth":"10.000","Units":"in","Rept_Date":"2021-01-22 11"},"coordinates":[5343,5555]},{"type":"Point","properties":{"Station_ID":"NPTV1","Station_Nam":"NEWPORT","Latitude":"44.94900","Longitude":"-72.19120","Snowdepth":"10.000","Units":"in","Rept_Date":"2021-01-22 12"},"coordinates":[5627,5794]},{"type":"Point","properties":{"Station_ID":"NH-CS-7","Station_Nam":"LANCASTER 0.5 N, NH","Latitude":"44.49611","Longitude":"-71.57640","Snowdepth":"10.000","Units":"in","Rept_Date":"2021-01-22 11"},"coordinates":[5765,5513]},{"type":"Point","properties":{"Station_ID":"MRAM5","Station_Nam":"MORA","Latitude":"45.87760","Longitude":"-93.31470","Snowdepth":"10.000","Units":"in","Rept_Date":"2021-01-22 13"},"coordinates":[881,6370]},{"type":"Point","properties":{"Station_ID":"MN-IT-19","Station_Nam":"COHASSET 7.6 NNW, MN","Latitude":"47.34204","Longitude":"-93.69765","Snowdepth":"10.000","Units":"in","Rept_Date":"2021-01-22 13"},"coordinates":[795,7278]},{"type":"Point","properties":{"Station_ID":"MN-CN-36","Station_Nam":"CLOQUET 3.4 ENE, MN","Latitude":"46.74146","Longitude":"-92.42698","Snowdepth":"10.000","Units":"in","Rept_Date":"2021-01-22 13"},"coordinates":[1081,6906]},{"type":"Point","properties":{"Station_ID":"MI-MQ-19","Station_Nam":"ISHPEMING 7.2 SW, MI","Latitude":"46.40550","Longitude":"-87.75670","Snowdepth":"10.000","Units":"in","Rept_Date":"2021-01-22 11"},"coordinates":[2130,6697]},{"type":"Point","properties":{"Station_ID":"ME-SM-45","Station_Nam":"BRIGHTON PLANTATION 2.1 N, ME","Latitude":"45.07098","Longitude":"-69.69860","Snowdepth":"10.000","Units":"in","Rept_Date":"2021-01-22 12"},"coordinates":[6187,5869]},{"type":"Point","properties":{"Station_ID":"LEIM5","Station_Nam":"ORR 3E","Latitude":"48.05810","Longitude":"-92.75220","Snowdepth":"10.000","Units":"in","Rept_Date":"2021-01-22 12"},"coordinates":[1008,7723]},{"type":"Point","properties":{"Station_ID":"KINM1","Station_Nam":"KINGFIELD","Latitude":"44.95950","Longitude":"-70.17530","Snowdepth":"10.000","Units":"in","Rept_Date":"2021-01-22 12"},"coordinates":[6080,5800]},{"type":"Point","properties":{"Station_ID":"INL","Station_Nam":"FALLS INTERNATIONAL ARPT","Latitude":"48.56640","Longitude":"-93.40310","Snowdepth":"10.000","Units":"in","Rept_Date":"2021-01-23 00"},"coordinates":[862,8038]},{"type":"Point","properties":{"Station_ID":"INDM5","Station_Nam":"INDUS,MN","Latitude":"48.61670","Longitude":"-93.90000","Snowdepth":"10.000","Units":"in","Rept_Date":"2021-01-22 14"},"coordinates":[750,8069]},{"type":"Point","properties":{"Station_ID":"IL-SP-27","Station_Nam":"DAVIS 2.7 N, IL","Latitude":"42.46110","Longitude":"-89.40890","Snowdepth":"10.000","Units":"in","Rept_Date":"2021-01-22 13"},"coordinates":[1759,4250]},{"type":"Point","properties":{"Station_ID":"IFSM5","Station_Nam":"INTERNATIONAL FALLS SNOW","Latitude":"48.57780","Longitude":"-93.39640","Snowdepth":"10.000","Units":"in","Rept_Date":"2021-01-22 12"},"coordinates":[863,8045]},{"type":"Point","properties":{"Station_ID":"FISM1","Station_Nam":"FORT KENT COOP","Latitude":"47.23850","Longitude":"-68.61240","Snowdepth":"10.000","Units":"in","Rept_Date":"2021-01-22 11"},"coordinates":[6431,7214]},{"type":"Point","properties":{"Station_ID":"ENFV1","Station_Nam":"ENOSBURG FALLS 2","Latitude":"44.90960","Longitude":"-72.81370","Snowdepth":"10.000","Units":"in","Rept_Date":"2021-01-22 10"},"coordinates":[5487,5769]},{"type":"Point","properties":{"Station_ID":"CSLM5","Station_Nam":"CASS LAKE,MN","Latitude":"47.38470","Longitude":"-94.61470","Snowdepth":"10.000","Units":"in","Rept_Date":"2021-01-22 14"},"coordinates":[589,7305]},{"type":"Point","properties":{"Station_ID":"COTM5","Station_Nam":"COTTON","Latitude":"47.16870","Longitude":"-92.46290","Snowdepth":"10.000","Units":"in","Rept_Date":"2021-01-22 13"},"coordinates":[1073,7171]},{"type":"Point","properties":{"Station_ID":"CORV1","Station_Nam":"CORINTH","Latitude":"44.00690","Longitude":"-72.31940","Snowdepth":"10.000","Units":"in","Rept_Date":"2021-01-22 12"},"coordinates":[5598,5209]},{"type":"Point","properties":{"Station_ID":"CAN-ON-118","Station_Nam":"DURHAM 1.4 S, CAN","Latitude":"44.16525","Longitude":"-80.82064","Snowdepth":"10.000","Units":"in","Rept_Date":"2021-01-22 12"},"coordinates":[3688,5307]},{"type":"Point","properties":{"Station_ID":"BABM5","Station_Nam":"BABBITT","Latitude":"47.71210","Longitude":"-91.95330","Snowdepth":"10.000","Units":"in","Rept_Date":"2021-01-22 13"},"coordinates":[1187,7508]},{"type":"Point","properties":{"Station_ID":"42.2002_079.8021","Station_Nam":"2 ESE North East  Trained Spotter (CLE0183)","Latitude":"42.20018","Longitude":"-79.80210","Snowdepth":"10.000","Units":"in","Rept_Date":"2021-01-23 00"},"coordinates":[3917,4088]},{"type":"Point","properties":{"Station_ID":"QMA","Station_Nam":"QMA","Latitude":"50.10330","Longitude":"-70.47190","Snowdepth":"9.921","Units":"in","Rept_Date":"2021-01-22 12"},"coordinates":[6013,8992]},{"type":"Point","properties":{"Station_ID":"QLM","Station_Nam":"QLM","Latitude":"48.92030","Longitude":"-70.25280","Snowdepth":"9.803","Units":"in","Rept_Date":"2021-01-22 12"},"coordinates":[6062,8258]},{"type":"Point","properties":{"Station_ID":"WI-SR-1","Station_Nam":"HAYWARD 9.2 NNE, WI","Latitude":"46.13255","Longitude":"-91.40500","Snowdepth":"9.800","Units":"in","Rept_Date":"2021-01-22 12"},"coordinates":[1311,6528]},{"type":"Point","properties":{"Station_ID":"CATQ6","Station_Nam":"CAT LAKE","Latitude":"51.72690","Longitude":"-91.82210","Snowdepth":"9.760","Units":"in","Rept_Date":"2021-01-23 06"},"coordinates":[1217,9999]},{"type":"Point","properties":{"Station_ID":"VT-CL-23","Station_Nam":"RYEGATE 1.5 N, VT","Latitude":"44.23024","Longitude":"-72.10523","Snowdepth":"9.600","Units":"in","Rept_Date":"2021-01-22 12"},"coordinates":[5646,5348]},{"type":"Point","properties":{"Station_ID":"NH-MR-60","Station_Nam":"SOUTH SUTTON 1.3 SE, NH","Latitude":"43.29531","Longitude":"-71.90238","Snowdepth":"9.500","Units":"in","Rept_Date":"2021-01-22 13"},"coordinates":[5692,4768]},{"type":"Point","properties":{"Station_ID":"MI-AG-6","Station_Nam":"MUNISING 11.1 SSW, MI","Latitude":"46.27805","Longitude":"-86.75747","Snowdepth":"9.500","Units":"in","Rept_Date":"2021-01-22 12"},"coordinates":[2355,6618]},{"type":"Point","properties":{"Station_ID":"MA-HS-14","Station_Nam":"PLAINFIELD 2.4 ESE, MA","Latitude":"42.49792","Longitude":"-72.87769","Snowdepth":"9.500","Units":"in","Rept_Date":"2021-01-22 12"},"coordinates":[5473,4273]},{"type":"Point","properties":{"Station_ID":"CAN-ON-804","Station_Nam":"KEMBLE 1.6 S - GSCA, CAN","Latitude":"44.71013","Longitude":"-80.92735","Snowdepth":"9.400","Units":"in","Rept_Date":"2021-01-22 13"},"coordinates":[3664,5646]},{"type":"Point","properties":{"Station_ID":"CAN-NL-14","Station_Nam":"WHITBOURNE 1.4 NE, CA","Latitude":"47.42741","Longitude":"-53.51950","Snowdepth":"9.400","Units":"in","Rept_Date":"2021-01-22 13"},"coordinates":[9821,7331]},{"type":"Point","properties":{"Station_ID":"QWG","Station_Nam":"QWG","Latitude":"48.48890","Longitude":"-73.45940","Snowdepth":"9.016","Units":"in","Rept_Date":"2021-01-22 12"},"coordinates":[5342,7990]},{"type":"Point","properties":{"Station_ID":"VT-OL-24","Station_Nam":"DERBY LINE 1.9 W, VT","Latitude":"45.00454","Longitude":"-72.14170","Snowdepth":"9.000","Units":"in","Rept_Date":"2021-01-22 12"},"coordinates":[5638,5828]},{"type":"Point","properties":{"Station_ID":"VT-CH-47","Station_Nam":"SOUTH BURLINGTON 2.6 SSW, VT","Latitude":"44.42027","Longitude":"-73.19242","Snowdepth":"9.000","Units":"in","Rept_Date":"2021-01-22 13"},"coordinates":[5402,5466]},{"type":"Point","properties":{"Station_ID":"VT-CH-38","Station_Nam":"WILLISTON 0.2 WSW, VT","Latitude":"44.43669","Longitude":"-73.07154","Snowdepth":"9.000","Units":"in","Rept_Date":"2021-01-22 12"},"coordinates":[5429,5476]},{"type":"Point","properties":{"Station_ID":"VT-AD-28","Station_Nam":"MONKTON 1.5 NE, VT","Latitude":"44.26760","Longitude":"-73.09940","Snowdepth":"9.000","Units":"in","Rept_Date":"2021-01-22 12"},"coordinates":[5423,5371]},{"type":"Point","properties":{"Station_ID":"SVSN6","Station_Nam":"SILVER SPRINGS 3N","Latitude":"42.70580","Longitude":"-78.09370","Snowdepth":"9.000","Units":"in","Rept_Date":"2021-01-22 12"},"coordinates":[4301,4402]},{"type":"Point","properties":{"Station_ID":"SNOW2","Station_Nam":"SNOWSHOE","Latitude":"38.39900","Longitude":"-79.99490","Snowdepth":"9.000","Units":"in","Rept_Date":"2021-01-22 12"},"coordinates":[3874,1730]},{"type":"Point","properties":{"Station_ID":"PLEP1","Station_Nam":"PLEASANT MOUNT 1 W","Latitude":"41.73940","Longitude":"-75.44650","Snowdepth":"9.000","Units":"in","Rept_Date":"2021-01-22 12"},"coordinates":[4896,3802]},{"type":"Point","properties":{"Station_ID":"NY-WY-11","Station_Nam":"SILVER SPRINGS COOP, NY","Latitude":"42.70580","Longitude":"-78.09370","Snowdepth":"9.000","Units":"in","Rept_Date":"2021-01-22 12"},"coordinates":[4301,4402]},{"type":"Point","properties":{"Station_ID":"NY-OT-11","Station_Nam":"HARTWICK, NY","Latitude":"42.65990","Longitude":"-75.05000","Snowdepth":"9.000","Units":"in","Rept_Date":"2021-01-22 13"},"coordinates":[4985,4374]},{"type":"Point","properties":{"Station_ID":"NY-OS-20","Station_Nam":"FULTON 0.2 W, NY","Latitude":"43.31650","Longitude":"-76.41850","Snowdepth":"9.000","Units":"in","Rept_Date":"2021-01-22 13"},"coordinates":[4677,4781]},{"type":"Point","properties":{"Station_ID":"NY-GR-14","Station_Nam":"LEXINGTON 1.5 N, NY","Latitude":"42.26024","Longitude":"-74.35875","Snowdepth":"9.000","Units":"in","Rept_Date":"2021-01-22 12"},"coordinates":[5140,4126]},{"type":"Point","properties":{"Station_ID":"NY-ES-7","Station_Nam":"KEESEVILLE 0.8 SE, NY","Latitude":"44.49504","Longitude":"-73.47109","Snowdepth":"9.000","Units":"in","Rept_Date":"2021-01-22 12"},"coordinates":[5339,5512]},{"type":"Point","properties":{"Station_ID":"NY-DL-25","Station_Nam":"HOBART 4.8 ESE, NY","Latitude":"42.35230","Longitude":"-74.57830","Snowdepth":"9.000","Units":"in","Rept_Date":"2021-01-22 12"},"coordinates":[5091,4183]},{"type":"Point","properties":{"Station_ID":"NY-CR-1","Station_Nam":"FREETOWN 1.0 NE, NY","Latitude":"42.53299","Longitude":"-76.02111","Snowdepth":"9.000","Units":"in","Rept_Date":"2021-01-22 12"},"coordinates":[4766,4295]},{"type":"Point","properties":{"Station_ID":"NY-CL-12","Station_Nam":"SARANAC 0.8 SSE, NY","Latitude":"44.63980","Longitude":"-73.73848","Snowdepth":"9.000","Units":"in","Rept_Date":"2021-01-22 12"},"coordinates":[5279,5602]},{"type":"Point","properties":{"Station_ID":"NH-CR-41","Station_Nam":"ALBANY 2.8 SW, NH","Latitude":"43.92648","Longitude":"-71.21556","Snowdepth":"9.000","Units":"in","Rept_Date":"2021-01-22 13"},"coordinates":[5846,5159]},{"type":"Point","properties":{"Station_ID":"MONW3","Station_Nam":"MONROE,WI","Latitude":"42.60000","Longitude":"-89.66670","Snowdepth":"9.000","Units":"in","Rept_Date":"2021-01-22 13"},"coordinates":[1701,4336]},{"type":"Point","properties":{"Station_ID":"MN-GH-28","Station_Nam":"CANNON FALLS 0.5 SE, MN","Latitude":"44.50866","Longitude":"-92.89526","Snowdepth":"9.000","Units":"in","Rept_Date":"2021-01-22 14"},"coordinates":[976,5521]},{"type":"Point","properties":{"Station_ID":"MI-MQ-28","Station_Nam":"CARLSHEND, MI","Latitude":"46.31638","Longitude":"-87.19944","Snowdepth":"9.000","Units":"in","Rept_Date":"2021-01-22 13"},"coordinates":[2255,6642]},{"type":"Point","properties":{"Station_ID":"MI-CX-7","Station_Nam":"EAST JORDAN 2.1 NNW, MI","Latitude":"45.18639","Longitude":"-85.14750","Snowdepth":"9.000","Units":"in","Rept_Date":"2021-01-22 13"},"coordinates":[2716,5941]},{"type":"Point","properties":{"Station_ID":"MI-CP-14","Station_Nam":"SAULT STE. MARIE 2.2 E, MI","Latitude":"46.48933","Longitude":"-84.31971","Snowdepth":"9.000","Units":"in","Rept_Date":"2021-01-22 12"},"coordinates":[2902,6749]},{"type":"Point","properties":{"Station_ID":"ME-SM-4","Station_Nam":"SOLON 3.9 ESE, ME","Latitude":"44.94705","Longitude":"-69.77790","Snowdepth":"9.000","Units":"in","Rept_Date":"2021-01-22 12"},"coordinates":[6169,5793]},{"type":"Point","properties":{"Station_ID":"ME-FR-4","Station_Nam":"NEW SHARON 2.0 NW, ME","Latitude":"44.66582","Longitude":"-70.02720","Snowdepth":"9.000","Units":"in","Rept_Date":"2021-01-22 12"},"coordinates":[6113,5618]},{"type":"Point","properties":{"Station_ID":"ME-FR-22","Station_Nam":"FARMINGTON 4.8 NNW, ME","Latitude":"44.73396","Longitude":"-70.18007","Snowdepth":"9.000","Units":"in","Rept_Date":"2021-01-22 14"},"coordinates":[6079,5660]},{"type":"Point","properties":{"Station_ID":"LAUP1","Station_Nam":"1.5MI S OF RT 30 ON SMIT (LAUREL RIDGE)","Latitude":"40.05000","Longitude":"-79.22060","Snowdepth":"9.000","Units":"in","Rept_Date":"2021-01-22 12"},"coordinates":[4048,2754]},{"type":"Point","properties":{"Station_ID":"KISM4","Station_Nam":"K.I. SAWYER WWTP","Latitude":"46.33410","Longitude":"-87.37790","Snowdepth":"9.000","Units":"in","Rept_Date":"2021-01-22 13"},"coordinates":[2215,6653]},{"type":"Point","properties":{"Station_ID":"KBTV","Station_Nam":"BURLINGTON INTERNATIONAL","Latitude":"44.46666","Longitude":"-73.15000","Snowdepth":"9.000","Units":"in","Rept_Date":"2021-01-23 00"},"coordinates":[5411,5494]},{"type":"Point","properties":{"Station_ID":"IL-MCH-13","Station_Nam":"BULL VALLEY 2.5 WNW, IL","Latitude":"42.32455","Longitude":"-88.39460","Snowdepth":"9.000","Units":"in","Rept_Date":"2021-01-22 14"},"coordinates":[1987,4165]},{"type":"Point","properties":{"Station_ID":"HVJP1","Station_Nam":"HIDDEN VALLEY COOP","Latitude":"40.04200","Longitude":"-79.25660","Snowdepth":"9.000","Units":"in","Rept_Date":"2021-01-22 13"},"coordinates":[4040,2749]},{"type":"Point","properties":{"Station_ID":"HTLM4","Station_Nam":"SNOW PAID OBSERVER FOR KHTL","Latitude":"44.34470","Longitude":"-84.67730","Snowdepth":"9.000","Units":"in","Rept_Date":"2021-01-23 06"},"coordinates":[2822,5419]},{"type":"Point","properties":{"Station_ID":"HTL","Station_Nam":"ROSCOMMON COUNTY AIRPORT","Latitude":"44.35000","Longitude":"-84.66670","Snowdepth":"9.000","Units":"in","Rept_Date":"2021-01-23 00"},"coordinates":[2824,5422]},{"type":"Point","properties":{"Station_ID":"FLAM4","Station_Nam":"FIFE LAKE 2WNW","Latitude":"44.58480","Longitude":"-85.36530","Snowdepth":"9.000","Units":"in","Rept_Date":"2021-01-22 12"},"coordinates":[2667,5568]},{"type":"Point","properties":{"Station_ID":"FEDM5","Station_Nam":"LEECH LAKE DAM","Latitude":"47.24670","Longitude":"-94.22280","Snowdepth":"9.000","Units":"in","Rept_Date":"2021-01-22 14"},"coordinates":[677,7219]},{"type":"Point","properties":{"Station_ID":"EJNM4","Station_Nam":"EAST JORDAN 2NW","Latitude":"45.18630","Longitude":"-85.14770","Snowdepth":"9.000","Units":"in","Rept_Date":"2021-01-22 13"},"coordinates":[2716,5941]},{"type":"Point","properties":{"Station_ID":"CRLM5","Station_Nam":"CROSS LAKE DAM","Latitude":"46.66930","Longitude":"-94.11060","Snowdepth":"9.000","Units":"in","Rept_Date":"2021-01-22 14"},"coordinates":[703,6861]},{"type":"Point","properties":{"Station_ID":"COKM5","Station_Nam":"COOK","Latitude":"47.85060","Longitude":"-92.69250","Snowdepth":"9.000","Units":"in","Rept_Date":"2021-01-22 12"},"coordinates":[1021,7594]},{"type":"Point","properties":{"Station_ID":"CAN-ON-771","Station_Nam":"KENORA 8.7 NNE - CANWARN, CAN","Latitude":"49.84171","Longitude":"-94.44386","Snowdepth":"9.000","Units":"in","Rept_Date":"2021-01-22 13"},"coordinates":[628,8829]},{"type":"Point","properties":{"Station_ID":"CAN-NB-11","Station_Nam":"MIRAMICHI 3.3 S, CAN","Latitude":"46.99343","Longitude":"-65.50690","Snowdepth":"9.000","Units":"in","Rept_Date":"2021-01-22 10"},"coordinates":[7128,7062]},{"type":"Point","properties":{"Station_ID":"CAAW2","Station_Nam":"CANAAN VALLEY","Latitude":"39.05890","Longitude":"-79.44030","Snowdepth":"9.000","Units":"in","Rept_Date":"2021-01-22 14"},"coordinates":[3998,2139]},{"type":"Point","properties":{"Station_ID":"BTV","Station_Nam":"BURLINGTON, VT","Latitude":"44.47140","Longitude":"-73.15330","Snowdepth":"9.000","Units":"in","Rept_Date":"2021-01-23 01"},"coordinates":[5411,5497]},{"type":"Point","properties":{"Station_ID":"BKBW2","Station_Nam":"DAVIS.","Latitude":"39.09830","Longitude":"-79.43190","Snowdepth":"9.000","Units":"in","Rept_Date":"2021-01-22 12"},"coordinates":[4000,2164]},{"type":"Point","properties":{"Station_ID":"APXM4","Station_Nam":"GAYLORD 9SSW","Latitude":"44.90720","Longitude":"-84.71880","Snowdepth":"9.000","Units":"in","Rept_Date":"2021-01-23 06"},"coordinates":[2813,5768]},{"type":"Point","properties":{"Station_ID":"41.6333_080.1432","Station_Nam":"1 S Meadville  Trained Spotter (CLE0350)","Latitude":"41.63328","Longitude":"-80.14322","Snowdepth":"9.000","Units":"in","Rept_Date":"2021-01-23 02"},"coordinates":[3840,3737]},{"type":"Point","properties":{"Station_ID":"PA-CR-1","Station_Nam":"EMPORIUM 2.6 S, PA","Latitude":"41.47342","Longitude":"-78.24330","Snowdepth":"8.700","Units":"in","Rept_Date":"2021-01-22 13"},"coordinates":[4267,3637]},{"type":"Point","properties":{"Station_ID":"VT-FR-19","Station_Nam":"SWANTON 0.5 NNE, VT","Latitude":"44.92590","Longitude":"-73.12145","Snowdepth":"8.500","Units":"in","Rept_Date":"2021-01-22 12"},"coordinates":[5418,5779]},{"type":"Point","properties":{"Station_ID":"NY-CQ-41","Station_Nam":"MAYVILLE 0.2 ESE, NY","Latitude":"42.25194","Longitude":"-79.49809","Snowdepth":"8.500","Units":"in","Rept_Date":"2021-01-22 12"},"coordinates":[3985,4120]},{"type":"Point","properties":{"Station_ID":"NH-GR-47","Station_Nam":"LITTLETON 7.3 W, NH","Latitude":"44.31847","Longitude":"-71.91086","Snowdepth":"8.500","Units":"in","Rept_Date":"2021-01-22 13"},"coordinates":[5690,5403]},{"type":"Point","properties":{"Station_ID":"MN-IT-23","Station_Nam":"BOVEY 13.4 N, MN","Latitude":"47.48855","Longitude":"-93.43497","Snowdepth":"8.500","Units":"in","Rept_Date":"2021-01-22 13"},"coordinates":[854,7369]},{"type":"Point","properties":{"Station_ID":"MN-IT-17","Station_Nam":"GRAND RAPIDS 6.1 N, MN","Latitude":"47.31165","Longitude":"-93.55036","Snowdepth":"8.500","Units":"in","Rept_Date":"2021-01-22 13"},"coordinates":[829,7260]},{"type":"Point","properties":{"Station_ID":"MN-CW-44","Station_Nam":"CROSBY 1.1 SW, MN","Latitude":"46.47772","Longitude":"-93.97293","Snowdepth":"8.500","Units":"in","Rept_Date":"2021-01-22 13"},"coordinates":[734,6742]},{"type":"Point","properties":{"Station_ID":"MN-CK-18","Station_Nam":"GRAND MARAIS 4.4 WSW, MN","Latitude":"47.74462","Longitude":"-90.43796","Snowdepth":"8.500","Units":"in","Rept_Date":"2021-01-22 13"},"coordinates":[1528,7528]},{"type":"Point","properties":{"Station_ID":"ME-SM-10","Station_Nam":"NORTH NEW PORTLAND 0.3 WSW, ME","Latitude":"44.92353","Longitude":"-70.02788","Snowdepth":"8.500","Units":"in","Rept_Date":"2021-01-22 12"},"coordinates":[6113,5778]},{"type":"Point","properties":{"Station_ID":"MA-BE-24","Station_Nam":"HANCOCK 3.6 NNE, MA","Latitude":"42.59130","Longitude":"-73.29530","Snowdepth":"8.500","Units":"in","Rept_Date":"2021-01-22 17"},"coordinates":[5379,4331]},{"type":"Point","properties":{"Station_ID":"CAN-ON-451","Station_Nam":"OWEN SOUND 1.2 N - GSCA, CAN","Latitude":"44.58092","Longitude":"-80.93025","Snowdepth":"8.500","Units":"in","Rept_Date":"2021-01-22 13"},"coordinates":[3664,5565]},{"type":"Point","properties":{"Station_ID":"NY-WY-10","Station_Nam":"WYOMING COOP, NY","Latitude":"42.82060","Longitude":"-78.14810","Snowdepth":"8.300","Units":"in","Rept_Date":"2021-01-22 12"},"coordinates":[4289,4473]},{"type":"Point","properties":{"Station_ID":"CAN-NB-105","Station_Nam":"SISSON BROOK 3.8 E, CAN","Latitude":"46.98305","Longitude":"-67.32532","Snowdepth":"8.300","Units":"in","Rept_Date":"2021-01-22 12"},"coordinates":[6720,7056]},{"type":"Point","properties":{"Station_ID":"WYON6","Station_Nam":"WYOMING 3W","Latitude":"42.82020","Longitude":"-78.14780","Snowdepth":"8.000","Units":"in","Rept_Date":"2021-01-22 12"},"coordinates":[4289,4473]},{"type":"Point","properties":{"Station_ID":"WTRM4","Station_Nam":"WATERSMEET 12WSW","Latitude":"46.22310","Longitude":"-89.40850","Snowdepth":"8.000","Units":"in","Rept_Date":"2021-01-22 12"},"coordinates":[1759,6584]},{"type":"Point","properties":{"Station_ID":"WI-BY-6","Station_Nam":"BARNES 2.2 S, WI","Latitude":"46.30264","Longitude":"-91.50320","Snowdepth":"8.000","Units":"in","Rept_Date":"2021-01-22 13"},"coordinates":[1288,6634]},{"type":"Point","properties":{"Station_ID":"WELM5","Station_Nam":"WELLS","Latitude":"43.74680","Longitude":"-93.73680","Snowdepth":"8.000","Units":"in","Rept_Date":"2021-01-22 14"},"coordinates":[787,5048]},{"type":"Point","properties":{"Station_ID":"VT-RT-24","Station_Nam":"MIDDLETOWN SPRINGS 0.9 WNW, VT","Latitude":"43.49194","Longitude":"-73.13350","Snowdepth":"8.000","Units":"in","Rept_Date":"2021-01-22 12"},"coordinates":[5415,4890]},{"type":"Point","properties":{"Station_ID":"SWTW3","Station_Nam":"SUPERIOR WWTP","Latitude":"46.72700","Longitude":"-92.07200","Snowdepth":"8.000","Units":"in","Rept_Date":"2021-01-23 06"},"coordinates":[1161,6897]},{"type":"Point","properties":{"Station_ID":"RLKW3","Station_Nam":"REST LAKE","Latitude":"46.12220","Longitude":"-89.87720","Snowdepth":"8.000","Units":"in","Rept_Date":"2021-01-22 14"},"coordinates":[1654,6522]},{"type":"Point","properties":{"Station_ID":"RKWM1","Station_Nam":"MOOSEHEAD LAKE","Latitude":"45.58330","Longitude":"-69.71670","Snowdepth":"8.000","Units":"in","Rept_Date":"2021-01-22 12"},"coordinates":[6183,6187]},{"type":"Point","properties":{"Station_ID":"PHEW3","Station_Nam":"PHELPS","Latitude":"46.06630","Longitude":"-89.07520","Snowdepth":"8.000","Units":"in","Rept_Date":"2021-01-22 13"},"coordinates":[1834,6487]},{"type":"Point","properties":{"Station_ID":"NY-MD-10","Station_Nam":"CAZENOVIA 2.9 SE, NY","Latitude":"42.90003","Longitude":"-75.81140","Snowdepth":"8.000","Units":"in","Rept_Date":"2021-01-22 12"},"coordinates":[4814,4523]},{"type":"Point","properties":{"Station_ID":"NY-CQ-9","Station_Nam":"DUNKIRK 0.7 SW, NY","Latitude":"42.47167","Longitude":"-79.33360","Snowdepth":"8.000","Units":"in","Rept_Date":"2021-01-22 13"},"coordinates":[4022,4257]},{"type":"Point","properties":{"Station_ID":"NY-CN-9","Station_Nam":"NORWICH 5.4 W, NY","Latitude":"42.53356","Longitude":"-75.63060","Snowdepth":"8.000","Units":"in","Rept_Date":"2021-01-22 12"},"coordinates":[4854,4295]},{"type":"Point","properties":{"Station_ID":"NCKN6","Station_Nam":"NORTH CREEK 5 SE","Latitude":"43.66110","Longitude":"-73.89690","Snowdepth":"8.000","Units":"in","Rept_Date":"2021-01-22 12"},"coordinates":[5244,4995]},{"type":"Point","properties":{"Station_ID":"NALN6","Station_Nam":"CATTARAUGUS","Latitude":"42.32450","Longitude":"-78.86700","Snowdepth":"8.000","Units":"in","Rept_Date":"2021-01-22 13"},"coordinates":[4127,4165]},{"type":"Point","properties":{"Station_ID":"MSRN3","Station_Nam":"MASCOMA RIVER","Latitude":"43.78330","Longitude":"-72.03330","Snowdepth":"8.000","Units":"in","Rept_Date":"2021-01-23 06"},"coordinates":[5662,5071]},{"type":"Point","properties":{"Station_ID":"MN-WG-74","Station_Nam":"OAKDALE 0.4 S, MN","Latitude":"44.98208","Longitude":"-92.96510","Snowdepth":"8.000","Units":"in","Rept_Date":"2021-01-22 13"},"coordinates":[960,5814]},{"type":"Point","properties":{"Station_ID":"MN-SE-2","Station_Nam":"OWATONNA 0.8 E, MN","Latitude":"44.09170","Longitude":"-93.21380","Snowdepth":"8.000","Units":"in","Rept_Date":"2021-01-22 13"},"coordinates":[904,5262]},{"type":"Point","properties":{"Station_ID":"MN-IT-1","Station_Nam":"GRAND RAPIDS 2.0 E, MN","Latitude":"47.22266","Longitude":"-93.49600","Snowdepth":"8.000","Units":"in","Rept_Date":"2021-01-22 14"},"coordinates":[841,7204]},{"type":"Point","properties":{"Station_ID":"MN-HN-30","Station_Nam":"PLYMOUTH 2.4 ENE, MN","Latitude":"45.04063","Longitude":"-93.41950","Snowdepth":"8.000","Units":"in","Rept_Date":"2021-01-22 13"},"coordinates":[858,5851]},{"type":"Point","properties":{"Station_ID":"MN-CW-22","Station_Nam":"FORT RIPLEY 0.8 N, MN","Latitude":"46.18089","Longitude":"-94.36510","Snowdepth":"8.000","Units":"in","Rept_Date":"2021-01-22 13"},"coordinates":[646,6558]},{"type":"Point","properties":{"Station_ID":"MN-BM-15","Station_Nam":"BEMIDJI 7.8 ENE, MN","Latitude":"47.52043","Longitude":"-94.72121","Snowdepth":"8.000","Units":"in","Rept_Date":"2021-01-22 13"},"coordinates":[566,7389]},{"type":"Point","properties":{"Station_ID":"MN-BK-6","Station_Nam":"LAKE PARK 6.0 S, MN","Latitude":"46.79850","Longitude":"-96.12180","Snowdepth":"8.000","Units":"in","Rept_Date":"2021-01-22 13"},"coordinates":[251,6941]},{"type":"Point","properties":{"Station_ID":"MI-GT-21","Station_Nam":"KINGSLEY 2.7 ENE, MI","Latitude":"44.59871","Longitude":"-85.48426","Snowdepth":"8.000","Units":"in","Rept_Date":"2021-01-22 11"},"coordinates":[2641,5576]},{"type":"Point","properties":{"Station_ID":"ME-OX-2","Station_Nam":"HARTFORD 1.4 N, ME","Latitude":"44.39318","Longitude":"-70.34760","Snowdepth":"8.000","Units":"in","Rept_Date":"2021-01-22 12"},"coordinates":[6041,5449]},{"type":"Point","properties":{"Station_ID":"MCRW2","Station_Nam":"RUPERT 4N","Latitude":"38.01800","Longitude":"-80.68250","Snowdepth":"8.000","Units":"in","Rept_Date":"2021-01-22 12"},"coordinates":[3719,1494]},{"type":"Point","properties":{"Station_ID":"MA-BE-21","Station_Nam":"CHESHIRE 0.5 NNW, MA","Latitude":"42.56315","Longitude":"-73.15701","Snowdepth":"8.000","Units":"in","Rept_Date":"2021-01-22 12"},"coordinates":[5410,4313]},{"type":"Point","properties":{"Station_ID":"LUCW3","Station_Nam":"LUCK","Latitude":"45.57330","Longitude":"-92.48520","Snowdepth":"8.000","Units":"in","Rept_Date":"2021-01-22 20"},"coordinates":[1068,6181]},{"type":"Point","properties":{"Station_ID":"LKCM4","Station_Nam":"LAKE CITY EXP FARM","Latitude":"44.30880","Longitude":"-85.20500","Snowdepth":"8.000","Units":"in","Rept_Date":"2021-01-22 13"},"coordinates":[2703,5397]},{"type":"Point","properties":{"Station_ID":"KSYR","Station_Nam":"SYRACUSE HANCOCK INTERNATIONAL  AIRPORT","Latitude":"43.11666","Longitude":"-76.10000","Snowdepth":"8.000","Units":"in","Rept_Date":"2021-01-23 06"},"coordinates":[4749,4657]},{"type":"Point","properties":{"Station_ID":"JEFN3","Station_Nam":"JEFFERSON","Latitude":"44.41690","Longitude":"-71.50080","Snowdepth":"8.000","Units":"in","Rept_Date":"2021-01-22 12"},"coordinates":[5782,5464]},{"type":"Point","properties":{"Station_ID":"JCBM4","Station_Nam":"JACOBSVILLE","Latitude":"47.00830","Longitude":"-88.43180","Snowdepth":"8.000","Units":"in","Rept_Date":"2021-01-22 12"},"coordinates":[1978,7071]},{"type":"Point","properties":{"Station_ID":"ISEM5","Station_Nam":"ISLE 12N","Latitude":"46.31970","Longitude":"-93.50140","Snowdepth":"8.000","Units":"in","Rept_Date":"2021-01-22 13"},"coordinates":[840,6644]},{"type":"Point","properties":{"Station_ID":"HRTM1","Station_Nam":"HARTFORD","Latitude":"44.37440","Longitude":"-70.31620","Snowdepth":"8.000","Units":"in","Rept_Date":"2021-01-22 12"},"coordinates":[6048,5437]},{"type":"Point","properties":{"Station_ID":"EVRW3","Station_Nam":"EAGLE RIVER-4 E","Latitude":"45.91890","Longitude":"-89.15280","Snowdepth":"8.000","Units":"in","Rept_Date":"2021-01-22 13"},"coordinates":[1816,6396]},{"type":"Point","properties":{"Station_ID":"EGRW3","Station_Nam":"EAGLE RIVER-SOUTH","Latitude":"45.91360","Longitude":"-89.24360","Snowdepth":"8.000","Units":"in","Rept_Date":"2021-01-22 13"},"coordinates":[1796,6392]},{"type":"Point","properties":{"Station_ID":"DLHM5","Station_Nam":"DULUTH NWS","Latitude":"46.83680","Longitude":"-92.21080","Snowdepth":"8.000","Units":"in","Rept_Date":"2021-01-23 00"},"coordinates":[1129,6965]},{"type":"Point","properties":{"Station_ID":"DLH","Station_Nam":"DULUTH, MN","Latitude":"46.83690","Longitude":"-92.21030","Snowdepth":"8.000","Units":"in","Rept_Date":"2021-01-23 00"},"coordinates":[1130,6965]},{"type":"Point","properties":{"Station_ID":"DKKN6","Station_Nam":"DUNKIRK 1S","Latitude":"42.47180","Longitude":"-79.33370","Snowdepth":"8.000","Units":"in","Rept_Date":"2021-01-22 13"},"coordinates":[4022,4257]},{"type":"Point","properties":{"Station_ID":"DGVW3","Station_Nam":"DODGEVILLE","Latitude":"42.96670","Longitude":"-90.11670","Snowdepth":"8.000","Units":"in","Rept_Date":"2021-01-22 13"},"coordinates":[1600,4564]},{"type":"Point","properties":{"Station_ID":"CARM1","Station_Nam":"CARIBOU WFO","Latitude":"46.86810","Longitude":"-68.01250","Snowdepth":"8.000","Units":"in","Rept_Date":"2021-01-23 05"},"coordinates":[6566,6984]},{"type":"Point","properties":{"Station_ID":"CAR","Station_Nam":"CARIBOU, ME","Latitude":"46.86830","Longitude":"-68.01360","Snowdepth":"8.000","Units":"in","Rept_Date":"2021-01-22 12"},"coordinates":[6565,6985]},{"type":"Point","properties":{"Station_ID":"BFHW3","Station_Nam":"BAYFIELD FISH HATCHERY","Latitude":"46.78670","Longitude":"-90.86420","Snowdepth":"8.000","Units":"in","Rept_Date":"2021-01-22 14"},"coordinates":[1432,6934]},{"type":"Point","properties":{"Station_ID":"AMAM4","Station_Nam":"AMASA 1W","Latitude":"46.23470","Longitude":"-88.45440","Snowdepth":"8.000","Units":"in","Rept_Date":"2021-01-22 14"},"coordinates":[1973,6591]},{"type":"Point","properties":{"Station_ID":"CAN-ON-92","Station_Nam":"DUNROBIN 1.9 W - MVCA, CAN","Latitude":"45.42318","Longitude":"-76.04525","Snowdepth":"7.900","Units":"in","Rept_Date":"2021-01-22 12"},"coordinates":[4761,6088]},{"type":"Point","properties":{"Station_ID":"CAN-ON-491","Station_Nam":"MILVERTON 1.1 ESE- CANWARN, CAN","Latitude":"43.56074","Longitude":"-80.90887","Snowdepth":"7.800","Units":"in","Rept_Date":"2021-01-22 11"},"coordinates":[3668,4932]},{"type":"Point","properties":{"Station_ID":"CAN-ON-757","Station_Nam":"SAULT STE. MARIE 2.8 ESE - GLFC, CAN","Latitude":"46.50300","Longitude":"-84.30300","Snowdepth":"7.700","Units":"in","Rept_Date":"2021-01-22 13"},"coordinates":[2906,6758]},{"type":"Point","properties":{"Station_ID":"MFU","Station_Nam":"MFU","Latitude":"51.52170","Longitude":"-66.91110","Snowdepth":"7.598","Units":"in","Rept_Date":"2021-01-22 12"},"coordinates":[6813,9872]},{"type":"Point","properties":{"Station_ID":"WI-IW-3","Station_Nam":"MINERAL POINT 7.3 ENE, WI","Latitude":"42.91400","Longitude":"-90.05700","Snowdepth":"7.500","Units":"in","Rept_Date":"2021-01-22 13"},"coordinates":[1613,4531]},{"type":"Point","properties":{"Station_ID":"WI-BT-14","Station_Nam":"OAKLAND 9.0 ENE, WI","Latitude":"45.95184","Longitude":"-92.21653","Snowdepth":"7.500","Units":"in","Rept_Date":"2021-01-22 13"},"coordinates":[1128,6416]},{"type":"Point","properties":{"Station_ID":"PA-PT-2","Station_Nam":"ROULETTE 1.8 NNE, PA","Latitude":"41.80759","Longitude":"-78.14140","Snowdepth":"7.500","Units":"in","Rept_Date":"2021-01-22 12"},"coordinates":[4290,3845]},{"type":"Point","properties":{"Station_ID":"NY-OT-31","Station_Nam":"MARYLAND 1.8 W, NY","Latitude":"42.53310","Longitude":"-74.92090","Snowdepth":"7.500","Units":"in","Rept_Date":"2021-01-22 13"},"coordinates":[5014,4295]},{"type":"Point","properties":{"Station_ID":"MN-SL-115","Station_Nam":"COTTON 5.7 ESE, MN","Latitude":"47.15142","Longitude":"-92.35772","Snowdepth":"7.500","Units":"in","Rept_Date":"2021-01-22 14"},"coordinates":[1096,7160]},{"type":"Point","properties":{"Station_ID":"MN-RM-56","Station_Nam":"ROSEVILLE 1.6 NW, MN","Latitude":"45.03303","Longitude":"-93.17523","Snowdepth":"7.500","Units":"in","Rept_Date":"2021-01-22 12"},"coordinates":[913,5846]},{"type":"Point","properties":{"Station_ID":"MN-CW-54","Station_Nam":"AITKIN 9.6 W, MN","Latitude":"46.53711","Longitude":"-93.90688","Snowdepth":"7.500","Units":"in","Rept_Date":"2021-01-22 14"},"coordinates":[748,6779]},{"type":"Point","properties":{"Station_ID":"IL-CR-12","Station_Nam":"MOUNT CARROLL 6.8 NNW, IL","Latitude":"42.18735","Longitude":"-90.02185","Snowdepth":"7.500","Units":"in","Rept_Date":"2021-01-22 13"},"coordinates":[1621,4080]},{"type":"Point","properties":{"Station_ID":"IL-BN-19","Station_Nam":"BELVIDERE 5.0 NNW, IL","Latitude":"42.32071","Longitude":"-88.88282","Snowdepth":"7.500","Units":"in","Rept_Date":"2021-01-22 13"},"coordinates":[1877,4163]},{"type":"Point","properties":{"Station_ID":"CAN-NL-82","Station_Nam":"GANDER 2.7 NW, CAN","Latitude":"48.97737","Longitude":"-54.63396","Snowdepth":"7.500","Units":"in","Rept_Date":"2021-01-22 10"},"coordinates":[9571,8293]},{"type":"Point","properties":{"Station_ID":"CAN-MB-56","Station_Nam":"WINNIPEG 7.6 ENE, CAN","Latitude":"49.93264","Longitude":"-97.04752","Snowdepth":"7.500","Units":"in","Rept_Date":"2021-01-22 14"},"coordinates":[43,8886]},{"type":"Point","properties":{"Station_ID":"CAN-ON-526","Station_Nam":"HILTON BEACH 0.7 SW - MNRF, CAN","Latitude":"46.25357","Longitude":"-83.90014","Snowdepth":"7.100","Units":"in","Rept_Date":"2021-01-22 12"},"coordinates":[2996,6603]},{"type":"Point","properties":{"Station_ID":"WRIM5","Station_Nam":"WRIGHT 3E","Latitude":"46.68040","Longitude":"-92.95420","Snowdepth":"7.000","Units":"in","Rept_Date":"2021-01-22 12"},"coordinates":[962,6868]},{"type":"Point","properties":{"Station_ID":"WI-VL-14","Station_Nam":"BOULDER JUNCTION 1.4 NE, WI","Latitude":"46.12840","Longitude":"-89.62470","Snowdepth":"7.000","Units":"in","Rept_Date":"2021-01-22 13"},"coordinates":[1710,6525]},{"type":"Point","properties":{"Station_ID":"WI-RK-12","Station_Nam":"JANESVILLE 3.1 W, WI","Latitude":"42.67576","Longitude":"-89.07614","Snowdepth":"7.000","Units":"in","Rept_Date":"2021-01-22 13"},"coordinates":[1834,4383]},{"type":"Point","properties":{"Station_ID":"WI-PR-6","Station_Nam":"PHILLIPS 1.3 S, WI","Latitude":"45.67677","Longitude":"-90.39543","Snowdepth":"7.000","Units":"in","Rept_Date":"2021-01-22 12"},"coordinates":[1537,6245]},{"type":"Point","properties":{"Station_ID":"WDSV1","Station_Nam":"WOODSTOCK","Latitude":"43.63030","Longitude":"-72.50720","Snowdepth":"7.000","Units":"in","Rept_Date":"2021-01-22 13"},"coordinates":[5556,4976]},{"type":"Point","properties":{"Station_ID":"WDOM5","Station_Nam":"WINDOM","Latitude":"43.87700","Longitude":"-95.11590","Snowdepth":"7.000","Units":"in","Rept_Date":"2021-01-22 14"},"coordinates":[477,5129]},{"type":"Point","properties":{"Station_ID":"WAUI4","Station_Nam":"WAUKON","Latitude":"43.27410","Longitude":"-91.47110","Snowdepth":"7.000","Units":"in","Rept_Date":"2021-01-22 12"},"coordinates":[1296,4755]},{"type":"Point","properties":{"Station_ID":"VT-OG-14","Station_Nam":"BRADFORD 2.2 NNW, VT","Latitude":"44.02268","Longitude":"-72.14756","Snowdepth":"7.000","Units":"in","Rept_Date":"2021-01-22 11"},"coordinates":[5637,5219]},{"type":"Point","properties":{"Station_ID":"VRGV1","Station_Nam":"VERGENNES","Latitude":"44.17190","Longitude":"-73.24720","Snowdepth":"7.000","Units":"in","Rept_Date":"2021-01-22 11"},"coordinates":[5390,5312]},{"type":"Point","properties":{"Station_ID":"VQAW3","Station_Nam":"VIROQUA","Latitude":"43.55970","Longitude":"-90.87560","Snowdepth":"7.000","Units":"in","Rept_Date":"2021-01-22 13"},"coordinates":[1429,4932]},{"type":"Point","properties":{"Station_ID":"TMWN3","Station_Nam":"TAMWORTH 4","Latitude":"43.86390","Longitude":"-71.26610","Snowdepth":"7.000","Units":"in","Rept_Date":"2021-01-22 12"},"coordinates":[5835,5121]},{"type":"Point","properties":{"Station_ID":"STOW3","Station_Nam":"STOUGHTON,WI","Latitude":"42.91670","Longitude":"-89.21670","Snowdepth":"7.000","Units":"in","Rept_Date":"2021-01-22 13"},"coordinates":[1802,4533]},{"type":"Point","properties":{"Station_ID":"STOI2","Station_Nam":"STOCKTON 3 NNE","Latitude":"42.40050","Longitude":"-89.99580","Snowdepth":"7.000","Units":"in","Rept_Date":"2021-01-23 03"},"coordinates":[1627,4213]},{"type":"Point","properties":{"Station_ID":"STMM4","Station_Nam":"STAMBAUGH 2SSE","Latitude":"46.05550","Longitude":"-88.62780","Snowdepth":"7.000","Units":"in","Rept_Date":"2021-01-22 13"},"coordinates":[1934,6480]},{"type":"Point","properties":{"Station_ID":"STGW3","Station_Nam":"ST GERMAIN","Latitude":"45.91550","Longitude":"-89.48940","Snowdepth":"7.000","Units":"in","Rept_Date":"2021-01-22 12"},"coordinates":[1741,6393]},{"type":"Point","properties":{"Station_ID":"SJBV1","Station_Nam":"SAINT JOHNSBURY","Latitude":"44.42000","Longitude":"-72.01940","Snowdepth":"7.000","Units":"in","Rept_Date":"2021-01-22 21"},"coordinates":[5665,5466]},{"type":"Point","properties":{"Station_ID":"RHAN6","Station_Nam":"ALLEGANY STATE PARK","Latitude":"42.10030","Longitude":"-78.74970","Snowdepth":"7.000","Units":"in","Rept_Date":"2021-01-22 12"},"coordinates":[4153,4026]},{"type":"Point","properties":{"Station_ID":"PRQM1","Station_Nam":"PRESQUE ISLE HILLTOP","Latitude":"46.68630","Longitude":"-67.99470","Snowdepth":"7.000","Units":"in","Rept_Date":"2021-01-22 12"},"coordinates":[6570,6872]},{"type":"Point","properties":{"Station_ID":"PGVN6","Station_Nam":"PORTAGEVILLE","Latitude":"42.57580","Longitude":"-78.06720","Snowdepth":"7.000","Units":"in","Rept_Date":"2021-01-22 12"},"coordinates":[4307,4321]},{"type":"Point","properties":{"Station_ID":"OLNI4","Station_Nam":"OELWEIN 1E","Latitude":"42.68010","Longitude":"-91.87510","Snowdepth":"7.000","Units":"in","Rept_Date":"2021-01-22 12"},"coordinates":[1205,4386]},{"type":"Point","properties":{"Station_ID":"NY-ER-75","Station_Nam":"ELMA CENTER 0.7 SE, NY","Latitude":"42.81936","Longitude":"-78.62140","Snowdepth":"7.000","Units":"in","Rept_Date":"2021-01-22 14"},"coordinates":[4182,4472]},{"type":"Point","properties":{"Station_ID":"NY-ER-39","Station_Nam":"HAMBURG 0.4 WSW, NY","Latitude":"42.72253","Longitude":"-78.84330","Snowdepth":"7.000","Units":"in","Rept_Date":"2021-01-22 12"},"coordinates":[4132,4412]},{"type":"Point","properties":{"Station_ID":"NY-DL-28","Station_Nam":"FLEISCHMANNS 5.7 N, NY","Latitude":"42.23779","Longitude":"-74.52335","Snowdepth":"7.000","Units":"in","Rept_Date":"2021-01-22 12"},"coordinates":[5103,4112]},{"type":"Point","properties":{"Station_ID":"NY-DL-23","Station_Nam":"LONG EDDY 6.5 NNE, NY","Latitude":"41.93510","Longitude":"-75.07840","Snowdepth":"7.000","Units":"in","Rept_Date":"2021-01-22 13"},"coordinates":[4978,3924]},{"type":"Point","properties":{"Station_ID":"NWSM1","Station_Nam":"NEW SHARON","Latitude":"44.63520","Longitude":"-70.00020","Snowdepth":"7.000","Units":"in","Rept_Date":"2021-01-22 12"},"coordinates":[6119,5599]},{"type":"Point","properties":{"Station_ID":"NH-GR-46","Station_Nam":"ASHLAND 2.4 NNW, NH","Latitude":"43.72963","Longitude":"-71.64213","Snowdepth":"7.000","Units":"in","Rept_Date":"2021-01-22 12"},"coordinates":[5750,5037]},{"type":"Point","properties":{"Station_ID":"NH-CR-27","Station_Nam":"TAMWORTH 0.4 NNW, NH","Latitude":"43.86449","Longitude":"-71.26610","Snowdepth":"7.000","Units":"in","Rept_Date":"2021-01-22 12"},"coordinates":[5835,5121]},{"type":"Point","properties":{"Station_ID":"MYOM4","Station_Nam":"MIO WWTP","Latitude":"44.64660","Longitude":"-84.11580","Snowdepth":"7.000","Units":"in","Rept_Date":"2021-01-22 13"},"coordinates":[2948,5606]},{"type":"Point","properties":{"Station_ID":"MN-SH-985","Station_Nam":"PRINCETON 3.3 WSW, MN","Latitude":"45.55211","Longitude":"-93.64481","Snowdepth":"7.000","Units":"in","Rept_Date":"2021-01-22 10"},"coordinates":[807,6168]},{"type":"Point","properties":{"Station_ID":"MN-KB-17","Station_Nam":"MORA 2.5 S, MN","Latitude":"45.84100","Longitude":"-93.29700","Snowdepth":"7.000","Units":"in","Rept_Date":"2021-01-22 13"},"coordinates":[885,6347]},{"type":"Point","properties":{"Station_ID":"MN-HN-31","Station_Nam":"MAPLE GROVE 1.0 NNE, MN","Latitude":"45.12261","Longitude":"-93.45790","Snowdepth":"7.000","Units":"in","Rept_Date":"2021-01-22 16"},"coordinates":[849,5901]},{"type":"Point","properties":{"Station_ID":"MN-CG-16","Station_Nam":"NORTH BRANCH 1.3 NNW, MN","Latitude":"45.53121","Longitude":"-92.97110","Snowdepth":"7.000","Units":"in","Rept_Date":"2021-01-22 12"},"coordinates":[959,6155]},{"type":"Point","properties":{"Station_ID":"ME-AR-15","Station_Nam":"PRESQUE ISLE 1.3 WSW, ME","Latitude":"46.67960","Longitude":"-68.01270","Snowdepth":"7.000","Units":"in","Rept_Date":"2021-01-22 13"},"coordinates":[6566,6867]},{"type":"Point","properties":{"Station_ID":"LTVN6","Station_Nam":"LITTLE VALLEY","Latitude":"42.24730","Longitude":"-78.81250","Snowdepth":"7.000","Units":"in","Rept_Date":"2021-01-22 12"},"coordinates":[4139,4118]},{"type":"Point","properties":{"Station_ID":"KSEM4","Station_Nam":"KALKASKA 11SE","Latitude":"44.58970","Longitude":"-85.04860","Snowdepth":"7.000","Units":"in","Rept_Date":"2021-01-22 13"},"coordinates":[2738,5571]},{"type":"Point","properties":{"Station_ID":"IL-JD-8","Station_Nam":"STOCKTON 3.4 NNE, IL","Latitude":"42.39960","Longitude":"-89.99020","Snowdepth":"7.000","Units":"in","Rept_Date":"2021-01-22 13"},"coordinates":[1628,4212]},{"type":"Point","properties":{"Station_ID":"HRVM4","Station_Nam":"HARVEY","Latitude":"46.49080","Longitude":"-87.35470","Snowdepth":"7.000","Units":"in","Rept_Date":"2021-01-22 12"},"coordinates":[2220,6750]},{"type":"Point","properties":{"Station_ID":"FARM1","Station_Nam":"FARMINGTON","Latitude":"44.68930","Longitude":"-70.15640","Snowdepth":"7.000","Units":"in","Rept_Date":"2021-01-22 12"},"coordinates":[6084,5633]},{"type":"Point","properties":{"Station_ID":"ELKM5","Station_Nam":"ELK RIVER","Latitude":"45.30470","Longitude":"-93.58420","Snowdepth":"7.000","Units":"in","Rept_Date":"2021-01-22 13"},"coordinates":[821,6014]},{"type":"Point","properties":{"Station_ID":"DLNW3","Station_Nam":"WALWORTH COUNTYMETROPOLITAN SEWERAGE DISTRICT (DELEVAN)","Latitude":"42.63440","Longitude":"-88.66280","Snowdepth":"7.000","Units":"in","Rept_Date":"2021-01-22 14"},"coordinates":[1927,4358]},{"type":"Point","properties":{"Station_ID":"DFXM1","Station_Nam":"DOVER-FOXCROFT","Latitude":"45.18720","Longitude":"-69.18350","Snowdepth":"7.000","Units":"in","Rept_Date":"2021-01-22 12"},"coordinates":[6303,5942]},{"type":"Point","properties":{"Station_ID":"DELN6","Station_Nam":"DELHI 2 SE","Latitude":"42.25580","Longitude":"-74.91270","Snowdepth":"7.000","Units":"in","Rept_Date":"2021-01-22 13"},"coordinates":[5015,4123]},{"type":"Point","properties":{"Station_ID":"CSPP1","Station_Nam":"COUDERSPORT 1 SW","Latitude":"41.77500","Longitude":"-78.04170","Snowdepth":"7.000","Units":"in","Rept_Date":"2021-01-22 12"},"coordinates":[4313,3824]},{"type":"Point","properties":{"Station_ID":"CNKN6","Station_Nam":"CONKLINGVILLE DAM","Latitude":"43.32030","Longitude":"-73.92560","Snowdepth":"7.000","Units":"in","Rept_Date":"2021-01-22 13"},"coordinates":[5237,4783]},{"type":"Point","properties":{"Station_ID":"CLTV1","Station_Nam":"CHARLOTTE","Latitude":"44.31060","Longitude":"-73.24950","Snowdepth":"7.000","Units":"in","Rept_Date":"2021-01-22 21"},"coordinates":[5389,5398]},{"type":"Point","properties":{"Station_ID":"CLDM5","Station_Nam":"CALEDONIA","Latitude":"43.63090","Longitude":"-91.50270","Snowdepth":"7.000","Units":"in","Rept_Date":"2021-01-22 13"},"coordinates":[1289,4976]},{"type":"Point","properties":{"Station_ID":"CJRP1","Station_Nam":"COUDERSPORT 7SE","Latitude":"41.73920","Longitude":"-77.97110","Snowdepth":"7.000","Units":"in","Rept_Date":"2021-01-22 12"},"coordinates":[4328,3802]},{"type":"Point","properties":{"Station_ID":"CBLW3","Station_Nam":"CUMBERLAND","Latitude":"45.53310","Longitude":"-92.02260","Snowdepth":"7.000","Units":"in","Rept_Date":"2021-01-22 13"},"coordinates":[1172,6156]},{"type":"Point","properties":{"Station_ID":"CAN-ON-208","Station_Nam":"PAKENHAM 7.8 NNW, CAN","Latitude":"45.39166","Longitude":"-76.34111","Snowdepth":"7.000","Units":"in","Rept_Date":"2021-01-22 12"},"coordinates":[4695,6068]},{"type":"Point","properties":{"Station_ID":"CAN-NS-103","Station_Nam":"TRAFALGAR 4.9 WSW, CAN","Latitude":"45.26217","Longitude":"-62.72285","Snowdepth":"7.000","Units":"in","Rept_Date":"2021-01-22 12"},"coordinates":[7754,5988]},{"type":"Point","properties":{"Station_ID":"CAN-NB-64","Station_Nam":"KESWICK RIDGE 4.0 SE, CAN","Latitude":"45.97014","Longitude":"-66.85538","Snowdepth":"7.000","Units":"in","Rept_Date":"2021-01-22 13"},"coordinates":[6826,6427]},{"type":"Point","properties":{"Station_ID":"BRAM5","Station_Nam":"BRAINERD","Latitude":"46.34320","Longitude":"-94.20900","Snowdepth":"7.000","Units":"in","Rept_Date":"2021-01-22 13"},"coordinates":[681,6659]},{"type":"Point","properties":{"Station_ID":"41.9996_080.1669","Station_Nam":"MCKEAN  SNOW SPOTTER (X4200802)","Latitude":"41.99960","Longitude":"-80.16690","Snowdepth":"7.000","Units":"in","Rept_Date":"2021-01-22 23"},"coordinates":[3835,3964]},{"type":"Point","properties":{"Station_ID":"WI-WK-61","Station_Nam":"HARTLAND 5.0 NNE, WI","Latitude":"43.16351","Longitude":"-88.30400","Snowdepth":"6.500","Units":"in","Rept_Date":"2021-01-22 13"},"coordinates":[2007,4686]},{"type":"Point","properties":{"Station_ID":"WI-DA-99","Station_Nam":"FITCHBURG 1.1 NW, WI","Latitude":"42.99740","Longitude":"-89.44046","Snowdepth":"6.500","Units":"in","Rept_Date":"2021-01-22 13"},"coordinates":[1752,4583]},{"type":"Point","properties":{"Station_ID":"WI-BY-1","Station_Nam":"BAYFIELD 8.8 N, WI","Latitude":"46.93855","Longitude":"-90.83490","Snowdepth":"6.500","Units":"in","Rept_Date":"2021-01-22 13"},"coordinates":[1439,7028]},{"type":"Point","properties":{"Station_ID":"NY-OS-38","Station_Nam":"MEXICO COOP, NY","Latitude":"43.43830","Longitude":"-76.26570","Snowdepth":"6.500","Units":"in","Rept_Date":"2021-01-22 12"},"coordinates":[4712,4856]},{"type":"Point","properties":{"Station_ID":"NY-ER-50","Station_Nam":"EAST AURORA 0.1 ENE, NY","Latitude":"42.76750","Longitude":"-78.61580","Snowdepth":"6.500","Units":"in","Rept_Date":"2021-01-22 12"},"coordinates":[4184,4440]},{"type":"Point","properties":{"Station_ID":"NY-BM-14","Station_Nam":"WHITNEY POINT 1.7 SSE, NY","Latitude":"42.30837","Longitude":"-75.95690","Snowdepth":"6.500","Units":"in","Rept_Date":"2021-01-22 12"},"coordinates":[4781,4155]},{"type":"Point","properties":{"Station_ID":"NH-GR-49","Station_Nam":"PLYMOUTH 3.7 N, NH","Latitude":"43.79048","Longitude":"-71.68413","Snowdepth":"6.500","Units":"in","Rept_Date":"2021-01-22 12"},"coordinates":[5741,5075]},{"type":"Point","properties":{"Station_ID":"MN-RM-120","Station_Nam":"MAPLEWOOD 5.6 SSE, MN","Latitude":"44.90588","Longitude":"-92.99712","Snowdepth":"6.500","Units":"in","Rept_Date":"2021-01-22 15"},"coordinates":[953,5767]},{"type":"Point","properties":{"Station_ID":"MN-BK-16","Station_Nam":"PARK RAPIDS 15.3 NW, MN","Latitude":"47.08653","Longitude":"-95.26951","Snowdepth":"6.500","Units":"in","Rept_Date":"2021-01-22 14"},"coordinates":[442,7120]},{"type":"Point","properties":{"Station_ID":"MI-CF-9","Station_Nam":"GRAYLING 15.8 NE, MI","Latitude":"44.80464","Longitude":"-84.46313","Snowdepth":"6.500","Units":"in","Rept_Date":"2021-01-22 12"},"coordinates":[2870,5704]},{"type":"Point","properties":{"Station_ID":"IL-SP-6","Station_Nam":"FREEPORT 2.0 NW, IL","Latitude":"42.30955","Longitude":"-89.66370","Snowdepth":"6.500","Units":"in","Rept_Date":"2021-01-22 13"},"coordinates":[1702,4156]},{"type":"Point","properties":{"Station_ID":"IL-SP-25","Station_Nam":"FREEPORT 1.7 NW, IL","Latitude":"42.30427","Longitude":"-89.66285","Snowdepth":"6.500","Units":"in","Rept_Date":"2021-01-22 13"},"coordinates":[1702,4153]},{"type":"Point","properties":{"Station_ID":"IA-JH-20","Station_Nam":"CORALVILLE 1.4 S, IA","Latitude":"41.67016","Longitude":"-91.60296","Snowdepth":"6.500","Units":"in","Rept_Date":"2021-01-22 14"},"coordinates":[1266,3759]},{"type":"Point","properties":{"Station_ID":"HPN08_MADIS","Station_Nam":"ORONO","Latitude":"44.93630","Longitude":"-93.62000","Snowdepth":"6.500","Units":"in","Rept_Date":"2021-01-23 06"},"coordinates":[813,5786]},{"type":"Point","properties":{"Station_ID":"CAN-QC-16","Station_Nam":"SAINT-ARMAND 3.6 W, CAN","Latitude":"45.02631","Longitude":"-73.08795","Snowdepth":"6.500","Units":"in","Rept_Date":"2021-01-22 12"},"coordinates":[5425,5842]},{"type":"Point","properties":{"Station_ID":"CAN-NL-65","Station_Nam":"KIPPENS 0.7 NE, CA","Latitude":"48.55436","Longitude":"-58.61850","Snowdepth":"6.500","Units":"in","Rept_Date":"2021-01-22 12"},"coordinates":[8676,8031]},{"type":"Point","properties":{"Station_ID":"CAN-NB-97","Station_Nam":"NEW MARYLAND 0.6 NW, CAN","Latitude":"45.90112","Longitude":"-66.68739","Snowdepth":"6.500","Units":"in","Rept_Date":"2021-01-22 12"},"coordinates":[6863,6384]},{"type":"Point","properties":{"Station_ID":"HPN09_MADIS","Station_Nam":"PLYMOUTH","Latitude":"44.98992","Longitude":"-93.47910","Snowdepth":"6.400","Units":"in","Rept_Date":"2021-01-23 06"},"coordinates":[845,5819]},{"type":"Point","properties":{"Station_ID":"HPN02_MADIS","Station_Nam":"MAPLE GROVE","Latitude":"45.11820","Longitude":"-93.42830","Snowdepth":"6.400","Units":"in","Rept_Date":"2021-01-23 06"},"coordinates":[856,5899]},{"type":"Point","properties":{"Station_ID":"HPN19_MADIS","Station_Nam":"GREENFIELD","Latitude":"45.20343","Longitude":"-93.69130","Snowdepth":"6.350","Units":"in","Rept_Date":"2021-01-23 06"},"coordinates":[797,5952]},{"type":"Point","properties":{"Station_ID":"NY-ER-96","Station_Nam":"ELMA 2.7 WSW, NY","Latitude":"42.81004","Longitude":"-78.68130","Snowdepth":"6.200","Units":"in","Rept_Date":"2021-01-22 12"},"coordinates":[4169,4467]},{"type":"Point","properties":{"Station_ID":"HPN20_MADIS","Station_Nam":"HOPKINS","Latitude":"44.95556","Longitude":"-93.41140","Snowdepth":"6.200","Units":"in","Rept_Date":"2021-01-23 06"},"coordinates":[860,5798]},{"type":"Point","properties":{"Station_ID":"WI-WK-74","Station_Nam":"BROOKFIELD 2.8 SSW, WI","Latitude":"43.02390","Longitude":"-88.13760","Snowdepth":"6.100","Units":"in","Rept_Date":"2021-01-22 13"},"coordinates":[2045,4599]},{"type":"Point","properties":{"Station_ID":"WTBW3","Station_Nam":"WEST BEND PUBLIC WORKS","Latitude":"43.41110","Longitude":"-88.19380","Snowdepth":"6.000","Units":"in","Rept_Date":"2021-01-22 15"},"coordinates":[2032,4840]},{"type":"Point","properties":{"Station_ID":"WRUM5","Station_Nam":"WARROAD 4W","Latitude":"48.89600","Longitude":"-95.40700","Snowdepth":"6.000","Units":"in","Rept_Date":"2021-01-23 04"},"coordinates":[411,8243]},{"type":"Point","properties":{"Station_ID":"WRNM5","Station_Nam":"WORTHINGTON,MN","Latitude":"43.65440","Longitude":"-95.57920","Snowdepth":"6.000","Units":"in","Rept_Date":"2021-01-22 13"},"coordinates":[373,4991]},{"type":"Point","properties":{"Station_ID":"WODI2","Station_Nam":"WOODSTOCK","Latitude":"42.36280","Longitude":"-88.53140","Snowdepth":"6.000","Units":"in","Rept_Date":"2021-01-22 13"},"coordinates":[1956,4189]},{"type":"Point","properties":{"Station_ID":"WMTI4","Station_Nam":"FORT DODGE,IA","Latitude":"42.50610","Longitude":"-94.20110","Snowdepth":"6.000","Units":"in","Rept_Date":"2021-01-22 13"},"coordinates":[682,4278]},{"type":"Point","properties":{"Station_ID":"WLXP1","Station_Nam":"GLEN HAZEL,PA","Latitude":"41.56670","Longitude":"-78.60000","Snowdepth":"6.000","Units":"in","Rept_Date":"2021-01-22 12"},"coordinates":[4187,3695]},{"type":"Point","properties":{"Station_ID":"WI-PR-8","Station_Nam":"PHILLIPS 0.4 SSW, WI","Latitude":"45.69086","Longitude":"-90.40200","Snowdepth":"6.000","Units":"in","Rept_Date":"2021-01-22 13"},"coordinates":[1536,6254]},{"type":"Point","properties":{"Station_ID":"WI-PC-5","Station_Nam":"RIVER FALLS 1.2 SSW, WI","Latitude":"44.84032","Longitude":"-92.63500","Snowdepth":"6.000","Units":"in","Rept_Date":"2021-01-22 13"},"coordinates":[1034,5726]},{"type":"Point","properties":{"Station_ID":"WI-JF-17","Station_Nam":"JOHNSON CREEK 2.7 SSW, WI","Latitude":"43.04559","Longitude":"-88.79925","Snowdepth":"6.000","Units":"in","Rept_Date":"2021-01-22 13"},"coordinates":[1896,4613]},{"type":"Point","properties":{"Station_ID":"WI-BR-2","Station_Nam":"CHETEK 2.0 SE, WI","Latitude":"45.29427","Longitude":"-91.62470","Snowdepth":"6.000","Units":"in","Rept_Date":"2021-01-22 13"},"coordinates":[1261,6008]},{"type":"Point","properties":{"Station_ID":"VT-OL-25","Station_Nam":"NEWPORT 1.5 WSW, VT","Latitude":"44.93059","Longitude":"-72.23731","Snowdepth":"6.000","Units":"in","Rept_Date":"2021-01-22 12"},"coordinates":[5616,5782]},{"type":"Point","properties":{"Station_ID":"VANM1","Station_Nam":"VAN BUREN","Latitude":"47.16600","Longitude":"-67.93900","Snowdepth":"6.000","Units":"in","Rept_Date":"2021-01-22 12"},"coordinates":[6582,7169]},