{"type":"Topology","objects":{"snowdepth_geo":{"type":"GeometryCollection","name":"snowdepth","crs":{"type":"name","properties":{"name":"urn:ogc:def:crs:OGC:1.3:CRS84"}},"geometries":[{"type":"Point","properties":{"Station_ID":"PRKM4","Station_Nam":"MUNISING EAST","Latitude":"46.42580","Longitude":"-86.62000","Snowdepth":"76.500","Units":"in","Rept_Date":"2020-04-03 06"},"coordinates":[2482,6701]},{"type":"Point","properties":{"Station_ID":"HTLN3","Station_Nam":"HERMIT LAKE SNOWPLOT","Latitude":"44.26130","Longitude":"-71.28330","Snowdepth":"65.000","Units":"in","Rept_Date":"2020-04-02 09"},"coordinates":[6086,5354]},{"type":"Point","properties":{"Station_ID":"OGIQ6","Station_Nam":"OGOKI CAMP","Latitude":"50.76680","Longitude":"-87.85820","Snowdepth":"61.100","Units":"in","Rept_Date":"2020-04-03 06"},"coordinates":[2191,9402]},{"type":"Point","properties":{"Station_ID":"HVCN3","Station_Nam":"HARVARD CABIN SNOWPLOT","Latitude":"44.26630","Longitude":"-71.27790","Snowdepth":"54.000","Units":"in","Rept_Date":"2020-04-02 09"},"coordinates":[6088,5357]},{"type":"Point","properties":{"Station_ID":"AUDQ6","Station_Nam":"AUDEN","Latitude":"48.52600","Longitude":"-82.57570","Snowdepth":"47.640","Units":"in","Rept_Date":"2020-04-03 06"},"coordinates":[3433,8008]},{"type":"Point","properties":{"Station_ID":"DVLQ6","Station_Nam":"DEVIOUS LAKE","Latitude":"49.19890","Longitude":"-87.76440","Snowdepth":"43.460","Units":"in","Rept_Date":"2020-04-03 06"},"coordinates":[2213,8426]},{"type":"Point","properties":{"Station_ID":"PDLM4","Station_Nam":"PAINESDALE","Latitude":"47.04160","Longitude":"-88.67170","Snowdepth":"38.000","Units":"in","Rept_Date":"2020-04-02 12"},"coordinates":[2000,7084]},{"type":"Point","properties":{"Station_ID":"CAN-NL-82","Station_Nam":"GANDER 2.7 NW, CAN","Latitude":"48.97737","Longitude":"-54.63396","Snowdepth":"32.300","Units":"in","Rept_Date":"2020-04-02 10"},"coordinates":[9999,8288]},{"type":"Point","properties":{"Station_ID":"ME-AR-18","Station_Nam":"NEW SWEDEN 4.9 NNW, ME","Latitude":"47.01080","Longitude":"-68.14390","Snowdepth":"29.500","Units":"in","Rept_Date":"2020-04-02 12"},"coordinates":[6824,7065]},{"type":"Point","properties":{"Station_ID":"WLFM5","Station_Nam":"WOLF RIDGE ENVIRON LEARNING CENTER","Latitude":"47.38240","Longitude":"-91.19730","Snowdepth":"28.000","Units":"in","Rept_Date":"2020-04-02 12"},"coordinates":[1407,7296]},{"type":"Point","properties":{"Station_ID":"MNSM4","Station_Nam":"MUNISING","Latitude":"46.41210","Longitude":"-86.66250","Snowdepth":"27.000","Units":"in","Rept_Date":"2020-04-02 10"},"coordinates":[2472,6692]},{"type":"Point","properties":{"Station_ID":"CAN-NB-13","Station_Nam":"BATHURST 3.8 NW, CAN","Latitude":"47.64212","Longitude":"-65.68756","Snowdepth":"27.000","Units":"in","Rept_Date":"2020-04-02 11"},"coordinates":[7401,7458]},{"type":"Point","properties":{"Station_ID":"CAN-QC-47","Station_Nam":"SAINTE-FOY 1.8 ENE, CAN","Latitude":"46.76934","Longitude":"-71.27124","Snowdepth":"26.000","Units":"in","Rept_Date":"2020-04-02 12"},"coordinates":[6089,6915]},{"type":"Point","properties":{"Station_ID":"KSGM4","Station_Nam":"KEARSARGE","Latitude":"47.27520","Longitude":"-88.41700","Snowdepth":"25.000","Units":"in","Rept_Date":"2020-04-02 12"},"coordinates":[2060,7229]},{"type":"Point","properties":{"Station_ID":"CAN-NB-11","Station_Nam":"MIRAMICHI 3.3 S, CAN","Latitude":"46.99343","Longitude":"-65.50690","Snowdepth":"24.000","Units":"in","Rept_Date":"2020-04-02 11"},"coordinates":[7444,7054]},{"type":"Point","properties":{"Station_ID":"HERM4","Station_Nam":"HERMAN,MI","Latitude":"46.65000","Longitude":"-88.33330","Snowdepth":"23.000","Units":"in","Rept_Date":"2020-04-02 12"},"coordinates":[2080,6840]},{"type":"Point","properties":{"Station_ID":"FISM1","Station_Nam":"FORT KENT COOP","Latitude":"47.23850","Longitude":"-68.61240","Snowdepth":"23.000","Units":"in","Rept_Date":"2020-04-02 11"},"coordinates":[6714,7207]},{"type":"Point","properties":{"Station_ID":"MQT","Station_Nam":"MARQUETTE, MI","Latitude":"46.53140","Longitude":"-87.54920","Snowdepth":"22.000","Units":"in","Rept_Date":"2020-04-03 06"},"coordinates":[2264,6767]},{"type":"Point","properties":{"Station_ID":"MI-BG-3","Station_Nam":"L'ANSE 17.8 SE, MI","Latitude":"46.55730","Longitude":"-88.20770","Snowdepth":"22.000","Units":"in","Rept_Date":"2020-04-02 13"},"coordinates":[2109,6783]},{"type":"Point","properties":{"Station_ID":"CARM1","Station_Nam":"CARIBOU WFO","Latitude":"46.86810","Longitude":"-68.01250","Snowdepth":"22.000","Units":"in","Rept_Date":"2020-04-03 04"},"coordinates":[6855,6976]},{"type":"Point","properties":{"Station_ID":"CAR","Station_Nam":"CARIBOU, ME","Latitude":"46.86830","Longitude":"-68.01360","Snowdepth":"22.000","Units":"in","Rept_Date":"2020-04-02 12"},"coordinates":[6855,6976]},{"type":"Point","properties":{"Station_ID":"CAN-NB-105","Station_Nam":"SISSON BROOK 3.8 E, CAN","Latitude":"46.98305","Longitude":"-67.32532","Snowdepth":"22.000","Units":"in","Rept_Date":"2020-04-02 12"},"coordinates":[7017,7048]},{"type":"Point","properties":{"Station_ID":"PTLQ6","Station_Nam":"PORTAGE LAKE","Latitude":"49.06950","Longitude":"-86.65940","Snowdepth":"21.810","Units":"in","Rept_Date":"2020-04-03 06"},"coordinates":[2473,8346]},{"type":"Point","properties":{"Station_ID":"TRIQ6","Station_Nam":"TRIO LAKE","Latitude":"49.22880","Longitude":"-87.22920","Snowdepth":"21.380","Units":"in","Rept_Date":"2020-04-03 06"},"coordinates":[2339,8445]},{"type":"Point","properties":{"Station_ID":"ME-FR-2","Station_Nam":"TEMPLE 1.8 W, ME","Latitude":"44.68329","Longitude":"-70.26420","Snowdepth":"21.000","Units":"in","Rept_Date":"2020-04-02 11"},"coordinates":[6326,5617]},{"type":"Point","properties":{"Station_ID":"VANM1","Station_Nam":"VAN BUREN","Latitude":"47.16600","Longitude":"-67.93900","Snowdepth":"20.000","Units":"in","Rept_Date":"2020-04-02 11"},"coordinates":[6872,7161]},{"type":"Point","properties":{"Station_ID":"STEM4","Station_Nam":"STEUBEN","Latitude":"46.18530","Longitude":"-86.46410","Snowdepth":"20.000","Units":"in","Rept_Date":"2020-04-02 13"},"coordinates":[2519,6551]},{"type":"Point","properties":{"Station_ID":"IBLM5","Station_Nam":"ISABELLA 14W","Latitude":"47.59360","Longitude":"-91.65140","Snowdepth":"19.000","Units":"in","Rept_Date":"2020-04-02 14"},"coordinates":[1300,7428]},{"type":"Point","properties":{"Station_ID":"CAN-NB-96","Station_Nam":"SAINT-IGNACE 2.6 NE, CAN","Latitude":"46.71424","Longitude":"-65.05609","Snowdepth":"18.900","Units":"in","Rept_Date":"2020-04-02 11"},"coordinates":[7550,6880]},{"type":"Point","properties":{"Station_ID":"RGNM1","Station_Nam":"RANGELEY 2NW","Latitude":"44.98940","Longitude":"-70.67220","Snowdepth":"18.000","Units":"in","Rept_Date":"2020-04-02 10"},"coordinates":[6230,5807]},{"type":"Point","properties":{"Station_ID":"ME-AR-15","Station_Nam":"PRESQUE ISLE 1.3 WSW, ME","Latitude":"46.67960","Longitude":"-68.01270","Snowdepth":"17.000","Units":"in","Rept_Date":"2020-04-02 12"},"coordinates":[6855,6859]},{"type":"Point","properties":{"Station_ID":"DFXM1","Station_Nam":"DOVER-FOXCROFT","Latitude":"45.18720","Longitude":"-69.18350","Snowdepth":"17.000","Units":"in","Rept_Date":"2020-04-02 11"},"coordinates":[6580,5930]},{"type":"Point","properties":{"Station_ID":"PRDM4","Station_Nam":"PARADISE","Latitude":"46.60380","Longitude":"-85.03960","Snowdepth":"16.000","Units":"in","Rept_Date":"2020-04-02 10"},"coordinates":[2854,6812]},{"type":"Point","properties":{"Station_ID":"MI-HG-6","Station_Nam":"CALUMET 5.8 ENE, MI","Latitude":"47.27200","Longitude":"-88.33400","Snowdepth":"16.000","Units":"in","Rept_Date":"2020-04-02 11"},"coordinates":[2080,7227]},{"type":"Point","properties":{"Station_ID":"CAN-NS-60","Station_Nam":"SYDNEY FORKS, CAN","Latitude":"46.05645","Longitude":"-60.31510","Snowdepth":"16.000","Units":"in","Rept_Date":"2020-04-02 13"},"coordinates":[8664,6471]},{"type":"Point","properties":{"Station_ID":"BRAM1","Station_Nam":"BRASSUA DAM","Latitude":"45.66020","Longitude":"-69.81190","Snowdepth":"16.000","Units":"in","Rept_Date":"2020-04-02 11"},"coordinates":[6432,6225]},{"type":"Point","properties":{"Station_ID":"RKWM1","Station_Nam":"MOOSEHEAD LAKE","Latitude":"45.58330","Longitude":"-69.71670","Snowdepth":"15.000","Units":"in","Rept_Date":"2020-04-02 11"},"coordinates":[6455,6177]},{"type":"Point","properties":{"Station_ID":"MI-HG-1","Station_Nam":"HOUGHTON 1.6 ESE, MI","Latitude":"47.10774","Longitude":"-88.52940","Snowdepth":"15.000","Units":"in","Rept_Date":"2020-04-02 13"},"coordinates":[2034,7125]},{"type":"Point","properties":{"Station_ID":"MN-CK-18","Station_Nam":"GRAND MARAIS 4.4 WSW, MN","Latitude":"47.74462","Longitude":"-90.43796","Snowdepth":"14.500","Units":"in","Rept_Date":"2020-04-02 13"},"coordinates":[1585,7521]},{"type":"Point","properties":{"Station_ID":"SVBQ6","Station_Nam":"SAVANT BASE","Latitude":"50.28730","Longitude":"-90.65670","Snowdepth":"14.450","Units":"in","Rept_Date":"2020-04-03 06"},"coordinates":[1534,9103]},{"type":"Point","properties":{"Station_ID":"WRPW3","Station_Nam":"WATER PURIFICATION PLANT","Latitude":"44.38800","Longitude":"-89.80550","Snowdepth":"14.000","Units":"in","Rept_Date":"2020-04-02 11"},"coordinates":[1734,5433]},{"type":"Point","properties":{"Station_ID":"WI-VL-9","Station_Nam":"LAND O' LAKES 11.7 W, WI","Latitude":"46.19023","Longitude":"-89.45790","Snowdepth":"14.000","Units":"in","Rept_Date":"2020-04-02 13"},"coordinates":[1815,6554]},{"type":"Point","properties":{"Station_ID":"VT-OL-12","Station_Nam":"GREENSBORO 3.9 NNE, VT","Latitude":"44.63100","Longitude":"-72.28000","Snowdepth":"14.000","Units":"in","Rept_Date":"2020-04-02 12"},"coordinates":[5852,5584]},{"type":"Point","properties":{"Station_ID":"MI-MQ-19","Station_Nam":"ISHPEMING 7.2 SW, MI","Latitude":"46.40550","Longitude":"-87.75670","Snowdepth":"14.000","Units":"in","Rept_Date":"2020-04-02 11"},"coordinates":[2215,6688]},{"type":"Point","properties":{"Station_ID":"LNOW3","Station_Nam":"LAND O LAKES","Latitude":"46.19000","Longitude":"-89.45700","Snowdepth":"14.000","Units":"in","Rept_Date":"2020-04-02 12"},"coordinates":[1816,6554]},{"type":"Point","properties":{"Station_ID":"KISM4","Station_Nam":"K.I. SAWYER WWTP","Latitude":"46.33410","Longitude":"-87.37790","Snowdepth":"14.000","Units":"in","Rept_Date":"2020-04-02 12"},"coordinates":[2304,6644]},{"type":"Point","properties":{"Station_ID":"CAN-NS-103","Station_Nam":"TRAFALGAR 4.9 WSW, CAN","Latitude":"45.26217","Longitude":"-62.72285","Snowdepth":"14.000","Units":"in","Rept_Date":"2020-04-02 12"},"coordinates":[8098,5977]},{"type":"Point","properties":{"Station_ID":"ME-FR-22","Station_Nam":"FARMINGTON 4.8 NNW, ME","Latitude":"44.73396","Longitude":"-70.18007","Snowdepth":"13.500","Units":"in","Rept_Date":"2020-04-02 14"},"coordinates":[6346,5648]},{"type":"Point","properties":{"Station_ID":"VT-CL-3","Station_Nam":"GROTON 4.4 WSW, VT","Latitude":"44.19440","Longitude":"-72.28240","Snowdepth":"13.000","Units":"in","Rept_Date":"2020-04-02 11"},"coordinates":[5852,5313]},{"type":"Point","properties":{"Station_ID":"RANM1","Station_Nam":"RANGELEY","Latitude":"44.98910","Longitude":"-70.67190","Snowdepth":"13.000","Units":"in","Rept_Date":"2020-04-02 10"},"coordinates":[6230,5807]},{"type":"Point","properties":{"Station_ID":"MI-GG-4","Station_Nam":"WATERSMEET 5.0 SE, MI","Latitude":"46.20333","Longitude":"-89.13170","Snowdepth":"13.000","Units":"in","Rept_Date":"2020-04-02 14"},"coordinates":[1892,6563]},{"type":"Point","properties":{"Station_ID":"LVDW3","Station_Nam":"LAC VIEUX DESERT","Latitude":"46.12110","Longitude":"-89.07580","Snowdepth":"13.000","Units":"in","Rept_Date":"2020-04-02 13"},"coordinates":[1905,6511]},{"type":"Point","properties":{"Station_ID":"GHMN3","Station_Nam":"PINKHAM NOTCH","Latitude":"44.25800","Longitude":"-71.25250","Snowdepth":"13.000","Units":"in","Rept_Date":"2020-04-02 10"},"coordinates":[6094,5352]},{"type":"Point","properties":{"Station_ID":"WI-VL-10","Station_Nam":"LAND O LAKES 4.3 WNW, WI","Latitude":"46.17440","Longitude":"-89.30380","Snowdepth":"12.500","Units":"in","Rept_Date":"2020-04-02 13"},"coordinates":[1852,6545]},{"type":"Point","properties":{"Station_ID":"MWN","Station_Nam":"MOUNT WASHINGTON","Latitude":"44.26670","Longitude":"-71.30000","Snowdepth":"12.000","Units":"in","Rept_Date":"2020-04-03 04"},"coordinates":[6083,5358]},{"type":"Point","properties":{"Station_ID":"KMWN","Station_Nam":"MOUNT WASHINGTON","Latitude":"44.26666","Longitude":"-71.30000","Snowdepth":"12.000","Units":"in","Rept_Date":"2020-04-03 06"},"coordinates":[6083,5358]},{"type":"Point","properties":{"Station_ID":"CRVW3","Station_Nam":"CRIVITZ HIGH FALLS","Latitude":"45.35750","Longitude":"-88.19190","Snowdepth":"12.000","Units":"in","Rept_Date":"2020-04-02 12"},"coordinates":[2113,6036]},{"type":"Point","properties":{"Station_ID":"CAN-NB-18","Station_Nam":"MCLEOD HILL 1.1 ENE, CA","Latitude":"46.02725","Longitude":"-66.67460","Snowdepth":"12.000","Units":"in","Rept_Date":"2020-04-02 12"},"coordinates":[7169,6453]},{"type":"Point","properties":{"Station_ID":"CAN-NB-2","Station_Nam":"GRAFTON 2.7 NNE, CA","Latitude":"46.17062","Longitude":"-67.55330","Snowdepth":"10.500","Units":"in","Rept_Date":"2020-04-02 10"},"coordinates":[6963,6542]},{"type":"Point","properties":{"Station_ID":"SUAW3","Station_Nam":"SUAMICO","Latitude":"44.60190","Longitude":"-88.09780","Snowdepth":"10.000","Units":"in","Rept_Date":"2020-04-02 11"},"coordinates":[2135,5566]},{"type":"Point","properties":{"Station_ID":"NOHM5","Station_Nam":"NORTHOME","Latitude":"47.83590","Longitude":"-94.25550","Snowdepth":"10.000","Units":"in","Rept_Date":"2020-04-02 12"},"coordinates":[688,7578]},{"type":"Point","properties":{"Station_ID":"NH-CS-10","Station_Nam":"RANDOLPH 1.4 NE, NH","Latitude":"44.38824","Longitude":"-71.26950","Snowdepth":"10.000","Units":"in","Rept_Date":"2020-04-02 12"},"coordinates":[6090,5433]},{"type":"Point","properties":{"Station_ID":"NH-CR-15","Station_Nam":"JACKSON 3.7 NW, NH","Latitude":"44.19069","Longitude":"-71.22598","Snowdepth":"10.000","Units":"in","Rept_Date":"2020-04-02 12"},"coordinates":[6100,5310]},{"type":"Point","properties":{"Station_ID":"MIEM4","Station_Nam":"MICHIGAMME 3WNW","Latitude":"46.54530","Longitude":"-88.18000","Snowdepth":"10.000","Units":"in","Rept_Date":"2020-04-02 12"},"coordinates":[2116,6775]},{"type":"Point","properties":{"Station_ID":"JKMM1","Station_Nam":"JACKMAN","Latitude":"45.62600","Longitude":"-70.24600","Snowdepth":"10.000","Units":"in","Rept_Date":"2020-04-02 11"},"coordinates":[6330,6203]},{"type":"Point","properties":{"Station_ID":"GRFN8","Station_Nam":"UNIVERSITY","Latitude":"47.93330","Longitude":"-97.08330","Snowdepth":"10.000","Units":"in","Rept_Date":"2020-04-03 05"},"coordinates":[24,7639]},{"type":"Point","properties":{"Station_ID":"GLDM4","Station_Nam":"GLADSTONE NO. 2","Latitude":"45.84330","Longitude":"-87.03910","Snowdepth":"10.000","Units":"in","Rept_Date":"2020-04-02 11"},"coordinates":[2384,6339]},{"type":"Point","properties":{"Station_ID":"CLKM4","Station_Nam":"CLARKSBURG","Latitude":"46.49910","Longitude":"-87.84500","Snowdepth":"10.000","Units":"in","Rept_Date":"2020-04-02 11"},"coordinates":[2194,6747]},{"type":"Point","properties":{"Station_ID":"BRDM1","Station_Nam":"BRIDGEWATER","Latitude":"46.42870","Longitude":"-67.84370","Snowdepth":"10.000","Units":"in","Rept_Date":"2020-04-02 22"},"coordinates":[6895,6703]},{"type":"Point","properties":{"Station_ID":"BBEM4","Station_Nam":"BIG BAY 9SW","Latitude":"46.74620","Longitude":"-87.88160","Snowdepth":"10.000","Units":"in","Rept_Date":"2020-04-02 12"},"coordinates":[2186,6900]},{"type":"Point","properties":{"Station_ID":"KABQ6","Station_Nam":"CAB LAKE","Latitude":"49.59950","Longitude":"-89.17990","Snowdepth":"9.650","Units":"in","Rept_Date":"2020-04-03 06"},"coordinates":[1881,8675]},{"type":"Point","properties":{"Station_ID":"WI-IR-3","Station_Nam":"PENCE 0.1 E, WI","Latitude":"46.41555","Longitude":"-90.27013","Snowdepth":"9.000","Units":"in","Rept_Date":"2020-04-02 13"},"coordinates":[1625,6695]},{"type":"Point","properties":{"Station_ID":"MN-IT-23","Station_Nam":"BOVEY 13.4 N, MN","Latitude":"47.48855","Longitude":"-93.43497","Snowdepth":"9.000","Units":"in","Rept_Date":"2020-04-02 13"},"coordinates":[881,7362]},{"type":"Point","properties":{"Station_ID":"MN-IT-10","Station_Nam":"DEER RIVER 3.7 W, MN","Latitude":"47.33564","Longitude":"-93.87514","Snowdepth":"9.000","Units":"in","Rept_Date":"2020-04-02 14"},"coordinates":[777,7267]},{"type":"Point","properties":{"Station_ID":"MN-CK-6","Station_Nam":"GRAND MARAIS 4.4 W, MN","Latitude":"47.74865","Longitude":"-90.43760","Snowdepth":"9.000","Units":"in","Rept_Date":"2020-04-02 13"},"coordinates":[1585,7524]},{"type":"Point","properties":{"Station_ID":"ME-FR-4","Station_Nam":"NEW SHARON 2.0 NW, ME","Latitude":"44.66582","Longitude":"-70.02720","Snowdepth":"9.000","Units":"in","Rept_Date":"2020-04-02 12"},"coordinates":[6382,5606]},{"type":"Point","properties":{"Station_ID":"LILM1","Station_Nam":"LILLE","Latitude":"47.27770","Longitude":"-68.10520","Snowdepth":"9.000","Units":"in","Rept_Date":"2020-04-02 11"},"coordinates":[6833,7231]},{"type":"Point","properties":{"Station_ID":"KINM1","Station_Nam":"KINGFIELD","Latitude":"44.95950","Longitude":"-70.17530","Snowdepth":"9.000","Units":"in","Rept_Date":"2020-04-02 11"},"coordinates":[6347,5789]},{"type":"Point","properties":{"Station_ID":"CAN-PE-7","Station_Nam":"MORELL 1.4 NNW, CA","Latitude":"46.42741","Longitude":"-62.70870","Snowdepth":"9.000","Units":"in","Rept_Date":"2020-04-02 11"},"coordinates":[8101,6702]},{"type":"Point","properties":{"Station_ID":"CAN-PE-3","Station_Nam":"WELLINGTON 1.6 NE, CA","Latitude":"46.46672","Longitude":"-63.98920","Snowdepth":"8.500","Units":"in","Rept_Date":"2020-04-02 11"},"coordinates":[7801,6726]},{"type":"Point","properties":{"Station_ID":"WNBM5","Station_Nam":"DAM","Latitude":"47.43060","Longitude":"-94.05000","Snowdepth":"8.000","Units":"in","Rept_Date":"2020-04-02 13"},"coordinates":[736,7326]},{"type":"Point","properties":{"Station_ID":"SUTV1","Station_Nam":"SUTTON","Latitude":"44.61220","Longitude":"-72.04810","Snowdepth":"8.000","Units":"in","Rept_Date":"2020-04-02 12"},"coordinates":[5907,5573]},{"type":"Point","properties":{"Station_ID":"SSMM4","Station_Nam":"SAULT STE MARIE","Latitude":"46.48660","Longitude":"-84.40250","Snowdepth":"8.000","Units":"in","Rept_Date":"2020-04-02 12"},"coordinates":[3003,6739]},{"type":"Point","properties":{"Station_ID":"PDGM4","Station_Nam":"PAULDING","Latitude":"46.39760","Longitude":"-89.17940","Snowdepth":"8.000","Units":"in","Rept_Date":"2020-04-02 13"},"coordinates":[1881,6683]},{"type":"Point","properties":{"Station_ID":"MN7TCHCK","Station_Nam":"COOK 0.2 ENE","Latitude":"47.85225","Longitude":"-92.68378","Snowdepth":"8.000","Units":"in","Rept_Date":"2020-04-02 11"},"coordinates":[1057,7588]},{"type":"Point","properties":{"Station_ID":"MN-SL-15","Station_Nam":"CHISHOLM 0.4 WSW, MN","Latitude":"47.48557","Longitude":"-92.88690","Snowdepth":"8.000","Units":"in","Rept_Date":"2020-04-02 12"},"coordinates":[1010,7360]},{"type":"Point","properties":{"Station_ID":"MN-CN-19","Station_Nam":"ESKO 1.1 NE, MN","Latitude":"46.71861","Longitude":"-92.34760","Snowdepth":"8.000","Units":"in","Rept_Date":"2020-04-02 13"},"coordinates":[1136,6883]},{"type":"Point","properties":{"Station_ID":"FEDM5","Station_Nam":"LEECH LAKE DAM","Latitude":"47.24670","Longitude":"-94.22280","Snowdepth":"8.000","Units":"in","Rept_Date":"2020-04-02 13"},"coordinates":[696,7212]},{"type":"Point","properties":{"Station_ID":"DLHM5","Station_Nam":"DULUTH NWS","Latitude":"46.83680","Longitude":"-92.21080","Snowdepth":"8.000","Units":"in","Rept_Date":"2020-04-02 18"},"coordinates":[1169,6957]},{"type":"Point","properties":{"Station_ID":"COKM5","Station_Nam":"COOK","Latitude":"47.85060","Longitude":"-92.69250","Snowdepth":"8.000","Units":"in","Rept_Date":"2020-04-02 11"},"coordinates":[1055,7587]},{"type":"Point","properties":{"Station_ID":"BNDM5","Station_Nam":"ELY 25E","Latitude":"47.97190","Longitude":"-91.44860","Snowdepth":"8.000","Units":"in","Rept_Date":"2020-04-02 12"},"coordinates":[1348,7663]},{"type":"Point","properties":{"Station_ID":"BABM5","Station_Nam":"BABBITT","Latitude":"47.71210","Longitude":"-91.95330","Snowdepth":"8.000","Units":"in","Rept_Date":"2020-04-02 12"},"coordinates":[1229,7501]},{"type":"Point","properties":{"Station_ID":"AVLV1","Station_Nam":"AVERILL","Latitude":"45.00570","Longitude":"-71.69030","Snowdepth":"8.000","Units":"in","Rept_Date":"2020-04-02 12"},"coordinates":[5991,5817]},{"type":"Point","properties":{"Station_ID":"ANJM4","Station_Nam":"SNOW PAID OBSERVER FOR KANJ","Latitude":"46.48670","Longitude":"-84.40260","Snowdepth":"8.000","Units":"in","Rept_Date":"2020-04-02 12"},"coordinates":[3003,6739]},{"type":"Point","properties":{"Station_ID":"ANJ","Station_Nam":"SAULT STE MARIE","Latitude":"46.46670","Longitude":"-84.36670","Snowdepth":"8.000","Units":"in","Rept_Date":"2020-04-03 00"},"coordinates":[3012,6726]},{"type":"Point","properties":{"Station_ID":"MN-IT-17","Station_Nam":"GRAND RAPIDS 6.1 N, MN","Latitude":"47.31165","Longitude":"-93.55036","Snowdepth":"7.500","Units":"in","Rept_Date":"2020-04-02 13"},"coordinates":[854,7252]},{"type":"Point","properties":{"Station_ID":"SOCQ6","Station_Nam":"SOCKET LAKE","Latitude":"50.77870","Longitude":"-91.79300","Snowdepth":"7.400","Units":"in","Rept_Date":"2020-04-03 06"},"coordinates":[1267,9409]},{"type":"Point","properties":{"Station_ID":"WI-VL-14","Station_Nam":"BOULDER JUNCTION 1.4 NE, WI","Latitude":"46.12840","Longitude":"-89.62470","Snowdepth":"7.000","Units":"in","Rept_Date":"2020-04-02 13"},"coordinates":[1776,6516]},{"type":"Point","properties":{"Station_ID":"VT-BN-12","Station_Nam":"STAMFORD 5.0 NNE, VT","Latitude":"42.82000","Longitude":"-73.02000","Snowdepth":"7.000","Units":"in","Rept_Date":"2020-04-02 21"},"coordinates":[5678,4458]},{"type":"Point","properties":{"Station_ID":"MN7M8EBJ","Station_Nam":"LUTSEN 15.7 NNW","Latitude":"47.85324","Longitude":"-89.92908","Snowdepth":"7.000","Units":"in","Rept_Date":"2020-04-02 13"},"coordinates":[1705,7589]},{"type":"Point","properties":{"Station_ID":"LEIM5","Station_Nam":"ORR 3E","Latitude":"48.05810","Longitude":"-92.75220","Snowdepth":"7.000","Units":"in","Rept_Date":"2020-04-02 11"},"coordinates":[1041,7716]},{"type":"Point","properties":{"Station_ID":"IRMM4","Station_Nam":"WWTP","Latitude":"46.46670","Longitude":"-90.18330","Snowdepth":"7.000","Units":"in","Rept_Date":"2020-04-02 12"},"coordinates":[1645,6726]},{"type":"Point","properties":{"Station_ID":"EMBM5","Station_Nam":"EMBARASS,MN","Latitude":"47.65810","Longitude":"-92.19580","Snowdepth":"7.000","Units":"in","Rept_Date":"2020-04-02 11"},"coordinates":[1172,7468]},{"type":"Point","properties":{"Station_ID":"DLH","Station_Nam":"DULUTH, MN","Latitude":"46.83690","Longitude":"-92.21030","Snowdepth":"7.000","Units":"in","Rept_Date":"2020-04-03 00"},"coordinates":[1169,6957]},{"type":"Point","properties":{"Station_ID":"CRLM5","Station_Nam":"CROSS LAKE DAM","Latitude":"46.66930","Longitude":"-94.11060","Snowdepth":"7.000","Units":"in","Rept_Date":"2020-04-02 13"},"coordinates":[722,6852]},{"type":"Point","properties":{"Station_ID":"WI-BY-14","Station_Nam":"ASHLAND 9.8 W, WI","Latitude":"46.59742","Longitude":"-91.07856","Snowdepth":"6.500","Units":"in","Rept_Date":"2020-04-02 12"},"coordinates":[1435,6808]},{"type":"Point","properties":{"Station_ID":"CAN-NB-97","Station_Nam":"NEW MARYLAND 0.6 NW, CAN","Latitude":"45.90112","Longitude":"-66.68739","Snowdepth":"6.300","Units":"in","Rept_Date":"2020-04-02 11"},"coordinates":[7166,6375]},{"type":"Point","properties":{"Station_ID":"TOPM1","Station_Nam":"TOPSFIELD","Latitude":"45.43470","Longitude":"-67.72020","Snowdepth":"6.000","Units":"in","Rept_Date":"2020-04-02 11"},"coordinates":[6924,6084]},{"type":"Point","properties":{"Station_ID":"LBKV1","Station_Nam":"LYE BROOK","Latitude":"43.05000","Longitude":"-73.03330","Snowdepth":"6.000","Units":"in","Rept_Date":"2020-04-03 05"},"coordinates":[5675,4601]},{"type":"Point","properties":{"Station_ID":"KABM5","Station_Nam":"KABETOGAMA LAKE VISITOR CTR","Latitude":"48.40880","Longitude":"-93.04840","Snowdepth":"6.000","Units":"in","Rept_Date":"2020-04-02 12"},"coordinates":[972,7935]},{"type":"Point","properties":{"Station_ID":"BTLN3","Station_Nam":"BARTLETT","Latitude":"44.08380","Longitude":"-71.29340","Snowdepth":"6.000","Units":"in","Rept_Date":"2020-04-02 11"},"coordinates":[6084,5244]},{"type":"Point","properties":{"Station_ID":"MI-CP-14","Station_Nam":"SAULT STE. MARIE 2.2 E, MI","Latitude":"46.48933","Longitude":"-84.31971","Snowdepth":"5.500","Units":"in","Rept_Date":"2020-04-02 13"},"coordinates":[3023,6740]},{"type":"Point","properties":{"Station_ID":"CAN-NS-163","Station_Nam":"SYDNEY MINES 2.2 WNW, CAN","Latitude":"46.24851","Longitude":"-60.25161","Snowdepth":"5.100","Units":"in","Rept_Date":"2020-04-02 12"},"coordinates":[8679,6591]},{"type":"Point","properties":{"Station_ID":"WTNM4","Station_Nam":"WATTON 2WSW","Latitude":"46.52660","Longitude":"-88.64240","Snowdepth":"5.000","Units":"in","Rept_Date":"2020-04-02 12"},"coordinates":[2007,6764]},{"type":"Point","properties":{"Station_ID":"WRSM5","Station_Nam":"WRENSHALL","Latitude":"46.61550","Longitude":"-92.38380","Snowdepth":"5.000","Units":"in","Rept_Date":"2020-04-02 13"},"coordinates":[1128,6819]},{"type":"Point","properties":{"Station_ID":"WI-BY-1","Station_Nam":"BAYFIELD 8.8 N, WI","Latitude":"46.93855","Longitude":"-90.83490","Snowdepth":"5.000","Units":"in","Rept_Date":"2020-04-02 12"},"coordinates":[1492,7020]},{"type":"Point","properties":{"Station_ID":"PTBN3","Station_Nam":"PITTSBURG RESERVOIR","Latitude":"45.04690","Longitude":"-71.38300","Snowdepth":"5.000","Units":"in","Rept_Date":"2020-04-02 12"},"coordinates":[6063,5843]},{"type":"Point","properties":{"Station_ID":"PRNW3","Station_Nam":"PRENTICE,WI","Latitude":"45.54780","Longitude":"-90.30000","Snowdepth":"5.000","Units":"in","Rept_Date":"2020-04-02 13"},"coordinates":[1618,6155]},{"type":"Point","properties":{"Station_ID":"PHEW3","Station_Nam":"PHELPS","Latitude":"46.06630","Longitude":"-89.07520","Snowdepth":"5.000","Units":"in","Rept_Date":"2020-04-02 12"},"coordinates":[1905,6477]},{"type":"Point","properties":{"Station_ID":"NH-CS-4","Station_Nam":"PITTSBURG 6.1 NE, NH","Latitude":"45.11060","Longitude":"-71.29760","Snowdepth":"5.000","Units":"in","Rept_Date":"2020-04-02 12"},"coordinates":[6083,5883]},{"type":"Point","properties":{"Station_ID":"MTLT1","Station_Nam":"GATLINBURG,TN","Latitude":"35.65500","Longitude":"-83.44110","Snowdepth":"5.000","Units":"in","Rept_Date":"2020-04-02 12"},"coordinates":[3229,0]},{"type":"Point","properties":{"Station_ID":"MN6JKRHL","Station_Nam":"TOFTE 0.6 SSW","Latitude":"47.56557","Longitude":"-90.84117","Snowdepth":"5.000","Units":"in","Rept_Date":"2020-04-02 12"},"coordinates":[1490,7410]},{"type":"Point","properties":{"Station_ID":"MN-IT-7","Station_Nam":"GRAND RAPIDS 6.2 SSW, MN","Latitude":"47.13687","Longitude":"-93.56660","Snowdepth":"5.000","Units":"in","Rept_Date":"2020-04-02 12"},"coordinates":[850,7143]},{"type":"Point","properties":{"Station_ID":"ME-OX-2","Station_Nam":"HARTFORD 1.4 N, ME","Latitude":"44.39318","Longitude":"-70.34760","Snowdepth":"5.000","Units":"in","Rept_Date":"2020-04-02 14"},"coordinates":[6306,5436]},{"type":"Point","properties":{"Station_ID":"ILGM5","Station_Nam":"ILLGEN CITY 2 N","Latitude":"47.37000","Longitude":"-91.16570","Snowdepth":"5.000","Units":"in","Rept_Date":"2020-04-02 12"},"coordinates":[1414,7288]},{"type":"Point","properties":{"Station_ID":"HRVM4","Station_Nam":"HARVEY","Latitude":"46.49080","Longitude":"-87.35470","Snowdepth":"5.000","Units":"in","Rept_Date":"2020-04-02 12"},"coordinates":[2310,6741]},{"type":"Point","properties":{"Station_ID":"GRBM5","Station_Nam":"GRAND RAPIDS 12N","Latitude":"47.39800","Longitude":"-93.51330","Snowdepth":"5.000","Units":"in","Rept_Date":"2020-04-02 11"},"coordinates":[862,7306]},{"type":"Point","properties":{"Station_ID":"GGRM4","Station_Nam":"GREEN GARDEN NO.2","Latitude":"46.45330","Longitude":"-87.30380","Snowdepth":"5.000","Units":"in","Rept_Date":"2020-04-02 12"},"coordinates":[2322,6718]},{"type":"Point","properties":{"Station_ID":"FLNW3","Station_Nam":"FLORENCE","Latitude":"45.93360","Longitude":"-88.25830","Snowdepth":"5.000","Units":"in","Rept_Date":"2020-04-02 12"},"coordinates":[2097,6395]},{"type":"Point","properties":{"Station_ID":"EVRW3","Station_Nam":"EAGLE RIVER-4 E","Latitude":"45.91890","Longitude":"-89.15280","Snowdepth":"5.000","Units":"in","Rept_Date":"2020-04-02 12"},"coordinates":[1887,6386]},{"type":"Point","properties":{"Station_ID":"ELYM5","Station_Nam":"ELY","Latitude":"47.90560","Longitude":"-91.82830","Snowdepth":"5.000","Units":"in","Rept_Date":"2020-04-02 14"},"coordinates":[1258,7622]},{"type":"Point","properties":{"Station_ID":"AMAM4","Station_Nam":"AMASA 1W","Latitude":"46.23470","Longitude":"-88.45440","Snowdepth":"5.000","Units":"in","Rept_Date":"2020-04-02 13"},"coordinates":[2051,6582]},{"type":"Point","properties":{"Station_ID":"VT-ES-3","Station_Nam":"LUNENBURG 2.3 NNW, VT","Latitude":"44.49324","Longitude":"-71.70446","Snowdepth":"4.000","Units":"in","Rept_Date":"2020-04-02 11"},"coordinates":[5987,5499]},{"type":"Point","properties":{"Station_ID":"VT-BN-3","Station_Nam":"LANDGROVE 1.1 NNE, VT","Latitude":"43.29092","Longitude":"-72.83260","Snowdepth":"4.000","Units":"in","Rept_Date":"2020-04-02 12"},"coordinates":[5722,4751]},{"type":"Point","properties":{"Station_ID":"TAKW3","Station_Nam":"RICE RESERVOIR NO. 2","Latitude":"45.53770","Longitude":"-89.73220","Snowdepth":"4.000","Units":"in","Rept_Date":"2020-04-02 12"},"coordinates":[1751,6148]},{"type":"Point","properties":{"Station_ID":"PKGM5","Station_Nam":"POKEGANA LK DAM","Latitude":"47.25080","Longitude":"-93.58610","Snowdepth":"4.000","Units":"in","Rept_Date":"2020-04-02 13"},"coordinates":[845,7214]},{"type":"Point","properties":{"Station_ID":"NH-CR-26","Station_Nam":"CENTER SANDWICH 4.9 E, NH","Latitude":"43.80976","Longitude":"-71.34150","Snowdepth":"4.000","Units":"in","Rept_Date":"2020-04-02 11"},"coordinates":[6073,5073]},{"type":"Point","properties":{"Station_ID":"JCBM4","Station_Nam":"JACOBSVILLE","Latitude":"47.00830","Longitude":"-88.43180","Snowdepth":"4.000","Units":"in","Rept_Date":"2020-04-02 11"},"coordinates":[2057,7063]},{"type":"Point","properties":{"Station_ID":"ESDN3","Station_Nam":"EAST SANDWICH","Latitude":"43.80990","Longitude":"-71.34250","Snowdepth":"4.000","Units":"in","Rept_Date":"2020-04-02 10"},"coordinates":[6073,5074]},{"type":"Point","properties":{"Station_ID":"COVM4","Station_Nam":"COVINGTON","Latitude":"46.55880","Longitude":"-88.54190","Snowdepth":"4.000","Units":"in","Rept_Date":"2020-04-02 12"},"coordinates":[2031,6784]},{"type":"Point","properties":{"Station_ID":"CAN-NB-1","Station_Nam":"FREDERICTON 4.0 SSE, CA","Latitude":"45.92897","Longitude":"-66.62830","Snowdepth":"3.700","Units":"in","Rept_Date":"2020-04-02 12"},"coordinates":[7180,6392]},{"type":"Point","properties":{"Station_ID":"VT-OL-9","Station_Nam":"GREENSBORO 2.1 NNW, VT","Latitude":"44.60528","Longitude":"-72.30940","Snowdepth":"3.500","Units":"in","Rept_Date":"2020-04-02 12"},"coordinates":[5845,5568]},{"type":"Point","properties":{"Station_ID":"MNV905PW","Station_Nam":"ROOSEVELT 5.3 N","Latitude":"48.87933","Longitude":"-95.08224","Snowdepth":"3.000","Units":"in","Rept_Date":"2020-04-02 12"},"coordinates":[494,8227]},{"type":"Point","properties":{"Station_ID":"INL","Station_Nam":"FALLS INTERNATIONAL ARPT","Latitude":"48.56640","Longitude":"-93.40310","Snowdepth":"3.000","Units":"in","Rept_Date":"2020-04-03 00"},"coordinates":[888,8033]},{"type":"Point","properties":{"Station_ID":"IMNM4","Station_Nam":"IRON MOUTAIN 5N","Latitude":"45.87580","Longitude":"-88.04030","Snowdepth":"3.000","Units":"in","Rept_Date":"2020-04-02 13"},"coordinates":[2149,6359]},{"type":"Point","properties":{"Station_ID":"IFSM5","Station_Nam":"INTERNATIONAL FALLS SNOW","Latitude":"48.57780","Longitude":"-93.39640","Snowdepth":"3.000","Units":"in","Rept_Date":"2020-04-03 06"},"coordinates":[890,8040]},{"type":"Point","properties":{"Station_ID":"COTM5","Station_Nam":"COTTON","Latitude":"47.16870","Longitude":"-92.46290","Snowdepth":"3.000","Units":"in","Rept_Date":"2020-04-02 12"},"coordinates":[1109,7163]},{"type":"Point","properties":{"Station_ID":"CORV1","Station_Nam":"CORINTH","Latitude":"44.00690","Longitude":"-72.31940","Snowdepth":"3.000","Units":"in","Rept_Date":"2020-04-02 11"},"coordinates":[5843,5196]},{"type":"Point","properties":{"Station_ID":"CAN-PE-10","Station_Nam":"NEW LONDON 1.6 ENE, CA","Latitude":"46.46985","Longitude":"-63.49200","Snowdepth":"2.800","Units":"in","Rept_Date":"2020-04-02 12"},"coordinates":[7917,6728]},{"type":"Point","properties":{"Station_ID":"ND-GF-8","Station_Nam":"GRAND FORKS 2.5 SE, ND","Latitude":"47.89136","Longitude":"-97.03386","Snowdepth":"2.700","Units":"in","Rept_Date":"2020-04-02 19"},"coordinates":[35,7613]},{"type":"Point","properties":{"Station_ID":"CATQ6","Station_Nam":"CAT LAKE","Latitude":"51.72690","Longitude":"-91.82210","Snowdepth":"2.400","Units":"in","Rept_Date":"2020-04-03 06"},"coordinates":[1260,9999]},{"type":"Point","properties":{"Station_ID":"WI-ON-6","Station_Nam":"RHINELANDER 5.2 N, WI","Latitude":"45.71388","Longitude":"-89.42150","Snowdepth":"2.000","Units":"in","Rept_Date":"2020-04-02 14"},"coordinates":[1824,6258]},{"type":"Point","properties":{"Station_ID":"SSSS2","Station_Nam":"MILBANK-36MI.NW","Latitude":"45.66670","Longitude":"-97.00000","Snowdepth":"2.000","Units":"in","Rept_Date":"2020-04-03 03"},"coordinates":[43,6229]},{"type":"Point","properties":{"Station_ID":"SNOW2","Station_Nam":"SNOWSHOE","Latitude":"38.39900","Longitude":"-79.99490","Snowdepth":"2.000","Units":"in","Rept_Date":"2020-04-02 10"},"coordinates":[4039,1707]},{"type":"Point","properties":{"Station_ID":"RFDM1","Station_Nam":"RUMFORD 7SW","Latitude":"44.49470","Longitude":"-70.65640","Snowdepth":"2.000","Units":"in","Rept_Date":"2020-04-02 13"},"coordinates":[6234,5500]},{"type":"Point","properties":{"Station_ID":"NUMN3","Station_Nam":"NORTHUMBERLAND","Latitude":"44.52830","Longitude":"-71.50440","Snowdepth":"2.000","Units":"in","Rept_Date":"2020-04-02 12"},"coordinates":[6034,5520]},{"type":"Point","properties":{"Station_ID":"NH-GR-49","Station_Nam":"PLYMOUTH 3.7 N, NH","Latitude":"43.79048","Longitude":"-71.68413","Snowdepth":"2.000","Units":"in","Rept_Date":"2020-04-02 12"},"coordinates":[5992,5061]},{"type":"Point","properties":{"Station_ID":"MN-IT-1","Station_Nam":"GRAND RAPIDS 2.0 E, MN","Latitude":"47.22266","Longitude":"-93.49600","Snowdepth":"2.000","Units":"in","Rept_Date":"2020-04-02 13"},"coordinates":[867,7197]},{"type":"Point","properties":{"Station_ID":"MN-BM-15","Station_Nam":"BEMIDJI 7.8 ENE, MN","Latitude":"47.52043","Longitude":"-94.72121","Snowdepth":"2.000","Units":"in","Rept_Date":"2020-04-02 13"},"coordinates":[579,7382]},{"type":"Point","properties":{"Station_ID":"LNCM1","Station_Nam":"LINCOLN WATER DISTRICT","Latitude":"45.32410","Longitude":"-68.58300","Snowdepth":"2.000","Units":"in","Rept_Date":"2020-04-02 12"},"coordinates":[6721,6016]},{"type":"Point","properties":{"Station_ID":"INDM5","Station_Nam":"INDUS,MN","Latitude":"48.61670","Longitude":"-93.90000","Snowdepth":"2.000","Units":"in","Rept_Date":"2020-04-02 13"},"coordinates":[772,8064]},{"type":"Point","properties":{"Station_ID":"HUBN3","Station_Nam":"HUBBARD BROOK","Latitude":"43.93330","Longitude":"-71.71670","Snowdepth":"2.000","Units":"in","Rept_Date":"2020-04-02 18"},"coordinates":[5985,5150]},{"type":"Point","properties":{"Station_ID":"ESGM1","Station_Nam":"EAST SANGERVILLE","Latitude":"45.13690","Longitude":"-69.28060","Snowdepth":"2.000","Units":"in","Rept_Date":"2020-04-02 11"},"coordinates":[6557,5899]},{"type":"Point","properties":{"Station_ID":"CSLM5","Station_Nam":"CASS LAKE,MN","Latitude":"47.38470","Longitude":"-94.61470","Snowdepth":"2.000","Units":"in","Rept_Date":"2020-04-02 13"},"coordinates":[604,7298]},{"type":"Point","properties":{"Station_ID":"CAN-NB-16","Station_Nam":"DORCHESTER 1.0 SSE, CAN","Latitude":"45.89160","Longitude":"-64.51269","Snowdepth":"2.000","Units":"in","Rept_Date":"2020-04-02 12"},"coordinates":[7678,6369]},{"type":"Point","properties":{"Station_ID":"BCHN7","Station_Nam":"BEECH MOUNTAIN","Latitude":"36.18780","Longitude":"-81.87360","Snowdepth":"2.000","Units":"in","Rept_Date":"2020-04-02 11"},"coordinates":[3598,331]},{"type":"Point","properties":{"Station_ID":"AVTW3","Station_Nam":"ARBOR VITAE-JOHNSON LAKE","Latitude":"45.89940","Longitude":"-89.72670","Snowdepth":"2.000","Units":"in","Rept_Date":"2020-04-02 11"},"coordinates":[1752,6373]},{"type":"Point","properties":{"Station_ID":"AGNW3","Station_Nam":"ARGONNE-1.5 NW","Latitude":"45.67360","Longitude":"-88.90380","Snowdepth":"2.000","Units":"in","Rept_Date":"2020-04-02 13"},"coordinates":[1946,6233]},{"type":"Point","properties":{"Station_ID":"FTHQ6","Station_Nam":"FORT HOPE","Latitude":"51.55820","Longitude":"-87.90510","Snowdepth":"1.690","Units":"in","Rept_Date":"2020-04-03 06"},"coordinates":[2180,9894]},{"type":"Point","properties":{"Station_ID":"CAN-PE-1","Station_Nam":"STRATFORD 2.3 NNE, CAN","Latitude":"46.23576","Longitude":"-63.08208","Snowdepth":"1.200","Units":"in","Rept_Date":"2020-04-02 11"},"coordinates":[8014,6583]},{"type":"Point","properties":{"Station_ID":"CAN-ON-526","Station_Nam":"HILTON BEACH 0.7 SW - MNRF, CAN","Latitude":"46.25357","Longitude":"-83.90014","Snowdepth":"1.200","Units":"in","Rept_Date":"2020-04-02 12"},"coordinates":[3122,6594]},{"type":"Point","properties":{"Station_ID":"CAN-NS-13","Station_Nam":"TRURO 5.0 ENE, CA","Latitude":"45.38252","Longitude":"-63.22810","Snowdepth":"1.200","Units":"in","Rept_Date":"2020-04-02 11"},"coordinates":[7979,6052]},{"type":"Point","properties":{"Station_ID":"ZNOM4","Station_Nam":"NORWAY","Latitude":"45.77810","Longitude":"-87.89560","Snowdepth":"1.000","Units":"in","Rept_Date":"2020-04-02 12"},"coordinates":[2183,6298]},{"type":"Point","properties":{"Station_ID":"WTRM4","Station_Nam":"WATERSMEET 12WSW","Latitude":"46.22310","Longitude":"-89.40850","Snowdepth":"1.000","Units":"in","Rept_Date":"2020-04-02 11"},"coordinates":[1827,6575]},{"type":"Point","properties":{"Station_ID":"WILW3","Station_Nam":"RESERVOIR","Latitude":"45.70000","Longitude":"-89.83330","Snowdepth":"1.000","Units":"in","Rept_Date":"2020-04-02 11"},"coordinates":[1727,6249]},{"type":"Point","properties":{"Station_ID":"WI-BY-22","Station_Nam":"MASON 11.5 WNW, WI","Latitude":"46.50198","Longitude":"-91.28339","Snowdepth":"1.000","Units":"in","Rept_Date":"2020-04-02 14"},"coordinates":[1386,6748]},{"type":"Point","properties":{"Station_ID":"VT-OL-1","Station_Nam":"WESTFIELD 0.7 WNW, VT","Latitude":"44.89160","Longitude":"-72.44350","Snowdepth":"1.000","Units":"in","Rept_Date":"2020-04-02 12"},"coordinates":[5814,5746]},{"type":"Point","properties":{"Station_ID":"STMM4","Station_Nam":"STAMBAUGH 2SSE","Latitude":"46.05550","Longitude":"-88.62780","Snowdepth":"1.000","Units":"in","Rept_Date":"2020-04-02 12"},"coordinates":[2011,6471]},{"type":"Point","properties":{"Station_ID":"RLKW3","Station_Nam":"REST LAKE","Latitude":"46.12220","Longitude":"-89.87720","Snowdepth":"1.000","Units":"in","Rept_Date":"2020-04-02 12"},"coordinates":[1717,6512]},{"type":"Point","properties":{"Station_ID":"PERV1","Station_Nam":"PERU","Latitude":"43.26670","Longitude":"-72.90000","Snowdepth":"1.000","Units":"in","Rept_Date":"2020-04-02 11"},"coordinates":[5707,4736]},{"type":"Point","properties":{"Station_ID":"ND-CS-25","Station_Nam":"FARGO 2.1 N, ND","Latitude":"46.90816","Longitude":"-96.77937","Snowdepth":"1.000","Units":"in","Rept_Date":"2020-04-02 14"},"coordinates":[95,7001]},{"type":"Point","properties":{"Station_ID":"MTQM4","Station_Nam":"MANISTIQUE WWTP","Latitude":"45.95120","Longitude":"-86.25130","Snowdepth":"1.000","Units":"in","Rept_Date":"2020-04-02 11"},"coordinates":[2569,6406]},{"type":"Point","properties":{"Station_ID":"MRAM4","Station_Nam":"MORAN","Latitude":"45.99030","Longitude":"-84.83610","Snowdepth":"1.000","Units":"in","Rept_Date":"2020-04-02 12"},"coordinates":[2902,6430]},{"type":"Point","properties":{"Station_ID":"MN-SL-108","Station_Nam":"IRON JUNCTION 3.4 NNW, MN","Latitude":"47.46150","Longitude":"-92.63130","Snowdepth":"1.000","Units":"in","Rept_Date":"2020-04-02 13"},"coordinates":[1070,7345]},{"type":"Point","properties":{"Station_ID":"MI-OT-17","Station_Nam":"GAYLORD 4.1 S, MI","Latitude":"44.96388","Longitude":"-84.68467","Snowdepth":"1.000","Units":"in","Rept_Date":"2020-04-02 12"},"coordinates":[2937,5791]},{"type":"Point","properties":{"Station_ID":"LPLN6","Station_Nam":"LAKE PLACID 2 S","Latitude":"44.30420","Longitude":"-73.98390","Snowdepth":"1.000","Units":"in","Rept_Date":"2020-04-02 12"},"coordinates":[5452,5381]},{"type":"Point","properties":{"Station_ID":"KGFK","Station_Nam":"GRAND FORKS INTERNATIONAL","Latitude":"47.95000","Longitude":"-97.18333","Snowdepth":"1.000","Units":"in","Rept_Date":"2020-04-02 18"},"coordinates":[0,7649]},{"type":"Point","properties":{"Station_ID":"HURW3","Station_Nam":"HURLEY","Latitude":"46.46250","Longitude":"-90.19550","Snowdepth":"1.000","Units":"in","Rept_Date":"2020-04-02 13"},"coordinates":[1642,6724]}]}},"arcs":[],"transform":{"scale":[0.004255362536253624,0.0016073507350735073],"translate":[-97.18333,35.655]}}