{"type":"Topology","objects":{"snowdepth_geo":{"type":"GeometryCollection","name":"snowdepth","crs":{"type":"name","properties":{"name":"urn:ogc:def:crs:OGC:1.3:CRS84"}},"geometries":[{"type":"Point","properties":{"Station_ID":"PRKM4","Station_Nam":"MUNISING EAST","Latitude":"46.42580","Longitude":"-86.62000","Snowdepth":"76.500","Units":"in","Rept_Date":"2020-12-09 06"},"coordinates":[3306,6710]},{"type":"Point","properties":{"Station_ID":"TRIQ6","Station_Nam":"TRIO LAKE","Latitude":"49.22880","Longitude":"-87.22920","Snowdepth":"45.240","Units":"in","Rept_Date":"2020-12-09 06"},"coordinates":[3113,8449]},{"type":"Point","properties":{"Station_ID":"HTLN3","Station_Nam":"HERMIT LAKE SNOWPLOT","Latitude":"44.26130","Longitude":"-71.28330","Snowdepth":"16.000","Units":"in","Rept_Date":"2020-12-08 12"},"coordinates":[8168,5367]},{"type":"Point","properties":{"Station_ID":"CAN-NB-50","Station_Nam":"DOYLEVILLE 2.4 WNW, CAN","Latitude":"47.90803","Longitude":"-66.13279","Snowdepth":"15.600","Units":"in","Rept_Date":"2020-12-08 13"},"coordinates":[9801,7630]},{"type":"Point","properties":{"Station_ID":"NH-CS-10","Station_Nam":"RANDOLPH 1.4 NE, NH","Latitude":"44.38824","Longitude":"-71.26950","Snowdepth":"14.000","Units":"in","Rept_Date":"2020-12-08 12"},"coordinates":[8172,5446]},{"type":"Point","properties":{"Station_ID":"RANM1","Station_Nam":"RANGELEY","Latitude":"44.98910","Longitude":"-70.67190","Snowdepth":"13.000","Units":"in","Rept_Date":"2020-12-08 11"},"coordinates":[8362,5819]},{"type":"Point","properties":{"Station_ID":"ME-SM-45","Station_Nam":"BRIGHTON PLANTATION 2.1 N, ME","Latitude":"45.07098","Longitude":"-69.69860","Snowdepth":"11.500","Units":"in","Rept_Date":"2020-12-08 12"},"coordinates":[8670,5869]},{"type":"Point","properties":{"Station_ID":"ME-AR-18","Station_Nam":"NEW SWEDEN 4.9 NNW, ME","Latitude":"47.01080","Longitude":"-68.14390","Snowdepth":"11.500","Units":"in","Rept_Date":"2020-12-08 12"},"coordinates":[9163,7073]},{"type":"Point","properties":{"Station_ID":"CARM1","Station_Nam":"CARIBOU WFO","Latitude":"46.86810","Longitude":"-68.01250","Snowdepth":"11.000","Units":"in","Rept_Date":"2020-12-09 05"},"coordinates":[9205,6984]},{"type":"Point","properties":{"Station_ID":"CAR","Station_Nam":"CARIBOU, ME","Latitude":"46.86830","Longitude":"-68.01360","Snowdepth":"11.000","Units":"in","Rept_Date":"2020-12-08 12"},"coordinates":[9204,6985]},{"type":"Point","properties":{"Station_ID":"ABNM3","Station_Nam":"ASHBURNHAM NORTH","Latitude":"42.66170","Longitude":"-71.93590","Snowdepth":"11.000","Units":"in","Rept_Date":"2020-12-08 12"},"coordinates":[7961,4375]},{"type":"Point","properties":{"Station_ID":"RGNM1","Station_Nam":"RANGELEY 2NW","Latitude":"44.98940","Longitude":"-70.67220","Snowdepth":"10.000","Units":"in","Rept_Date":"2020-12-08 11"},"coordinates":[8362,5819]},{"type":"Point","properties":{"Station_ID":"MWN","Station_Nam":"MOUNT WASHINGTON","Latitude":"44.26670","Longitude":"-71.30000","Snowdepth":"10.000","Units":"in","Rept_Date":"2020-12-08 12"},"coordinates":[8162,5370]},{"type":"Point","properties":{"Station_ID":"ME-AR-30","Station_Nam":"HOULTON 0.7 N, ME","Latitude":"46.12775","Longitude":"-67.83418","Snowdepth":"10.000","Units":"in","Rept_Date":"2020-12-08 12"},"coordinates":[9261,6525]},{"type":"Point","properties":{"Station_ID":"KMWN","Station_Nam":"MOUNT WASHINGTON","Latitude":"44.26666","Longitude":"-71.30000","Snowdepth":"10.000","Units":"in","Rept_Date":"2020-12-09 06"},"coordinates":[8162,5370]},{"type":"Point","properties":{"Station_ID":"ESGM1","Station_Nam":"EAST SANGERVILLE","Latitude":"45.13690","Longitude":"-69.28060","Snowdepth":"10.000","Units":"in","Rept_Date":"2020-12-08 12"},"coordinates":[8803,5910]},{"type":"Point","properties":{"Station_ID":"AVLV1","Station_Nam":"AVERILL","Latitude":"45.00570","Longitude":"-71.69030","Snowdepth":"10.000","Units":"in","Rept_Date":"2020-12-08 13"},"coordinates":[8039,5829]},{"type":"Point","properties":{"Station_ID":"ME-AR-15","Station_Nam":"PRESQUE ISLE 1.3 WSW, ME","Latitude":"46.67960","Longitude":"-68.01270","Snowdepth":"9.000","Units":"in","Rept_Date":"2020-12-08 12"},"coordinates":[9205,6867]},{"type":"Point","properties":{"Station_ID":"CAN-ON-741","Station_Nam":"KIMBERLEY 2.7 WSW, CAN","Latitude":"44.37820","Longitude":"-80.56956","Snowdepth":"8.900","Units":"in","Rept_Date":"2020-12-08 15"},"coordinates":[5224,5440]},{"type":"Point","properties":{"Station_ID":"NH-ST-31","Station_Nam":"STRAFFORD 2.9 N, NH","Latitude":"43.31175","Longitude":"-71.13510","Snowdepth":"8.000","Units":"in","Rept_Date":"2020-12-08 13"},"coordinates":[8215,4778]},{"type":"Point","properties":{"Station_ID":"NH-RC-48","Station_Nam":"NORTHWOOD 2.9 WSW, NH","Latitude":"43.20114","Longitude":"-71.25750","Snowdepth":"8.000","Units":"in","Rept_Date":"2020-12-08 12"},"coordinates":[8176,4709]},{"type":"Point","properties":{"Station_ID":"NH-HL-48","Station_Nam":"GREENVILLE 1.1 ENE, NH","Latitude":"42.77674","Longitude":"-71.77990","Snowdepth":"8.000","Units":"in","Rept_Date":"2020-12-08 13"},"coordinates":[8010,4446]},{"type":"Point","properties":{"Station_ID":"NH-CS-19","Station_Nam":"CARROLL 4.6 NE, NH","Latitude":"44.33765","Longitude":"-71.46461","Snowdepth":"8.000","Units":"in","Rept_Date":"2020-12-08 12"},"coordinates":[8110,5414]},{"type":"Point","properties":{"Station_ID":"MTLT1","Station_Nam":"GATLINBURG,TN","Latitude":"35.65500","Longitude":"-83.44110","Snowdepth":"8.000","Units":"in","Rept_Date":"2020-12-08 13"},"coordinates":[4314,27]},{"type":"Point","properties":{"Station_ID":"ME-SM-4","Station_Nam":"SOLON 3.9 ESE, ME","Latitude":"44.94705","Longitude":"-69.77790","Snowdepth":"8.000","Units":"in","Rept_Date":"2020-12-08 12"},"coordinates":[8645,5793]},{"type":"Point","properties":{"Station_ID":"GHMN3","Station_Nam":"PINKHAM NOTCH","Latitude":"44.25800","Longitude":"-71.25250","Snowdepth":"8.000","Units":"in","Rept_Date":"2020-12-08 10"},"coordinates":[8178,5365]},{"type":"Point","properties":{"Station_ID":"CAN-NB-38","Station_Nam":"GRAND FALLS 2.2 NE, CA","Latitude":"47.05701","Longitude":"-67.72630","Snowdepth":"8.000","Units":"in","Rept_Date":"2020-12-08 12"},"coordinates":[9295,7102]},{"type":"Point","properties":{"Station_ID":"BRAM1","Station_Nam":"BRASSUA DAM","Latitude":"45.66020","Longitude":"-69.81190","Snowdepth":"8.000","Units":"in","Rept_Date":"2020-12-08 12"},"coordinates":[8634,6235]},{"type":"Point","properties":{"Station_ID":"NH-GR-56","Station_Nam":"EASTON 0.6 ESE, NH","Latitude":"44.14790","Longitude":"-71.78950","Snowdepth":"7.500","Units":"in","Rept_Date":"2020-12-08 14"},"coordinates":[8007,5297]},{"type":"Point","properties":{"Station_ID":"PTLQ6","Station_Nam":"PORTAGE LAKE","Latitude":"49.06950","Longitude":"-86.65940","Snowdepth":"7.400","Units":"in","Rept_Date":"2020-12-09 06"},"coordinates":[3293,8350]},{"type":"Point","properties":{"Station_ID":"DVLQ6","Station_Nam":"DEVIOUS LAKE","Latitude":"49.19890","Longitude":"-87.76440","Snowdepth":"7.280","Units":"in","Rept_Date":"2020-12-09 06"},"coordinates":[2943,8431]},{"type":"Point","properties":{"Station_ID":"AUDQ6","Station_Nam":"AUDEN","Latitude":"48.52600","Longitude":"-82.57570","Snowdepth":"7.240","Units":"in","Rept_Date":"2020-12-09 06"},"coordinates":[4588,8013]},{"type":"Point","properties":{"Station_ID":"CAN-ON-452","Station_Nam":"CHATSWORTH 1.8 ENE - GSCA, CAN","Latitude":"44.46118","Longitude":"-80.87506","Snowdepth":"7.100","Units":"in","Rept_Date":"2020-12-08 12"},"coordinates":[5127,5491]},{"type":"Point","properties":{"Station_ID":"VANM1","Station_Nam":"VAN BUREN","Latitude":"47.16600","Longitude":"-67.93900","Snowdepth":"7.000","Units":"in","Rept_Date":"2020-12-08 12"},"coordinates":[9228,7169]},{"type":"Point","properties":{"Station_ID":"RKWM1","Station_Nam":"MOOSEHEAD LAKE","Latitude":"45.58330","Longitude":"-69.71670","Snowdepth":"7.000","Units":"in","Rept_Date":"2020-12-08 12"},"coordinates":[8664,6187]},{"type":"Point","properties":{"Station_ID":"ME-OX-26","Station_Nam":"OXFORD 5.3 SW, ME","Latitude":"44.09787","Longitude":"-70.59612","Snowdepth":"7.000","Units":"in","Rept_Date":"2020-12-08 12"},"coordinates":[8386,5266]},{"type":"Point","properties":{"Station_ID":"ME-KB-53","Station_Nam":"READFIELD 2.0 NNE, ME","Latitude":"44.41620","Longitude":"-69.95190","Snowdepth":"7.000","Units":"in","Rept_Date":"2020-12-08 13"},"coordinates":[8590,5463]},{"type":"Point","properties":{"Station_ID":"FISM1","Station_Nam":"FORT KENT COOP","Latitude":"47.23850","Longitude":"-68.61240","Snowdepth":"7.000","Units":"in","Rept_Date":"2020-12-08 12"},"coordinates":[9015,7214]},{"type":"Point","properties":{"Station_ID":"CAN-NB-105","Station_Nam":"SISSON BROOK 3.8 E, CAN","Latitude":"46.98305","Longitude":"-67.32532","Snowdepth":"6.700","Units":"in","Rept_Date":"2020-12-08 12"},"coordinates":[9423,7056]},{"type":"Point","properties":{"Station_ID":"PTBN3","Station_Nam":"PITTSBURG RESERVOIR","Latitude":"45.04690","Longitude":"-71.38300","Snowdepth":"6.000","Units":"in","Rept_Date":"2020-12-08 12"},"coordinates":[8136,5854]},{"type":"Point","properties":{"Station_ID":"NH-CR-34","Station_Nam":"WAKEFIELD 6.0 NNW, NH","Latitude":"43.63917","Longitude":"-71.05210","Snowdepth":"6.000","Units":"in","Rept_Date":"2020-12-08 12"},"coordinates":[8241,4981]},{"type":"Point","properties":{"Station_ID":"ME-CM-125","Station_Nam":"GRAY 2.9 SSE, ME","Latitude":"43.84640","Longitude":"-70.31340","Snowdepth":"6.000","Units":"in","Rept_Date":"2020-12-08 12"},"coordinates":[8475,5110]},{"type":"Point","properties":{"Station_ID":"HRTM1","Station_Nam":"HARTFORD","Latitude":"44.37440","Longitude":"-70.31620","Snowdepth":"6.000","Units":"in","Rept_Date":"2020-12-08 12"},"coordinates":[8474,5437]},{"type":"Point","properties":{"Station_ID":"CLQM5","Station_Nam":"CLOQUET","Latitude":"46.70470","Longitude":"-92.52530","Snowdepth":"6.000","Units":"in","Rept_Date":"2020-12-08 14"},"coordinates":[1434,6883]},{"type":"Point","properties":{"Station_ID":"CHRO1","Station_Nam":"CHARDON,OH","Latitude":"41.58330","Longitude":"-81.18330","Snowdepth":"6.000","Units":"in","Rept_Date":"2020-12-08 13"},"coordinates":[5029,3706]},{"type":"Point","properties":{"Station_ID":"ASBM3","Station_Nam":"ASHBURNHAM","Latitude":"42.61780","Longitude":"-71.91590","Snowdepth":"6.000","Units":"in","Rept_Date":"2020-12-08 12"},"coordinates":[7967,4347]},{"type":"Point","properties":{"Station_ID":"NH-BK-2","Station_Nam":"BELMONT 1.7 SW, NH","Latitude":"43.43556","Longitude":"-71.50690","Snowdepth":"5.500","Units":"in","Rept_Date":"2020-12-08 12"},"coordinates":[8097,4855]},{"type":"Point","properties":{"Station_ID":"ME-SM-3","Station_Nam":"PALMYRA 3.5 NW, ME","Latitude":"44.87180","Longitude":"-69.41952","Snowdepth":"5.500","Units":"in","Rept_Date":"2020-12-08 12"},"coordinates":[8759,5746]},{"type":"Point","properties":{"Station_ID":"CAN-ON-5","Station_Nam":"OWEN SOUND 1.5 NW - GSCA, CAN","Latitude":"44.57837","Longitude":"-80.95461","Snowdepth":"5.500","Units":"in","Rept_Date":"2020-12-08 13"},"coordinates":[5102,5564]},{"type":"Point","properties":{"Station_ID":"OGIQ6","Station_Nam":"OGOKI CAMP","Latitude":"50.76680","Longitude":"-87.85820","Snowdepth":"5.470","Units":"in","Rept_Date":"2020-12-09 06"},"coordinates":[2913,9403]},{"type":"Point","properties":{"Station_ID":"FTHQ6","Station_Nam":"FORT HOPE","Latitude":"51.55820","Longitude":"-87.90510","Snowdepth":"5.470","Units":"in","Rept_Date":"2020-12-09 06"},"coordinates":[2898,9894]},{"type":"Point","properties":{"Station_ID":"MA-WR-88","Station_Nam":"LEICESTER 2.5 WSW, MA","Latitude":"42.23742","Longitude":"-71.94612","Snowdepth":"5.200","Units":"in","Rept_Date":"2020-12-08 12"},"coordinates":[7958,4111]},{"type":"Point","properties":{"Station_ID":"KABQ6","Station_Nam":"CAB LAKE","Latitude":"49.59950","Longitude":"-89.17990","Snowdepth":"5.160","Units":"in","Rept_Date":"2020-12-09 06"},"coordinates":[2494,8679]},{"type":"Point","properties":{"Station_ID":"CAN-ON-620","Station_Nam":"GOODERHAM 3.4 SSW, CAN","Latitude":"44.87690","Longitude":"-78.39265","Snowdepth":"5.100","Units":"in","Rept_Date":"2020-12-08 12"},"coordinates":[5914,5749]},{"type":"Point","properties":{"Station_ID":"TURM1","Station_Nam":"TURNER","Latitude":"44.28220","Longitude":"-70.25610","Snowdepth":"5.000","Units":"in","Rept_Date":"2020-12-08 12"},"coordinates":[8493,5380]},{"type":"Point","properties":{"Station_ID":"NWSM1","Station_Nam":"NEW SHARON","Latitude":"44.63520","Longitude":"-70.00020","Snowdepth":"5.000","Units":"in","Rept_Date":"2020-12-08 12"},"coordinates":[8575,5599]},{"type":"Point","properties":{"Station_ID":"MWTM1","Station_Nam":"MILLINOCKET WWTP","Latitude":"45.64030","Longitude":"-68.67480","Snowdepth":"5.000","Units":"in","Rept_Date":"2020-12-08 11"},"coordinates":[8995,6223]},{"type":"Point","properties":{"Station_ID":"MMNV1","Station_Nam":"MT. MANSFIELD","Latitude":"44.52480","Longitude":"-72.81540","Snowdepth":"5.000","Units":"in","Rept_Date":"2020-12-08 21"},"coordinates":[7682,5531]},{"type":"Point","properties":{"Station_ID":"ME-YK-3","Station_Nam":"HOLLIS CENTER 5.4 NW, ME","Latitude":"43.64750","Longitude":"-70.67510","Snowdepth":"5.000","Units":"in","Rept_Date":"2020-12-08 12"},"coordinates":[8361,4986]},{"type":"Point","properties":{"Station_ID":"MA-WR-75","Station_Nam":"WARREN 2.4 WSW, MA","Latitude":"42.20400","Longitude":"-72.23540","Snowdepth":"5.000","Units":"in","Rept_Date":"2020-12-08 12"},"coordinates":[7866,4091]},{"type":"Point","properties":{"Station_ID":"LVRM1","Station_Nam":"LIVERMORE FALLS 1 E","Latitude":"44.47160","Longitude":"-70.15940","Snowdepth":"5.000","Units":"in","Rept_Date":"2020-12-08 12"},"coordinates":[8524,5498]},{"type":"Point","properties":{"Station_ID":"KINM1","Station_Nam":"KINGFIELD","Latitude":"44.95950","Longitude":"-70.17530","Snowdepth":"5.000","Units":"in","Rept_Date":"2020-12-08 14"},"coordinates":[8519,5800]},{"type":"Point","properties":{"Station_ID":"JKMM1","Station_Nam":"JACKMAN","Latitude":"45.62600","Longitude":"-70.24600","Snowdepth":"5.000","Units":"in","Rept_Date":"2020-12-08 12"},"coordinates":[8497,6214]},{"type":"Point","properties":{"Station_ID":"JEFN3","Station_Nam":"JEFFERSON","Latitude":"44.41690","Longitude":"-71.50080","Snowdepth":"5.000","Units":"in","Rept_Date":"2020-12-08 12"},"coordinates":[8099,5464]},{"type":"Point","properties":{"Station_ID":"JAPN3","Station_Nam":"JAFFREY SILVER RANCH AIRPARK","Latitude":"42.80880","Longitude":"-72.00530","Snowdepth":"5.000","Units":"in","Rept_Date":"2020-12-08 12"},"coordinates":[7939,4466]},{"type":"Point","properties":{"Station_ID":"HOLM1","Station_Nam":"HOLLIS","Latitude":"43.64750","Longitude":"-70.67490","Snowdepth":"5.000","Units":"in","Rept_Date":"2020-12-08 12"},"coordinates":[8361,4986]},{"type":"Point","properties":{"Station_ID":"DFXM1","Station_Nam":"DOVER-FOXCROFT","Latitude":"45.18720","Longitude":"-69.18350","Snowdepth":"5.000","Units":"in","Rept_Date":"2020-12-08 12"},"coordinates":[8833,5942]},{"type":"Point","properties":{"Station_ID":"BRLN3","Station_Nam":"BERLIN","Latitude":"44.45350","Longitude":"-71.18540","Snowdepth":"5.000","Units":"in","Rept_Date":"2020-12-08 12"},"coordinates":[8199,5486]},{"type":"Point","properties":{"Station_ID":"SOCQ6","Station_Nam":"SOCKET LAKE","Latitude":"50.77870","Longitude":"-91.79300","Snowdepth":"4.690","Units":"in","Rept_Date":"2020-12-09 06"},"coordinates":[1666,9411]},{"type":"Point","properties":{"Station_ID":"CATQ6","Station_Nam":"CAT LAKE","Latitude":"51.72690","Longitude":"-91.82210","Snowdepth":"4.570","Units":"in","Rept_Date":"2020-12-09 06"},"coordinates":[1657,9999]},{"type":"Point","properties":{"Station_ID":"MA-WR-54","Station_Nam":"BARRE 1.4 NNE, MA","Latitude":"42.44082","Longitude":"-72.09591","Snowdepth":"4.500","Units":"in","Rept_Date":"2020-12-08 12"},"coordinates":[7910,4238]},{"type":"Point","properties":{"Station_ID":"SVBQ6","Station_Nam":"SAVANT BASE","Latitude":"50.28730","Longitude":"-90.65670","Snowdepth":"4.330","Units":"in","Rept_Date":"2020-12-09 06"},"coordinates":[2026,9106]},{"type":"Point","properties":{"Station_ID":"OH-CY-58","Station_Nam":"SOUTH EUCLID 0.2 ESE, OH","Latitude":"41.52358","Longitude":"-81.52191","Snowdepth":"4.300","Units":"in","Rept_Date":"2020-12-08 13"},"coordinates":[4922,3669]},{"type":"Point","properties":{"Station_ID":"ME-CM-54","Station_Nam":"WINDHAM 3.9 NW, ME","Latitude":"43.85787","Longitude":"-70.46200","Snowdepth":"4.200","Units":"in","Rept_Date":"2020-12-08 12"},"coordinates":[8428,5117]},{"type":"Point","properties":{"Station_ID":"MI-BG-3","Station_Nam":"THREE LAKES, MI","Latitude":"46.55730","Longitude":"-88.20770","Snowdepth":"4.100","Units":"in","Rept_Date":"2020-12-08 13"},"coordinates":[2802,6792]},{"type":"Point","properties":{"Station_ID":"WV-NC-5","Station_Nam":"NETTIE 1.9 SSW, WV","Latitude":"38.19315","Longitude":"-80.69996","Snowdepth":"4.000","Units":"in","Rept_Date":"2020-12-08 12"},"coordinates":[5183,1602]},{"type":"Point","properties":{"Station_ID":"WNDM1","Station_Nam":"WINDHAM 2NW","Latitude":"43.85670","Longitude":"-70.46630","Snowdepth":"4.000","Units":"in","Rept_Date":"2020-12-08 12"},"coordinates":[8427,5116]},{"type":"Point","properties":{"Station_ID":"WLFM5","Station_Nam":"WOLF RIDGE ENVIRON LEARNING CENTER","Latitude":"47.38240","Longitude":"-91.19730","Snowdepth":"4.000","Units":"in","Rept_Date":"2020-12-08 13"},"coordinates":[1855,7304]},{"type":"Point","properties":{"Station_ID":"VT-WS-23","Station_Nam":"CABOT 2.3 E, VT","Latitude":"44.39807","Longitude":"-72.26570","Snowdepth":"4.000","Units":"in","Rept_Date":"2020-12-08 14"},"coordinates":[7856,5452]},{"type":"Point","properties":{"Station_ID":"VT-OL-24","Station_Nam":"DERBY LINE 1.9 W, VT","Latitude":"45.00454","Longitude":"-72.14170","Snowdepth":"4.000","Units":"in","Rept_Date":"2020-12-08 12"},"coordinates":[7896,5828]},{"type":"Point","properties":{"Station_ID":"VT-OL-2","Station_Nam":"BARTON 3.0 ENE, VT","Latitude":"44.75863","Longitude":"-72.11680","Snowdepth":"4.000","Units":"in","Rept_Date":"2020-12-08 12"},"coordinates":[7904,5676]},{"type":"Point","properties":{"Station_ID":"VT-ES-1","Station_Nam":"GRANBY 1.4 NW, VT","Latitude":"44.58330","Longitude":"-71.77870","Snowdepth":"4.000","Units":"in","Rept_Date":"2020-12-08 12"},"coordinates":[8011,5567]},{"type":"Point","properties":{"Station_ID":"VT-BN-12","Station_Nam":"STAMFORD 5.0 NNE, VT","Latitude":"42.82000","Longitude":"-73.02000","Snowdepth":"4.000","Units":"in","Rept_Date":"2020-12-08 20"},"coordinates":[7617,4473]},{"type":"Point","properties":{"Station_ID":"TOPM1","Station_Nam":"TOPSFIELD","Latitude":"45.43470","Longitude":"-67.72020","Snowdepth":"4.000","Units":"in","Rept_Date":"2020-12-08 12"},"coordinates":[9297,6095]},{"type":"Point","properties":{"Station_ID":"STRC3","Station_Nam":"STORRS","Latitude":"41.79510","Longitude":"-72.22850","Snowdepth":"4.000","Units":"in","Rept_Date":"2020-12-08 13"},"coordinates":[7868,3837]},{"type":"Point","properties":{"Station_ID":"SNOW2","Station_Nam":"SNOWSHOE","Latitude":"38.39900","Longitude":"-79.99490","Snowdepth":"4.000","Units":"in","Rept_Date":"2020-12-08 11"},"coordinates":[5406,1730]},{"type":"Point","properties":{"Station_ID":"SFVC3","Station_Nam":"STAFFORDVILLE","Latitude":"41.99840","Longitude":"-72.26060","Snowdepth":"4.000","Units":"in","Rept_Date":"2020-12-08 10"},"coordinates":[7858,3963]},{"type":"Point","properties":{"Station_ID":"PDLM4","Station_Nam":"PAINESDALE","Latitude":"47.04160","Longitude":"-88.67170","Snowdepth":"4.000","Units":"in","Rept_Date":"2020-12-08 13"},"coordinates":[2655,7092]},{"type":"Point","properties":{"Station_ID":"NUMN3","Station_Nam":"NORTHUMBERLAND","Latitude":"44.52830","Longitude":"-71.50440","Snowdepth":"4.000","Units":"in","Rept_Date":"2020-12-08 12"},"coordinates":[8098,5533]},{"type":"Point","properties":{"Station_ID":"NPTV1","Station_Nam":"NEWPORT","Latitude":"44.94900","Longitude":"-72.19120","Snowdepth":"4.000","Units":"in","Rept_Date":"2020-12-08 12"},"coordinates":[7880,5794]},{"type":"Point","properties":{"Station_ID":"NH-MR-4","Station_Nam":"BOW 1.6 NW, NH","Latitude":"43.14994","Longitude":"-71.55650","Snowdepth":"4.000","Units":"in","Rept_Date":"2020-12-08 12"},"coordinates":[8081,4678]},{"type":"Point","properties":{"Station_ID":"NH-MR-25","Station_Nam":"CHICHESTER 2.7 SSW, NH","Latitude":"43.21150","Longitude":"-71.41430","Snowdepth":"4.000","Units":"in","Rept_Date":"2020-12-08 12"},"coordinates":[8126,4716]},{"type":"Point","properties":{"Station_ID":"NH-HL-49","Station_Nam":"MONT VERNON 1.3 SSW, NH","Latitude":"42.87616","Longitude":"-71.68280","Snowdepth":"4.000","Units":"in","Rept_Date":"2020-12-08 12"},"coordinates":[8041,4508]},{"type":"Point","properties":{"Station_ID":"MN-CN-36","Station_Nam":"CLOQUET 3.4 ENE, MN","Latitude":"46.74146","Longitude":"-92.42698","Snowdepth":"4.000","Units":"in","Rept_Date":"2020-12-08 13"},"coordinates":[1465,6906]},{"type":"Point","properties":{"Station_ID":"MHT","Station_Nam":"MANCHESTER AIRPORT GRENIER INDSTRL ARPK","Latitude":"42.93440","Longitude":"-71.43690","Snowdepth":"4.000","Units":"in","Rept_Date":"2020-12-08 12"},"coordinates":[8119,4544]},{"type":"Point","properties":{"Station_ID":"ME-FR-4","Station_Nam":"NEW SHARON 2.0 NW, ME","Latitude":"44.66582","Longitude":"-70.02720","Snowdepth":"4.000","Units":"in","Rept_Date":"2020-12-08 12"},"coordinates":[8566,5618]},{"type":"Point","properties":{"Station_ID":"ME-CM-137","Station_Nam":"GRAY 1.5 NE, ME","Latitude":"43.90034","Longitude":"-70.30883","Snowdepth":"4.000","Units":"in","Rept_Date":"2020-12-08 12"},"coordinates":[8477,5143]},{"type":"Point","properties":{"Station_ID":"ME-AN-43","Station_Nam":"LISBON 0.6 S, ME","Latitude":"44.02320","Longitude":"-70.10550","Snowdepth":"4.000","Units":"in","Rept_Date":"2020-12-08 12"},"coordinates":[8541,5219]},{"type":"Point","properties":{"Station_ID":"MCRW2","Station_Nam":"RUPERT 4N","Latitude":"38.01800","Longitude":"-80.68250","Snowdepth":"4.000","Units":"in","Rept_Date":"2020-12-08 12"},"coordinates":[5188,1494]},{"type":"Point","properties":{"Station_ID":"MA-WR-8","Station_Nam":"FITCHBURG 1.6 SSW, MA","Latitude":"42.56674","Longitude":"-71.82170","Snowdepth":"4.000","Units":"in","Rept_Date":"2020-12-08 11"},"coordinates":[7997,4316]},{"type":"Point","properties":{"Station_ID":"LNKM1","Station_Nam":"LINCOLN SANITARY DISTRICT/WTP","Latitude":"45.37520","Longitude":"-68.50820","Snowdepth":"4.000","Units":"in","Rept_Date":"2020-12-08 12"},"coordinates":[9048,6058]},{"type":"Point","properties":{"Station_ID":"LILM1","Station_Nam":"LILLE","Latitude":"47.27770","Longitude":"-68.10520","Snowdepth":"4.000","Units":"in","Rept_Date":"2020-12-08 12"},"coordinates":[9175,7239]},{"type":"Point","properties":{"Station_ID":"KMHT","Station_Nam":"MANCHESTER AIRPORT","Latitude":"42.93333","Longitude":"-71.43333","Snowdepth":"4.000","Units":"in","Rept_Date":"2020-12-09 06"},"coordinates":[8120,4543]},{"type":"Point","properties":{"Station_ID":"HVJP1","Station_Nam":"HIDDEN VALLEY COOP","Latitude":"40.04200","Longitude":"-79.25660","Snowdepth":"4.000","Units":"in","Rept_Date":"2020-12-08 13"},"coordinates":[5640,2749]},{"type":"Point","properties":{"Station_ID":"HUDN3","Station_Nam":"HUDSON 1 SSE","Latitude":"42.78300","Longitude":"-71.41480","Snowdepth":"4.000","Units":"in","Rept_Date":"2020-12-08 12"},"coordinates":[8126,4450]},{"type":"Point","properties":{"Station_ID":"HUBN3","Station_Nam":"HUBBARD BROOK","Latitude":"43.93330","Longitude":"-71.71670","Snowdepth":"4.000","Units":"in","Rept_Date":"2020-12-09 06"},"coordinates":[8030,5164]},{"type":"Point","properties":{"Station_ID":"HGHN6","Station_Nam":"HIGHMARKET","Latitude":"43.60510","Longitude":"-75.55430","Snowdepth":"4.000","Units":"in","Rept_Date":"2020-12-08 11"},"coordinates":[6814,4960]},{"type":"Point","properties":{"Station_ID":"GYX","Station_Nam":"PORTLAND, ME","Latitude":"43.89250","Longitude":"-70.25500","Snowdepth":"4.000","Units":"in","Rept_Date":"2020-12-08 12"},"coordinates":[8494,5138]},{"type":"Point","properties":{"Station_ID":"FCHM3","Station_Nam":"FITCHBURG COOP","Latitude":"42.61680","Longitude":"-71.80170","Snowdepth":"4.000","Units":"in","Rept_Date":"2020-12-08 13"},"coordinates":[8003,4347]},{"type":"Point","properties":{"Station_ID":"FARM1","Station_Nam":"FARMINGTON","Latitude":"44.68930","Longitude":"-70.15640","Snowdepth":"4.000","Units":"in","Rept_Date":"2020-12-08 12"},"coordinates":[8525,5633]},{"type":"Point","properties":{"Station_ID":"EHYM3","Station_Nam":"EAST HAWLEY","Latitude":"42.57410","Longitude":"-72.86790","Snowdepth":"4.000","Units":"in","Rept_Date":"2020-12-08 13"},"coordinates":[7665,4320]},{"type":"Point","properties":{"Station_ID":"DURM1","Station_Nam":"DURHAM","Latitude":"43.99960","Longitude":"-70.09630","Snowdepth":"4.000","Units":"in","Rept_Date":"2020-12-08 12"},"coordinates":[8544,5205]},{"type":"Point","properties":{"Station_ID":"DHMM1","Station_Nam":"DEDHAM","Latitude":"44.67880","Longitude":"-68.63560","Snowdepth":"4.000","Units":"in","Rept_Date":"2020-12-08 12"},"coordinates":[9007,5626]},{"type":"Point","properties":{"Station_ID":"CT-TL-2","Station_Nam":"STAFFORDVILLE 0.4 NNW, CT","Latitude":"41.99874","Longitude":"-72.26100","Snowdepth":"4.000","Units":"in","Rept_Date":"2020-12-08 10"},"coordinates":[7858,3963]},{"type":"Point","properties":{"Station_ID":"CORM1","Station_Nam":"CORINNA","Latitude":"44.91980","Longitude":"-69.24180","Snowdepth":"4.000","Units":"in","Rept_Date":"2020-12-08 15"},"coordinates":[8815,5776]},{"type":"Point","properties":{"Station_ID":"CAN-NB-13","Station_Nam":"BATHURST 3.8 NW, CAN","Latitude":"47.64212","Longitude":"-65.68756","Snowdepth":"4.000","Units":"in","Rept_Date":"2020-12-08 11"},"coordinates":[9942,7465]},{"type":"Point","properties":{"Station_ID":"BKBW2","Station_Nam":"DAVIS.","Latitude":"39.09830","Longitude":"-79.43190","Snowdepth":"4.000","Units":"in","Rept_Date":"2020-12-08 12"},"coordinates":[5585,2164]},{"type":"Point","properties":{"Station_ID":"BETM1","Station_Nam":"BETHEL 6 SSE","Latitude":"44.32000","Longitude":"-70.75680","Snowdepth":"4.000","Units":"in","Rept_Date":"2020-12-08 12"},"coordinates":[8335,5404]},{"type":"Point","properties":{"Station_ID":"38.3990_079.9949","Station_Nam":"SNOWSHOE  CO-OP OBSERVER (X3840800)","Latitude":"38.39900","Longitude":"-79.99490","Snowdepth":"4.000","Units":"in","Rept_Date":"2020-12-08 11"},"coordinates":[5406,1730]},{"type":"Point","properties":{"Station_ID":"38.1932_080.7000","Station_Nam":"2 SSW Nettie  CoCoRaHS (WV-NC-5)","Latitude":"38.19320","Longitude":"-80.70000","Snowdepth":"4.000","Units":"in","Rept_Date":"2020-12-08 12"},"coordinates":[5182,1602]},{"type":"Point","properties":{"Station_ID":"CAN-QC-47","Station_Nam":"SAINTE-FOY 1.8 ENE, CAN","Latitude":"46.76934","Longitude":"-71.27124","Snowdepth":"3.900","Units":"in","Rept_Date":"2020-12-08 12"},"coordinates":[8172,6923]},{"type":"Point","properties":{"Station_ID":"CAN-ON-451","Station_Nam":"OWEN SOUND 1.2 N - GSCA, CAN","Latitude":"44.58092","Longitude":"-80.93025","Snowdepth":"3.900","Units":"in","Rept_Date":"2020-12-08 13"},"coordinates":[5109,5565]},{"type":"Point","properties":{"Station_ID":"VT-OL-9","Station_Nam":"GREENSBORO 2.1 NNW, VT","Latitude":"44.60528","Longitude":"-72.30940","Snowdepth":"3.500","Units":"in","Rept_Date":"2020-12-08 12"},"coordinates":[7842,5580]},{"type":"Point","properties":{"Station_ID":"VT-OL-12","Station_Nam":"GREENSBORO 3.9 NNE, VT","Latitude":"44.63100","Longitude":"-72.28000","Snowdepth":"3.500","Units":"in","Rept_Date":"2020-12-08 13"},"coordinates":[7852,5596]},{"type":"Point","properties":{"Station_ID":"OH-GG-11","Station_Nam":"MADISON 4.2 S, OH","Latitude":"41.71238","Longitude":"-81.03871","Snowdepth":"3.500","Units":"in","Rept_Date":"2020-12-08 12"},"coordinates":[5075,3786]},{"type":"Point","properties":{"Station_ID":"OH-CY-42","Station_Nam":"STRONGSVILLE 1.3 SE, OH","Latitude":"41.29815","Longitude":"-81.81507","Snowdepth":"3.500","Units":"in","Rept_Date":"2020-12-08 13"},"coordinates":[4829,3529]},{"type":"Point","properties":{"Station_ID":"NH-RC-79","Station_Nam":"NOTTINGHAM 1.2 S, NH","Latitude":"43.09778","Longitude":"-71.10256","Snowdepth":"3.500","Units":"in","Rept_Date":"2020-12-08 13"},"coordinates":[8225,4645]},{"type":"Point","properties":{"Station_ID":"NH-RC-18","Station_Nam":"DEERFIELD 3.2 WSW, NH","Latitude":"43.13350","Longitude":"-71.27940","Snowdepth":"3.500","Units":"in","Rept_Date":"2020-12-08 12"},"coordinates":[8169,4667]},{"type":"Point","properties":{"Station_ID":"NH-MR-41","Station_Nam":"NEWBURY 1.6 NW, NH","Latitude":"43.33667","Longitude":"-72.06060","Snowdepth":"3.500","Units":"in","Rept_Date":"2020-12-08 12"},"coordinates":[7921,4793]},{"type":"Point","properties":{"Station_ID":"NH-MR-26","Station_Nam":"PITTSFIELD 0.2 SSW, NH","Latitude":"43.29880","Longitude":"-71.33450","Snowdepth":"3.500","Units":"in","Rept_Date":"2020-12-08 13"},"coordinates":[8152,4770]},{"type":"Point","properties":{"Station_ID":"MI-HG-20","Station_Nam":"CALUMET 1.1 SSW, MI","Latitude":"47.23165","Longitude":"-88.45823","Snowdepth":"3.500","Units":"in","Rept_Date":"2020-12-08 11"},"coordinates":[2723,7210]},{"type":"Point","properties":{"Station_ID":"MA-WR-58","Station_Nam":"LUNENBURG 0.6 NE, MA","Latitude":"42.60180","Longitude":"-71.71653","Snowdepth":"3.500","Units":"in","Rept_Date":"2020-12-08 13"},"coordinates":[8030,4337]},{"type":"Point","properties":{"Station_ID":"CAN-ON-804","Station_Nam":"KEMBLE 1.6 S - GSCA, CAN","Latitude":"44.71013","Longitude":"-80.92735","Snowdepth":"3.500","Units":"in","Rept_Date":"2020-12-08 13"},"coordinates":[5110,5646]},{"type":"Point","properties":{"Station_ID":"CAN-MB-32","Station_Nam":"PINAWA 1.0 SW, CA","Latitude":"50.14747","Longitude":"-95.89020","Snowdepth":"3.500","Units":"in","Rept_Date":"2020-12-08 13"},"coordinates":[367,9019]},{"type":"Point","properties":{"Station_ID":"CAN-ON-491","Station_Nam":"MILVERTON 1.1 ESE- CANWARN, CAN","Latitude":"43.56074","Longitude":"-80.90887","Snowdepth":"3.300","Units":"in","Rept_Date":"2020-12-08 11"},"coordinates":[5116,4932]},{"type":"Point","properties":{"Station_ID":"CAN-MB-368","Station_Nam":"WHITESHELL 1.3 NE, CAN","Latitude":"49.74405","Longitude":"-95.19123","Snowdepth":"3.300","Units":"in","Rept_Date":"2020-12-08 14"},"coordinates":[588,8769]},{"type":"Point","properties":{"Station_ID":"NH-MR-45","Station_Nam":"NORTHFIELD 2.8 E, NH","Latitude":"43.43945","Longitude":"-71.53730","Snowdepth":"3.200","Units":"in","Rept_Date":"2020-12-08 12"},"coordinates":[8087,4857]},{"type":"Point","properties":{"Station_ID":"MA-MD-104","Station_Nam":"LITTLETON 2.8 NNW, MA","Latitude":"42.57170","Longitude":"-71.49910","Snowdepth":"3.200","Units":"in","Rept_Date":"2020-12-08 12"},"coordinates":[8099,4319]},{"type":"Point","properties":{"Station_ID":"WV-PR-10","Station_Nam":"TERRA ALTA 4.9 NNE, WV","Latitude":"39.51024","Longitude":"-79.51024","Snowdepth":"3.100","Units":"in","Rept_Date":"2020-12-08 13"},"coordinates":[5560,2419]},{"type":"Point","properties":{"Station_ID":"ZBWN3","Station_Nam":"NASHUA CWSU","Latitude":"42.73440","Longitude":"-71.48030","Snowdepth":"3.000","Units":"in","Rept_Date":"2020-12-08 13"},"coordinates":[8105,4420]},{"type":"Point","properties":{"Station_ID":"WOLN3","Station_Nam":"WOLFEBORO","Latitude":"43.59020","Longitude":"-71.20190","Snowdepth":"3.000","Units":"in","Rept_Date":"2020-12-08 12"},"coordinates":[8194,4951]},{"type":"Point","properties":{"Station_ID":"WENN3","Station_Nam":"P.O. BOX 197 WENTWORTH, NH","Latitude":"43.95190","Longitude":"-71.91560","Snowdepth":"3.000","Units":"in","Rept_Date":"2020-12-08 12"},"coordinates":[7967,5175]},{"type":"Point","properties":{"Station_ID":"VT-WH-30","Station_Nam":"MARLBORO 2.0 NNE, VT","Latitude":"42.88484","Longitude":"-72.70935","Snowdepth":"3.000","Units":"in","Rept_Date":"2020-12-08 13"},"coordinates":[7716,4513]},{"type":"Point","properties":{"Station_ID":"VT-OL-1","Station_Nam":"WESTFIELD 0.7 WNW, VT","Latitude":"44.89160","Longitude":"-72.44350","Snowdepth":"3.000","Units":"in","Rept_Date":"2020-12-08 12"},"coordinates":[7800,5758]},{"type":"Point","properties":{"Station_ID":"SUTV1","Station_Nam":"SUTTON","Latitude":"44.61220","Longitude":"-72.04810","Snowdepth":"3.000","Units":"in","Rept_Date":"2020-12-08 13"},"coordinates":[7925,5585]},{"type":"Point","properties":{"Station_ID":"SBOP1","Station_Nam":"SPRINGBORO","Latitude":"41.81660","Longitude":"-80.43330","Snowdepth":"3.000","Units":"in","Rept_Date":"2020-12-08 12"},"coordinates":[5267,3850]},{"type":"Point","properties":{"Station_ID":"PA-CW-8","Station_Nam":"SPRINGBORO 3.0 WNW, PA","Latitude":"41.81654","Longitude":"-80.42540","Snowdepth":"3.000","Units":"in","Rept_Date":"2020-12-08 12"},"coordinates":[5270,3850]},{"type":"Point","properties":{"Station_ID":"OH-LR-8","Station_Nam":"ELYRIA 0.4 SE, OH","Latitude":"41.37628","Longitude":"-82.09920","Snowdepth":"3.000","Units":"in","Rept_Date":"2020-12-08 13"},"coordinates":[4739,3577]},{"type":"Point","properties":{"Station_ID":"OH-ER-5","Station_Nam":"WAKEMAN 4.6 NNE, OH","Latitude":"41.31902","Longitude":"-82.37730","Snowdepth":"3.000","Units":"in","Rept_Date":"2020-12-08 13"},"coordinates":[4651,3542]},{"type":"Point","properties":{"Station_ID":"OH-CY-54","Station_Nam":"SEVEN HILLS 0.6 NNE, OH","Latitude":"41.38811","Longitude":"-81.67098","Snowdepth":"3.000","Units":"in","Rept_Date":"2020-12-08 12"},"coordinates":[4875,3584]},{"type":"Point","properties":{"Station_ID":"NH-HL-19","Station_Nam":"BROOKLINE 2.1 SW, NH","Latitude":"42.71235","Longitude":"-71.69760","Snowdepth":"3.000","Units":"in","Rept_Date":"2020-12-08 20"},"coordinates":[8036,4406]},{"type":"Point","properties":{"Station_ID":"MRLV1","Station_Nam":"MARLBORO","Latitude":"42.86000","Longitude":"-72.72000","Snowdepth":"3.000","Units":"in","Rept_Date":"2020-12-08 13"},"coordinates":[7712,4498]},{"type":"Point","properties":{"Station_ID":"MMTN7","Station_Nam":"MOUNT MITCHELL STATE PARK","Latitude":"35.75940","Longitude":"-82.27110","Snowdepth":"3.000","Units":"in","Rept_Date":"2020-12-08 12"},"coordinates":[4684,92]},{"type":"Point","properties":{"Station_ID":"ME-YK-67","Station_Nam":"CORNISH 5.6 ESE, ME","Latitude":"43.78308","Longitude":"-70.69539","Snowdepth":"3.000","Units":"in","Rept_Date":"2020-12-08 12"},"coordinates":[8354,5070]},{"type":"Point","properties":{"Station_ID":"ME-CM-86","Station_Nam":"POWNAL 4.1 S, ME","Latitude":"43.85370","Longitude":"-70.17210","Snowdepth":"3.000","Units":"in","Rept_Date":"2020-12-08 12"},"coordinates":[8520,5114]},{"type":"Point","properties":{"Station_ID":"ME-CM-3","Station_Nam":"NEW GLOUCESTER 3.0 SE, ME","Latitude":"43.92372","Longitude":"-70.25790","Snowdepth":"3.000","Units":"in","Rept_Date":"2020-12-08 12"},"coordinates":[8493,5158]},{"type":"Point","properties":{"Station_ID":"MA-WR-41","Station_Nam":"AUBURN 2.6 SW, MA","Latitude":"42.17336","Longitude":"-71.86869","Snowdepth":"3.000","Units":"in","Rept_Date":"2020-12-08 13"},"coordinates":[7982,4072]},{"type":"Point","properties":{"Station_ID":"MA-MD-42","Station_Nam":"HOLLISTON 0.8 S, MA","Latitude":"42.18820","Longitude":"-71.43390","Snowdepth":"3.000","Units":"in","Rept_Date":"2020-12-08 12"},"coordinates":[8120,4081]},{"type":"Point","properties":{"Station_ID":"LNCM1","Station_Nam":"LINCOLN WATER DISTRICT","Latitude":"45.32410","Longitude":"-68.58300","Snowdepth":"3.000","Units":"in","Rept_Date":"2020-12-08 12"},"coordinates":[9024,6026]},{"type":"Point","properties":{"Station_ID":"LEIM5","Station_Nam":"ORR 3E","Latitude":"48.05810","Longitude":"-92.75220","Snowdepth":"3.000","Units":"in","Rept_Date":"2020-12-08 12"},"coordinates":[1362,7723]},{"type":"Point","properties":{"Station_ID":"LBKV1","Station_Nam":"LYE BROOK","Latitude":"43.05000","Longitude":"-73.03330","Snowdepth":"3.000","Units":"in","Rept_Date":"2020-12-09 06"},"coordinates":[7613,4616]},{"type":"Point","properties":{"Station_ID":"LAUP1","Station_Nam":"1.5MI S OF RT 30 ON SMIT (LAUREL RIDGE)","Latitude":"40.05000","Longitude":"-79.22060","Snowdepth":"3.000","Units":"in","Rept_Date":"2020-12-08 12"},"coordinates":[5651,2754]},{"type":"Point","properties":{"Station_ID":"JEFV1","Station_Nam":"JEFFERSONVILLE","Latitude":"44.58430","Longitude":"-72.78700","Snowdepth":"3.000","Units":"in","Rept_Date":"2020-12-08 12"},"coordinates":[7691,5567]},{"type":"Point","properties":{"Station_ID":"ISLV1","Station_Nam":"ISLAND POND","Latitude":"44.81280","Longitude":"-71.89020","Snowdepth":"3.000","Units":"in","Rept_Date":"2020-12-08 14"},"coordinates":[7975,5709]},{"type":"Point","properties":{"Station_ID":"HERM4","Station_Nam":"HERMAN,MI","Latitude":"46.65000","Longitude":"-88.33330","Snowdepth":"3.000","Units":"in","Rept_Date":"2020-12-08 13"},"coordinates":[2763,6849]},{"type":"Point","properties":{"Station_ID":"GREN3","Station_Nam":"GREENVILLE 1 NNE","Latitude":"42.78270","Longitude":"-71.79850","Snowdepth":"3.000","Units":"in","Rept_Date":"2020-12-08 12"},"coordinates":[8004,4450]},{"type":"Point","properties":{"Station_ID":"DLHM5","Station_Nam":"DULUTH NWS","Latitude":"46.83680","Longitude":"-92.21080","Snowdepth":"3.000","Units":"in","Rept_Date":"2020-12-09 06"},"coordinates":[1533,6965]},{"type":"Point","properties":{"Station_ID":"DLH","Station_Nam":"DULUTH, MN","Latitude":"46.83690","Longitude":"-92.21030","Snowdepth":"3.000","Units":"in","Rept_Date":"2020-12-09 00"},"coordinates":[1533,6965]},{"type":"Point","properties":{"Station_ID":"CT-TL-33","Station_Nam":"TOLLAND 3.6 NNE, CT","Latitude":"41.91859","Longitude":"-72.33910","Snowdepth":"3.000","Units":"in","Rept_Date":"2020-12-08 12"},"coordinates":[7833,3914]},{"type":"Point","properties":{"Station_ID":"CON","Station_Nam":"CONCORD MUNI ARPT","Latitude":"43.20280","Longitude":"-71.50220","Snowdepth":"3.000","Units":"in","Rept_Date":"2020-12-08 12"},"coordinates":[8098,4710]},{"type":"Point","properties":{"Station_ID":"COKM5","Station_Nam":"COOK","Latitude":"47.85060","Longitude":"-92.69250","Snowdepth":"3.000","Units":"in","Rept_Date":"2020-12-08 12"},"coordinates":[1381,7594]},{"type":"Point","properties":{"Station_ID":"BSSW2","Station_Nam":"BECKLEY AIRPORT SNOW OBSERVATION","Latitude":"37.78690","Longitude":"-81.11370","Snowdepth":"3.000","Units":"in","Rept_Date":"2020-12-08 12"},"coordinates":[5051,1350]},{"type":"Point","properties":{"Station_ID":"BRMM5","Station_Nam":"BRIMSON 2S","Latitude":"47.24720","Longitude":"-91.86240","Snowdepth":"3.000","Units":"in","Rept_Date":"2020-12-09 01"},"coordinates":[1644,7220]},{"type":"Point","properties":{"Station_ID":"BNDM5","Station_Nam":"ELY 25E","Latitude":"47.97190","Longitude":"-91.44860","Snowdepth":"3.000","Units":"in","Rept_Date":"2020-12-08 13"},"coordinates":[1775,7669]},{"type":"Point","properties":{"Station_ID":"BIRM3","Station_Nam":"BIRCH HILL DAM","Latitude":"42.63240","Longitude":"-72.12270","Snowdepth":"3.000","Units":"in","Rept_Date":"2020-12-08 12"},"coordinates":[7902,4356]},{"type":"Point","properties":{"Station_ID":"BCHN7","Station_Nam":"BEECH MOUNTAIN","Latitude":"36.18780","Longitude":"-81.87360","Snowdepth":"3.000","Units":"in","Rept_Date":"2020-12-08 12"},"coordinates":[4810,358]},{"type":"Point","properties":{"Station_ID":"BABM5","Station_Nam":"BABBITT","Latitude":"47.71210","Longitude":"-91.95330","Snowdepth":"3.000","Units":"in","Rept_Date":"2020-12-08 13"},"coordinates":[1615,7508]},{"type":"Point","properties":{"Station_ID":"37.7869_081.1137","Station_Nam":"Beckley Airport  Co-Op Observer (BSSW2)","Latitude":"37.78690","Longitude":"-81.11370","Snowdepth":"3.000","Units":"in","Rept_Date":"2020-12-08 12"},"coordinates":[5051,1350]},{"type":"Point","properties":{"Station_ID":"CAN-ON-771","Station_Nam":"KENORA 8.7 NNE - CANWARN, CAN","Latitude":"49.84171","Longitude":"-94.44386","Snowdepth":"2.600","Units":"in","Rept_Date":"2020-12-08 13"},"coordinates":[825,8829]},{"type":"Point","properties":{"Station_ID":"VT-WR-17","Station_Nam":"ROCHESTER 2.3 NE, VT","Latitude":"43.89418","Longitude":"-72.76992","Snowdepth":"2.500","Units":"in","Rept_Date":"2020-12-08 12"},"coordinates":[7696,5139]},{"type":"Point","properties":{"Station_ID":"PA-ER-15","Station_Nam":"NORTH EAST 2.0 S, PA","Latitude":"42.18390","Longitude":"-79.83230","Snowdepth":"2.500","Units":"in","Rept_Date":"2020-12-08 13"},"coordinates":[5458,4078]},{"type":"Point","properties":{"Station_ID":"OH-CY-24","Station_Nam":"PARMA 1.9 NNW, OH","Latitude":"41.40881","Longitude":"-81.74480","Snowdepth":"2.500","Units":"in","Rept_Date":"2020-12-08 13"},"coordinates":[4851,3597]},{"type":"Point","properties":{"Station_ID":"NY-TM-18","Station_Nam":"EAST ITHACA 4.7 E, NY","Latitude":"42.41910","Longitude":"-76.37330","Snowdepth":"2.500","Units":"in","Rept_Date":"2020-12-08 12"},"coordinates":[6554,4224]},{"type":"Point","properties":{"Station_ID":"NH-BK-1","Station_Nam":"TILTON NORTHFIELD 3.3 NE, NH","Latitude":"43.48000","Longitude":"-71.55000","Snowdepth":"2.500","Units":"in","Rept_Date":"2020-12-08 12"},"coordinates":[8083,4882]},{"type":"Point","properties":{"Station_ID":"ME-YK-65","Station_Nam":"NORTH BERWICK 5.3 W, ME","Latitude":"43.29801","Longitude":"-70.83956","Snowdepth":"2.500","Units":"in","Rept_Date":"2020-12-08 13"},"coordinates":[8308,4769]},{"type":"Point","properties":{"Station_ID":"ME-YK-5","Station_Nam":"KENNEBUNK 1.8 WNW, ME","Latitude":"43.39320","Longitude":"-70.58060","Snowdepth":"2.500","Units":"in","Rept_Date":"2020-12-08 12"},"coordinates":[8391,4828]},{"type":"Point","properties":{"Station_ID":"ME-KX-12","Station_Nam":"UNION 3.0 W, ME","Latitude":"44.21320","Longitude":"-69.34160","Snowdepth":"2.500","Units":"in","Rept_Date":"2020-12-08 12"},"coordinates":[8783,5337]},{"type":"Point","properties":{"Station_ID":"MA-WR-42","Station_Nam":"NORTHBOROUGH 2.3 N, MA","Latitude":"42.34535","Longitude":"-71.64390","Snowdepth":"2.500","Units":"in","Rept_Date":"2020-12-08 13"},"coordinates":[8053,4178]},{"type":"Point","properties":{"Station_ID":"MA-MD-12","Station_Nam":"ACTON 1.3 SW, MA","Latitude":"42.46746","Longitude":"-71.48200","Snowdepth":"2.500","Units":"in","Rept_Date":"2020-12-08 12"},"coordinates":[8105,4254]},{"type":"Point","properties":{"Station_ID":"MA-MD-115","Station_Nam":"HUDSON 1.4 NW, MA","Latitude":"42.40372","Longitude":"-71.58680","Snowdepth":"2.500","Units":"in","Rept_Date":"2020-12-08 12"},"coordinates":[8072,4215]},{"type":"Point","properties":{"Station_ID":"MA-ES-48","Station_Nam":"ANDOVER 0.6 E, MA","Latitude":"42.65659","Longitude":"-71.13048","Snowdepth":"2.500","Units":"in","Rept_Date":"2020-12-08 10"},"coordinates":[8216,4371]},{"type":"Point","properties":{"Station_ID":"CAN-NB-18","Station_Nam":"MCLEOD HILL 1.1 ENE, CA","Latitude":"46.02725","Longitude":"-66.67460","Snowdepth":"2.500","Units":"in","Rept_Date":"2020-12-08 12"},"coordinates":[9629,6463]},{"type":"Point","properties":{"Station_ID":"CAN-ON-86","Station_Nam":"GUELPH 5.1 S - CANWARN, CAN","Latitude":"43.49691","Longitude":"-80.24385","Snowdepth":"2.400","Units":"in","Rept_Date":"2020-12-08 12"},"coordinates":[5327,4893]},{"type":"Point","properties":{"Station_ID":"VT-OL-25","Station_Nam":"NEWPORT 1.5 WSW, VT","Latitude":"44.93059","Longitude":"-72.23731","Snowdepth":"2.300","Units":"in","Rept_Date":"2020-12-08 12"},"coordinates":[7865,5782]},{"type":"Point","properties":{"Station_ID":"MA-WR-69","Station_Nam":"NORTHBRIDGE 1.7 WNW, MA","Latitude":"42.16305","Longitude":"-71.67888","Snowdepth":"2.300","Units":"in","Rept_Date":"2020-12-08 12"},"coordinates":[8042,4065]},{"type":"Point","properties":{"Station_ID":"CAN-ON-784","Station_Nam":"KOMOKA 3.1 W, CAN","Latitude":"42.96000","Longitude":"-81.43805","Snowdepth":"2.300","Units":"in","Rept_Date":"2020-12-08 13"},"coordinates":[4949,4560]},{"type":"Point","properties":{"Station_ID":"WV-NC-4","Station_Nam":"CRAIGSVILLE 0.6 NE, WV","Latitude":"38.33698","Longitude":"-80.64520","Snowdepth":"2.000","Units":"in","Rept_Date":"2020-12-08 12"},"coordinates":[5200,1691]},{"type":"Point","properties":{"Station_ID":"WRSM5","Station_Nam":"WRENSHALL","Latitude":"46.61550","Longitude":"-92.38380","Snowdepth":"2.000","Units":"in","Rept_Date":"2020-12-08 14"},"coordinates":[1478,6828]},{"type":"Point","properties":{"Station_ID":"WORV1","Station_Nam":"WORCESTER 2 W","Latitude":"44.37470","Longitude":"-72.58220","Snowdepth":"2.000","Units":"in","Rept_Date":"2020-12-08 12"},"coordinates":[7756,5437]},{"type":"Point","properties":{"Station_ID":"WI-VL-9","Station_Nam":"LAND O' LAKES 11.7 W, WI","Latitude":"46.19023","Longitude":"-89.45790","Snowdepth":"2.000","Units":"in","Rept_Date":"2020-12-08 13"},"coordinates":[2406,6564]},{"type":"Point","properties":{"Station_ID":"VT-WS-30","Station_Nam":"WOODBURY 3.4 NNW, VT","Latitude":"44.48825","Longitude":"-72.43258","Snowdepth":"2.000","Units":"in","Rept_Date":"2020-12-08 12"},"coordinates":[7803,5508]},{"type":"Point","properties":{"Station_ID":"VT-WS-15","Station_Nam":"EAST CALAIS 1.5 SW, VT","Latitude":"44.35523","Longitude":"-72.45540","Snowdepth":"2.000","Units":"in","Rept_Date":"2020-12-08 12"},"coordinates":[7796,5425]},{"type":"Point","properties":{"Station_ID":"VT-OG-14","Station_Nam":"BRADFORD 2.2 NNW, VT","Latitude":"44.02268","Longitude":"-72.14756","Snowdepth":"2.000","Units":"in","Rept_Date":"2020-12-08 13"},"coordinates":[7894,5219]},{"type":"Point","properties":{"Station_ID":"VT-LM-1","Station_Nam":"STOWE 0.2 SW, VT","Latitude":"44.46399","Longitude":"-72.69070","Snowdepth":"2.000","Units":"in","Rept_Date":"2020-12-08 12"},"coordinates":[7722,5493]},{"type":"Point","properties":{"Station_ID":"VT-CL-14","Station_Nam":"LYNDONVILLE 1.1 W, VT","Latitude":"44.53582","Longitude":"-72.02867","Snowdepth":"2.000","Units":"in","Rept_Date":"2020-12-08 12"},"coordinates":[7931,5537]},{"type":"Point","properties":{"Station_ID":"VT-BN-3","Station_Nam":"LANDGROVE 1.1 NNE, VT","Latitude":"43.29092","Longitude":"-72.83260","Snowdepth":"2.000","Units":"in","Rept_Date":"2020-12-08 12"},"coordinates":[7677,4765]},{"type":"Point","properties":{"Station_ID":"SBRM3","Station_Nam":"SOUTHBRIDGE","Latitude":"42.05830","Longitude":"-72.07210","Snowdepth":"2.000","Units":"in","Rept_Date":"2020-12-08 12"},"coordinates":[7918,4000]},{"type":"Point","properties":{"Station_ID":"PDGM4","Station_Nam":"PAULDING","Latitude":"46.39760","Longitude":"-89.17940","Snowdepth":"2.000","Units":"in","Rept_Date":"2020-12-08 14"},"coordinates":[2494,6693]},{"type":"Point","properties":{"Station_ID":"PA-CW-18","Station_Nam":"CONNEAUT LAKE 1.3 WNW, PA","Latitude":"41.60816","Longitude":"-80.33371","Snowdepth":"2.000","Units":"in","Rept_Date":"2020-12-08 12"},"coordinates":[5299,3721]},{"type":"Point","properties":{"Station_ID":"OXFM3","Station_Nam":"BUFFUMVILLE LAKE","Latitude":"42.11630","Longitude":"-71.90740","Snowdepth":"2.000","Units":"in","Rept_Date":"2020-12-08 12"},"coordinates":[7970,4036]},{"type":"Point","properties":{"Station_ID":"OH-MD-2","Station_Nam":"BRUNSWICK 0.5 NE, OH","Latitude":"41.24980","Longitude":"-81.81330","Snowdepth":"2.000","Units":"in","Rept_Date":"2020-12-08 12"},"coordinates":[4830,3499]},{"type":"Point","properties":{"Station_ID":"OH-LR-25","Station_Nam":"NORTH RIDGEVILLE 2.5 NE, OH","Latitude":"41.41550","Longitude":"-81.98440","Snowdepth":"2.000","Units":"in","Rept_Date":"2020-12-08 12"},"coordinates":[4775,3601]},{"type":"Point","properties":{"Station_ID":"OH-CY-39","Station_Nam":"WESTLAKE 0.5 SSW, OH","Latitude":"41.44795","Longitude":"-81.93260","Snowdepth":"2.000","Units":"in","Rept_Date":"2020-12-08 13"},"coordinates":[4792,3622]},{"type":"Point","properties":{"Station_ID":"NSNM1","Station_Nam":"NEW SHARON","Latitude":"44.63330","Longitude":"-70.00000","Snowdepth":"2.000","Units":"in","Rept_Date":"2020-12-08 12"},"coordinates":[8575,5598]},{"type":"Point","properties":{"Station_ID":"NH-MR-55","Station_Nam":"CANTERBURY 2.5 SSW, NH","Latitude":"43.30277","Longitude":"-71.57893","Snowdepth":"2.000","Units":"in","Rept_Date":"2020-12-08 12"},"coordinates":[8074,4772]},{"type":"Point","properties":{"Station_ID":"NH-HL-25","Station_Nam":"AMHERST 3.7 NNE, NH","Latitude":"42.91409","Longitude":"-71.61020","Snowdepth":"2.000","Units":"in","Rept_Date":"2020-12-08 12"},"coordinates":[8064,4531]},{"type":"Point","properties":{"Station_ID":"NH-CS-7","Station_Nam":"LANCASTER 0.5 N, NH","Latitude":"44.49611","Longitude":"-71.57640","Snowdepth":"2.000","Units":"in","Rept_Date":"2020-12-08 12"},"coordinates":[8075,5513]},{"type":"Point","properties":{"Station_ID":"NH-CR-15","Station_Nam":"JACKSON 3.7 NW, NH","Latitude":"44.19069","Longitude":"-71.22598","Snowdepth":"2.000","Units":"in","Rept_Date":"2020-12-08 12"},"coordinates":[8186,5323]},{"type":"Point","properties":{"Station_ID":"NFKC3","Station_Nam":"NORFOLK","Latitude":"41.97250","Longitude":"-73.22080","Snowdepth":"2.000","Units":"in","Rept_Date":"2020-12-08 13"},"coordinates":[7554,3947]},{"type":"Point","properties":{"Station_ID":"MN-SL-14","Station_Nam":"DULUTH 4.1 NNE, MN","Latitude":"46.83569","Longitude":"-92.06600","Snowdepth":"2.000","Units":"in","Rept_Date":"2020-12-08 12"},"coordinates":[1579,6964]},{"type":"Point","properties":{"Station_ID":"MIEM4","Station_Nam":"MICHIGAMME 3WNW","Latitude":"46.54530","Longitude":"-88.18000","Snowdepth":"2.000","Units":"in","Rept_Date":"2020-12-08 13"},"coordinates":[2811,6784]},{"type":"Point","properties":{"Station_ID":"ME-YK-52","Station_Nam":"YORK 5.2 N, ME","Latitude":"43.23585","Longitude":"-70.63400","Snowdepth":"2.000","Units":"in","Rept_Date":"2020-12-08 12"},"coordinates":[8374,4731]},{"type":"Point","properties":{"Station_ID":"ME-LN-13","Station_Nam":"WALDOBORO 1.5 NNE, ME","Latitude":"44.11481","Longitude":"-69.36644","Snowdepth":"2.000","Units":"in","Rept_Date":"2020-12-08 13"},"coordinates":[8775,5276]},{"type":"Point","properties":{"Station_ID":"ME-KX-6","Station_Nam":"UNION 3.0 NW, ME","Latitude":"44.24435","Longitude":"-69.31540","Snowdepth":"2.000","Units":"in","Rept_Date":"2020-12-08 12"},"coordinates":[8792,5357]},{"type":"Point","properties":{"Station_ID":"ME-CM-18","Station_Nam":"PORTLAND 5.5 WNW, ME","Latitude":"43.70288","Longitude":"-70.30550","Snowdepth":"2.000","Units":"in","Rept_Date":"2020-12-08 12"},"coordinates":[8478,5021]},{"type":"Point","properties":{"Station_ID":"ME-CM-143","Station_Nam":"PORTLAND 5.4 NW, ME","Latitude":"43.72010","Longitude":"-70.28710","Snowdepth":"2.000","Units":"in","Rept_Date":"2020-12-08 12"},"coordinates":[8484,5031]},{"type":"Point","properties":{"Station_ID":"MA-WR-18","Station_Nam":"NORTHBOROUGH 0.6 SSE, MA","Latitude":"42.30367","Longitude":"-71.64620","Snowdepth":"2.000","Units":"in","Rept_Date":"2020-12-08 13"},"coordinates":[8053,4152]},{"type":"Point","properties":{"Station_ID":"LNOW3","Station_Nam":"LAND O LAKES","Latitude":"46.19000","Longitude":"-89.45700","Snowdepth":"2.000","Units":"in","Rept_Date":"2020-12-08 13"},"coordinates":[2406,6564]},{"type":"Point","properties":{"Station_ID":"LLLM3","Station_Nam":"LOWELL","Latitude":"42.64090","Longitude":"-71.36370","Snowdepth":"2.000","Units":"in","Rept_Date":"2020-12-08 11"},"coordinates":[8142,4362]},{"type":"Point","properties":{"Station_ID":"LKPN3","Station_Nam":"LAKEPORT 2","Latitude":"43.54910","Longitude":"-71.46450","Snowdepth":"2.000","Units":"in","Rept_Date":"2020-12-08 12"},"coordinates":[8110,4925]},{"type":"Point","properties":{"Station_ID":"JRFW2","Station_Nam":"BAYARD 2SW - SNOW","Latitude":"39.26670","Longitude":"-79.40000","Snowdepth":"2.000","Units":"in","Rept_Date":"2020-12-08 13"},"coordinates":[5595,2268]},{"type":"Point","properties":{"Station_ID":"INL","Station_Nam":"FALLS INTERNATIONAL ARPT","Latitude":"48.56640","Longitude":"-93.40310","Snowdepth":"2.000","Units":"in","Rept_Date":"2020-12-09 00"},"coordinates":[1155,8038]},{"type":"Point","properties":{"Station_ID":"IFSM5","Station_Nam":"INTERNATIONAL FALLS SNOW","Latitude":"48.57780","Longitude":"-93.39640","Snowdepth":"2.000","Units":"in","Rept_Date":"2020-12-08 12"},"coordinates":[1157,8045]},{"type":"Point","properties":{"Station_ID":"HVAW2","Station_Nam":"HACKER VALLEY","Latitude":"38.61950","Longitude":"-80.38210","Snowdepth":"2.000","Units":"in","Rept_Date":"2020-12-08 13"},"coordinates":[5283,1867]},{"type":"Point","properties":{"Station_ID":"HRKM3","Station_Nam":"HARDWICK 2 ESE","Latitude":"42.34570","Longitude":"-72.15410","Snowdepth":"2.000","Units":"in","Rept_Date":"2020-12-08 13"},"coordinates":[7892,4179]},{"type":"Point","properties":{"Station_ID":"FRAM3","Station_Nam":"FRANKLIN","Latitude":"42.07930","Longitude":"-71.40950","Snowdepth":"2.000","Units":"in","Rept_Date":"2020-12-08 12"},"coordinates":[8128,4013]},{"type":"Point","properties":{"Station_ID":"FLDM5","Station_Nam":"FLOODWOOD,MN","Latitude":"47.00000","Longitude":"-92.91670","Snowdepth":"2.000","Units":"in","Rept_Date":"2020-12-08 14"},"coordinates":[1310,7066]},{"type":"Point","properties":{"Station_ID":"EMBM5","Station_Nam":"EMBARASS,MN","Latitude":"47.65810","Longitude":"-92.19580","Snowdepth":"2.000","Units":"in","Rept_Date":"2020-12-08 12"},"coordinates":[1538,7475]},{"type":"Point","properties":{"Station_ID":"COTM5","Station_Nam":"COTTON","Latitude":"47.16870","Longitude":"-92.46290","Snowdepth":"2.000","Units":"in","Rept_Date":"2020-12-08 13"},"coordinates":[1453,7171]},{"type":"Point","properties":{"Station_ID":"CORV1","Station_Nam":"CORINTH","Latitude":"44.00690","Longitude":"-72.31940","Snowdepth":"2.000","Units":"in","Rept_Date":"2020-12-08 12"},"coordinates":[7839,5209]},{"type":"Point","properties":{"Station_ID":"CAN-ON-593","Station_Nam":"KITCHENER 4.5 E, CAN","Latitude":"43.45147","Longitude":"-80.43180","Snowdepth":"2.000","Units":"in","Rept_Date":"2020-12-08 13"},"coordinates":[5268,4865]},{"type":"Point","properties":{"Station_ID":"CAN-NB-64","Station_Nam":"KESWICK RIDGE 4.0 SE, CAN","Latitude":"45.97014","Longitude":"-66.85538","Snowdepth":"2.000","Units":"in","Rept_Date":"2020-12-08 12"},"coordinates":[9572,6427]},{"type":"Point","properties":{"Station_ID":"BCKW2","Station_Nam":"BECKLEY V.A. HOSPITAL","Latitude":"37.76470","Longitude":"-81.19400","Snowdepth":"2.000","Units":"in","Rept_Date":"2020-12-08 12"},"coordinates":[5026,1336]},{"type":"Point","properties":{"Station_ID":"38.6195_080.3821","Station_Nam":"4.0 SW Holly River State  Co-Op Observer (HVAW2)","Latitude":"38.61950","Longitude":"-80.38210","Snowdepth":"2.000","Units":"in","Rept_Date":"2020-12-08 13"},"coordinates":[5283,1867]},{"type":"Point","properties":{"Station_ID":"38.3370_080.6452","Station_Nam":"1 NE Craigsville  CoCoRaHS (WV-NC-4)","Latitude":"38.33700","Longitude":"-80.64520","Snowdepth":"2.000","Units":"in","Rept_Date":"2020-12-08 12"},"coordinates":[5200,1691]},{"type":"Point","properties":{"Station_ID":"37.7647_081.1940","Station_Nam":"Beckley  Co-Op Observer (BCKW2)","Latitude":"37.76470","Longitude":"-81.19400","Snowdepth":"2.000","Units":"in","Rept_Date":"2020-12-08 12"},"coordinates":[5026,1336]},{"type":"Point","properties":{"Station_ID":"WI-SR-1","Station_Nam":"HAYWARD 9.2 NNE, WI","Latitude":"46.13255","Longitude":"-91.40500","Snowdepth":"1.600","Units":"in","Rept_Date":"2020-12-08 12"},"coordinates":[1789,6528]},{"type":"Point","properties":{"Station_ID":"VT-WS-7","Station_Nam":"MIDDLESEX 3.1 ENE, VT","Latitude":"44.31799","Longitude":"-72.62650","Snowdepth":"1.500","Units":"in","Rept_Date":"2020-12-08 13"},"coordinates":[7742,5402]},{"type":"Point","properties":{"Station_ID":"VT-WR-2","Station_Nam":"POMFRET 2.6 N, VT","Latitude":"43.74230","Longitude":"-72.52550","Snowdepth":"1.500","Units":"in","Rept_Date":"2020-12-08 12"},"coordinates":[7774,5045]},{"type":"Point","properties":{"Station_ID":"VT-ES-3","Station_Nam":"LUNENBURG 2.3 NNW, VT","Latitude":"44.49324","Longitude":"-71.70446","Snowdepth":"1.500","Units":"in","Rept_Date":"2020-12-08 10"},"coordinates":[8034,5511]},{"type":"Point","properties":{"Station_ID":"VT-CH-7","Station_Nam":"HUNTINGTON 1.1 E, VT","Latitude":"44.32488","Longitude":"-72.96570","Snowdepth":"1.500","Units":"in","Rept_Date":"2020-12-08 12"},"coordinates":[7634,5407]},{"type":"Point","properties":{"Station_ID":"RI-PR-51","Station_Nam":"NORTH SMITHFIELD 0.6 S, RI","Latitude":"41.95440","Longitude":"-71.54944","Snowdepth":"1.500","Units":"in","Rept_Date":"2020-12-08 11"},"coordinates":[8083,3936]},{"type":"Point","properties":{"Station_ID":"NY-TM-42","Station_Nam":"ITHACA 6.4 E, NY","Latitude":"42.43350","Longitude":"-76.37860","Snowdepth":"1.500","Units":"in","Rept_Date":"2020-12-08 12"},"coordinates":[6552,4233]},{"type":"Point","properties":{"Station_ID":"NY-OG-61","Station_Nam":"SKANEATELES 0.8 NNW, NY","Latitude":"42.95538","Longitude":"-76.43362","Snowdepth":"1.500","Units":"in","Rept_Date":"2020-12-08 13"},"coordinates":[6535,4557]},{"type":"Point","properties":{"Station_ID":"NY-ER-166","Station_Nam":"BOSTON 2.5 NE, NY","Latitude":"42.65480","Longitude":"-78.70300","Snowdepth":"1.500","Units":"in","Rept_Date":"2020-12-08 12"},"coordinates":[5816,4370]},{"type":"Point","properties":{"Station_ID":"MN-CK-6","Station_Nam":"GRAND MARAIS 4.4 W, MN","Latitude":"47.74865","Longitude":"-90.43760","Snowdepth":"1.500","Units":"in","Rept_Date":"2020-12-08 13"},"coordinates":[2095,7531]},{"type":"Point","properties":{"Station_ID":"ME-LN-1","Station_Nam":"NEWCASTLE 2.1 SW, ME","Latitude":"44.02767","Longitude":"-69.56860","Snowdepth":"1.500","Units":"in","Rept_Date":"2020-12-08 12"},"coordinates":[8711,5222]},{"type":"Point","properties":{"Station_ID":"ME-KX-10","Station_Nam":"UNION 2.1 NNE, ME","Latitude":"44.23693","Longitude":"-69.27170","Snowdepth":"1.500","Units":"in","Rept_Date":"2020-12-08 12"},"coordinates":[8805,5352]},{"type":"Point","properties":{"Station_ID":"ME-CM-138","Station_Nam":"FREEPORT 3.0 ENE, ME","Latitude":"43.87733","Longitude":"-70.04650","Snowdepth":"1.500","Units":"in","Rept_Date":"2020-12-08 12"},"coordinates":[8560,5129]},{"type":"Point","properties":{"Station_ID":"MA-MD-51","Station_Nam":"MAYNARD 0.7 ESE, MA","Latitude":"42.42027","Longitude":"-71.44484","Snowdepth":"1.500","Units":"in","Rept_Date":"2020-12-08 12"},"coordinates":[8117,4225]},{"type":"Point","properties":{"Station_ID":"MA-MD-158","Station_Nam":"SHERBORN 1.1 NW, MA","Latitude":"42.24460","Longitude":"-71.38130","Snowdepth":"1.500","Units":"in","Rept_Date":"2020-12-08 10"},"coordinates":[8137,4116]},{"type":"Point","properties":{"Station_ID":"MA-MD-156","Station_Nam":"MARLBOROUGH 2.8 ENE, MA","Latitude":"42.37021","Longitude":"-71.50011","Snowdepth":"1.500","Units":"in","Rept_Date":"2020-12-08 10"},"coordinates":[8099,4194]},{"type":"Point","properties":{"Station_ID":"MA-ES-58","Station_Nam":"MIDDLETON 1.4 SSW, MA","Latitude":"42.58133","Longitude":"-71.02707","Snowdepth":"1.500","Units":"in","Rept_Date":"2020-12-08 13"},"coordinates":[8249,4325]},{"type":"Point","properties":{"Station_ID":"CT-TL-27","Station_Nam":"WILLINGTON 2.7 SE, CT","Latitude":"41.83890","Longitude":"-72.22430","Snowdepth":"1.500","Units":"in","Rept_Date":"2020-12-08 12"},"coordinates":[7869,3864]},{"type":"Point","properties":{"Station_ID":"CT-NL-5","Station_Nam":"OAKDALE 2.6 WNW, CT","Latitude":"41.47524","Longitude":"-72.20550","Snowdepth":"1.500","Units":"in","Rept_Date":"2020-12-08 12"},"coordinates":[7875,3639]},{"type":"Point","properties":{"Station_ID":"CAN-MB-56","Station_Nam":"WINNIPEG 7.6 ENE, CAN","Latitude":"49.93264","Longitude":"-97.04752","Snowdepth":"1.500","Units":"in","Rept_Date":"2020-12-08 14"},"coordinates":[0,8886]},{"type":"Point","properties":{"Station_ID":"RI-PR-28","Station_Nam":"NORTH SMITHFIELD 0.7 SE, RI","Latitude":"41.95910","Longitude":"-71.54201","Snowdepth":"1.400","Units":"in","Rept_Date":"2020-12-08 12"},"coordinates":[8086,3939]},{"type":"Point","properties":{"Station_ID":"C1773_MADIS","Station_Nam":"CW1773 LISBON","Latitude":"44.21200","Longitude":"-71.91630","Snowdepth":"1.300","Units":"in","Rept_Date":"2020-12-08 12"},"coordinates":[7967,5336]},{"type":"Point","properties":{"Station_ID":"NFGT1","Station_Nam":"NEW FOUND GAP","Latitude":"35.61080","Longitude":"-83.42890","Snowdepth":"1.260","Units":"in","Rept_Date":"2020-12-09 06"},"coordinates":[4317,0]},{"type":"Point","properties":{"Station_ID":"CAN-ON-187","Station_Nam":"WATERLOO 1.9 E - UOFW, CAN","Latitude":"43.47024","Longitude":"-80.50634","Snowdepth":"1.200","Units":"in","Rept_Date":"2020-12-08 13"},"coordinates":[5244,4876]},{"type":"Point","properties":{"Station_ID":"VT-WH-19","Station_Nam":"EAST DOVER 1.8 N, VT","Latitude":"42.97658","Longitude":"-72.77637","Snowdepth":"1.100","Units":"in","Rept_Date":"2020-12-08 12"},"coordinates":[7694,4570]},{"type":"Point","properties":{"Station_ID":"WTNM4","Station_Nam":"WATTON 2WSW","Latitude":"46.52660","Longitude":"-88.64240","Snowdepth":"1.000","Units":"in","Rept_Date":"2020-12-08 13"},"coordinates":[2665,6773]},{"type":"Point","properties":{"Station_ID":"WRUM5","Station_Nam":"WARROAD 4W","Latitude":"48.89600","Longitude":"-95.40700","Snowdepth":"1.000","Units":"in","Rept_Date":"2020-12-09 04"},"coordinates":[520,8243]},{"type":"Point","properties":{"Station_ID":"WPGN6","Station_Nam":"GEORGETOWN 2SE SNOW","Latitude":"42.75000","Longitude":"-75.70000","Snowdepth":"1.000","Units":"in","Rept_Date":"2020-12-08 14"},"coordinates":[6768,4429]},{"type":"Point","properties":{"Station_ID":"WPFN6","Station_Nam":"MARIPOSA 1NNW SNOW","Latitude":"42.73330","Longitude":"-75.81670","Snowdepth":"1.000","Units":"in","Rept_Date":"2020-12-08 14"},"coordinates":[6731,4419]},{"type":"Point","properties":{"Station_ID":"WPEN6","Station_Nam":"SOUTH OTSELIC 2NNW SNOW","Latitude":"42.66670","Longitude":"-75.80000","Snowdepth":"1.000","Units":"in","Rept_Date":"2020-12-08 14"},"coordinates":[6736,4378]},{"type":"Point","properties":{"Station_ID":"WPDN6","Station_Nam":"CINCINNATUS 2NW SNOW","Latitude":"42.55000","Longitude":"-75.93330","Snowdepth":"1.000","Units":"in","Rept_Date":"2020-12-08 14"},"coordinates":[6694,4305]},{"type":"Point","properties":{"Station_ID":"WPCN6","Station_Nam":"WILLET 2WNW SNOW","Latitude":"42.48330","Longitude":"-75.93330","Snowdepth":"1.000","Units":"in","Rept_Date":"2020-12-08 14"},"coordinates":[6694,4264]},{"type":"Point","properties":{"Station_ID":"WNDP1","Station_Nam":"WINDBER COUNTY CLUB","Latitude":"40.28780","Longitude":"-78.77530","Snowdepth":"1.000","Units":"in","Rept_Date":"2020-12-08 12"},"coordinates":[5793,2902]},{"type":"Point","properties":{"Station_ID":"WI-IR-3","Station_Nam":"PENCE 0.1 E, WI","Latitude":"46.41555","Longitude":"-90.27013","Snowdepth":"1.000","Units":"in","Rept_Date":"2020-12-08 13"},"coordinates":[2149,6704]},{"type":"Point","properties":{"Station_ID":"WI-DG-20","Station_Nam":"SOLON SPRINGS 1.2 W, WI","Latitude":"46.35217","Longitude":"-91.84405","Snowdepth":"1.000","Units":"in","Rept_Date":"2020-12-08 13"},"coordinates":[1650,6664]},{"type":"Point","properties":{"Station_ID":"WI-BY-29","Station_Nam":"BAYFIELD 5.1 NNW, WI","Latitude":"46.88063","Longitude":"-90.85854","Snowdepth":"1.000","Units":"in","Rept_Date":"2020-12-08 13"},"coordinates":[1962,6992]},{"type":"Point","properties":{"Station_ID":"WHFN6","Station_Nam":"WILMINGTON 2W","Latitude":"44.39310","Longitude":"-73.85890","Snowdepth":"1.000","Units":"in","Rept_Date":"2020-12-08 13"},"coordinates":[7351,5449]},{"type":"Point","properties":{"Station_ID":"WALM3","Station_Nam":"WALPOLE 2","Latitude":"42.16090","Longitude":"-71.24610","Snowdepth":"1.000","Units":"in","Rept_Date":"2020-12-08 12"},"coordinates":[8180,4064]},{"type":"Point","properties":{"Station_ID":"VT-WS-5","Station_Nam":"BERLIN 4.3 WNW, VT","Latitude":"44.23360","Longitude":"-72.65610","Snowdepth":"1.000","Units":"in","Rept_Date":"2020-12-08 12"},"coordinates":[7733,5350]},{"type":"Point","properties":{"Station_ID":"VT-WS-19","Station_Nam":"WATERBURY 3.0 NW, VT","Latitude":"44.36060","Longitude":"-72.80770","Snowdepth":"1.000","Units":"in","Rept_Date":"2020-12-08 11"},"coordinates":[7685,5429]},{"type":"Point","properties":{"Station_ID":"VT-CL-27","Station_Nam":"DANVILLE 0.4 N, VT","Latitude":"44.41769","Longitude":"-72.13936","Snowdepth":"1.000","Units":"in","Rept_Date":"2020-12-08 12"},"coordinates":[7896,5464]},{"type":"Point","properties":{"Station_ID":"VT-CH-4","Station_Nam":"UNDERHILL 4.4 NNE, VT","Latitude":"44.58774","Longitude":"-72.92250","Snowdepth":"1.000","Units":"in","Rept_Date":"2020-12-08 12"},"coordinates":[7648,5570]},{"type":"Point","properties":{"Station_ID":"VT-CH-15","Station_Nam":"HUNTINGTON 0.7 NNE, VT","Latitude":"44.33583","Longitude":"-72.98420","Snowdepth":"1.000","Units":"in","Rept_Date":"2020-12-08 13"},"coordinates":[7629,5413]},{"type":"Point","properties":{"Station_ID":"VT-CH-13","Station_Nam":"RICHMOND 3.4 SSE, VT","Latitude":"44.36084","Longitude":"-72.96400","Snowdepth":"1.000","Units":"in","Rept_Date":"2020-12-08 12"},"coordinates":[7635,5429]},{"type":"Point","properties":{"Station_ID":"VT-CH-11","Station_Nam":"UNDERHILL 5.1 NNE, VT","Latitude":"44.59811","Longitude":"-72.91880","Snowdepth":"1.000","Units":"in","Rept_Date":"2020-12-08 13"},"coordinates":[7649,5576]},{"type":"Point","properties":{"Station_ID":"VT-BN-7","Station_Nam":"MANCHESTER 2.8 ENE, VT","Latitude":"43.17274","Longitude":"-73.01811","Snowdepth":"1.000","Units":"in","Rept_Date":"2020-12-08 12"},"coordinates":[7618,4692]},{"type":"Point","properties":{"Station_ID":"TOGM5","Station_Nam":"CELINA 2E","Latitude":"47.86630","Longitude":"-93.02660","Snowdepth":"1.000","Units":"in","Rept_Date":"2020-12-08 15"},"coordinates":[1275,7604]},{"type":"Point","properties":{"Station_ID":"SUMW2","Station_Nam":"SUMMERSVILLE LAKE","Latitude":"38.22010","Longitude":"-80.89380","Snowdepth":"1.000","Units":"in","Rept_Date":"2020-12-08 12"},"coordinates":[5121,1619]},{"type":"Point","properties":{"Station_ID":"SUAW3","Station_Nam":"SUAMICO","Latitude":"44.60190","Longitude":"-88.09780","Snowdepth":"1.000","Units":"in","Rept_Date":"2020-12-08 12"},"coordinates":[2837,5578]},{"type":"Point","properties":{"Station_ID":"SLNV1","Station_Nam":"SOUTH LINCOLN","Latitude":"44.07460","Longitude":"-72.97180","Snowdepth":"1.000","Units":"in","Rept_Date":"2020-12-08 12"},"coordinates":[7632,5251]},{"type":"Point","properties":{"Station_ID":"SJBV1","Station_Nam":"SAINT JOHNSBURY","Latitude":"44.42000","Longitude":"-72.01940","Snowdepth":"1.000","Units":"in","Rept_Date":"2020-12-08 21"},"coordinates":[7934,5466]},{"type":"Point","properties":{"Station_ID":"ROWM3","Station_Nam":"ROWE 3NE","Latitude":"42.73500","Longitude":"-72.86920","Snowdepth":"1.000","Units":"in","Rept_Date":"2020-12-08 12"},"coordinates":[7665,4420]},{"type":"Point","properties":{"Station_ID":"RI-PR-50","Station_Nam":"HARRISVILLE 1.2 SSE, RI","Latitude":"41.95128","Longitude":"-71.67171","Snowdepth":"1.000","Units":"in","Rept_Date":"2020-12-08 12"},"coordinates":[8045,3934]},{"type":"Point","properties":{"Station_ID":"RI-PR-33","Station_Nam":"GREENVILLE 0.7 NNW, RI","Latitude":"41.88890","Longitude":"-71.56030","Snowdepth":"1.000","Units":"in","Rept_Date":"2020-12-08 12"},"coordinates":[8080,3895]},{"type":"Point","properties":{"Station_ID":"RI-KN-14","Station_Nam":"GREENE 1.4 E, RI","Latitude":"41.69155","Longitude":"-71.72380","Snowdepth":"1.000","Units":"in","Rept_Date":"2020-12-08 12"},"coordinates":[8028,3773]},{"type":"Point","properties":{"Station_ID":"RCVW2","Station_Nam":"ROCK CAVE 2NE","Latitude":"38.85610","Longitude":"-80.30740","Snowdepth":"1.000","Units":"in","Rept_Date":"2020-12-08 13"},"coordinates":[5307,2014]},{"type":"Point","properties":{"Station_ID":"PWM","Station_Nam":"RESIDUAL OFFICE TO PORTLAND WSFO (GYX)","Latitude":"43.64610","Longitude":"-70.30920","Snowdepth":"1.000","Units":"in","Rept_Date":"2020-12-08 12"},"coordinates":[8477,4985]},{"type":"Point","properties":{"Station_ID":"PSM","Station_Nam":"PEASE INTL TRADEPORT AP","Latitude":"43.07810","Longitude":"-70.82330","Snowdepth":"1.000","Units":"in","Rept_Date":"2020-12-08 12"},"coordinates":[8314,4633]},{"type":"Point","properties":{"Station_ID":"PLFV1","Station_Nam":"PLAINFIELD","Latitude":"44.27610","Longitude":"-72.41500","Snowdepth":"1.000","Units":"in","Rept_Date":"2020-12-08 12"},"coordinates":[7809,5376]},{"type":"Point","properties":{"Station_ID":"PERV1","Station_Nam":"PERU","Latitude":"43.26670","Longitude":"-72.90000","Snowdepth":"1.000","Units":"in","Rept_Date":"2020-12-08 12"},"coordinates":[7655,4750]},{"type":"Point","properties":{"Station_ID":"PA-VN-7","Station_Nam":"COOPERSTOWN 1.3 E, PA","Latitude":"41.50067","Longitude":"-79.84970","Snowdepth":"1.000","Units":"in","Rept_Date":"2020-12-08 12"},"coordinates":[5452,3654]},{"type":"Point","properties":{"Station_ID":"OTTN3","Station_Nam":"OTTER BROOK LAKE","Latitude":"42.95000","Longitude":"-72.23330","Snowdepth":"1.000","Units":"in","Rept_Date":"2020-12-08 12"},"coordinates":[7867,4554]},{"type":"Point","properties":{"Station_ID":"OBEO1","Station_Nam":"OBERLIN,OH","Latitude":"41.26670","Longitude":"-82.21670","Snowdepth":"1.000","Units":"in","Rept_Date":"2020-12-08 13"},"coordinates":[4702,3509]},{"type":"Point","properties":{"Station_ID":"NY-TM-36","Station_Nam":"ITHACA 2.0 ESE, NY","Latitude":"42.42932","Longitude":"-76.46871","Snowdepth":"1.000","Units":"in","Rept_Date":"2020-12-08 13"},"coordinates":[6524,4230]},{"type":"Point","properties":{"Station_ID":"NY-TM-27","Station_Nam":"GROTON 3.2 SSW, NY","Latitude":"42.54725","Longitude":"-76.39960","Snowdepth":"1.000","Units":"in","Rept_Date":"2020-12-08 12"},"coordinates":[6546,4304]},{"type":"Point","properties":{"Station_ID":"NY-DL-28","Station_Nam":"FLEISCHMANNS 5.7 N, NY","Latitude":"42.23779","Longitude":"-74.52335","Snowdepth":"1.000","Units":"in","Rept_Date":"2020-12-08 12"},"coordinates":[7141,4112]},{"type":"Point","properties":{"Station_ID":"NY-CR-1","Station_Nam":"FREETOWN 1.0 NE, NY","Latitude":"42.53299","Longitude":"-76.02111","Snowdepth":"1.000","Units":"in","Rept_Date":"2020-12-08 12"},"coordinates":[6666,4295]},{"type":"Point","properties":{"Station_ID":"NVLV1","Station_Nam":"NASHVILLE","Latitude":"44.44970","Longitude":"-72.92640","Snowdepth":"1.000","Units":"in","Rept_Date":"2020-12-08 12"},"coordinates":[7647,5484]},{"type":"Point","properties":{"Station_ID":"NUNV1","Station_Nam":"NORTH UNDERHILL","Latitude":"44.58760","Longitude":"-72.92150","Snowdepth":"1.000","Units":"in","Rept_Date":"2020-12-08 12"},"coordinates":[7648,5570]},{"type":"Point","properties":{"Station_ID":"NORV2","Station_Nam":"NORA 4 SSE","Latitude":"37.01560","Longitude":"-82.32140","Snowdepth":"1.000","Units":"in","Rept_Date":"2020-12-08 12"},"coordinates":[4668,872]},{"type":"Point","properties":{"Station_ID":"NH-SL-3","Station_Nam":"WEST UNITY 0.7 WSW, NH","Latitude":"43.28652","Longitude":"-72.32970","Snowdepth":"1.000","Units":"in","Rept_Date":"2020-12-08 12"},"coordinates":[7836,4762]},{"type":"Point","properties":{"Station_ID":"NH-RC-80","Station_Nam":"NEWTON 1.8 NW, NH","Latitude":"42.88410","Longitude":"-71.06330","Snowdepth":"1.000","Units":"in","Rept_Date":"2020-12-08 13"},"coordinates":[8238,4513]},{"type":"Point","properties":{"Station_ID":"NH-MR-63","Station_Nam":"SUTTON MILLS 0.1 ENE, NH","Latitude":"43.33522","Longitude":"-71.95126","Snowdepth":"1.000","Units":"in","Rept_Date":"2020-12-08 12"},"coordinates":[7956,4793]},{"type":"Point","properties":{"Station_ID":"NH-GR-46","Station_Nam":"ASHLAND 2.4 NNW, NH","Latitude":"43.72963","Longitude":"-71.64213","Snowdepth":"1.000","Units":"in","Rept_Date":"2020-12-08 12"},"coordinates":[8054,5037]},{"type":"Point","properties":{"Station_ID":"NH-CR-26","Station_Nam":"CENTER SANDWICH 4.9 E, NH","Latitude":"43.80976","Longitude":"-71.34150","Snowdepth":"1.000","Units":"in","Rept_Date":"2020-12-08 12"},"coordinates":[8149,5087]},{"type":"Point","properties":{"Station_ID":"NH-BK-29","Station_Nam":"SANBORNTON 2.3 WNW, NH","Latitude":"43.49730","Longitude":"-71.62800","Snowdepth":"1.000","Units":"in","Rept_Date":"2020-12-08 12"},"coordinates":[8058,4893]},{"type":"Point","properties":{"Station_ID":"NCBN6","Station_Nam":"NEWCOMB","Latitude":"43.97070","Longitude":"-74.22200","Snowdepth":"1.000","Units":"in","Rept_Date":"2020-12-08 13"},"coordinates":[7236,5187]},{"type":"Point","properties":{"Station_ID":"NC-YN-13","Station_Nam":"BURNSVILLE 5.9 SSW, NC","Latitude":"35.83863","Longitude":"-82.34140","Snowdepth":"1.000","Units":"in","Rept_Date":"2020-12-08 13"},"coordinates":[4662,141]},{"type":"Point","properties":{"Station_ID":"NC-AV-1","Station_Nam":"FLAT SPRINGS 1.2 E, NC","Latitude":"36.25250","Longitude":"-81.91330","Snowdepth":"1.000","Units":"in","Rept_Date":"2020-12-08 12"},"coordinates":[4798,398]},{"type":"Point","properties":{"Station_ID":"MQT","Station_Nam":"MARQUETTE, MI","Latitude":"46.53140","Longitude":"-87.54920","Snowdepth":"1.000","Units":"in","Rept_Date":"2020-12-09 06"},"coordinates":[3011,6776]},{"type":"Point","properties":{"Station_ID":"MNBW2","Station_Nam":"MT. NEBO 1S","Latitude":"38.18790","Longitude":"-80.84840","Snowdepth":"1.000","Units":"in","Rept_Date":"2020-12-08 12"},"coordinates":[5135,1599]},{"type":"Point","properties":{"Station_ID":"MN-SL-15","Station_Nam":"CHISHOLM 0.4 WSW, MN","Latitude":"47.48557","Longitude":"-92.88690","Snowdepth":"1.000","Units":"in","Rept_Date":"2020-12-08 13"},"coordinates":[1319,7368]},{"type":"Point","properties":{"Station_ID":"MN-SL-108","Station_Nam":"IRON JUNCTION 3.4 NNW, MN","Latitude":"47.46150","Longitude":"-92.63130","Snowdepth":"1.000","Units":"in","Rept_Date":"2020-12-08 13"},"coordinates":[1400,7353]},{"type":"Point","properties":{"Station_ID":"MECN6","Station_Nam":"MECKLENBURG 4 SW","Latitude":"42.44220","Longitude":"-76.75740","Snowdepth":"1.000","Units":"in","Rept_Date":"2020-12-08 12"},"coordinates":[6432,4238]},{"type":"Point","properties":{"Station_ID":"ME-YK-28","Station_Nam":"BIDDEFORD 1.5 NNE, ME","Latitude":"43.48679","Longitude":"-70.43470","Snowdepth":"1.000","Units":"in","Rept_Date":"2020-12-08 12"},"coordinates":[8437,4887]},{"type":"Point","properties":{"Station_ID":"ME-WL-8","Station_Nam":"WINTERPORT 2.9 N, ME","Latitude":"44.69369","Longitude":"-68.84800","Snowdepth":"1.000","Units":"in","Rept_Date":"2020-12-08 12"},"coordinates":[8940,5635]},{"type":"Point","properties":{"Station_ID":"ME-SG-1","Station_Nam":"BATH 1.1 WSW, ME","Latitude":"43.93063","Longitude":"-69.85730","Snowdepth":"1.000","Units":"in","Rept_Date":"2020-12-08 12"},"coordinates":[8620,5162]},{"type":"Point","properties":{"Station_ID":"ME-PN-47","Station_Nam":"MILFORD 0.8 SSW, ME","Latitude":"44.94108","Longitude":"-68.64154","Snowdepth":"1.000","Units":"in","Rept_Date":"2020-12-08 11"},"coordinates":[9005,5789]},{"type":"Point","properties":{"Station_ID":"ME-CM-98","Station_Nam":"SEBAGO 2.4 ESE, ME","Latitude":"43.88000","Longitude":"-70.63000","Snowdepth":"1.000","Units":"in","Rept_Date":"2020-12-08 15"},"coordinates":[8375,5131]},{"type":"Point","properties":{"Station_ID":"MBGM7","Station_Nam":"MISSOURI BOTANICAL GARDENS","Latitude":"38.61280","Longitude":"-90.26080","Snowdepth":"1.000","Units":"in","Rept_Date":"2020-12-08 22"},"coordinates":[2152,1863]},{"type":"Point","properties":{"Station_ID":"MA-PL-57","Station_Nam":"HANSON 1.8 N, MA","Latitude":"42.09074","Longitude":"-70.84914","Snowdepth":"1.000","Units":"in","Rept_Date":"2020-12-08 12"},"coordinates":[8305,4020]},{"type":"Point","properties":{"Station_ID":"MA-PL-23","Station_Nam":"PEMBROKE 2.8 SW, MA","Latitude":"42.03841","Longitude":"-70.83937","Snowdepth":"1.000","Units":"in","Rept_Date":"2020-12-08 13"},"coordinates":[8309,3988]},{"type":"Point","properties":{"Station_ID":"MA-MD-89","Station_Nam":"SUDBURY 3.6 W, MA","Latitude":"42.36394","Longitude":"-71.47012","Snowdepth":"1.000","Units":"in","Rept_Date":"2020-12-08 12"},"coordinates":[8109,4190]},{"type":"Point","properties":{"Station_ID":"MA-MD-47","Station_Nam":"WEST TOWNSEND 0.5 W, MA","Latitude":"42.67623","Longitude":"-71.74983","Snowdepth":"1.000","Units":"in","Rept_Date":"2020-12-08 11"},"coordinates":[8020,4384]},{"type":"Point","properties":{"Station_ID":"MA-MD-125","Station_Nam":"TEWKSBURY 3.6 SSE, MA","Latitude":"42.57083","Longitude":"-71.19813","Snowdepth":"1.000","Units":"in","Rept_Date":"2020-12-08 12"},"coordinates":[8195,4318]},{"type":"Point","properties":{"Station_ID":"MA-HS-7","Station_Nam":"PLAINFIELD 2.2 SW, MA","Latitude":"42.49272","Longitude":"-72.94540","Snowdepth":"1.000","Units":"in","Rept_Date":"2020-12-08 13"},"coordinates":[7641,4270]},{"type":"Point","properties":{"Station_ID":"MA-ES-66","Station_Nam":"NORTH ANDOVER 0.3 NW, MA","Latitude":"42.70375","Longitude":"-71.12029","Snowdepth":"1.000","Units":"in","Rept_Date":"2020-12-08 13"},"coordinates":[8219,4401]},{"type":"Point","properties":{"Station_ID":"LPLN6","Station_Nam":"LAKE PLACID 2 S","Latitude":"44.30420","Longitude":"-73.98390","Snowdepth":"1.000","Units":"in","Rept_Date":"2020-12-08 13"},"coordinates":[7312,5394]},{"type":"Point","properties":{"Station_ID":"LBRM5","Station_Nam":"LAKE BRONSON DAM","Latitude":"48.72410","Longitude":"-96.62180","Snowdepth":"1.000","Units":"in","Rept_Date":"2020-12-08 14"},"coordinates":[135,8136]},{"type":"Point","properties":{"Station_ID":"KPSM","Station_Nam":"PEASE AIR FORCE BASE / PORTSMOUTH","Latitude":"43.08333","Longitude":"-70.81666","Snowdepth":"1.000","Units":"in","Rept_Date":"2020-12-09 06"},"coordinates":[8316,4636]},{"type":"Point","properties":{"Station_ID":"KCLE","Station_Nam":"CLEVELAND-HOPKINS INTERNATIONAL","Latitude":"41.40000","Longitude":"-81.85000","Snowdepth":"1.000","Units":"in","Rept_Date":"2020-12-08 18"},"coordinates":[4818,3592]},{"type":"Point","properties":{"Station_ID":"KBTV","Station_Nam":"BURLINGTON INTERNATIONAL","Latitude":"44.46666","Longitude":"-73.15000","Snowdepth":"1.000","Units":"in","Rept_Date":"2020-12-09 00"},"coordinates":[7576,5494]},{"type":"Point","properties":{"Station_ID":"KBGR","Station_Nam":"BANGOR INTL AIRPORT","Latitude":"44.80000","Longitude":"-68.81666","Snowdepth":"1.000","Units":"in","Rept_Date":"2020-12-09 06"},"coordinates":[8950,5701]},{"type":"Point","properties":{"Station_ID":"KABM5","Station_Nam":"KABETOGAMA LAKE VISITOR CTR","Latitude":"48.40880","Longitude":"-93.04840","Snowdepth":"1.000","Units":"in","Rept_Date":"2020-12-08 13"},"coordinates":[1268,7940]},{"type":"Point","properties":{"Station_ID":"JOHV1","Station_Nam":"JOHNSON 2 N","Latitude":"44.65790","Longitude":"-72.67850","Snowdepth":"1.000","Units":"in","Rept_Date":"2020-12-08 12"},"coordinates":[7725,5613]},{"type":"Point","properties":{"Station_ID":"ITHN6","Station_Nam":"ITHACA,NY","Latitude":"42.45000","Longitude":"-76.45000","Snowdepth":"1.000","Units":"in","Rept_Date":"2020-12-08 12"},"coordinates":[6530,4243]},{"type":"Point","properties":{"Station_ID":"INDM5","Station_Nam":"INDUS,MN","Latitude":"48.61670","Longitude":"-93.90000","Snowdepth":"1.000","Units":"in","Rept_Date":"2020-12-08 14"},"coordinates":[998,8069]},{"type":"Point","properties":{"Station_ID":"HSPV2","Station_Nam":"HOT SPRINGS","Latitude":"37.99690","Longitude":"-79.83160","Snowdepth":"1.000","Units":"in","Rept_Date":"2020-12-08 12"},"coordinates":[5458,1480]},{"type":"Point","properties":{"Station_ID":"HBHM4","Station_Nam":"HARBOR BEACH,MI","Latitude":"43.83330","Longitude":"-82.63330","Snowdepth":"1.000","Units":"in","Rept_Date":"2020-12-08 13"},"coordinates":[4570,5102]},{"type":"Point","properties":{"Station_ID":"GNFN7","Station_Nam":"GRANDFATHER MOUNTAIN MUSEUM","Latitude":"36.08950","Longitude":"-81.83560","Snowdepth":"1.000","Units":"in","Rept_Date":"2020-12-08 16"},"coordinates":[4822,297]},{"type":"Point","properties":{"Station_ID":"GLLM5","Station_Nam":"GULL LAKE DAM","Latitude":"46.41190","Longitude":"-94.35000","Snowdepth":"1.000","Units":"in","Rept_Date":"2020-12-08 14"},"coordinates":[855,6701]},{"type":"Point","properties":{"Station_ID":"FTSN7","Station_Nam":"FLAT SPRINGS 1E","Latitude":"36.25270","Longitude":"-81.91360","Snowdepth":"1.000","Units":"in","Rept_Date":"2020-12-08 12"},"coordinates":[4798,398]},{"type":"Point","properties":{"Station_ID":"FSTW2","Station_Nam":"FROST 3NE","Latitude":"38.28690","Longitude":"-79.81810","Snowdepth":"1.000","Units":"in","Rept_Date":"2020-12-08 11"},"coordinates":[5462,1660]},{"type":"Point","properties":{"Station_ID":"ESDN3","Station_Nam":"EAST SANDWICH","Latitude":"43.80990","Longitude":"-71.34250","Snowdepth":"1.000","Units":"in","Rept_Date":"2020-12-08 11"},"coordinates":[8149,5087]},{"type":"Point","properties":{"Station_ID":"EPPN3","Station_Nam":"EPPING","Latitude":"43.03020","Longitude":"-71.08380","Snowdepth":"1.000","Units":"in","Rept_Date":"2020-12-08 12"},"coordinates":[8231,4603]},{"type":"Point","properties":{"Station_ID":"EMLN3","Station_Nam":"EAST MILFORD","Latitude":"42.82660","Longitude":"-71.62600","Snowdepth":"1.000","Units":"in","Rept_Date":"2020-12-08 12"},"coordinates":[8059,4477]},{"type":"Point","properties":{"Station_ID":"ELYM5","Station_Nam":"ELY","Latitude":"47.90560","Longitude":"-91.82830","Snowdepth":"1.000","Units":"in","Rept_Date":"2020-12-08 14"},"coordinates":[1655,7628]},{"type":"Point","properties":{"Station_ID":"ELNW2","Station_Nam":"ELKINS AIRPORT SNOW OBSERVATION","Latitude":"38.93650","Longitude":"-79.84320","Snowdepth":"1.000","Units":"in","Rept_Date":"2020-12-08 12"},"coordinates":[5454,2063]},{"type":"Point","properties":{"Station_ID":"CTYR1","Station_Nam":"COVENTRY 2","Latitude":"41.66840","Longitude":"-71.55710","Snowdepth":"1.000","Units":"in","Rept_Date":"2020-12-08 12"},"coordinates":[8081,3758]},{"type":"Point","properties":{"Station_ID":"CT-LT-9","Station_Nam":"NEW HARTFORD CENTER 3.2 SW, CT","Latitude":"41.84170","Longitude":"-73.00920","Snowdepth":"1.000","Units":"in","Rept_Date":"2020-12-08 12"},"coordinates":[7621,3866]},{"type":"Point","properties":{"Station_ID":"CT-LT-29","Station_Nam":"GOSHEN 0.5 NW, CT","Latitude":"41.83707","Longitude":"-73.23003","Snowdepth":"1.000","Units":"in","Rept_Date":"2020-12-08 11"},"coordinates":[7551,3863]},{"type":"Point","properties":{"Station_ID":"CRLM5","Station_Nam":"CROSS LAKE DAM","Latitude":"46.66930","Longitude":"-94.11060","Snowdepth":"1.000","Units":"in","Rept_Date":"2020-12-08 14"},"coordinates":[931,6861]},{"type":"Point","properties":{"Station_ID":"CLKM4","Station_Nam":"CLARKSBURG","Latitude":"46.49910","Longitude":"-87.84500","Snowdepth":"1.000","Units":"in","Rept_Date":"2020-12-08 12"},"coordinates":[2917,6755]},{"type":"Point","properties":{"Station_ID":"CAN-QC-56","Station_Nam":"SUTTON 2.6 N, CAN","Latitude":"45.13119","Longitude":"-72.61218","Snowdepth":"1.000","Units":"in","Rept_Date":"2020-12-08 12"},"coordinates":[7746,5907]},{"type":"Point","properties":{"Station_ID":"CAN-NB-11","Station_Nam":"MIRAMICHI 3.3 S, CAN","Latitude":"46.99343","Longitude":"-65.50690","Snowdepth":"1.000","Units":"in","Rept_Date":"2020-12-08 12"},"coordinates":[9999,7062]},{"type":"Point","properties":{"Station_ID":"CAN-NB-1","Station_Nam":"FREDERICTON 4.0 SSE, CA","Latitude":"45.92897","Longitude":"-66.62830","Snowdepth":"1.000","Units":"in","Rept_Date":"2020-12-08 12"},"coordinates":[9643,6402]},{"type":"Point","properties":{"Station_ID":"CAAW2","Station_Nam":"CANAAN VALLEY","Latitude":"39.05890","Longitude":"-79.44030","Snowdepth":"1.000","Units":"in","Rept_Date":"2020-12-08 14"},"coordinates":[5582,2139]},{"type":"Point","properties":{"Station_ID":"BTV","Station_Nam":"BURLINGTON, VT","Latitude":"44.47140","Longitude":"-73.15330","Snowdepth":"1.000","Units":"in","Rept_Date":"2020-12-09 01"},"coordinates":[7575,5497]},{"type":"Point","properties":{"Station_ID":"BTHM1","Station_Nam":"BATH","Latitude":"43.93160","Longitude":"-69.85640","Snowdepth":"1.000","Units":"in","Rept_Date":"2020-12-08 12"},"coordinates":[8620,5163]},{"type":"Point","properties":{"Station_ID":"BLHM3","Station_Nam":"BLUE HILL COOP","Latitude":"42.21230","Longitude":"-71.11370","Snowdepth":"1.000","Units":"in","Rept_Date":"2020-12-08 12"},"coordinates":[8222,4096]},{"type":"Point","properties":{"Station_ID":"BLFW2","Station_Nam":"BLUEFIELD","Latitude":"37.25550","Longitude":"-81.22630","Snowdepth":"1.000","Units":"in","Rept_Date":"2020-12-08 12"},"coordinates":[5016,1020]},{"type":"Point","properties":{"Station_ID":"BGRM1","Station_Nam":"BANGOR FSS","Latitude":"44.80440","Longitude":"-68.81330","Snowdepth":"1.000","Units":"in","Rept_Date":"2020-12-09 06"},"coordinates":[8951,5704]},{"type":"Point","properties":{"Station_ID":"BGR","Station_Nam":"BANGOR INTERNATIONAL AIRPORT","Latitude":"44.79780","Longitude":"-68.81840","Snowdepth":"1.000","Units":"in","Rept_Date":"2020-12-08 12"},"coordinates":[8949,5700]},{"type":"Point","properties":{"Station_ID":"BARW2","Station_Nam":"BARTOW 1S","Latitude":"38.53120","Longitude":"-79.77140","Snowdepth":"1.000","Units":"in","Rept_Date":"2020-12-08 12"},"coordinates":[5477,1812]},{"type":"Point","properties":{"Station_ID":"BAKC3","Station_Nam":"BAKERSVILLE","Latitude":"41.84180","Longitude":"-73.00850","Snowdepth":"1.000","Units":"in","Rept_Date":"2020-12-08 12"},"coordinates":[7621,3866]},{"type":"Point","properties":{"Station_ID":"AUBN6","Station_Nam":"AUBURN","Latitude":"42.93270","Longitude":"-76.54470","Snowdepth":"1.000","Units":"in","Rept_Date":"2020-12-08 11"},"coordinates":[6500,4543]},{"type":"Point","properties":{"Station_ID":"AMAM4","Station_Nam":"AMASA 1W","Latitude":"46.23470","Longitude":"-88.45440","Snowdepth":"1.000","Units":"in","Rept_Date":"2020-12-08 14"},"coordinates":[2724,6591]},{"type":"Point","properties":{"Station_ID":"38.9365_079.8433","Station_Nam":"Elkins  Co-Op Observer (ELNW2)","Latitude":"38.93650","Longitude":"-79.84330","Snowdepth":"1.000","Units":"in","Rept_Date":"2020-12-08 12"},"coordinates":[5454,2063]},{"type":"Point","properties":{"Station_ID":"38.8561_080.3074","Station_Nam":"2 NE ROCK CAVE  CO-OP OBSERVER (RCVW2)","Latitude":"38.85610","Longitude":"-80.30740","Snowdepth":"1.000","Units":"in","Rept_Date":"2020-12-08 13"},"coordinates":[5307,2014]},{"type":"Point","properties":{"Station_ID":"38.5312_079.7714","Station_Nam":"1 S BARTOW  CO-OP OBSERVER (X3850798)","Latitude":"38.53120","Longitude":"-79.77140","Snowdepth":"1.000","Units":"in","Rept_Date":"2020-12-08 12"},"coordinates":[5477,1812]},{"type":"Point","properties":{"Station_ID":"38.2869_079.8181","Station_Nam":"3 NE FROST  CO-OP OBSERVER (FSTW2)","Latitude":"38.28690","Longitude":"-79.81810","Snowdepth":"1.000","Units":"in","Rept_Date":"2020-12-08 11"},"coordinates":[5462,1660]},{"type":"Point","properties":{"Station_ID":"38.2200_080.8939","Station_Nam":"Summersville Lake  Co-Op Observer (SUMW2)","Latitude":"38.22000","Longitude":"-80.89390","Snowdepth":"1.000","Units":"in","Rept_Date":"2020-12-08 12"},"coordinates":[5121,1619]},{"type":"Point","properties":{"Station_ID":"38.1879_080.8484","Station_Nam":"6.7 S Summersville  Co-Op Observer (MNBW2)","Latitude":"38.18790","Longitude":"-80.84840","Snowdepth":"1.000","Units":"in","Rept_Date":"2020-12-08 12"},"coordinates":[5135,1599]},{"type":"Point","properties":{"Station_ID":"37.0156_082.3214","Station_Nam":"4 SSE NORA (NORV2)","Latitude":"37.01560","Longitude":"-82.32140","Snowdepth":"1.000","Units":"in","Rept_Date":"2020-12-08 12"},"coordinates":[4668,872]}]}},"arcs":[],"transform":{"scale":[0.0031543774377437747,0.001611771177117712],"translate":[-97.04752,35.6108]}}