{"type":"Topology","objects":{"snowdepth_geo":{"type":"GeometryCollection","name":"snowdepth","crs":{"type":"name","properties":{"name":"urn:ogc:def:crs:OGC:1.3:CRS84"}},"geometries":[{"type":"Point","properties":{"Station_ID":"MMSV1","Station_Nam":"MOUNT MANSFIELD","Latitude":"44.53330","Longitude":"-72.83330","Snowdepth":"87.000","Units":"in","Rept_Date":"2020-01-07 05"},"coordinates":[5582,5524]},{"type":"Point","properties":{"Station_ID":"PRKM4","Station_Nam":"MUNISING EAST","Latitude":"46.42580","Longitude":"-86.62000","Snowdepth":"76.500","Units":"in","Rept_Date":"2020-01-07 06"},"coordinates":[2428,6701]},{"type":"Point","properties":{"Station_ID":"OGIQ6","Station_Nam":"OGOKI CAMP","Latitude":"50.76680","Longitude":"-87.85820","Snowdepth":"61.100","Units":"in","Rept_Date":"2020-01-07 06"},"coordinates":[2145,9402]},{"type":"Point","properties":{"Station_ID":"AUDQ6","Station_Nam":"AUDEN","Latitude":"48.52600","Longitude":"-82.57570","Snowdepth":"47.640","Units":"in","Rept_Date":"2020-01-07 06"},"coordinates":[3353,8008]},{"type":"Point","properties":{"Station_ID":"DVLQ6","Station_Nam":"DEVIOUS LAKE","Latitude":"49.19890","Longitude":"-87.76440","Snowdepth":"43.460","Units":"in","Rept_Date":"2020-01-07 06"},"coordinates":[2167,8426]},{"type":"Point","properties":{"Station_ID":"HTLN3","Station_Nam":"HERMIT LAKE SNOWPLOT","Latitude":"44.26130","Longitude":"-71.28330","Snowdepth":"40.000","Units":"in","Rept_Date":"2020-01-06 10"},"coordinates":[5936,5354]},{"type":"Point","properties":{"Station_ID":"PDLM4","Station_Nam":"PAINESDALE","Latitude":"47.04160","Longitude":"-88.67170","Snowdepth":"38.000","Units":"in","Rept_Date":"2020-01-06 13"},"coordinates":[1959,7084]},{"type":"Point","properties":{"Station_ID":"MI-HG-18","Station_Nam":"CALUMET 0.7 W (TAMARACK), MI","Latitude":"47.24560","Longitude":"-88.46791","Snowdepth":"38.000","Units":"in","Rept_Date":"2020-01-06 13"},"coordinates":[2006,7211]},{"type":"Point","properties":{"Station_ID":"GMSM4","Station_Nam":"GRAND MARAIS 10S","Latitude":"46.50940","Longitude":"-85.96310","Snowdepth":"34.000","Units":"in","Rept_Date":"2020-01-06 12"},"coordinates":[2579,6753]},{"type":"Point","properties":{"Station_ID":"WLFM5","Station_Nam":"WOLF RIDGE ENVIRON LEARNING CENTER","Latitude":"47.38240","Longitude":"-91.19730","Snowdepth":"30.000","Units":"in","Rept_Date":"2020-01-06 13"},"coordinates":[1382,7296]},{"type":"Point","properties":{"Station_ID":"KSGM4","Station_Nam":"KEARSARGE","Latitude":"47.27520","Longitude":"-88.41700","Snowdepth":"30.000","Units":"in","Rept_Date":"2020-01-06 13"},"coordinates":[2018,7229]},{"type":"Point","properties":{"Station_ID":"QGO","Station_Nam":"QGO","Latitude":"48.85500","Longitude":"-74.20640","Snowdepth":"29.724","Units":"in","Rept_Date":"2020-01-06 12"},"coordinates":[5268,8212]},{"type":"Point","properties":{"Station_ID":"QOU","Station_Nam":"QOU","Latitude":"50.79250","Longitude":"-69.67470","Snowdepth":"28.504","Units":"in","Rept_Date":"2020-01-06 12"},"coordinates":[6304,9418]},{"type":"Point","properties":{"Station_ID":"MMNV1","Station_Nam":"MT. MANSFIELD","Latitude":"44.52480","Longitude":"-72.81540","Snowdepth":"28.000","Units":"in","Rept_Date":"2020-01-06 21"},"coordinates":[5586,5518]},{"type":"Point","properties":{"Station_ID":"QGD","Station_Nam":"QGD","Latitude":"51.11140","Longitude":"-67.13940","Snowdepth":"27.716","Units":"in","Rept_Date":"2020-01-06 12"},"coordinates":[6884,9616]},{"type":"Point","properties":{"Station_ID":"QNCM4","Station_Nam":"QUINCY HILL","Latitude":"47.13640","Longitude":"-88.57950","Snowdepth":"27.000","Units":"in","Rept_Date":"2020-01-06 12"},"coordinates":[1980,7143]},{"type":"Point","properties":{"Station_ID":"MLZ","Station_Nam":"MLZ","Latitude":"50.66170","Longitude":"-68.82360","Snowdepth":"26.968","Units":"in","Rept_Date":"2020-01-06 12"},"coordinates":[6499,9336]},{"type":"Point","properties":{"Station_ID":"NWCM4","Station_Nam":"NEWBERRY CITY","Latitude":"46.35720","Longitude":"-85.51780","Snowdepth":"26.000","Units":"in","Rept_Date":"2020-01-06 12"},"coordinates":[2681,6658]},{"type":"Point","properties":{"Station_ID":"NOHM5","Station_Nam":"NORTHOME","Latitude":"47.83590","Longitude":"-94.25550","Snowdepth":"26.000","Units":"in","Rept_Date":"2020-01-06 13"},"coordinates":[682,7578]},{"type":"Point","properties":{"Station_ID":"IBLM5","Station_Nam":"ISABELLA 14W","Latitude":"47.59360","Longitude":"-91.65140","Snowdepth":"26.000","Units":"in","Rept_Date":"2020-01-06 15"},"coordinates":[1278,7428]},{"type":"Point","properties":{"Station_ID":"NY-JF-30","Station_Nam":"WEST CARTHAGE 0.3 ENE, NY","Latitude":"43.97493","Longitude":"-75.61640","Snowdepth":"25.500","Units":"in","Rept_Date":"2020-01-06 12"},"coordinates":[4945,5176]},{"type":"Point","properties":{"Station_ID":"MQT","Station_Nam":"MARQUETTE, MI","Latitude":"46.53140","Longitude":"-87.54920","Snowdepth":"25.000","Units":"in","Rept_Date":"2020-01-07 06"},"coordinates":[2216,6767]},{"type":"Point","properties":{"Station_ID":"MI-BG-3","Station_Nam":"L'ANSE 17.8 SE, MI","Latitude":"46.55730","Longitude":"-88.20770","Snowdepth":"25.000","Units":"in","Rept_Date":"2020-01-06 13"},"coordinates":[2065,6783]},{"type":"Point","properties":{"Station_ID":"HURW3","Station_Nam":"HURLEY","Latitude":"46.46250","Longitude":"-90.19550","Snowdepth":"25.000","Units":"in","Rept_Date":"2020-01-06 14"},"coordinates":[1611,6724]},{"type":"Point","properties":{"Station_ID":"QCU","Station_Nam":"QCU","Latitude":"47.82750","Longitude":"-76.59830","Snowdepth":"24.016","Units":"in","Rept_Date":"2020-01-06 12"},"coordinates":[4721,7573]},{"type":"Point","properties":{"Station_ID":"WI-IR-3","Station_Nam":"PENCE 0.1 E, WI","Latitude":"46.41555","Longitude":"-90.27013","Snowdepth":"24.000","Units":"in","Rept_Date":"2020-01-06 13"},"coordinates":[1594,6695]},{"type":"Point","properties":{"Station_ID":"MN-SL-15","Station_Nam":"CHISHOLM 0.4 WSW, MN","Latitude":"47.48557","Longitude":"-92.88690","Snowdepth":"24.000","Units":"in","Rept_Date":"2020-01-06 13"},"coordinates":[995,7360]},{"type":"Point","properties":{"Station_ID":"IWOM4","Station_Nam":"IRONWOOD#2","Latitude":"46.46520","Longitude":"-90.13820","Snowdepth":"24.000","Units":"in","Rept_Date":"2020-01-06 13"},"coordinates":[1624,6725]},{"type":"Point","properties":{"Station_ID":"CLKS2","Station_Nam":"WATERTOWN-23MI.ESE","Latitude":"44.75000","Longitude":"-96.68330","Snowdepth":"24.000","Units":"in","Rept_Date":"2020-01-06 15"},"coordinates":[127,5658]},{"type":"Point","properties":{"Station_ID":"QLB","Station_Nam":"QLB","Latitude":"50.72360","Longitude":"-75.10000","Snowdepth":"23.779","Units":"in","Rept_Date":"2020-01-06 12"},"coordinates":[5063,9375]},{"type":"Point","properties":{"Station_ID":"MNSM4","Station_Nam":"MUNISING","Latitude":"46.41210","Longitude":"-86.66250","Snowdepth":"23.000","Units":"in","Rept_Date":"2020-01-06 11"},"coordinates":[2419,6692]},{"type":"Point","properties":{"Station_ID":"BERM4","Station_Nam":"BERGLAND DAM","Latitude":"46.58690","Longitude":"-89.54750","Snowdepth":"23.000","Units":"in","Rept_Date":"2020-01-06 13"},"coordinates":[1759,6801]},{"type":"Point","properties":{"Station_ID":"QCX","Station_Nam":"QCX","Latitude":"51.32830","Longitude":"-70.08060","Snowdepth":"22.362","Units":"in","Rept_Date":"2020-01-06 12"},"coordinates":[6211,9751]},{"type":"Point","properties":{"Station_ID":"WRSM5","Station_Nam":"WRENSHALL","Latitude":"46.61550","Longitude":"-92.38380","Snowdepth":"22.000","Units":"in","Rept_Date":"2020-01-06 14"},"coordinates":[1110,6819]},{"type":"Point","properties":{"Station_ID":"WRPW3","Station_Nam":"WATER PURIFICATION PLANT","Latitude":"44.38800","Longitude":"-89.80550","Snowdepth":"22.000","Units":"in","Rept_Date":"2020-01-06 12"},"coordinates":[1700,5433]},{"type":"Point","properties":{"Station_ID":"WI-VL-10","Station_Nam":"LAND O LAKES 4.3 WNW, WI","Latitude":"46.17440","Longitude":"-89.30380","Snowdepth":"22.000","Units":"in","Rept_Date":"2020-01-06 13"},"coordinates":[1815,6545]},{"type":"Point","properties":{"Station_ID":"PDGM4","Station_Nam":"PAULDING","Latitude":"46.39760","Longitude":"-89.17940","Snowdepth":"22.000","Units":"in","Rept_Date":"2020-01-06 13"},"coordinates":[1843,6683]},{"type":"Point","properties":{"Station_ID":"MI-MQ-19","Station_Nam":"ISHPEMING 7.2 SW, MI","Latitude":"46.40550","Longitude":"-87.75670","Snowdepth":"22.000","Units":"in","Rept_Date":"2020-01-06 11"},"coordinates":[2169,6688]},{"type":"Point","properties":{"Station_ID":"LVDW3","Station_Nam":"LAC VIEUX DESERT","Latitude":"46.12110","Longitude":"-89.07580","Snowdepth":"22.000","Units":"in","Rept_Date":"2020-01-06 14"},"coordinates":[1867,6511]},{"type":"Point","properties":{"Station_ID":"ILIM5","Station_Nam":"ISLAND LAKE","Latitude":"47.02400","Longitude":"-92.07000","Snowdepth":"22.000","Units":"in","Rept_Date":"2020-01-06 15"},"coordinates":[1182,7073]},{"type":"Point","properties":{"Station_ID":"CLQM5","Station_Nam":"CLOQUET","Latitude":"46.70470","Longitude":"-92.52530","Snowdepth":"22.000","Units":"in","Rept_Date":"2020-01-06 14"},"coordinates":[1078,6874]},{"type":"Point","properties":{"Station_ID":"CAN-NL-81","Station_Nam":"GRAND FALLS-WINDSOR 1.2 S, CAN","Latitude":"48.93123","Longitude":"-55.65333","Snowdepth":"21.700","Units":"in","Rept_Date":"2020-01-06 10"},"coordinates":[9511,8260]},{"type":"Point","properties":{"Station_ID":"PTLQ6","Station_Nam":"PORTAGE LAKE","Latitude":"49.06950","Longitude":"-86.65940","Snowdepth":"21.610","Units":"in","Rept_Date":"2020-01-07 06"},"coordinates":[2419,8346]},{"type":"Point","properties":{"Station_ID":"TRIQ6","Station_Nam":"TRIO LAKE","Latitude":"49.22880","Longitude":"-87.22920","Snowdepth":"21.140","Units":"in","Rept_Date":"2020-01-07 06"},"coordinates":[2289,8445]},{"type":"Point","properties":{"Station_ID":"SVBQ6","Station_Nam":"SAVANT BASE","Latitude":"50.28730","Longitude":"-90.65670","Snowdepth":"21.140","Units":"in","Rept_Date":"2020-01-07 06"},"coordinates":[1505,9103]},{"type":"Point","properties":{"Station_ID":"WI-VL-9","Station_Nam":"LAND O' LAKES 11.7 W, WI","Latitude":"46.19023","Longitude":"-89.45790","Snowdepth":"21.000","Units":"in","Rept_Date":"2020-01-06 13"},"coordinates":[1779,6554]},{"type":"Point","properties":{"Station_ID":"TOGM5","Station_Nam":"CELINA 2E","Latitude":"47.86630","Longitude":"-93.02660","Snowdepth":"21.000","Units":"in","Rept_Date":"2020-01-06 15"},"coordinates":[963,7597]},{"type":"Point","properties":{"Station_ID":"PRDM4","Station_Nam":"PARADISE","Latitude":"46.60380","Longitude":"-85.03960","Snowdepth":"21.000","Units":"in","Rept_Date":"2020-01-06 12"},"coordinates":[2790,6812]},{"type":"Point","properties":{"Station_ID":"MN-IT-11","Station_Nam":"NASHWAUK 11.5 N, MN","Latitude":"47.54496","Longitude":"-93.19420","Snowdepth":"21.000","Units":"in","Rept_Date":"2020-01-06 13"},"coordinates":[925,7397]},{"type":"Point","properties":{"Station_ID":"MN-BK-6","Station_Nam":"LAKE PARK 6.0 S, MN","Latitude":"46.79850","Longitude":"-96.12180","Snowdepth":"21.000","Units":"in","Rept_Date":"2020-01-06 13"},"coordinates":[255,6933]},{"type":"Point","properties":{"Station_ID":"LNOW3","Station_Nam":"LAND O LAKES","Latitude":"46.19000","Longitude":"-89.45700","Snowdepth":"21.000","Units":"in","Rept_Date":"2020-01-06 13"},"coordinates":[1780,6554]},{"type":"Point","properties":{"Station_ID":"GNLM4","Station_Nam":"GREENLAND 6N","Latitude":"46.87360","Longitude":"-89.10060","Snowdepth":"21.000","Units":"in","Rept_Date":"2020-01-06 13"},"coordinates":[1861,6980]},{"type":"Point","properties":{"Station_ID":"BNDM5","Station_Nam":"ELY 25E","Latitude":"47.97190","Longitude":"-91.44860","Snowdepth":"21.000","Units":"in","Rept_Date":"2020-01-06 14"},"coordinates":[1324,7663]},{"type":"Point","properties":{"Station_ID":"BBEM4","Station_Nam":"BIG BAY 9SW","Latitude":"46.74620","Longitude":"-87.88160","Snowdepth":"21.000","Units":"in","Rept_Date":"2020-01-06 13"},"coordinates":[2140,6900]},{"type":"Point","properties":{"Station_ID":"WTRW3","Station_Nam":"WINTER","Latitude":"45.79920","Longitude":"-90.99470","Snowdepth":"20.000","Units":"in","Rept_Date":"2020-01-06 15"},"coordinates":[1428,6311]},{"type":"Point","properties":{"Station_ID":"WI-WB-2","Station_Nam":"STONE LAKE 2.0 NW, WI","Latitude":"45.85960","Longitude":"-91.57710","Snowdepth":"20.000","Units":"in","Rept_Date":"2020-01-06 13"},"coordinates":[1295,6349]},{"type":"Point","properties":{"Station_ID":"MN-IT-23","Station_Nam":"BOVEY 13.4 N, MN","Latitude":"47.48855","Longitude":"-93.43497","Snowdepth":"20.000","Units":"in","Rept_Date":"2020-01-06 13"},"coordinates":[870,7362]},{"type":"Point","properties":{"Station_ID":"MCLN8","Station_Nam":"MC LEOD,ND","Latitude":"46.40250","Longitude":"-97.23810","Snowdepth":"20.000","Units":"in","Rept_Date":"2020-01-06 15"},"coordinates":[0,6686]},{"type":"Point","properties":{"Station_ID":"HERM4","Station_Nam":"HERMAN,MI","Latitude":"46.65000","Longitude":"-88.33330","Snowdepth":"20.000","Units":"in","Rept_Date":"2020-01-06 13"},"coordinates":[2037,6840]},{"type":"Point","properties":{"Station_ID":"EVRW3","Station_Nam":"EAGLE RIVER-4 E","Latitude":"45.91890","Longitude":"-89.15280","Snowdepth":"20.000","Units":"in","Rept_Date":"2020-01-06 12"},"coordinates":[1849,6386]},{"type":"Point","properties":{"Station_ID":"DLHM5","Station_Nam":"DULUTH NWS","Latitude":"46.83680","Longitude":"-92.21080","Snowdepth":"20.000","Units":"in","Rept_Date":"2020-01-07 06"},"coordinates":[1150,6957]},{"type":"Point","properties":{"Station_ID":"DLH","Station_Nam":"DULUTH, MN","Latitude":"46.83690","Longitude":"-92.21030","Snowdepth":"20.000","Units":"in","Rept_Date":"2020-01-07 00"},"coordinates":[1150,6957]},{"type":"Point","properties":{"Station_ID":"CAN-NB-50","Station_Nam":"DOYLEVILLE 2.4 WNW, CAN","Latitude":"47.90803","Longitude":"-66.13279","Snowdepth":"19.700","Units":"in","Rept_Date":"2020-01-06 13"},"coordinates":[7114,7623]},{"type":"Point","properties":{"Station_ID":"QMD","Station_Nam":"QMD","Latitude":"49.29060","Longitude":"-75.84500","Snowdepth":"19.685","Units":"in","Rept_Date":"2020-01-06 12"},"coordinates":[4893,8483]},{"type":"Point","properties":{"Station_ID":"QWE","Station_Nam":"QWE","Latitude":"47.84610","Longitude":"-73.80670","Snowdepth":"19.606","Units":"in","Rept_Date":"2020-01-06 12"},"coordinates":[5359,7585]},{"type":"Point","properties":{"Station_ID":"QYR","Station_Nam":"QYR","Latitude":"48.87220","Longitude":"-75.61470","Snowdepth":"19.528","Units":"in","Rept_Date":"2020-01-06 12"},"coordinates":[4946,8223]},{"type":"Point","properties":{"Station_ID":"KABQ6","Station_Nam":"CAB LAKE","Latitude":"49.59950","Longitude":"-89.17990","Snowdepth":"19.290","Units":"in","Rept_Date":"2020-01-07 06"},"coordinates":[1843,8675]},{"type":"Point","properties":{"Station_ID":"STGW3","Station_Nam":"ST GERMAIN","Latitude":"45.91550","Longitude":"-89.48940","Snowdepth":"19.000","Units":"in","Rept_Date":"2020-01-06 12"},"coordinates":[1772,6383]},{"type":"Point","properties":{"Station_ID":"RHIW3","Station_Nam":"RHINELANDER","Latitude":"45.59860","Longitude":"-89.45080","Snowdepth":"19.000","Units":"in","Rept_Date":"2020-01-06 13"},"coordinates":[1781,6186]},{"type":"Point","properties":{"Station_ID":"MI-HG-6","Station_Nam":"CALUMET 5.8 ENE, MI","Latitude":"47.27200","Longitude":"-88.33400","Snowdepth":"19.000","Units":"in","Rept_Date":"2020-01-06 11"},"coordinates":[2036,7227]},{"type":"Point","properties":{"Station_ID":"MI-HG-1","Station_Nam":"HOUGHTON 1.6 ESE, MI","Latitude":"47.10774","Longitude":"-88.52940","Snowdepth":"19.000","Units":"in","Rept_Date":"2020-01-06 13"},"coordinates":[1992,7125]},{"type":"Point","properties":{"Station_ID":"MAIW3","Station_Nam":"MADELINE ISLAND","Latitude":"46.78330","Longitude":"-90.76670","Snowdepth":"19.000","Units":"in","Rept_Date":"2020-01-06 14"},"coordinates":[1480,6923]},{"type":"Point","properties":{"Station_ID":"CAN-NL-14","Station_Nam":"WHITBOURNE 1.4 NE, CA","Latitude":"47.42741","Longitude":"-53.51950","Snowdepth":"18.900","Units":"in","Rept_Date":"2020-01-06 13"},"coordinates":[9999,7324]},{"type":"Point","properties":{"Station_ID":"QTV","Station_Nam":"QTV","Latitude":"49.66000","Longitude":"-69.35690","Snowdepth":"18.740","Units":"in","Rept_Date":"2020-01-06 12"},"coordinates":[6377,8713]},{"type":"Point","properties":{"Station_ID":"QFT","Station_Nam":"QFT","Latitude":"50.83280","Longitude":"-74.40390","Snowdepth":"18.543","Units":"in","Rept_Date":"2020-01-06 12"},"coordinates":[5222,9443]},{"type":"Point","properties":{"Station_ID":"WI-BY-14","Station_Nam":"ASHLAND 9.8 W, WI","Latitude":"46.59742","Longitude":"-91.07856","Snowdepth":"18.500","Units":"in","Rept_Date":"2020-01-06 12"},"coordinates":[1409,6808]},{"type":"Point","properties":{"Station_ID":"QMA","Station_Nam":"QMA","Latitude":"50.10330","Longitude":"-70.47190","Snowdepth":"18.150","Units":"in","Rept_Date":"2020-01-06 12"},"coordinates":[6122,8989]},{"type":"Point","properties":{"Station_ID":"WTRM4","Station_Nam":"WATERSMEET 12WSW","Latitude":"46.22310","Longitude":"-89.40850","Snowdepth":"18.000","Units":"in","Rept_Date":"2020-01-06 12"},"coordinates":[1791,6575]},{"type":"Point","properties":{"Station_ID":"WI-VL-14","Station_Nam":"BOULDER JUNCTION 1.4 NE, WI","Latitude":"46.12840","Longitude":"-89.62470","Snowdepth":"18.000","Units":"in","Rept_Date":"2020-01-06 13"},"coordinates":[1741,6516]},{"type":"Point","properties":{"Station_ID":"SUAW3","Station_Nam":"SUAMICO","Latitude":"44.60190","Longitude":"-88.09780","Snowdepth":"18.000","Units":"in","Rept_Date":"2020-01-06 12"},"coordinates":[2091,5566]},{"type":"Point","properties":{"Station_ID":"MN-SL-143","Station_Nam":"CANYON 4.6 NNE, MN","Latitude":"47.09800","Longitude":"-92.42170","Snowdepth":"18.000","Units":"in","Rept_Date":"2020-01-06 14"},"coordinates":[1102,7119]},{"type":"Point","properties":{"Station_ID":"ITAM5","Station_Nam":"UNIV. OF MINN.","Latitude":"47.21670","Longitude":"-95.20000","Snowdepth":"18.000","Units":"in","Rept_Date":"2020-01-06 13"},"coordinates":[466,7193]},{"type":"Point","properties":{"Station_ID":"ELYM5","Station_Nam":"ELY","Latitude":"47.90560","Longitude":"-91.82830","Snowdepth":"18.000","Units":"in","Rept_Date":"2020-01-06 14"},"coordinates":[1237,7622]},{"type":"Point","properties":{"Station_ID":"CSLM5","Station_Nam":"CASS LAKE,MN","Latitude":"47.38470","Longitude":"-94.61470","Snowdepth":"18.000","Units":"in","Rept_Date":"2020-01-06 14"},"coordinates":[600,7298]},{"type":"Point","properties":{"Station_ID":"QCO","Station_Nam":"QCO","Latitude":"51.45280","Longitude":"-72.20110","Snowdepth":"17.953","Units":"in","Rept_Date":"2020-01-06 12"},"coordinates":[5726,9828]},{"type":"Point","properties":{"Station_ID":"MFU","Station_Nam":"MFU","Latitude":"51.52170","Longitude":"-66.91110","Snowdepth":"17.165","Units":"in","Rept_Date":"2020-01-06 12"},"coordinates":[6936,9871]},{"type":"Point","properties":{"Station_ID":"WI-DG-20","Station_Nam":"SOLON SPRINGS 1.2 W, WI","Latitude":"46.35217","Longitude":"-91.84405","Snowdepth":"17.000","Units":"in","Rept_Date":"2020-01-06 13"},"coordinates":[1234,6655]},{"type":"Point","properties":{"Station_ID":"WI-BY-2","Station_Nam":"MELLEN 18.6 SW, WI","Latitude":"46.16937","Longitude":"-90.98090","Snowdepth":"17.000","Units":"in","Rept_Date":"2020-01-06 13"},"coordinates":[1431,6541]},{"type":"Point","properties":{"Station_ID":"MN-SL-108","Station_Nam":"IRON JUNCTION 3.4 NNW, MN","Latitude":"47.46150","Longitude":"-92.63130","Snowdepth":"17.000","Units":"in","Rept_Date":"2020-01-06 13"},"coordinates":[1054,7345]},{"type":"Point","properties":{"Station_ID":"MN-CK-3","Station_Nam":"TOFTE 4.9 NE, MN","Latitude":"47.62394","Longitude":"-90.76100","Snowdepth":"17.000","Units":"in","Rept_Date":"2020-01-06 13"},"coordinates":[1481,7446]},{"type":"Point","properties":{"Station_ID":"LTMW3","Station_Nam":"LAKE TOMAHAWK 2 SE","Latitude":"45.80750","Longitude":"-89.55830","Snowdepth":"17.000","Units":"in","Rept_Date":"2020-01-06 12"},"coordinates":[1756,6316]},{"type":"Point","properties":{"Station_ID":"LEIM5","Station_Nam":"ORR 3E","Latitude":"48.05810","Longitude":"-92.75220","Snowdepth":"17.000","Units":"in","Rept_Date":"2020-01-06 12"},"coordinates":[1026,7716]},{"type":"Point","properties":{"Station_ID":"KABM5","Station_Nam":"KABETOGAMA LAKE VISITOR CTR","Latitude":"48.40880","Longitude":"-93.04840","Snowdepth":"17.000","Units":"in","Rept_Date":"2020-01-06 13"},"coordinates":[958,7935]},{"type":"Point","properties":{"Station_ID":"IRMM4","Station_Nam":"WWTP","Latitude":"46.46670","Longitude":"-90.18330","Snowdepth":"17.000","Units":"in","Rept_Date":"2020-01-06 13"},"coordinates":[1614,6726]},{"type":"Point","properties":{"Station_ID":"GLDM4","Station_Nam":"GLADSTONE NO. 2","Latitude":"45.84330","Longitude":"-87.03910","Snowdepth":"17.000","Units":"in","Rept_Date":"2020-01-06 12"},"coordinates":[2333,6339]},{"type":"Point","properties":{"Station_ID":"EMBM5","Station_Nam":"EMBARASS,MN","Latitude":"47.65810","Longitude":"-92.19580","Snowdepth":"17.000","Units":"in","Rept_Date":"2020-01-06 12"},"coordinates":[1153,7468]},{"type":"Point","properties":{"Station_ID":"EGRW3","Station_Nam":"EAGLE RIVER-SOUTH","Latitude":"45.91360","Longitude":"-89.24360","Snowdepth":"17.000","Units":"in","Rept_Date":"2020-01-06 13"},"coordinates":[1828,6382]},{"type":"Point","properties":{"Station_ID":"CMKW3","Station_Nam":"CLAM LAKE 4W","Latitude":"46.16940","Longitude":"-90.98080","Snowdepth":"17.000","Units":"in","Rept_Date":"2020-01-06 13"},"coordinates":[1431,6541]},{"type":"Point","properties":{"Station_ID":"CBVM1","Station_Nam":"CARRABASSETT VALLEY","Latitude":"45.08040","Longitude":"-70.30310","Snowdepth":"17.000","Units":"in","Rept_Date":"2020-01-06 12"},"coordinates":[6160,5864]},{"type":"Point","properties":{"Station_ID":"AGNW3","Station_Nam":"ARGONNE-1.5 NW","Latitude":"45.67360","Longitude":"-88.90380","Snowdepth":"17.000","Units":"in","Rept_Date":"2020-01-06 14"},"coordinates":[1906,6233]},{"type":"Point","properties":{"Station_ID":"WI-ON-8","Station_Nam":"HAZELHURST 2.1 SSE, WI","Latitude":"45.78186","Longitude":"-89.70330","Snowdepth":"16.500","Units":"in","Rept_Date":"2020-01-06 13"},"coordinates":[1723,6300]},{"type":"Point","properties":{"Station_ID":"SOCQ6","Station_Nam":"SOCKET LAKE","Latitude":"50.77870","Longitude":"-91.79300","Snowdepth":"16.300","Units":"in","Rept_Date":"2020-01-07 06"},"coordinates":[1245,9409]},{"type":"Point","properties":{"Station_ID":"QIQ","Station_Nam":"QIQ","Latitude":"49.82390","Longitude":"-68.54310","Snowdepth":"16.102","Units":"in","Rept_Date":"2020-01-06 12"},"coordinates":[6563,8815]},{"type":"Point","properties":{"Station_ID":"QLM","Station_Nam":"QLM","Latitude":"48.92030","Longitude":"-70.25280","Snowdepth":"16.024","Units":"in","Rept_Date":"2020-01-06 12"},"coordinates":[6172,8253]},{"type":"Point","properties":{"Station_ID":"WI-DG-16","Station_Nam":"POPLAR 2.0 E, WI","Latitude":"46.58390","Longitude":"-91.74620","Snowdepth":"16.000","Units":"in","Rept_Date":"2020-01-06 13"},"coordinates":[1256,6799]},{"type":"Point","properties":{"Station_ID":"NYMM5","Station_Nam":"NEW YORK MILLS","Latitude":"46.50920","Longitude":"-95.37990","Snowdepth":"16.000","Units":"in","Rept_Date":"2020-01-06 13"},"coordinates":[425,6753]},{"type":"Point","properties":{"Station_ID":"MN-PK-15","Station_Nam":"MENTOR 2.5 SSW, MN","Latitude":"47.66625","Longitude":"-96.17328","Snowdepth":"16.000","Units":"in","Rept_Date":"2020-01-06 12"},"coordinates":[244,7473]},{"type":"Point","properties":{"Station_ID":"MN-BM-15","Station_Nam":"BEMIDJI 7.8 ENE, MN","Latitude":"47.52043","Longitude":"-94.72121","Snowdepth":"16.000","Units":"in","Rept_Date":"2020-01-06 13"},"coordinates":[576,7382]},{"type":"Point","properties":{"Station_ID":"GHMN3","Station_Nam":"PINKHAM NOTCH","Latitude":"44.25800","Longitude":"-71.25250","Snowdepth":"16.000","Units":"in","Rept_Date":"2020-01-06 10"},"coordinates":[5943,5352]},{"type":"Point","properties":{"Station_ID":"GGRM4","Station_Nam":"GREEN GARDEN NO.2","Latitude":"46.45330","Longitude":"-87.30380","Snowdepth":"16.000","Units":"in","Rept_Date":"2020-01-06 11"},"coordinates":[2272,6718]},{"type":"Point","properties":{"Station_ID":"FEDM5","Station_Nam":"LEECH LAKE DAM","Latitude":"47.24670","Longitude":"-94.22280","Snowdepth":"16.000","Units":"in","Rept_Date":"2020-01-06 14"},"coordinates":[690,7212]},{"type":"Point","properties":{"Station_ID":"CRLM5","Station_Nam":"CROSS LAKE DAM","Latitude":"46.66930","Longitude":"-94.11060","Snowdepth":"16.000","Units":"in","Rept_Date":"2020-01-06 14"},"coordinates":[715,6852]},{"type":"Point","properties":{"Station_ID":"COVM4","Station_Nam":"COVINGTON","Latitude":"46.55880","Longitude":"-88.54190","Snowdepth":"16.000","Units":"in","Rept_Date":"2020-01-06 13"},"coordinates":[1989,6784]},{"type":"Point","properties":{"Station_ID":"CLKM4","Station_Nam":"CLARKSBURG","Latitude":"46.49910","Longitude":"-87.84500","Snowdepth":"16.000","Units":"in","Rept_Date":"2020-01-06 12"},"coordinates":[2148,6747]},{"type":"Point","properties":{"Station_ID":"NH-CS-10","Station_Nam":"RANDOLPH 1.4 NE, NH","Latitude":"44.38824","Longitude":"-71.26950","Snowdepth":"15.500","Units":"in","Rept_Date":"2020-01-06 12"},"coordinates":[5939,5433]},{"type":"Point","properties":{"Station_ID":"ND-CS-25","Station_Nam":"FARGO 2.1 N, ND","Latitude":"46.90816","Longitude":"-96.77937","Snowdepth":"15.500","Units":"in","Rept_Date":"2020-01-06 14"},"coordinates":[105,7001]},{"type":"Point","properties":{"Station_ID":"QLP","Station_Nam":"QLP","Latitude":"48.13920","Longitude":"-72.63830","Snowdepth":"15.197","Units":"in","Rept_Date":"2020-01-06 12"},"coordinates":[5626,7767]},{"type":"Point","properties":{"Station_ID":"WRTS2","Station_Nam":"WATERTOWN,SD","Latitude":"44.90280","Longitude":"-97.11360","Snowdepth":"15.000","Units":"in","Rept_Date":"2020-01-06 15"},"coordinates":[28,5753]},{"type":"Point","properties":{"Station_ID":"WI-ON-6","Station_Nam":"RHINELANDER 5.2 N, WI","Latitude":"45.71388","Longitude":"-89.42150","Snowdepth":"15.000","Units":"in","Rept_Date":"2020-01-06 14"},"coordinates":[1788,6258]},{"type":"Point","properties":{"Station_ID":"SBNM5","Station_Nam":"SABIN","Latitude":"46.77690","Longitude":"-96.65610","Snowdepth":"15.000","Units":"in","Rept_Date":"2020-01-06 14"},"coordinates":[133,6919]},{"type":"Point","properties":{"Station_ID":"RPDM4","Station_Nam":"RAPID RIVER 4SSE","Latitude":"45.87270","Longitude":"-86.94960","Snowdepth":"15.000","Units":"in","Rept_Date":"2020-01-06 14"},"coordinates":[2353,6357]},{"type":"Point","properties":{"Station_ID":"OTTM5","Station_Nam":"OTTERTAIL,MN","Latitude":"46.41670","Longitude":"-95.56670","Snowdepth":"15.000","Units":"in","Rept_Date":"2020-01-06 11"},"coordinates":[382,6695]},{"type":"Point","properties":{"Station_ID":"MWN","Station_Nam":"MOUNT WASHINGTON","Latitude":"44.26670","Longitude":"-71.30000","Snowdepth":"15.000","Units":"in","Rept_Date":"2020-01-07 05"},"coordinates":[5932,5358]},{"type":"Point","properties":{"Station_ID":"MI-OT-17","Station_Nam":"GAYLORD 4.1 S, MI","Latitude":"44.96388","Longitude":"-84.68467","Snowdepth":"15.000","Units":"in","Rept_Date":"2020-01-06 12"},"coordinates":[2871,5791]},{"type":"Point","properties":{"Station_ID":"MI-MQ-2","Station_Nam":"MARQUETTE 6.5 SSE, MI","Latitude":"46.46461","Longitude":"-87.34064","Snowdepth":"15.000","Units":"in","Rept_Date":"2020-01-06 13"},"coordinates":[2264,6725]},{"type":"Point","properties":{"Station_ID":"KMWN","Station_Nam":"MOUNT WASHINGTON","Latitude":"44.26666","Longitude":"-71.30000","Snowdepth":"15.000","Units":"in","Rept_Date":"2020-01-07 06"},"coordinates":[5932,5358]},{"type":"Point","properties":{"Station_ID":"INL","Station_Nam":"FALLS INTERNATIONAL ARPT","Latitude":"48.56640","Longitude":"-93.40310","Snowdepth":"15.000","Units":"in","Rept_Date":"2020-01-07 00"},"coordinates":[877,8033]},{"type":"Point","properties":{"Station_ID":"HRVM4","Station_Nam":"HARVEY","Latitude":"46.49080","Longitude":"-87.35470","Snowdepth":"15.000","Units":"in","Rept_Date":"2020-01-06 12"},"coordinates":[2260,6741]},{"type":"Point","properties":{"Station_ID":"FLNW3","Station_Nam":"FLORENCE","Latitude":"45.93360","Longitude":"-88.25830","Snowdepth":"15.000","Units":"in","Rept_Date":"2020-01-06 13"},"coordinates":[2054,6395]},{"type":"Point","properties":{"Station_ID":"FAR","Station_Nam":"HECTOR INTERNATIONAL ARPT","Latitude":"46.91560","Longitude":"-96.81440","Snowdepth":"15.000","Units":"in","Rept_Date":"2020-01-07 00"},"coordinates":[97,7006]},{"type":"Point","properties":{"Station_ID":"CRVW3","Station_Nam":"CRIVITZ HIGH FALLS","Latitude":"45.35750","Longitude":"-88.19190","Snowdepth":"15.000","Units":"in","Rept_Date":"2020-01-06 13"},"coordinates":[2069,6036]},{"type":"Point","properties":{"Station_ID":"BRAM5","Station_Nam":"BRAINERD","Latitude":"46.34320","Longitude":"-94.20900","Snowdepth":"15.000","Units":"in","Rept_Date":"2020-01-06 13"},"coordinates":[693,6650]},{"type":"Point","properties":{"Station_ID":"AVTW3","Station_Nam":"ARBOR VITAE-JOHNSON LAKE","Latitude":"45.89940","Longitude":"-89.72670","Snowdepth":"15.000","Units":"in","Rept_Date":"2020-01-06 12"},"coordinates":[1718,6373]},{"type":"Point","properties":{"Station_ID":"AVLV1","Station_Nam":"AVERILL","Latitude":"45.00570","Longitude":"-71.69030","Snowdepth":"15.000","Units":"in","Rept_Date":"2020-01-06 13"},"coordinates":[5843,5817]},{"type":"Point","properties":{"Station_ID":"AURW3","Station_Nam":"AURORA","Latitude":"45.77000","Longitude":"-88.11810","Snowdepth":"15.000","Units":"in","Rept_Date":"2020-01-06 13"},"coordinates":[2086,6293]},{"type":"Point","properties":{"Station_ID":"ATY","Station_Nam":"WATERTOWN MUNICIPAL AIRPORT","Latitude":"44.91420","Longitude":"-97.15440","Snowdepth":"15.000","Units":"in","Rept_Date":"2020-01-06 12"},"coordinates":[19,5761]},{"type":"Point","properties":{"Station_ID":"ANTW3","Station_Nam":"ANTIGO,WI","Latitude":"45.13330","Longitude":"-89.15000","Snowdepth":"15.000","Units":"in","Rept_Date":"2020-01-06 14"},"coordinates":[1850,5897]},{"type":"Point","properties":{"Station_ID":"QTM","Station_Nam":"QTM","Latitude":"51.05780","Longitude":"-72.57190","Snowdepth":"14.842","Units":"in","Rept_Date":"2020-01-06 12"},"coordinates":[5641,9583]},{"type":"Point","properties":{"Station_ID":"QLI","Station_Nam":"QLI","Latitude":"50.27080","Longitude":"-73.92280","Snowdepth":"14.724","Units":"in","Rept_Date":"2020-01-06 12"},"coordinates":[5333,9093]},{"type":"Point","properties":{"Station_ID":"CATQ6","Station_Nam":"CAT LAKE","Latitude":"51.72690","Longitude":"-91.82210","Snowdepth":"14.690","Units":"in","Rept_Date":"2020-01-07 06"},"coordinates":[1239,9999]},{"type":"Point","properties":{"Station_ID":"MN-OT-3","Station_Nam":"BATTLE LAKE 2S, MN","Latitude":"46.25833","Longitude":"-95.71470","Snowdepth":"14.500","Units":"in","Rept_Date":"2020-01-06 13"},"coordinates":[348,6597]},{"type":"Point","properties":{"Station_ID":"QGA","Station_Nam":"QGA","Latitude":"47.25640","Longitude":"-73.73810","Snowdepth":"14.213","Units":"in","Rept_Date":"2020-01-06 12"},"coordinates":[5375,7218]},{"type":"Point","properties":{"Station_ID":"VT-OL-12","Station_Nam":"GREENSBORO 3.9 NNE, VT","Latitude":"44.63100","Longitude":"-72.28000","Snowdepth":"14.000","Units":"in","Rept_Date":"2020-01-06 12"},"coordinates":[5708,5584]},{"type":"Point","properties":{"Station_ID":"TAKW3","Station_Nam":"RICE RESERVOIR NO. 2","Latitude":"45.53770","Longitude":"-89.73220","Snowdepth":"14.000","Units":"in","Rept_Date":"2020-01-06 13"},"coordinates":[1717,6148]},{"type":"Point","properties":{"Station_ID":"SUTV1","Station_Nam":"SUTTON","Latitude":"44.61220","Longitude":"-72.04810","Snowdepth":"14.000","Units":"in","Rept_Date":"2020-01-06 13"},"coordinates":[5761,5573]},{"type":"Point","properties":{"Station_ID":"SDYM5","Station_Nam":"DAM","Latitude":"46.81670","Longitude":"-93.36670","Snowdepth":"14.000","Units":"in","Rept_Date":"2020-01-06 14"},"coordinates":[885,6944]},{"type":"Point","properties":{"Station_ID":"RLWM5","Station_Nam":"CAMP NORRIS DNR","Latitude":"48.61000","Longitude":"-95.18170","Snowdepth":"14.000","Units":"in","Rept_Date":"2020-01-06 13"},"coordinates":[470,8060]},{"type":"Point","properties":{"Station_ID":"RLKW3","Station_Nam":"REST LAKE","Latitude":"46.12220","Longitude":"-89.87720","Snowdepth":"14.000","Units":"in","Rept_Date":"2020-01-06 13"},"coordinates":[1684,6512]},{"type":"Point","properties":{"Station_ID":"RARM4","Station_Nam":"RAPID RIVER 1 SW","Latitude":"45.91500","Longitude":"-86.98800","Snowdepth":"14.000","Units":"in","Rept_Date":"2020-01-06 12"},"coordinates":[2344,6383]},{"type":"Point","properties":{"Station_ID":"MN-IT-1","Station_Nam":"GRAND RAPIDS 2.0 E, MN","Latitude":"47.22266","Longitude":"-93.49600","Snowdepth":"14.000","Units":"in","Rept_Date":"2020-01-06 12"},"coordinates":[856,7197]},{"type":"Point","properties":{"Station_ID":"MIEM4","Station_Nam":"MICHIGAMME 3WNW","Latitude":"46.54530","Longitude":"-88.18000","Snowdepth":"14.000","Units":"in","Rept_Date":"2020-01-06 13"},"coordinates":[2072,6775]},{"type":"Point","properties":{"Station_ID":"MI-AT-6","Station_Nam":"MANCELONA 0.5 ESE, MI","Latitude":"44.89981","Longitude":"-85.05100","Snowdepth":"14.000","Units":"in","Rept_Date":"2020-01-06 13"},"coordinates":[2787,5752]},{"type":"Point","properties":{"Station_ID":"JCBM4","Station_Nam":"JACOBSVILLE","Latitude":"47.00830","Longitude":"-88.43180","Snowdepth":"14.000","Units":"in","Rept_Date":"2020-01-06 12"},"coordinates":[2014,7063]},{"type":"Point","properties":{"Station_ID":"IFSM5","Station_Nam":"INTERNATIONAL FALLS SNOW","Latitude":"48.57780","Longitude":"-93.39640","Snowdepth":"14.000","Units":"in","Rept_Date":"2020-01-07 06"},"coordinates":[879,8040]},{"type":"Point","properties":{"Station_ID":"GLRM5","Station_Nam":"GLACIAL RIDGE","Latitude":"47.71670","Longitude":"-96.26670","Snowdepth":"14.000","Units":"in","Rept_Date":"2020-01-07 05"},"coordinates":[222,7504]},{"type":"Point","properties":{"Station_ID":"GLLM5","Station_Nam":"GULL LAKE DAM","Latitude":"46.41190","Longitude":"-94.35000","Snowdepth":"14.000","Units":"in","Rept_Date":"2020-01-06 14"},"coordinates":[661,6692]},{"type":"Point","properties":{"Station_ID":"BRVM5","Station_Nam":"BROWNS VALLEY,MN","Latitude":"45.61670","Longitude":"-96.83330","Snowdepth":"14.000","Units":"in","Rept_Date":"2020-01-06 13"},"coordinates":[93,6198]},{"type":"Point","properties":{"Station_ID":"BRUM5","Station_Nam":"BRUNO,MN","Latitude":"46.28330","Longitude":"-92.50000","Snowdepth":"14.000","Units":"in","Rept_Date":"2020-01-06 14"},"coordinates":[1084,6612]},{"type":"Point","properties":{"Station_ID":"BFHW3","Station_Nam":"BAYFIELD FISH HATCHERY","Latitude":"46.78670","Longitude":"-90.86420","Snowdepth":"14.000","Units":"in","Rept_Date":"2020-01-06 14"},"coordinates":[1458,6926]},{"type":"Point","properties":{"Station_ID":"AROM4","Station_Nam":"ARNOLD,MI","Latitude":"46.06670","Longitude":"-87.48330","Snowdepth":"14.000","Units":"in","Rept_Date":"2020-01-06 13"},"coordinates":[2231,6478]},{"type":"Point","properties":{"Station_ID":"ANJM4","Station_Nam":"SNOW PAID OBSERVER FOR KANJ","Latitude":"46.48670","Longitude":"-84.40260","Snowdepth":"14.000","Units":"in","Rept_Date":"2020-01-07 00"},"coordinates":[2936,6739]},{"type":"Point","properties":{"Station_ID":"ANJ","Station_Nam":"SAULT STE MARIE","Latitude":"46.46670","Longitude":"-84.36670","Snowdepth":"14.000","Units":"in","Rept_Date":"2020-01-07 00"},"coordinates":[2944,6726]},{"type":"Point","properties":{"Station_ID":"MN-IT-7","Station_Nam":"GRAND RAPIDS 6.2 SSW, MN","Latitude":"47.13687","Longitude":"-93.56660","Snowdepth":"13.900","Units":"in","Rept_Date":"2020-01-06 12"},"coordinates":[840,7143]},{"type":"Point","properties":{"Station_ID":"WI-PR-6","Station_Nam":"PHILLIPS 1.3 S, WI","Latitude":"45.67677","Longitude":"-90.39543","Snowdepth":"13.500","Units":"in","Rept_Date":"2020-01-06 12"},"coordinates":[1565,6235]},{"type":"Point","properties":{"Station_ID":"WI-AS-4","Station_Nam":"ASHLAND 0.5 WNW, WI","Latitude":"46.58240","Longitude":"-90.88390","Snowdepth":"13.500","Units":"in","Rept_Date":"2020-01-06 13"},"coordinates":[1453,6798]},{"type":"Point","properties":{"Station_ID":"VT-ES-3","Station_Nam":"LUNENBURG 2.3 NNW, VT","Latitude":"44.49324","Longitude":"-71.70446","Snowdepth":"13.500","Units":"in","Rept_Date":"2020-01-06 12"},"coordinates":[5840,5499]},{"type":"Point","properties":{"Station_ID":"MN-CW-22","Station_Nam":"FORT RIPLEY 0.8 N, MN","Latitude":"46.18089","Longitude":"-94.36510","Snowdepth":"13.500","Units":"in","Rept_Date":"2020-01-06 13"},"coordinates":[657,6549]},{"type":"Point","properties":{"Station_ID":"QWG","Station_Nam":"QWG","Latitude":"48.48890","Longitude":"-73.45940","Snowdepth":"13.425","Units":"in","Rept_Date":"2020-01-06 12"},"coordinates":[5438,7985]},{"type":"Point","properties":{"Station_ID":"WI-SR-1","Station_Nam":"HAYWARD 9.2 NNE, WI","Latitude":"46.13255","Longitude":"-91.40500","Snowdepth":"13.400","Units":"in","Rept_Date":"2020-01-06 12"},"coordinates":[1334,6519]},{"type":"Point","properties":{"Station_ID":"WTNM4","Station_Nam":"WATTON 2WSW","Latitude":"46.52660","Longitude":"-88.64240","Snowdepth":"13.000","Units":"in","Rept_Date":"2020-01-06 13"},"coordinates":[1966,6764]},{"type":"Point","properties":{"Station_ID":"WILW3","Station_Nam":"RESERVOIR","Latitude":"45.70000","Longitude":"-89.83330","Snowdepth":"13.000","Units":"in","Rept_Date":"2020-01-06 12"},"coordinates":[1694,6249]},{"type":"Point","properties":{"Station_ID":"WI-RS-1","Station_Nam":"LADYSMITH 2.8 WNW, WI","Latitude":"45.48180","Longitude":"-91.14680","Snowdepth":"13.000","Units":"in","Rept_Date":"2020-01-06 13"},"coordinates":[1393,6114]},{"type":"Point","properties":{"Station_ID":"WI-PR-2","Station_Nam":"BUTTERNUT 5.9 SW, WI","Latitude":"45.96501","Longitude":"-90.59750","Snowdepth":"13.000","Units":"in","Rept_Date":"2020-01-06 12"},"coordinates":[1519,6414]},{"type":"Point","properties":{"Station_ID":"TOHM5","Station_Nam":"TWO HARBORS WWTP","Latitude":"47.01760","Longitude":"-91.66480","Snowdepth":"13.000","Units":"in","Rept_Date":"2020-01-06 13"},"coordinates":[1275,7069]},{"type":"Point","properties":{"Station_ID":"SSMM4","Station_Nam":"SAULT STE MARIE","Latitude":"46.48660","Longitude":"-84.40250","Snowdepth":"13.000","Units":"in","Rept_Date":"2020-01-06 13"},"coordinates":[2936,6739]},{"type":"Point","properties":{"Station_ID":"SD-RB-4","Station_Nam":"SISSETON 10.4 ENE, SD","Latitude":"45.69480","Longitude":"-96.83480","Snowdepth":"13.000","Units":"in","Rept_Date":"2020-01-06 13"},"coordinates":[92,6246]},{"type":"Point","properties":{"Station_ID":"RHLW3","Station_Nam":"RHINELANDER 4NE","Latitude":"45.65270","Longitude":"-89.30740","Snowdepth":"13.000","Units":"in","Rept_Date":"2020-01-06 12"},"coordinates":[1814,6220]},{"type":"Point","properties":{"Station_ID":"RHI","Station_Nam":"RHINELANDER-ONEIDA COUNTY AIRPORT","Latitude":"45.63080","Longitude":"-89.46530","Snowdepth":"13.000","Units":"in","Rept_Date":"2020-01-07 00"},"coordinates":[1778,6206]},{"type":"Point","properties":{"Station_ID":"NH-CS-4","Station_Nam":"PITTSBURG 6.1 NE, NH","Latitude":"45.11060","Longitude":"-71.29760","Snowdepth":"13.000","Units":"in","Rept_Date":"2020-01-06 12"},"coordinates":[5933,5883]},{"type":"Point","properties":{"Station_ID":"MN-BK-10","Station_Nam":"DETROIT LAKES 5.7 N, MN","Latitude":"46.88666","Longitude":"-95.84444","Snowdepth":"13.000","Units":"in","Rept_Date":"2020-01-06 13"},"coordinates":[319,6988]},{"type":"Point","properties":{"Station_ID":"MN-AT-5","Station_Nam":"TAMARACK 1.4 SW, MN","Latitude":"46.63760","Longitude":"-93.14554","Snowdepth":"13.000","Units":"in","Rept_Date":"2020-01-06 13"},"coordinates":[936,6833]},{"type":"Point","properties":{"Station_ID":"ME-AR-23","Station_Nam":"MADAWASKA 2.5 E, ME","Latitude":"47.34933","Longitude":"-68.28141","Snowdepth":"13.000","Units":"in","Rept_Date":"2020-01-06 12"},"coordinates":[6623,7276]},{"type":"Point","properties":{"Station_ID":"INDM5","Station_Nam":"INDUS,MN","Latitude":"48.61670","Longitude":"-93.90000","Snowdepth":"13.000","Units":"in","Rept_Date":"2020-01-06 14"},"coordinates":[763,8064]},{"type":"Point","properties":{"Station_ID":"GRFN8","Station_Nam":"UNIVERSITY","Latitude":"47.93330","Longitude":"-97.08330","Snowdepth":"13.000","Units":"in","Rept_Date":"2020-01-07 06"},"coordinates":[35,7639]},{"type":"Point","properties":{"Station_ID":"EJNM4","Station_Nam":"EAST JORDAN 2NW","Latitude":"45.18630","Longitude":"-85.14770","Snowdepth":"13.000","Units":"in","Rept_Date":"2020-01-06 13"},"coordinates":[2765,5930]},{"type":"Point","properties":{"Station_ID":"COUW3","Station_Nam":"COUDERAY,WI","Latitude":"45.86670","Longitude":"-91.45000","Snowdepth":"13.000","Units":"in","Rept_Date":"2020-01-06 22"},"coordinates":[1324,6353]},{"type":"Point","properties":{"Station_ID":"COTM5","Station_Nam":"COTTON","Latitude":"47.16870","Longitude":"-92.46290","Snowdepth":"13.000","Units":"in","Rept_Date":"2020-01-06 13"},"coordinates":[1092,7163]},{"type":"Point","properties":{"Station_ID":"CAN-NB-105","Station_Nam":"SISSON BROOK 3.8 E, CAN","Latitude":"46.98305","Longitude":"-67.32532","Snowdepth":"13.000","Units":"in","Rept_Date":"2020-01-06 12"},"coordinates":[6841,7048]},{"type":"Point","properties":{"Station_ID":"BRDM1","Station_Nam":"BRIDGEWATER","Latitude":"46.42870","Longitude":"-67.84370","Snowdepth":"13.000","Units":"in","Rept_Date":"2020-01-06 23"},"coordinates":[6723,6703]},{"type":"Point","properties":{"Station_ID":"AWXW3","Station_Nam":"ASHLAND","Latitude":"46.58240","Longitude":"-90.88390","Snowdepth":"13.000","Units":"in","Rept_Date":"2020-01-06 13"},"coordinates":[1453,6798]},{"type":"Point","properties":{"Station_ID":"WI-BY-1","Station_Nam":"BAYFIELD 8.8 N, WI","Latitude":"46.93855","Longitude":"-90.83490","Snowdepth":"12.500","Units":"in","Rept_Date":"2020-01-06 13"},"coordinates":[1464,7020]},{"type":"Point","properties":{"Station_ID":"VT-OL-1","Station_Nam":"WESTFIELD 0.7 WNW, VT","Latitude":"44.89160","Longitude":"-72.44350","Snowdepth":"12.500","Units":"in","Rept_Date":"2020-01-06 12"},"coordinates":[5671,5746]},{"type":"Point","properties":{"Station_ID":"SD-CD-30","Station_Nam":"WATERTOWN 2.3 E, SD","Latitude":"44.91604","Longitude":"-97.11925","Snowdepth":"12.500","Units":"in","Rept_Date":"2020-01-06 14"},"coordinates":[27,5762]},{"type":"Point","properties":{"Station_ID":"MI-CX-7","Station_Nam":"EAST JORDAN 2.1 NNW, MI","Latitude":"45.18639","Longitude":"-85.14750","Snowdepth":"12.500","Units":"in","Rept_Date":"2020-01-06 13"},"coordinates":[2765,5930]},{"type":"Point","properties":{"Station_ID":"CAN-NS-94","Station_Nam":"MARGAREE FORKS 2.6 SSE CBN, CAN","Latitude":"46.30937","Longitude":"-61.07603","Snowdepth":"12.100","Units":"in","Rept_Date":"2020-01-06 13"},"coordinates":[8271,6629]},{"type":"Point","properties":{"Station_ID":"FTHQ6","Station_Nam":"FORT HOPE","Latitude":"51.55820","Longitude":"-87.90510","Snowdepth":"12.090","Units":"in","Rept_Date":"2020-01-07 06"},"coordinates":[2135,9894]},{"type":"Point","properties":{"Station_ID":"WI-SR-5","Station_Nam":"HAYWARD 9.7 NE, WI","Latitude":"46.12030","Longitude":"-91.35370","Snowdepth":"12.000","Units":"in","Rept_Date":"2020-01-06 14"},"coordinates":[1346,6511]},{"type":"Point","properties":{"Station_ID":"WI-CH-3","Station_Nam":"CORNELL 4.1 W, WI","Latitude":"45.17024","Longitude":"-91.23610","Snowdepth":"12.000","Units":"in","Rept_Date":"2020-01-06 14"},"coordinates":[1373,5920]},{"type":"Point","properties":{"Station_ID":"WI-BT-14","Station_Nam":"OAKLAND 9.0 ENE, WI","Latitude":"45.95184","Longitude":"-92.21653","Snowdepth":"12.000","Units":"in","Rept_Date":"2020-01-06 13"},"coordinates":[1149,6406]},{"type":"Point","properties":{"Station_ID":"WI-BR-2","Station_Nam":"CHETEK 2.0 SE, WI","Latitude":"45.29427","Longitude":"-91.62470","Snowdepth":"12.000","Units":"in","Rept_Date":"2020-01-06 13"},"coordinates":[1284,5997]},{"type":"Point","properties":{"Station_ID":"VT-OL-9","Station_Nam":"GREENSBORO 2.1 NNW, VT","Latitude":"44.60528","Longitude":"-72.30940","Snowdepth":"12.000","Units":"in","Rept_Date":"2020-01-06 13"},"coordinates":[5702,5568]},{"type":"Point","properties":{"Station_ID":"SWTW3","Station_Nam":"SUPERIOR WWTP","Latitude":"46.72700","Longitude":"-92.07200","Snowdepth":"12.000","Units":"in","Rept_Date":"2020-01-07 06"},"coordinates":[1182,6888]},{"type":"Point","properties":{"Station_ID":"RHRW3","Station_Nam":"RHINELANDER WJFW TV-12","Latitude":"45.62220","Longitude":"-89.41000","Snowdepth":"12.000","Units":"in","Rept_Date":"2020-01-07 04"},"coordinates":[1790,6201]},{"type":"Point","properties":{"Station_ID":"PRNW3","Station_Nam":"PRENTICE,WI","Latitude":"45.54780","Longitude":"-90.30000","Snowdepth":"12.000","Units":"in","Rept_Date":"2020-01-06 14"},"coordinates":[1587,6155]},{"type":"Point","properties":{"Station_ID":"NH-CR-26","Station_Nam":"CENTER SANDWICH 4.9 E, NH","Latitude":"43.80976","Longitude":"-71.34150","Snowdepth":"12.000","Units":"in","Rept_Date":"2020-01-06 12"},"coordinates":[5923,5073]},{"type":"Point","properties":{"Station_ID":"MLBS2","Station_Nam":"MILBANK","Latitude":"45.22040","Longitude":"-96.62530","Snowdepth":"12.000","Units":"in","Rept_Date":"2020-01-06 13"},"coordinates":[140,5951]},{"type":"Point","properties":{"Station_ID":"MI-OT-16","Station_Nam":"GAYLORD 2.2 SSE, MI","Latitude":"44.99441","Longitude":"-84.65820","Snowdepth":"12.000","Units":"in","Rept_Date":"2020-01-06 11"},"coordinates":[2877,5810]},{"type":"Point","properties":{"Station_ID":"ME-PN-45","Station_Nam":"MILLINOCKET 2.7 ESE, ME","Latitude":"45.65002","Longitude":"-68.64472","Snowdepth":"12.000","Units":"in","Rept_Date":"2020-01-06 12"},"coordinates":[6540,6218]},{"type":"Point","properties":{"Station_ID":"HOLW3","Station_Nam":"HOLCOMBE","Latitude":"45.22370","Longitude":"-91.12700","Snowdepth":"12.000","Units":"in","Rept_Date":"2020-01-06 13"},"coordinates":[1398,5953]},{"type":"Point","properties":{"Station_ID":"GRBM5","Station_Nam":"GRAND RAPIDS 12N","Latitude":"47.39800","Longitude":"-93.51330","Snowdepth":"12.000","Units":"in","Rept_Date":"2020-01-06 13"},"coordinates":[852,7306]},{"type":"Point","properties":{"Station_ID":"FLDM5","Station_Nam":"FLOODWOOD,MN","Latitude":"47.00000","Longitude":"-92.91670","Snowdepth":"12.000","Units":"in","Rept_Date":"2020-01-06 14"},"coordinates":[988,7058]},{"type":"Point","properties":{"Station_ID":"ESDN3","Station_Nam":"EAST SANDWICH","Latitude":"43.80990","Longitude":"-71.34250","Snowdepth":"12.000","Units":"in","Rept_Date":"2020-01-06 11"},"coordinates":[5923,5074]},{"type":"Point","properties":{"Station_ID":"COKM5","Station_Nam":"COOK","Latitude":"47.85060","Longitude":"-92.69250","Snowdepth":"12.000","Units":"in","Rept_Date":"2020-01-06 12"},"coordinates":[1040,7587]},{"type":"Point","properties":{"Station_ID":"CLGM5","Station_Nam":"COLLEGEVILLE ST JOHN","Latitude":"45.57940","Longitude":"-94.39200","Snowdepth":"12.000","Units":"in","Rept_Date":"2020-01-07 00"},"coordinates":[651,6174]},{"type":"Point","properties":{"Station_ID":"CEFM4","Station_Nam":"EXPERIMENT FARM #2","Latitude":"46.33330","Longitude":"-86.91670","Snowdepth":"12.000","Units":"in","Rept_Date":"2020-01-06 13"},"coordinates":[2361,6643]},{"type":"Point","properties":{"Station_ID":"CANM5","Station_Nam":"CANBY","Latitude":"44.71840","Longitude":"-96.26960","Snowdepth":"12.000","Units":"in","Rept_Date":"2020-01-06 14"},"coordinates":[222,5639]},{"type":"Point","properties":{"Station_ID":"CAN-NS-39","Station_Nam":"ST. ANNS 2.8 NW, CA","Latitude":"46.25082","Longitude":"-60.64340","Snowdepth":"12.000","Units":"in","Rept_Date":"2020-01-06 12"},"coordinates":[8370,6592]},{"type":"Point","properties":{"Station_ID":"BETM1","Station_Nam":"BETHEL 6 SSE","Latitude":"44.32000","Longitude":"-70.75680","Snowdepth":"12.000","Units":"in","Rept_Date":"2020-01-06 13"},"coordinates":[6057,5391]},{"type":"Point","properties":{"Station_ID":"ALXM5","Station_Nam":"ALEXANDRIA","Latitude":"45.87820","Longitude":"-95.38270","Snowdepth":"12.000","Units":"in","Rept_Date":"2020-01-06 12"},"coordinates":[424,6360]},{"type":"Point","properties":{"Station_ID":"VT-CL-40","Station_Nam":"LYNDONVILLE 4.2 NNW, VT","Latitude":"44.59440","Longitude":"-72.02389","Snowdepth":"11.500","Units":"in","Rept_Date":"2020-01-06 12"},"coordinates":[5767,5562]},{"type":"Point","properties":{"Station_ID":"ZNOM4","Station_Nam":"NORWAY","Latitude":"45.77810","Longitude":"-87.89560","Snowdepth":"11.000","Units":"in","Rept_Date":"2020-01-07 01"},"coordinates":[2137,6298]},{"type":"Point","properties":{"Station_ID":"WLKW3","Station_Nam":"WHITE LAKE 1 SE","Latitude":"45.14520","Longitude":"-88.74160","Snowdepth":"11.000","Units":"in","Rept_Date":"2020-01-06 14"},"coordinates":[1943,5904]},{"type":"Point","properties":{"Station_ID":"WLKM5","Station_Nam":"AH-GWAH-CHING","Latitude":"47.15000","Longitude":"-94.65000","Snowdepth":"11.000","Units":"in","Rept_Date":"2020-01-06 12"},"coordinates":[592,7152]},{"type":"Point","properties":{"Station_ID":"WI-PR-8","Station_Nam":"PHILLIPS 0.4 SSW, WI","Latitude":"45.69086","Longitude":"-90.40200","Snowdepth":"11.000","Units":"in","Rept_Date":"2020-01-06 13"},"coordinates":[1564,6244]},{"type":"Point","properties":{"Station_ID":"WI-DN-1","Station_Nam":"BOYCEVILLE 3.3 N, WI","Latitude":"45.08913","Longitude":"-92.02760","Snowdepth":"11.000","Units":"in","Rept_Date":"2020-01-06 13"},"coordinates":[1192,5869]},{"type":"Point","properties":{"Station_ID":"VT-CL-18","Station_Nam":"WHEELOCK 1.6 S, VT","Latitude":"44.56491","Longitude":"-72.08830","Snowdepth":"11.000","Units":"in","Rept_Date":"2020-01-06 12"},"coordinates":[5752,5543]},{"type":"Point","properties":{"Station_ID":"STMM4","Station_Nam":"STAMBAUGH 2SSE","Latitude":"46.05550","Longitude":"-88.62780","Snowdepth":"11.000","Units":"in","Rept_Date":"2020-01-06 13"},"coordinates":[1969,6471]},{"type":"Point","properties":{"Station_ID":"PKFW3","Station_Nam":"PARK FALLS,WI","Latitude":"45.93360","Longitude":"-90.45060","Snowdepth":"11.000","Units":"in","Rept_Date":"2020-01-06 14"},"coordinates":[1552,6395]},{"type":"Point","properties":{"Station_ID":"MQRW3","Station_Nam":"MINOCQUA","Latitude":"45.88630","Longitude":"-89.73220","Snowdepth":"11.000","Units":"in","Rept_Date":"2020-01-06 12"},"coordinates":[1717,6365]},{"type":"Point","properties":{"Station_ID":"MN7M8EBJ","Station_Nam":"LUTSEN 15.7 NNW","Latitude":"47.85324","Longitude":"-89.92908","Snowdepth":"11.000","Units":"in","Rept_Date":"2020-01-06 14"},"coordinates":[1672,7589]},{"type":"Point","properties":{"Station_ID":"MN1867TA","Station_Nam":"LAKE FREMONT 0.9 NW","Latitude":"45.45049","Longitude":"-93.60337","Snowdepth":"11.000","Units":"in","Rept_Date":"2020-01-06 13"},"coordinates":[831,6094]},{"type":"Point","properties":{"Station_ID":"MN-CK-6","Station_Nam":"GRAND MARAIS 4.4 W, MN","Latitude":"47.74865","Longitude":"-90.43760","Snowdepth":"11.000","Units":"in","Rept_Date":"2020-01-06 13"},"coordinates":[1555,7524]},{"type":"Point","properties":{"Station_ID":"ME-SM-10","Station_Nam":"NORTH NEW PORTLAND 0.3 WSW, ME","Latitude":"44.92353","Longitude":"-70.02788","Snowdepth":"11.000","Units":"in","Rept_Date":"2020-01-06 12"},"coordinates":[6223,5766]},{"type":"Point","properties":{"Station_ID":"ME-CM-125","Station_Nam":"CUMBERLAND CENTER 4.4 NW, ME","Latitude":"43.84640","Longitude":"-70.31340","Snowdepth":"11.000","Units":"in","Rept_Date":"2020-01-06 12"},"coordinates":[6158,5096]},{"type":"Point","properties":{"Station_ID":"LUCW3","Station_Nam":"LUCK","Latitude":"45.57330","Longitude":"-92.48520","Snowdepth":"11.000","Units":"in","Rept_Date":"2020-01-06 22"},"coordinates":[1087,6171]},{"type":"Point","properties":{"Station_ID":"LNGM5","Station_Nam":"LONG PRAIRIE","Latitude":"45.96460","Longitude":"-94.88920","Snowdepth":"11.000","Units":"in","Rept_Date":"2020-01-06 12"},"coordinates":[537,6414]},{"type":"Point","properties":{"Station_ID":"LGRN8","Station_Nam":"LIDGERWOOD,ND","Latitude":"46.06670","Longitude":"-97.16670","Snowdepth":"11.000","Units":"in","Rept_Date":"2020-01-06 13"},"coordinates":[16,6478]},{"type":"Point","properties":{"Station_ID":"KGFK","Station_Nam":"GRAND FORKS INTERNATIONAL","Latitude":"47.95000","Longitude":"-97.18333","Snowdepth":"11.000","Units":"in","Rept_Date":"2020-01-07 06"},"coordinates":[13,7649]},{"type":"Point","properties":{"Station_ID":"GFK","Station_Nam":"GRAND FORKS INTERNATIONAL AIRPORT","Latitude":"47.94920","Longitude":"-97.17610","Snowdepth":"11.000","Units":"in","Rept_Date":"2020-01-07 00"},"coordinates":[14,7649]},{"type":"Point","properties":{"Station_ID":"CORV1","Station_Nam":"CORINTH","Latitude":"44.00690","Longitude":"-72.31940","Snowdepth":"11.000","Units":"in","Rept_Date":"2020-01-06 12"},"coordinates":[5699,5196]},{"type":"Point","properties":{"Station_ID":"CAN-ON-245","Station_Nam":"PHELPSTON 3.1 ESE, CAN","Latitude":"44.50564","Longitude":"-79.81035","Snowdepth":"11.000","Units":"in","Rept_Date":"2020-01-06 13"},"coordinates":[3986,5506]},{"type":"Point","properties":{"Station_ID":"CAN-NB-11","Station_Nam":"MIRAMICHI 3.3 S, CAN","Latitude":"46.99343","Longitude":"-65.50690","Snowdepth":"11.000","Units":"in","Rept_Date":"2020-01-06 10"},"coordinates":[7257,7054]},{"type":"Point","properties":{"Station_ID":"BKEM5","Station_Nam":"BRECKENRIDGE 4NE","Latitude":"46.30470","Longitude":"-96.52170","Snowdepth":"11.000","Units":"in","Rept_Date":"2020-01-06 13"},"coordinates":[164,6626]},{"type":"Point","properties":{"Station_ID":"ASXW3","Station_Nam":"ASHLAND,WI","Latitude":"46.55220","Longitude":"-90.91610","Snowdepth":"11.000","Units":"in","Rept_Date":"2020-01-06 14"},"coordinates":[1446,6780]},{"type":"Point","properties":{"Station_ID":"APXM4","Station_Nam":"GAYLORD 9SSW","Latitude":"44.90720","Longitude":"-84.71880","Snowdepth":"11.000","Units":"in","Rept_Date":"2020-01-07 06"},"coordinates":[2863,5756]},{"type":"Point","properties":{"Station_ID":"CAN-ON-757","Station_Nam":"SAULT STE. MARIE 2.8 ESE - GLFC, CAN","Latitude":"46.50300","Longitude":"-84.30300","Snowdepth":"10.800","Units":"in","Rept_Date":"2020-01-06 13"},"coordinates":[2958,6749]},{"type":"Point","properties":{"Station_ID":"VT-BN-12","Station_Nam":"STAMFORD 5.0 NNE, VT","Latitude":"42.82000","Longitude":"-73.02000","Snowdepth":"10.500","Units":"in","Rept_Date":"2020-01-06 21"},"coordinates":[5539,4458]},{"type":"Point","properties":{"Station_ID":"CAN-NB-2","Station_Nam":"GRAFTON 2.7 NNE, CA","Latitude":"46.17062","Longitude":"-67.55330","Snowdepth":"10.500","Units":"in","Rept_Date":"2020-01-06 10"},"coordinates":[6789,6542]},{"type":"Point","properties":{"Station_ID":"WI-LN-2","Station_Nam":"MERRILL 7.0 W, WI","Latitude":"45.17746","Longitude":"-89.84820","Snowdepth":"10.000","Units":"in","Rept_Date":"2020-01-06 12"},"coordinates":[1690,5924]},{"type":"Point","properties":{"Station_ID":"VT-WS-30","Station_Nam":"WOODBURY 3.4 NNW, VT","Latitude":"44.48825","Longitude":"-72.43258","Snowdepth":"10.000","Units":"in","Rept_Date":"2020-01-06 12"},"coordinates":[5673,5496]},{"type":"Point","properties":{"Station_ID":"VT-OG-11","Station_Nam":"VERSHIRE 1.5 ESE, VT","Latitude":"43.96138","Longitude":"-72.29777","Snowdepth":"10.000","Units":"in","Rept_Date":"2020-01-06 12"},"coordinates":[5704,5168]},{"type":"Point","properties":{"Station_ID":"SULW3","Station_Nam":"SUMMIT LAKE","Latitude":"45.37880","Longitude":"-89.19410","Snowdepth":"10.000","Units":"in","Rept_Date":"2020-01-06 11"},"coordinates":[1840,6050]},{"type":"Point","properties":{"Station_ID":"SD-BK-7","Station_Nam":"BROOKINGS 0.2 SSW, SD","Latitude":"44.30389","Longitude":"-96.78780","Snowdepth":"10.000","Units":"in","Rept_Date":"2020-01-06 13"},"coordinates":[103,5381]},{"type":"Point","properties":{"Station_ID":"RRVM4","Station_Nam":"RAPID RIVER 9S","Latitude":"45.78750","Longitude":"-86.93920","Snowdepth":"10.000","Units":"in","Rept_Date":"2020-01-06 16"},"coordinates":[2355,6304]},{"type":"Point","properties":{"Station_ID":"RGNM1","Station_Nam":"RANGELEY 2NW","Latitude":"44.98940","Longitude":"-70.67220","Snowdepth":"10.000","Units":"in","Rept_Date":"2020-01-06 11"},"coordinates":[6076,5807]},{"type":"Point","properties":{"Station_ID":"NH-ST-31","Station_Nam":"STRAFFORD 2.9 N, NH","Latitude":"43.31175","Longitude":"-71.13510","Snowdepth":"10.000","Units":"in","Rept_Date":"2020-01-06 12"},"coordinates":[5970,4764]},{"type":"Point","properties":{"Station_ID":"MTQM4","Station_Nam":"MANISTIQUE WWTP","Latitude":"45.95120","Longitude":"-86.25130","Snowdepth":"10.000","Units":"in","Rept_Date":"2020-01-06 12"},"coordinates":[2513,6406]},{"type":"Point","properties":{"Station_ID":"MRAM4","Station_Nam":"MORAN","Latitude":"45.99030","Longitude":"-84.83610","Snowdepth":"10.000","Units":"in","Rept_Date":"2020-01-06 13"},"coordinates":[2837,6430]},{"type":"Point","properties":{"Station_ID":"MN-MR-13","Station_Nam":"LITTLE FALLS 8.0 NE, MN","Latitude":"46.06785","Longitude":"-94.24789","Snowdepth":"10.000","Units":"in","Rept_Date":"2020-01-06 13"},"coordinates":[684,6478]},{"type":"Point","properties":{"Station_ID":"MLLW3","Station_Nam":"MERRILL 8W","Latitude":"45.17810","Longitude":"-89.84810","Snowdepth":"10.000","Units":"in","Rept_Date":"2020-01-06 12"},"coordinates":[1690,5925]},{"type":"Point","properties":{"Station_ID":"MI-OT-4","Station_Nam":"GAYLORD 1.7 WNW, MI","Latitude":"45.03280","Longitude":"-84.71090","Snowdepth":"10.000","Units":"in","Rept_Date":"2020-01-06 13"},"coordinates":[2865,5834]},{"type":"Point","properties":{"Station_ID":"MI-CP-14","Station_Nam":"SAULT STE. MARIE 2.2 E, MI","Latitude":"46.48933","Longitude":"-84.31971","Snowdepth":"10.000","Units":"in","Rept_Date":"2020-01-06 14"},"coordinates":[2955,6740]},{"type":"Point","properties":{"Station_ID":"MEDW3","Station_Nam":"MEDFORD","Latitude":"45.13080","Longitude":"-90.34390","Snowdepth":"10.000","Units":"in","Rept_Date":"2020-01-06 14"},"coordinates":[1577,5895]},{"type":"Point","properties":{"Station_ID":"ME-SG-1","Station_Nam":"BATH 1.1 WSW, ME","Latitude":"43.93063","Longitude":"-69.85730","Snowdepth":"10.000","Units":"in","Rept_Date":"2020-01-06 12"},"coordinates":[6262,5149]},{"type":"Point","properties":{"Station_ID":"ME-FR-4","Station_Nam":"NEW SHARON 2.0 NW, ME","Latitude":"44.66582","Longitude":"-70.02720","Snowdepth":"10.000","Units":"in","Rept_Date":"2020-01-06 12"},"coordinates":[6223,5606]},{"type":"Point","properties":{"Station_ID":"LADW3","Station_Nam":"LADYSMITH WTP","Latitude":"45.44290","Longitude":"-91.08970","Snowdepth":"10.000","Units":"in","Rept_Date":"2020-01-06 13"},"coordinates":[1406,6089]},{"type":"Point","properties":{"Station_ID":"JEFN3","Station_Nam":"JEFFERSON","Latitude":"44.41690","Longitude":"-71.50080","Snowdepth":"10.000","Units":"in","Rept_Date":"2020-01-06 12"},"coordinates":[5886,5451]},{"type":"Point","properties":{"Station_ID":"GLWM5","Station_Nam":"GLENWOOD 1N","Latitude":"45.66580","Longitude":"-95.38690","Snowdepth":"10.000","Units":"in","Rept_Date":"2020-01-06 13"},"coordinates":[423,6228]},{"type":"Point","properties":{"Station_ID":"GAYM4","Station_Nam":"GAYLORD","Latitude":"45.03320","Longitude":"-84.71130","Snowdepth":"10.000","Units":"in","Rept_Date":"2020-01-06 13"},"coordinates":[2865,5835]},{"type":"Point","properties":{"Station_ID":"EAHV1","Station_Nam":"EAST HAVEN","Latitude":"44.64250","Longitude":"-71.89120","Snowdepth":"10.000","Units":"in","Rept_Date":"2020-01-06 12"},"coordinates":[5797,5592]},{"type":"Point","properties":{"Station_ID":"DURM1","Station_Nam":"DURHAM","Latitude":"43.99960","Longitude":"-70.09630","Snowdepth":"10.000","Units":"in","Rept_Date":"2020-01-06 12"},"coordinates":[6208,5192]},{"type":"Point","properties":{"Station_ID":"CHRM4","Station_Nam":"CHARLEVOIX","Latitude":"45.31720","Longitude":"-85.26720","Snowdepth":"10.000","Units":"in","Rept_Date":"2020-01-06 13"},"coordinates":[2738,6011]},{"type":"Point","properties":{"Station_ID":"BTHM1","Station_Nam":"BATH","Latitude":"43.93160","Longitude":"-69.85640","Snowdepth":"10.000","Units":"in","Rept_Date":"2020-01-06 12"},"coordinates":[6263,5149]},{"type":"Point","properties":{"Station_ID":"AUW","Station_Nam":"WAUSAU MUNICIPAL AIRPORT","Latitude":"44.92580","Longitude":"-89.62560","Snowdepth":"10.000","Units":"in","Rept_Date":"2020-01-07 00"},"coordinates":[1741,5768]},{"type":"Point","properties":{"Station_ID":"ARTM5","Station_Nam":"ARTICHOKE LAKE 1 E","Latitude":"45.38560","Longitude":"-96.12570","Snowdepth":"10.000","Units":"in","Rept_Date":"2020-01-07 00"},"coordinates":[254,6054]},{"type":"Point","properties":{"Station_ID":"QGT","Station_Nam":"QGT","Latitude":"49.64720","Longitude":"-67.62640","Snowdepth":"9.961","Units":"in","Rept_Date":"2020-01-06 12"},"coordinates":[6773,8705]},{"type":"Point","properties":{"Station_ID":"WI-MT-4","Station_Nam":"WAUSAU 1.7 ENE, WI","Latitude":"44.96943","Longitude":"-89.61090","Snowdepth":"9.500","Units":"in","Rept_Date":"2020-01-06 13"},"coordinates":[1744,5795]},{"type":"Point","properties":{"Station_ID":"CAN-PE-25","Station_Nam":"CALEDONIA 1.8 SW, CAN","Latitude":"46.04593","Longitude":"-62.72266","Snowdepth":"9.400","Units":"in","Rept_Date":"2020-01-06 12"},"coordinates":[7894,6465]},{"type":"Point","properties":{"Station_ID":"CAN-PE-19","Station_Nam":"CHARLOTTETOWN 6.5 NNW, CAN","Latitude":"46.29235","Longitude":"-63.17271","Snowdepth":"9.100","Units":"in","Rept_Date":"2020-01-06 12"},"coordinates":[7791,6618]},{"type":"Point","properties":{"Station_ID":"WSKW3","Station_Nam":"WAUSAUKEE","Latitude":"45.38020","Longitude":"-87.95660","Snowdepth":"9.000","Units":"in","Rept_Date":"2020-01-06 14"},"coordinates":[2123,6050]},{"type":"Point","properties":{"Station_ID":"WORV1","Station_Nam":"WORCESTER 2 W","Latitude":"44.37470","Longitude":"-72.58220","Snowdepth":"9.000","Units":"in","Rept_Date":"2020-01-06 12"},"coordinates":[5639,5425]},{"type":"Point","properties":{"Station_ID":"WLDM5","Station_Nam":"WILD RIVER STATE PARK","Latitude":"45.52310","Longitude":"-92.74890","Snowdepth":"9.000","Units":"in","Rept_Date":"2020-01-06 14"},"coordinates":[1027,6139]},{"type":"Point","properties":{"Station_ID":"WI-MT-14","Station_Nam":"MOSINEE 2.7 WSW, WI","Latitude":"44.77240","Longitude":"-89.73441","Snowdepth":"9.000","Units":"in","Rept_Date":"2020-01-06 13"},"coordinates":[1716,5672]},{"type":"Point","properties":{"Station_ID":"WI-EC-23","Station_Nam":"EAU CLAIRE 3.7 S, WI","Latitude":"44.76858","Longitude":"-91.49898","Snowdepth":"9.000","Units":"in","Rept_Date":"2020-01-06 14"},"coordinates":[1313,5670]},{"type":"Point","properties":{"Station_ID":"WI-CH-7","Station_Nam":"CHIPPEWA FALLS 1.2 E, WI","Latitude":"44.92920","Longitude":"-91.36730","Snowdepth":"9.000","Units":"in","Rept_Date":"2020-01-06 13"},"coordinates":[1343,5770]},{"type":"Point","properties":{"Station_ID":"VT-OL-2","Station_Nam":"BARTON 3.0 ENE, VT","Latitude":"44.75863","Longitude":"-72.11680","Snowdepth":"9.000","Units":"in","Rept_Date":"2020-01-06 12"},"coordinates":[5746,5664]},{"type":"Point","properties":{"Station_ID":"SPOW3","Station_Nam":"SPOONER,WI","Latitude":"45.82360","Longitude":"-91.70000","Snowdepth":"9.000","Units":"in","Rept_Date":"2020-01-06 14"},"coordinates":[1267,6326]},{"type":"Point","properties":{"Station_ID":"SLNV1","Station_Nam":"SOUTH LINCOLN","Latitude":"44.07460","Longitude":"-72.97180","Snowdepth":"9.000","Units":"in","Rept_Date":"2020-01-06 12"},"coordinates":[5550,5238]},{"type":"Point","properties":{"Station_ID":"SAUW3","Station_Nam":"WAUSAU WSAW TV","Latitude":"44.94630","Longitude":"-89.62220","Snowdepth":"9.000","Units":"in","Rept_Date":"2020-01-07 03"},"coordinates":[1742,5781]},{"type":"Point","properties":{"Station_ID":"RRLW3","Station_Nam":"MERRILL,WI","Latitude":"45.17860","Longitude":"-89.66170","Snowdepth":"9.000","Units":"in","Rept_Date":"2020-01-06 14"},"coordinates":[1733,5925]},{"type":"Point","properties":{"Station_ID":"RCEM5","Station_Nam":"RICE","Latitude":"45.75760","Longitude":"-94.20720","Snowdepth":"9.000","Units":"in","Rept_Date":"2020-01-06 13"},"coordinates":[693,6285]},{"type":"Point","properties":{"Station_ID":"NCON3","Station_Nam":"NORTH CONWAY,NH","Latitude":"44.05000","Longitude":"-71.13330","Snowdepth":"9.000","Units":"in","Rept_Date":"2020-01-06 12"},"coordinates":[5971,5223]},{"type":"Point","properties":{"Station_ID":"NCBN6","Station_Nam":"NEWCOMB","Latitude":"43.97070","Longitude":"-74.22200","Snowdepth":"9.000","Units":"in","Rept_Date":"2020-01-06 13"},"coordinates":[5264,5174]},{"type":"Point","properties":{"Station_ID":"MN-SH-10","Station_Nam":"BIG LAKE 5.6 NNE, MN","Latitude":"45.41409","Longitude":"-93.69190","Snowdepth":"9.000","Units":"in","Rept_Date":"2020-01-06 13"},"coordinates":[811,6072]},{"type":"Point","properties":{"Station_ID":"MN-MR-4","Station_Nam":"LITTLE FALLS 1.2 SW, MN","Latitude":"45.96886","Longitude":"-94.37720","Snowdepth":"9.000","Units":"in","Rept_Date":"2020-01-06 13"},"coordinates":[654,6417]},{"type":"Point","properties":{"Station_ID":"MLCM5","Station_Nam":"MILACA","Latitude":"45.75320","Longitude":"-93.66170","Snowdepth":"9.000","Units":"in","Rept_Date":"2020-01-06 13"},"coordinates":[818,6283]},{"type":"Point","properties":{"Station_ID":"ME-CM-86","Station_Nam":"POWNAL 4.1 S, ME","Latitude":"43.85370","Longitude":"-70.17210","Snowdepth":"9.000","Units":"in","Rept_Date":"2020-01-06 12"},"coordinates":[6190,5101]},{"type":"Point","properties":{"Station_ID":"ME-CM-3","Station_Nam":"NEW GLOUCESTER 3.0 SE, ME","Latitude":"43.92372","Longitude":"-70.25790","Snowdepth":"9.000","Units":"in","Rept_Date":"2020-01-06 12"},"coordinates":[6171,5144]},{"type":"Point","properties":{"Station_ID":"ME-AR-15","Station_Nam":"PRESQUE ISLE 1.3 WSW, ME","Latitude":"46.67960","Longitude":"-68.01270","Snowdepth":"9.000","Units":"in","Rept_Date":"2020-01-06 12"},"coordinates":[6684,6859]},{"type":"Point","properties":{"Station_ID":"LPLN6","Station_Nam":"LAKE PLACID 2 S","Latitude":"44.30420","Longitude":"-73.98390","Snowdepth":"9.000","Units":"in","Rept_Date":"2020-01-06 13"},"coordinates":[5319,5381]},{"type":"Point","properties":{"Station_ID":"LBRM5","Station_Nam":"LAKE BRONSON DAM","Latitude":"48.72410","Longitude":"-96.62180","Snowdepth":"9.000","Units":"in","Rept_Date":"2020-01-06 14"},"coordinates":[141,8131]},{"type":"Point","properties":{"Station_ID":"LBKV1","Station_Nam":"LYE BROOK","Latitude":"43.05000","Longitude":"-73.03330","Snowdepth":"9.000","Units":"in","Rept_Date":"2020-01-07 06"},"coordinates":[5536,4601]},{"type":"Point","properties":{"Station_ID":"KINM1","Station_Nam":"KINGFIELD","Latitude":"44.95950","Longitude":"-70.17530","Snowdepth":"9.000","Units":"in","Rept_Date":"2020-01-06 12"},"coordinates":[6190,5789]},{"type":"Point","properties":{"Station_ID":"JOHV1","Station_Nam":"JOHNSON 2 N","Latitude":"44.65790","Longitude":"-72.67850","Snowdepth":"9.000","Units":"in","Rept_Date":"2020-01-06 12"},"coordinates":[5617,5601]},{"type":"Point","properties":{"Station_ID":"HYTS2","Station_Nam":"HAYTI 1W","Latitude":"44.66330","Longitude":"-97.22670","Snowdepth":"9.000","Units":"in","Rept_Date":"2020-01-06 14"},"coordinates":[3,5604]},{"type":"Point","properties":{"Station_ID":"HOLM1","Station_Nam":"HOLLIS","Latitude":"43.64750","Longitude":"-70.67490","Snowdepth":"9.000","Units":"in","Rept_Date":"2020-01-06 12"},"coordinates":[6075,4972]},{"type":"Point","properties":{"Station_ID":"ESGM1","Station_Nam":"EAST SANGERVILLE","Latitude":"45.13690","Longitude":"-69.28060","Snowdepth":"9.000","Units":"in","Rept_Date":"2020-01-06 12"},"coordinates":[6394,5899]},{"type":"Point","properties":{"Station_ID":"EPTW3","Station_Nam":"EAU PLEINE TENDER","Latitude":"44.77220","Longitude":"-89.76720","Snowdepth":"9.000","Units":"in","Rept_Date":"2020-01-06 13"},"coordinates":[1709,5672]},{"type":"Point","properties":{"Station_ID":"DFXM1","Station_Nam":"DOVER-FOXCROFT","Latitude":"45.18720","Longitude":"-69.18350","Snowdepth":"9.000","Units":"in","Rept_Date":"2020-01-06 12"},"coordinates":[6416,5930]},{"type":"Point","properties":{"Station_ID":"CBLW3","Station_Nam":"CUMBERLAND","Latitude":"45.53310","Longitude":"-92.02260","Snowdepth":"9.000","Units":"in","Rept_Date":"2020-01-06 13"},"coordinates":[1193,6146]},{"type":"Point","properties":{"Station_ID":"CARM1","Station_Nam":"CARIBOU WFO","Latitude":"46.86810","Longitude":"-68.01250","Snowdepth":"9.000","Units":"in","Rept_Date":"2020-01-07 05"},"coordinates":[6684,6976]},{"type":"Point","properties":{"Station_ID":"CAR","Station_Nam":"CARIBOU, ME","Latitude":"46.86830","Longitude":"-68.01360","Snowdepth":"9.000","Units":"in","Rept_Date":"2020-01-06 12"},"coordinates":[6684,6976]},{"type":"Point","properties":{"Station_ID":"CAN-NB-13","Station_Nam":"BATHURST 3.8 NW, CAN","Latitude":"47.64212","Longitude":"-65.68756","Snowdepth":"9.000","Units":"in","Rept_Date":"2020-01-06 11"},"coordinates":[7216,7458]},{"type":"Point","properties":{"Station_ID":"BTLN3","Station_Nam":"BARTLETT","Latitude":"44.08380","Longitude":"-71.29340","Snowdepth":"9.000","Units":"in","Rept_Date":"2020-01-06 12"},"coordinates":[5934,5244]},{"type":"Point","properties":{"Station_ID":"BROS2","Station_Nam":"BROOKINGS,SD","Latitude":"44.31670","Longitude":"-96.76670","Snowdepth":"9.000","Units":"in","Rept_Date":"2020-01-06 14"},"coordinates":[108,5389]},{"type":"Point","properties":{"Station_ID":"8D3","Station_Nam":"SISSETON MUNICIPAL AP","Latitude":"45.67080","Longitude":"-96.99610","Snowdepth":"9.000","Units":"in","Rept_Date":"2020-01-06 12"},"coordinates":[55,6231]},{"type":"Point","properties":{"Station_ID":"CAN-ON-92","Station_Nam":"DUNROBIN 1.9 W - MVCA, CAN","Latitude":"45.42318","Longitude":"-76.04525","Snowdepth":"8.700","Units":"in","Rept_Date":"2020-01-06 12"},"coordinates":[4847,6077]},{"type":"Point","properties":{"Station_ID":"WI-MT-1","Station_Nam":"SCHOFIELD 3.3 E, WI","Latitude":"44.91806","Longitude":"-89.54470","Snowdepth":"8.500","Units":"in","Rept_Date":"2020-01-06 13"},"coordinates":[1760,5763]},{"type":"Point","properties":{"Station_ID":"VT-WS-10","Station_Nam":"NORTHFIELD 1.5 N, VT","Latitude":"44.16986","Longitude":"-72.65200","Snowdepth":"8.500","Units":"in","Rept_Date":"2020-01-06 12"},"coordinates":[5623,5297]},{"type":"Point","properties":{"Station_ID":"NH-GR-47","Station_Nam":"LITTLETON 7.3 W, NH","Latitude":"44.31847","Longitude":"-71.91086","Snowdepth":"8.500","Units":"in","Rept_Date":"2020-01-06 13"},"coordinates":[5793,5390]},{"type":"Point","properties":{"Station_ID":"NH-CR-11","Station_Nam":"NORTH CONWAY 1.4 SSW, NH","Latitude":"44.03556","Longitude":"-71.14010","Snowdepth":"8.500","Units":"in","Rept_Date":"2020-01-06 12"},"coordinates":[5969,5214]},{"type":"Point","properties":{"Station_ID":"ME-YK-3","Station_Nam":"HOLLIS CENTER 5.4 NW, ME","Latitude":"43.64750","Longitude":"-70.67510","Snowdepth":"8.500","Units":"in","Rept_Date":"2020-01-06 12"},"coordinates":[6075,4972]},{"type":"Point","properties":{"Station_ID":"CAN-NS-60","Station_Nam":"SYDNEY FORKS, CAN","Latitude":"46.05645","Longitude":"-60.31510","Snowdepth":"8.500","Units":"in","Rept_Date":"2020-01-06 13"},"coordinates":[8445,6471]},{"type":"Point","properties":{"Station_ID":"CAN-NS-103","Station_Nam":"TRAFALGAR 4.9 WSW, CAN","Latitude":"45.26217","Longitude":"-62.72285","Snowdepth":"8.500","Units":"in","Rept_Date":"2020-01-06 11"},"coordinates":[7894,5977]},{"type":"Point","properties":{"Station_ID":"ME-AN-32","Station_Nam":"WINTHROP 9.4 W, ME","Latitude":"44.30476","Longitude":"-70.15835","Snowdepth":"8.200","Units":"in","Rept_Date":"2020-01-06 12"},"coordinates":[6193,5381]},{"type":"Point","properties":{"Station_ID":"WTSM5","Station_Nam":"WATSON 1 NE","Latitude":"45.02270","Longitude":"-95.78960","Snowdepth":"8.000","Units":"in","Rept_Date":"2020-01-06 14"},"coordinates":[331,5828]},{"type":"Point","properties":{"Station_ID":"WRUM5","Station_Nam":"WARROAD 4W","Latitude":"48.89600","Longitude":"-95.40700","Snowdepth":"8.000","Units":"in","Rept_Date":"2020-01-07 04"},"coordinates":[419,8238]},{"type":"Point","properties":{"Station_ID":"WHTM5","Station_Nam":"WHEATON,MN","Latitude":"45.80000","Longitude":"-96.48330","Snowdepth":"8.000","Units":"in","Rept_Date":"2020-01-06 14"},"coordinates":[173,6312]},{"type":"Point","properties":{"Station_ID":"WDOM5","Station_Nam":"WINDOM","Latitude":"43.87700","Longitude":"-95.11590","Snowdepth":"8.000","Units":"in","Rept_Date":"2020-01-06 14"},"coordinates":[485,5115]},{"type":"Point","properties":{"Station_ID":"VT-WS-15","Station_Nam":"EAST CALAIS 1.5 SW, VT","Latitude":"44.35523","Longitude":"-72.45540","Snowdepth":"8.000","Units":"in","Rept_Date":"2020-01-06 12"},"coordinates":[5668,5413]},{"type":"Point","properties":{"Station_ID":"VANM4","Station_Nam":"VANDERBILT 11ENE","Latitude":"45.17020","Longitude":"-84.43970","Snowdepth":"8.000","Units":"in","Rept_Date":"2020-01-06 13"},"coordinates":[2927,5920]},{"type":"Point","properties":{"Station_ID":"UVDV1","Station_Nam":"NERON SITE AT UNION VILLAGE DAM","Latitude":"43.79140","Longitude":"-72.25720","Snowdepth":"8.000","Units":"in","Rept_Date":"2020-01-06 13"},"coordinates":[5713,5062]},{"type":"Point","properties":{"Station_ID":"STRW3","Station_Nam":"STRATFORD 1NW","Latitude":"44.81750","Longitude":"-90.08990","Snowdepth":"8.000","Units":"in","Rept_Date":"2020-01-06 12"},"coordinates":[1635,5700]},{"type":"Point","properties":{"Station_ID":"STC","Station_Nam":"ST. CLOUD REGIONAL AIRPORT","Latitude":"45.54330","Longitude":"-94.05140","Snowdepth":"8.000","Units":"in","Rept_Date":"2020-01-06 12"},"coordinates":[729,6152]},{"type":"Point","properties":{"Station_ID":"SIBI4","Station_Nam":"SIBLEY","Latitude":"43.40470","Longitude":"-95.74830","Snowdepth":"8.000","Units":"in","Rept_Date":"2020-01-06 13"},"coordinates":[341,4821]},{"type":"Point","properties":{"Station_ID":"SCSM5","Station_Nam":"ST CLOUD STATE","Latitude":"45.55100","Longitude":"-94.14950","Snowdepth":"8.000","Units":"in","Rept_Date":"2020-01-06 12"},"coordinates":[706,6157]},{"type":"Point","properties":{"Station_ID":"RSTW3","Station_Nam":"ROSHOLT","Latitude":"44.62710","Longitude":"-89.30600","Snowdepth":"8.000","Units":"in","Rept_Date":"2020-01-06 11"},"coordinates":[1814,5582]},{"type":"Point","properties":{"Station_ID":"ROWM3","Station_Nam":"ROWE 3NE","Latitude":"42.73500","Longitude":"-72.86920","Snowdepth":"8.000","Units":"in","Rept_Date":"2020-01-06 12"},"coordinates":[5573,4405]},{"type":"Point","properties":{"Station_ID":"OWEW3","Station_Nam":"OWEN 1E","Latitude":"44.94610","Longitude":"-90.55170","Snowdepth":"8.000","Units":"in","Rept_Date":"2020-01-06 13"},"coordinates":[1529,5780]},{"type":"Point","properties":{"Station_ID":"NY-ES-6","Station_Nam":"OLMSTEDVILLE 4.6 NNE, NY","Latitude":"43.83350","Longitude":"-73.89780","Snowdepth":"8.000","Units":"in","Rept_Date":"2020-01-06 13"},"coordinates":[5338,5088]},{"type":"Point","properties":{"Station_ID":"NUMN3","Station_Nam":"NORTHUMBERLAND","Latitude":"44.52830","Longitude":"-71.50440","Snowdepth":"8.000","Units":"in","Rept_Date":"2020-01-06 13"},"coordinates":[5886,5520]},{"type":"Point","properties":{"Station_ID":"NPTV1","Station_Nam":"NEWPORT","Latitude":"44.94900","Longitude":"-72.19120","Snowdepth":"8.000","Units":"in","Rept_Date":"2020-01-06 12"},"coordinates":[5729,5782]},{"type":"Point","properties":{"Station_ID":"NH-ST-14","Station_Nam":"DOVER 2.5 N, NH","Latitude":"43.22584","Longitude":"-70.89270","Snowdepth":"8.000","Units":"in","Rept_Date":"2020-01-06 12"},"coordinates":[6026,4710]},{"type":"Point","properties":{"Station_ID":"NH-MR-45","Station_Nam":"NORTHFIELD 2.8 E, NH","Latitude":"43.43945","Longitude":"-71.53730","Snowdepth":"8.000","Units":"in","Rept_Date":"2020-01-06 12"},"coordinates":[5878,4843]},{"type":"Point","properties":{"Station_ID":"NH-GR-49","Station_Nam":"PLYMOUTH 3.7 N, NH","Latitude":"43.79048","Longitude":"-71.68413","Snowdepth":"8.000","Units":"in","Rept_Date":"2020-01-06 12"},"coordinates":[5845,5061]},{"type":"Point","properties":{"Station_ID":"NH-CR-9","Station_Nam":"MADISON 1.7 SE, NH","Latitude":"43.87928","Longitude":"-71.12660","Snowdepth":"8.000","Units":"in","Rept_Date":"2020-01-06 12"},"coordinates":[5972,5117]},{"type":"Point","properties":{"Station_ID":"MRAM5","Station_Nam":"MORA","Latitude":"45.87760","Longitude":"-93.31470","Snowdepth":"8.000","Units":"in","Rept_Date":"2020-01-06 13"},"coordinates":[897,6360]},{"type":"Point","properties":{"Station_ID":"MN-SR-29","Station_Nam":"ALBANY 3.8 S, MN","Latitude":"45.57441","Longitude":"-94.55543","Snowdepth":"8.000","Units":"in","Rept_Date":"2020-01-06 13"},"coordinates":[614,6171]},{"type":"Point","properties":{"Station_ID":"MN-BN-7","Station_Nam":"SAINT CLOUD 1.1 NE, MN","Latitude":"45.56440","Longitude":"-94.12310","Snowdepth":"8.000","Units":"in","Rept_Date":"2020-01-06 13"},"coordinates":[712,6165]},{"type":"Point","properties":{"Station_ID":"MI-DL-4","Station_Nam":"GLADSTONE 2.1 SW, MI","Latitude":"45.83218","Longitude":"-87.05727","Snowdepth":"8.000","Units":"in","Rept_Date":"2020-01-06 12"},"coordinates":[2328,6332]},{"type":"Point","properties":{"Station_ID":"MI-DL-1","Station_Nam":"GARDEN CORNERS 0.8 NW, MI","Latitude":"45.89815","Longitude":"-86.54850","Snowdepth":"8.000","Units":"in","Rept_Date":"2020-01-06 13"},"coordinates":[2445,6373]},{"type":"Point","properties":{"Station_ID":"ME-CM-98","Station_Nam":"SEBAGO 2.4 ESE, ME","Latitude":"43.88000","Longitude":"-70.63000","Snowdepth":"8.000","Units":"in","Rept_Date":"2020-01-06 15"},"coordinates":[6086,5117]},{"type":"Point","properties":{"Station_ID":"ME-CM-18","Station_Nam":"PORTLAND 5.5 WNW, ME","Latitude":"43.70288","Longitude":"-70.30550","Snowdepth":"8.000","Units":"in","Rept_Date":"2020-01-06 12"},"coordinates":[6160,5007]},{"type":"Point","properties":{"Station_ID":"LEWM4","Station_Nam":"LEWISTON 3W","Latitude":"44.88210","Longitude":"-84.36540","Snowdepth":"8.000","Units":"in","Rept_Date":"2020-01-06 13"},"coordinates":[2944,5741]},{"type":"Point","properties":{"Station_ID":"HRTM1","Station_Nam":"HARTFORD","Latitude":"44.37440","Longitude":"-70.31620","Snowdepth":"8.000","Units":"in","Rept_Date":"2020-01-06 12"},"coordinates":[6157,5425]},{"type":"Point","properties":{"Station_ID":"GYX","Station_Nam":"PORTLAND, ME","Latitude":"43.89250","Longitude":"-70.25500","Snowdepth":"8.000","Units":"in","Rept_Date":"2020-01-06 12"},"coordinates":[6171,5125]},{"type":"Point","properties":{"Station_ID":"GDCM4","Station_Nam":"GARDEN CORNERS","Latitude":"45.89830","Longitude":"-86.54850","Snowdepth":"8.000","Units":"in","Rept_Date":"2020-01-06 13"},"coordinates":[2445,6373]},{"type":"Point","properties":{"Station_ID":"BGFW3","Station_Nam":"BIG FALLS HYDRO","Latitude":"45.55560","Longitude":"-90.95920","Snowdepth":"8.000","Units":"in","Rept_Date":"2020-01-06 13"},"coordinates":[1436,6160]},{"type":"Point","properties":{"Station_ID":"CAN-MB-368","Station_Nam":"WHITESHELL 1.3 NE, CAN","Latitude":"49.74405","Longitude":"-95.19123","Snowdepth":"7.700","Units":"in","Rept_Date":"2020-01-06 14"},"coordinates":[468,8765]},{"type":"Point","properties":{"Station_ID":"NH-MR-6","Station_Nam":"DANBURY 2.2 ESE, NH","Latitude":"43.52000","Longitude":"-71.81900","Snowdepth":"7.500","Units":"in","Rept_Date":"2020-01-06 13"},"coordinates":[5814,4893]},{"type":"Point","properties":{"Station_ID":"NH-CR-27","Station_Nam":"TAMWORTH 0.4 NNW, NH","Latitude":"43.86449","Longitude":"-71.26610","Snowdepth":"7.500","Units":"in","Rept_Date":"2020-01-06 12"},"coordinates":[5940,5107]},{"type":"Point","properties":{"Station_ID":"NH-CR-15","Station_Nam":"JACKSON 3.7 NW, NH","Latitude":"44.19069","Longitude":"-71.22598","Snowdepth":"7.500","Units":"in","Rept_Date":"2020-01-06 12"},"coordinates":[5949,5310]},{"type":"Point","properties":{"Station_ID":"ME-YK-5","Station_Nam":"KENNEBUNK 1.8 WNW, ME","Latitude":"43.39320","Longitude":"-70.58060","Snowdepth":"7.500","Units":"in","Rept_Date":"2020-01-06 12"},"coordinates":[6097,4814]},{"type":"Point","properties":{"Station_ID":"ME-CM-128","Station_Nam":"SOUTH PORTLAND 1.6 S, ME","Latitude":"43.60900","Longitude":"-70.28600","Snowdepth":"7.500","Units":"in","Rept_Date":"2020-01-06 12"},"coordinates":[6164,4949]},{"type":"Point","properties":{"Station_ID":"ME-AN-41","Station_Nam":"AUBURN 2.1 NNW, ME","Latitude":"44.11275","Longitude":"-70.26452","Snowdepth":"7.500","Units":"in","Rept_Date":"2020-01-06 12"},"coordinates":[6169,5262]},{"type":"Point","properties":{"Station_ID":"MA-HS-14","Station_Nam":"PLAINFIELD 2.4 ESE, MA","Latitude":"42.49792","Longitude":"-72.87769","Snowdepth":"7.500","Units":"in","Rept_Date":"2020-01-06 12"},"coordinates":[5572,4257]},{"type":"Point","properties":{"Station_ID":"CAN-NB-18","Station_Nam":"MCLEOD HILL 1.1 ENE, CA","Latitude":"46.02725","Longitude":"-66.67460","Snowdepth":"7.500","Units":"in","Rept_Date":"2020-01-06 12"},"coordinates":[6990,6453]},{"type":"Point","properties":{"Station_ID":"WUNW3","Station_Nam":"WAUSAU-NORTHEAST","Latitude":"44.97310","Longitude":"-89.61690","Snowdepth":"7.000","Units":"in","Rept_Date":"2020-01-06 12"},"coordinates":[1743,5797]},{"type":"Point","properties":{"Station_ID":"WMRM5","Station_Nam":"WILLMAR 5N","Latitude":"45.19010","Longitude":"-95.05860","Snowdepth":"7.000","Units":"in","Rept_Date":"2020-01-06 12"},"coordinates":[498,5932]},{"type":"Point","properties":{"Station_ID":"VT-WR-2","Station_Nam":"POMFRET 2.6 N, VT","Latitude":"43.74230","Longitude":"-72.52550","Snowdepth":"7.000","Units":"in","Rept_Date":"2020-01-06 12"},"coordinates":[5652,5031]},{"type":"Point","properties":{"Station_ID":"VANM1","Station_Nam":"VAN BUREN","Latitude":"47.16600","Longitude":"-67.93900","Snowdepth":"7.000","Units":"in","Rept_Date":"2020-01-06 12"},"coordinates":[6701,7161]},{"type":"Point","properties":{"Station_ID":"TURM1","Station_Nam":"TURNER","Latitude":"44.28220","Longitude":"-70.25610","Snowdepth":"7.000","Units":"in","Rept_Date":"2020-01-06 12"},"coordinates":[6171,5367]},{"type":"Point","properties":{"Station_ID":"TOPN6","Station_Nam":"TUPPER LAKE SUNMOUNT","Latitude":"44.23070","Longitude":"-74.43820","Snowdepth":"7.000","Units":"in","Rept_Date":"2020-01-06 12"},"coordinates":[5215,5335]},{"type":"Point","properties":{"Station_ID":"TMWN3","Station_Nam":"TAMWORTH 4","Latitude":"43.86390","Longitude":"-71.26610","Snowdepth":"7.000","Units":"in","Rept_Date":"2020-01-06 12"},"coordinates":[5940,5107]},{"type":"Point","properties":{"Station_ID":"TETM5","Station_Nam":"TETTEGOUCHE STATE PARK","Latitude":"47.33900","Longitude":"-91.19590","Snowdepth":"7.000","Units":"in","Rept_Date":"2020-01-06 14"},"coordinates":[1382,7269]},{"type":"Point","properties":{"Station_ID":"SJBV1","Station_Nam":"SAINT JOHNSBURY","Latitude":"44.42000","Longitude":"-72.01940","Snowdepth":"7.000","Units":"in","Rept_Date":"2020-01-06 21"},"coordinates":[5768,5453]},{"type":"Point","properties":{"Station_ID":"SD-BK-2","Station_Nam":"ASTORIA 2.2 SSE, SD","Latitude":"44.53093","Longitude":"-96.52270","Snowdepth":"7.000","Units":"in","Rept_Date":"2020-01-06 13"},"coordinates":[164,5522]},{"type":"Point","properties":{"Station_ID":"RFDM5","Station_Nam":"ROCKFORD","Latitude":"45.08960","Longitude":"-93.73990","Snowdepth":"7.000","Units":"in","Rept_Date":"2020-01-06 13"},"coordinates":[800,5870]},{"type":"Point","properties":{"Station_ID":"PWM","Station_Nam":"RESIDUAL OFFICE TO PORTLAND WSFO (GYX)","Latitude":"43.64610","Longitude":"-70.30920","Snowdepth":"7.000","Units":"in","Rept_Date":"2020-01-06 12"},"coordinates":[6159,4972]},{"type":"Point","properties":{"Station_ID":"NY-FK-7","Station_Nam":"SARANAC LAKE 6.2 N, NY","Latitude":"44.41359","Longitude":"-74.15211","Snowdepth":"7.000","Units":"in","Rept_Date":"2020-01-06 12"},"coordinates":[5280,5449]},{"type":"Point","properties":{"Station_ID":"NH-RC-48","Station_Nam":"NORTHWOOD 2.9 WSW, NH","Latitude":"43.20114","Longitude":"-71.25750","Snowdepth":"7.000","Units":"in","Rept_Date":"2020-01-06 12"},"coordinates":[5942,4695]},{"type":"Point","properties":{"Station_ID":"NH-MR-41","Station_Nam":"NEWBURY 1.6 NW, NH","Latitude":"43.33667","Longitude":"-72.06060","Snowdepth":"7.000","Units":"in","Rept_Date":"2020-01-06 12"},"coordinates":[5758,4779]},{"type":"Point","properties":{"Station_ID":"NH-BK-1","Station_Nam":"TILTON NORTHFIELD 3.3 NE, NH","Latitude":"43.48000","Longitude":"-71.55000","Snowdepth":"7.000","Units":"in","Rept_Date":"2020-01-06 12"},"coordinates":[5875,4868]},{"type":"Point","properties":{"Station_ID":"MRFS2","Station_Nam":"MADISON,SD","Latitude":"44.00000","Longitude":"-97.23330","Snowdepth":"7.000","Units":"in","Rept_Date":"2020-01-06 15"},"coordinates":[1,5192]},{"type":"Point","properties":{"Station_ID":"MN-SH-985","Station_Nam":"PRINCETON 3.3 WSW, MN","Latitude":"45.55211","Longitude":"-93.64481","Snowdepth":"7.000","Units":"in","Rept_Date":"2020-01-06 11"},"coordinates":[822,6157]},{"type":"Point","properties":{"Station_ID":"MIAM5","Station_Nam":"MILAN 1NW","Latitude":"45.12190","Longitude":"-95.92690","Snowdepth":"7.000","Units":"in","Rept_Date":"2020-01-07 00"},"coordinates":[300,5890]},{"type":"Point","properties":{"Station_ID":"ME-FR-22","Station_Nam":"FARMINGTON 4.8 NNW, ME","Latitude":"44.73396","Longitude":"-70.18007","Snowdepth":"7.000","Units":"in","Rept_Date":"2020-01-06 14"},"coordinates":[6189,5648]},{"type":"Point","properties":{"Station_ID":"LNKM1","Station_Nam":"LINCOLN SANITARY DISTRICT/WTP","Latitude":"45.37520","Longitude":"-68.50820","Snowdepth":"7.000","Units":"in","Rept_Date":"2020-01-06 12"},"coordinates":[6571,6047]},{"type":"Point","properties":{"Station_ID":"ISLV1","Station_Nam":"ISLAND POND","Latitude":"44.81280","Longitude":"-71.89020","Snowdepth":"7.000","Units":"in","Rept_Date":"2020-01-06 15"},"coordinates":[5797,5697]},{"type":"Point","properties":{"Station_ID":"INDN6","Station_Nam":"INDIAN LAKE","Latitude":"43.75500","Longitude":"-74.27560","Snowdepth":"7.000","Units":"in","Rept_Date":"2020-01-06 14"},"coordinates":[5252,5039]},{"type":"Point","properties":{"Station_ID":"GMRM5","Station_Nam":"GRAND MARIAS WATER TREATMENT PLANT","Latitude":"47.75180","Longitude":"-90.32820","Snowdepth":"7.000","Units":"in","Rept_Date":"2020-01-06 14"},"coordinates":[1580,7526]},{"type":"Point","properties":{"Station_ID":"FORM5","Station_Nam":"FOREST LAKE 5NE","Latitude":"45.33170","Longitude":"-92.89820","Snowdepth":"7.000","Units":"in","Rept_Date":"2020-01-06 13"},"coordinates":[993,6020]},{"type":"Point","properties":{"Station_ID":"EAU","Station_Nam":"CHIPPEWA VALLEY REGIONAL AIRPORT","Latitude":"44.86650","Longitude":"-91.48790","Snowdepth":"7.000","Units":"in","Rept_Date":"2020-01-07 00"},"coordinates":[1315,5731]},{"type":"Point","properties":{"Station_ID":"DWSM5","Station_Nam":"DAWSON","Latitude":"44.93180","Longitude":"-96.04500","Snowdepth":"7.000","Units":"in","Rept_Date":"2020-01-06 13"},"coordinates":[273,5771]},{"type":"Point","properties":{"Station_ID":"BRLN3","Station_Nam":"BERLIN","Latitude":"44.45350","Longitude":"-71.18540","Snowdepth":"7.000","Units":"in","Rept_Date":"2020-01-06 12"},"coordinates":[5959,5474]},{"type":"Point","properties":{"Station_ID":"BOWW3","Station_Nam":"STOCKBRIDGE-MUNSEE RESERVATION","Latitude":"44.87000","Longitude":"-88.90440","Snowdepth":"7.000","Units":"in","Rept_Date":"2020-01-06 14"},"coordinates":[1906,5733]},{"type":"Point","properties":{"Station_ID":"BALW3","Station_Nam":"BALDWIN","Latitude":"44.96330","Longitude":"-92.39050","Snowdepth":"7.000","Units":"in","Rept_Date":"2020-01-06 13"},"coordinates":[1109,5791]},{"type":"Point","properties":{"Station_ID":"ASTW3","Station_Nam":"ATHELSTANE","Latitude":"45.42500","Longitude":"-88.05750","Snowdepth":"7.000","Units":"in","Rept_Date":"2020-01-06 12"},"coordinates":[2100,6078]},{"type":"Point","properties":{"Station_ID":"ABGW3","Station_Nam":"AMBERG 9 E","Latitude":"45.48250","Longitude":"-87.81190","Snowdepth":"7.000","Units":"in","Rept_Date":"2020-01-06 12"},"coordinates":[2156,6114]},{"type":"Point","properties":{"Station_ID":"NY-HR-18","Station_Nam":"SALISBURY CENTER 1.8 NW, NY","Latitude":"43.16260","Longitude":"-74.80880","Snowdepth":"6.800","Units":"in","Rept_Date":"2020-01-06 11"},"coordinates":[5130,4671]},{"type":"Point","properties":{"Station_ID":"CAN-PE-43","Station_Nam":"GLENCOE 0.3 W, CAN","Latitude":"46.20115","Longitude":"-62.81740","Snowdepth":"6.700","Units":"in","Rept_Date":"2020-01-06 12"},"coordinates":[7872,6561]},{"type":"Point","properties":{"Station_ID":"CAN-MB-298","Station_Nam":"GARDENTON 4.2 W - SRRCD, CAN","Latitude":"49.09480","Longitude":"-96.75446","Snowdepth":"6.700","Units":"in","Rept_Date":"2020-01-06 14"},"coordinates":[111,8361]},{"type":"Point","properties":{"Station_ID":"WI-PT-8","Station_Nam":"RUDOLPH 2.1 NNE, WI","Latitude":"44.52553","Longitude":"-89.78677","Snowdepth":"6.500","Units":"in","Rept_Date":"2020-01-06 11"},"coordinates":[1704,5519]},{"type":"Point","properties":{"Station_ID":"VT-WR-17","Station_Nam":"ROCHESTER 2.3 NE, VT","Latitude":"43.89418","Longitude":"-72.76992","Snowdepth":"6.500","Units":"in","Rept_Date":"2020-01-06 12"},"coordinates":[5596,5126]},{"type":"Point","properties":{"Station_ID":"VT-LM-7","Station_Nam":"HYDE PARK 2.9 NE, VT","Latitude":"44.62080","Longitude":"-72.57250","Snowdepth":"6.500","Units":"in","Rept_Date":"2020-01-06 12"},"coordinates":[5641,5578]},{"type":"Point","properties":{"Station_ID":"VT-CL-23","Station_Nam":"RYEGATE 1.5 N, VT","Latitude":"44.23024","Longitude":"-72.10523","Snowdepth":"6.500","Units":"in","Rept_Date":"2020-01-06 12"},"coordinates":[5748,5335]},{"type":"Point","properties":{"Station_ID":"VT-AD-20","Station_Nam":"HANCOCK 0.3 S, VT","Latitude":"43.92166","Longitude":"-72.84042","Snowdepth":"6.500","Units":"in","Rept_Date":"2020-01-06 12"},"coordinates":[5580,5143]},{"type":"Point","properties":{"Station_ID":"NY-OD-4","Station_Nam":"BOONVILLE 0.2 NW, NY","Latitude":"43.48333","Longitude":"-75.33330","Snowdepth":"6.500","Units":"in","Rept_Date":"2020-01-06 23"},"coordinates":[5010,4870]},{"type":"Point","properties":{"Station_ID":"NH-RC-18","Station_Nam":"DEERFIELD 3.2 WSW, NH","Latitude":"43.13350","Longitude":"-71.27940","Snowdepth":"6.500","Units":"in","Rept_Date":"2020-01-06 12"},"coordinates":[5937,4653]},{"type":"Point","properties":{"Station_ID":"NH-MR-60","Station_Nam":"SOUTH SUTTON 1.3 SE, NH","Latitude":"43.29531","Longitude":"-71.90238","Snowdepth":"6.500","Units":"in","Rept_Date":"2020-01-06 13"},"coordinates":[5795,4753]},{"type":"Point","properties":{"Station_ID":"NH-MR-4","Station_Nam":"BOW 1.6 NW, NH","Latitude":"43.14994","Longitude":"-71.55650","Snowdepth":"6.500","Units":"in","Rept_Date":"2020-01-06 12"},"coordinates":[5874,4663]},{"type":"Point","properties":{"Station_ID":"MN-MC-16","Station_Nam":"HUTCHINSON 0.1 ENE, MN","Latitude":"44.88633","Longitude":"-94.37503","Snowdepth":"6.500","Units":"in","Rept_Date":"2020-01-06 13"},"coordinates":[655,5743]},{"type":"Point","properties":{"Station_ID":"MI-CP-7","Station_Nam":"DRUMMOND 2.9 NE, MI","Latitude":"46.05329","Longitude":"-83.69060","Snowdepth":"6.500","Units":"in","Rept_Date":"2020-01-06 14"},"coordinates":[3098,6469]},{"type":"Point","properties":{"Station_ID":"CAN-MB-32","Station_Nam":"PINAWA 1.0 SW, CA","Latitude":"50.14747","Longitude":"-95.89020","Snowdepth":"6.500","Units":"in","Rept_Date":"2020-01-06 13"},"coordinates":[308,9016]},{"type":"Point","properties":{"Station_ID":"CAN-NB-97","Station_Nam":"NEW MARYLAND 0.6 NW, CAN","Latitude":"45.90112","Longitude":"-66.68739","Snowdepth":"6.300","Units":"in","Rept_Date":"2020-01-06 11"},"coordinates":[6987,6375]},{"type":"Point","properties":{"Station_ID":"MI-OG-6","Station_Nam":"WEST BRANCH 2.1 SSW, MI","Latitude":"44.24814","Longitude":"-84.25089","Snowdepth":"6.100","Units":"in","Rept_Date":"2020-01-06 13"},"coordinates":[2970,5346]},{"type":"Point","properties":{"Station_ID":"CAN-QC-51","Station_Nam":"BELOEIL 0.7 NW, CAN","Latitude":"45.58049","Longitude":"-73.21218","Snowdepth":"6.100","Units":"in","Rept_Date":"2020-01-06 12"},"coordinates":[5495,6175]},{"type":"Point","properties":{"Station_ID":"WI-PK-4","Station_Nam":"DRESSER 6.1 ESE, WI","Latitude":"45.32436","Longitude":"-92.52080","Snowdepth":"6.000","Units":"in","Rept_Date":"2020-01-06 14"},"coordinates":[1079,6016]},{"type":"Point","properties":{"Station_ID":"WENN3","Station_Nam":"P.O. BOX 197 WENTWORTH, NH","Latitude":"43.95190","Longitude":"-71.91560","Snowdepth":"6.000","Units":"in","Rept_Date":"2020-01-06 12"},"coordinates":[5792,5162]},{"type":"Point","properties":{"Station_ID":"WAIV1","Station_Nam":"WAITSFIELD","Latitude":"44.17560","Longitude":"-72.79610","Snowdepth":"6.000","Units":"in","Rept_Date":"2020-01-06 12"},"coordinates":[5590,5301]},{"type":"Point","properties":{"Station_ID":"VT-WS-33","Station_Nam":"WAITSFIELD 3.5 WNW, VT","Latitude":"44.20052","Longitude":"-72.89421","Snowdepth":"6.000","Units":"in","Rept_Date":"2020-01-06 13"},"coordinates":[5568,5317]},{"type":"Point","properties":{"Station_ID":"VT-WS-11","Station_Nam":"WAITSFIELD 1.8 SE, VT","Latitude":"44.17551","Longitude":"-72.79540","Snowdepth":"6.000","Units":"in","Rept_Date":"2020-01-06 12"},"coordinates":[5590,5301]},{"type":"Point","properties":{"Station_ID":"VT-BN-3","Station_Nam":"LANDGROVE 1.1 NNE, VT","Latitude":"43.29092","Longitude":"-72.83260","Snowdepth":"6.000","Units":"in","Rept_Date":"2020-01-06 12"},"coordinates":[5582,4751]},{"type":"Point","properties":{"Station_ID":"UMNM5","Station_Nam":"UNIVERSITY OF MN ST. PAUL","Latitude":"44.99020","Longitude":"-93.17990","Snowdepth":"6.000","Units":"in","Rept_Date":"2020-01-06 14"},"coordinates":[928,5808]},{"type":"Point","properties":{"Station_ID":"TOPM1","Station_Nam":"TOPSFIELD","Latitude":"45.43470","Longitude":"-67.72020","Snowdepth":"6.000","Units":"in","Rept_Date":"2020-01-06 13"},"coordinates":[6751,6084]},{"type":"Point","properties":{"Station_ID":"SPCW3","Station_Nam":"SPENCER-WWTP","Latitude":"44.75390","Longitude":"-90.28920","Snowdepth":"6.000","Units":"in","Rept_Date":"2020-01-06 13"},"coordinates":[1589,5661]},{"type":"Point","properties":{"Station_ID":"RFDM1","Station_Nam":"RUMFORD 7SW","Latitude":"44.49470","Longitude":"-70.65640","Snowdepth":"6.000","Units":"in","Rept_Date":"2020-01-06 14"},"coordinates":[6080,5500]},{"type":"Point","properties":{"Station_ID":"RANM1","Station_Nam":"RANGELEY,ME","Latitude":"44.96670","Longitude":"-70.65000","Snowdepth":"6.000","Units":"in","Rept_Date":"2020-01-06 11"},"coordinates":[6081,5793]},{"type":"Point","properties":{"Station_ID":"PLFV1","Station_Nam":"PLAINFIELD","Latitude":"44.27610","Longitude":"-72.41500","Snowdepth":"6.000","Units":"in","Rept_Date":"2020-01-06 12"},"coordinates":[5677,5364]},{"type":"Point","properties":{"Station_ID":"NPTM4","Station_Nam":"NORTHPORT 2W","Latitude":"45.13220","Longitude":"-85.64720","Snowdepth":"6.000","Units":"in","Rept_Date":"2020-01-06 13"},"coordinates":[2651,5896]},{"type":"Point","properties":{"Station_ID":"NH-GR-1","Station_Nam":"BRISTOL 0.4 SSE, NH","Latitude":"43.59490","Longitude":"-71.74140","Snowdepth":"6.000","Units":"in","Rept_Date":"2020-01-06 12"},"coordinates":[5831,4940]},{"type":"Point","properties":{"Station_ID":"NH-BK-29","Station_Nam":"SANBORNTON 2.3 WNW, NH","Latitude":"43.49730","Longitude":"-71.62800","Snowdepth":"6.000","Units":"in","Rept_Date":"2020-01-06 12"},"coordinates":[5857,4879]},{"type":"Point","properties":{"Station_ID":"NH-BK-2","Station_Nam":"BELMONT 1.7 SW, NH","Latitude":"43.43556","Longitude":"-71.50690","Snowdepth":"6.000","Units":"in","Rept_Date":"2020-01-06 12"},"coordinates":[5885,4841]},{"type":"Point","properties":{"Station_ID":"NEDM1","Station_Nam":"CAPE NEDDICK","Latitude":"43.22410","Longitude":"-70.63880","Snowdepth":"6.000","Units":"in","Rept_Date":"2020-01-06 12"},"coordinates":[6084,4709]},{"type":"Point","properties":{"Station_ID":"MWTM1","Station_Nam":"MILLINOCKET WWTP","Latitude":"45.64030","Longitude":"-68.67480","Snowdepth":"6.000","Units":"in","Rept_Date":"2020-01-06 11"},"coordinates":[6533,6212]},{"type":"Point","properties":{"Station_ID":"MRRM5","Station_Nam":"MORRIS WC EXP STA","Latitude":"45.59010","Longitude":"-95.87450","Snowdepth":"6.000","Units":"in","Rept_Date":"2020-01-06 14"},"coordinates":[312,6181]},{"type":"Point","properties":{"Station_ID":"MRLV1","Station_Nam":"MARLBORO","Latitude":"42.86000","Longitude":"-72.72000","Snowdepth":"6.000","Units":"in","Rept_Date":"2020-01-06 12"},"coordinates":[5608,4483]},{"type":"Point","properties":{"Station_ID":"MNOW3","Station_Nam":"CEDAR FALLS HYDRO PLANT","Latitude":"44.93550","Longitude":"-91.88850","Snowdepth":"6.000","Units":"in","Rept_Date":"2020-01-06 13"},"coordinates":[1224,5774]},{"type":"Point","properties":{"Station_ID":"MNEY8CTB","Station_Nam":"MIDLAND JUNCTION 2.2 ENE","Latitude":"44.33041","Longitude":"-91.95891","Snowdepth":"6.000","Units":"in","Rept_Date":"2020-01-06 14"},"coordinates":[1207,5397]},{"type":"Point","properties":{"Station_ID":"MN228YHJ","Station_Nam":"RICE 2.8 ESE","Latitude":"45.73609","Longitude":"-94.17230","Snowdepth":"6.000","Units":"in","Rept_Date":"2020-01-06 13"},"coordinates":[701,6272]},{"type":"Point","properties":{"Station_ID":"MN-RM-2","Station_Nam":"NORTH SAINT PAUL 1.0 NNW, MN","Latitude":"45.02629","Longitude":"-93.00790","Snowdepth":"6.000","Units":"in","Rept_Date":"2020-01-06 12"},"coordinates":[968,5830]},{"type":"Point","properties":{"Station_ID":"MN-HN-6","Station_Nam":"LONG LAKE 0.2 WSW, MN","Latitude":"44.98290","Longitude":"-93.57360","Snowdepth":"6.000","Units":"in","Rept_Date":"2020-01-06 13"},"coordinates":[838,5803]},{"type":"Point","properties":{"Station_ID":"MN-HN-181","Station_Nam":"MINNEAPOLIS 0.4 NE, MN","Latitude":"44.96708","Longitude":"-93.26222","Snowdepth":"6.000","Units":"in","Rept_Date":"2020-01-06 13"},"coordinates":[909,5793]},{"type":"Point","properties":{"Station_ID":"MN-CG-16","Station_Nam":"NORTH BRANCH 1.3 NNW, MN","Latitude":"45.53121","Longitude":"-92.97110","Snowdepth":"6.000","Units":"in","Rept_Date":"2020-01-06 12"},"coordinates":[976,6144]},{"type":"Point","properties":{"Station_ID":"MI-EM-5","Station_Nam":"HARBOR SPRINGS 0.7 ENE, MI","Latitude":"45.43450","Longitude":"-84.97540","Snowdepth":"6.000","Units":"in","Rept_Date":"2020-01-06 12"},"coordinates":[2805,6084]},{"type":"Point","properties":{"Station_ID":"MI-CF-9","Station_Nam":"GRAYLING 15.8 NE, MI","Latitude":"44.80464","Longitude":"-84.46313","Snowdepth":"6.000","Units":"in","Rept_Date":"2020-01-06 12"},"coordinates":[2922,5692]},{"type":"Point","properties":{"Station_ID":"MFDW3","Station_Nam":"MARSHFIELD EXP FARM","Latitude":"44.64110","Longitude":"-90.13330","Snowdepth":"6.000","Units":"in","Rept_Date":"2020-01-06 13"},"coordinates":[1625,5591]},{"type":"Point","properties":{"Station_ID":"ME-YK-52","Station_Nam":"YORK 5.2 N, ME","Latitude":"43.23585","Longitude":"-70.63400","Snowdepth":"6.000","Units":"in","Rept_Date":"2020-01-06 12"},"coordinates":[6085,4716]},{"type":"Point","properties":{"Station_ID":"ME-SM-4","Station_Nam":"SOLON 3.9 ESE, ME","Latitude":"44.94705","Longitude":"-69.77790","Snowdepth":"6.000","Units":"in","Rept_Date":"2020-01-06 12"},"coordinates":[6281,5781]},{"type":"Point","properties":{"Station_ID":"ME-PN-30","Station_Nam":"OLD TOWN 4.1 ESE, ME","Latitude":"44.93543","Longitude":"-68.65840","Snowdepth":"6.000","Units":"in","Rept_Date":"2020-01-06 12"},"coordinates":[6537,5774]},{"type":"Point","properties":{"Station_ID":"LKPN3","Station_Nam":"LAKEPORT 2","Latitude":"43.54910","Longitude":"-71.46450","Snowdepth":"6.000","Units":"in","Rept_Date":"2020-01-06 13"},"coordinates":[5895,4911]},{"type":"Point","properties":{"Station_ID":"KSEM4","Station_Nam":"KALKASKA 11SE","Latitude":"44.58970","Longitude":"-85.04860","Snowdepth":"6.000","Units":"in","Rept_Date":"2020-01-06 13"},"coordinates":[2788,5559]},{"type":"Point","properties":{"Station_ID":"KLKM4","Station_Nam":"KALKASKA","Latitude":"44.72800","Longitude":"-85.17270","Snowdepth":"6.000","Units":"in","Rept_Date":"2020-01-06 13"},"coordinates":[2760,5645]},{"type":"Point","properties":{"Station_ID":"JKMM1","Station_Nam":"JACKMAN","Latitude":"45.62600","Longitude":"-70.24600","Snowdepth":"6.000","Units":"in","Rept_Date":"2020-01-06 12"},"coordinates":[6173,6203]},