{"type":"Topology","objects":{"snowdepth_geo":{"type":"GeometryCollection","name":"snowdepth","crs":{"type":"name","properties":{"name":"urn:ogc:def:crs:OGC:1.3:CRS84"}},"geometries":[{"type":"Point","properties":{"Station_ID":"PRKM4","Station_Nam":"MUNISING EAST","Latitude":"46.42580","Longitude":"-86.62000","Snowdepth":"76.500","Units":"in","Rept_Date":"2020-02-20 06"},"coordinates":[2492,5138]},{"type":"Point","properties":{"Station_ID":"HTLN3","Station_Nam":"HERMIT LAKE SNOWPLOT","Latitude":"44.26130","Longitude":"-71.28330","Snowdepth":"62.000","Units":"in","Rept_Date":"2020-02-19 10"},"coordinates":[6092,3153]},{"type":"Point","properties":{"Station_ID":"OGIQ6","Station_Nam":"OGOKI CAMP","Latitude":"50.76680","Longitude":"-87.85820","Snowdepth":"61.100","Units":"in","Rept_Date":"2020-02-20 06"},"coordinates":[2202,9119]},{"type":"Point","properties":{"Station_ID":"MMNV1","Station_Nam":"MT. MANSFIELD","Latitude":"44.52480","Longitude":"-72.81540","Snowdepth":"59.000","Units":"in","Rept_Date":"2020-02-19 21"},"coordinates":[5732,3394]},{"type":"Point","properties":{"Station_ID":"PDLM4","Station_Nam":"PAINESDALE","Latitude":"47.04160","Longitude":"-88.67170","Snowdepth":"54.000","Units":"in","Rept_Date":"2020-02-19 13"},"coordinates":[2011,5702]},{"type":"Point","properties":{"Station_ID":"HVCN3","Station_Nam":"HARVARD CABIN SNOWPLOT","Latitude":"44.26630","Longitude":"-71.27790","Snowdepth":"50.000","Units":"in","Rept_Date":"2020-02-19 10"},"coordinates":[6093,3157]},{"type":"Point","properties":{"Station_ID":"GMSM4","Station_Nam":"GRAND MARAIS 10S","Latitude":"46.50940","Longitude":"-85.96310","Snowdepth":"48.000","Units":"in","Rept_Date":"2020-02-19 12"},"coordinates":[2646,5214]},{"type":"Point","properties":{"Station_ID":"AUDQ6","Station_Nam":"AUDEN","Latitude":"48.52600","Longitude":"-82.57570","Snowdepth":"47.640","Units":"in","Rept_Date":"2020-02-20 06"},"coordinates":[3441,7064]},{"type":"Point","properties":{"Station_ID":"DVLQ6","Station_Nam":"DEVIOUS LAKE","Latitude":"49.19890","Longitude":"-87.76440","Snowdepth":"43.460","Units":"in","Rept_Date":"2020-02-20 06"},"coordinates":[2224,7681]},{"type":"Point","properties":{"Station_ID":"WLFM5","Station_Nam":"WOLF RIDGE ENVIRON LEARNING CENTER","Latitude":"47.38240","Longitude":"-91.19730","Snowdepth":"40.000","Units":"in","Rept_Date":"2020-02-19 13"},"coordinates":[1418,6015]},{"type":"Point","properties":{"Station_ID":"KSGM4","Station_Nam":"KEARSARGE","Latitude":"47.27520","Longitude":"-88.41700","Snowdepth":"40.000","Units":"in","Rept_Date":"2020-02-19 13"},"coordinates":[2070,5917]},{"type":"Point","properties":{"Station_ID":"CAN-NS-39","Station_Nam":"ST. ANNS 2.8 NW, CA","Latitude":"46.25082","Longitude":"-60.64340","Snowdepth":"40.000","Units":"in","Rept_Date":"2020-02-19 11"},"coordinates":[8589,4977]},{"type":"Point","properties":{"Station_ID":"CAN-NL-82","Station_Nam":"GANDER 2.7 NW, CAN","Latitude":"48.97737","Longitude":"-54.63396","Snowdepth":"39.400","Units":"in","Rept_Date":"2020-02-19 10"},"coordinates":[9999,7478]},{"type":"Point","properties":{"Station_ID":"NWCM4","Station_Nam":"NEWBERRY CITY","Latitude":"46.35720","Longitude":"-85.51780","Snowdepth":"39.000","Units":"in","Rept_Date":"2020-02-19 12"},"coordinates":[2751,5075]},{"type":"Point","properties":{"Station_ID":"IBLM5","Station_Nam":"ISABELLA 14W","Latitude":"47.59360","Longitude":"-91.65140","Snowdepth":"39.000","Units":"in","Rept_Date":"2020-02-19 15"},"coordinates":[1311,6209]},{"type":"Point","properties":{"Station_ID":"MOSN3","Station_Nam":"MOOSE FALLS","Latitude":"45.18890","Longitude":"-71.18810","Snowdepth":"37.100","Units":"in","Rept_Date":"2020-02-19 19"},"coordinates":[6114,4003]},{"type":"Point","properties":{"Station_ID":"MNSM4","Station_Nam":"MUNISING","Latitude":"46.41210","Longitude":"-86.66250","Snowdepth":"37.000","Units":"in","Rept_Date":"2020-02-19 11"},"coordinates":[2482,5125]},{"type":"Point","properties":{"Station_ID":"CAN-NB-11","Station_Nam":"MIRAMICHI 3.3 S, CAN","Latitude":"46.99343","Longitude":"-65.50690","Snowdepth":"36.000","Units":"in","Rept_Date":"2020-02-19 12"},"coordinates":[7447,5658]},{"type":"Point","properties":{"Station_ID":"MQT","Station_Nam":"MARQUETTE, MI","Latitude":"46.53140","Longitude":"-87.54920","Snowdepth":"35.000","Units":"in","Rept_Date":"2020-02-20 06"},"coordinates":[2274,5234]},{"type":"Point","properties":{"Station_ID":"CAN-NL-65","Station_Nam":"KIPPENS 0.7 NE, CA","Latitude":"48.55436","Longitude":"-58.61850","Snowdepth":"35.000","Units":"in","Rept_Date":"2020-02-19 12"},"coordinates":[9064,7090]},{"type":"Point","properties":{"Station_ID":"STEM4","Station_Nam":"STEUBEN","Latitude":"46.18530","Longitude":"-86.46410","Snowdepth":"34.000","Units":"in","Rept_Date":"2020-02-19 14"},"coordinates":[2529,4917]},{"type":"Point","properties":{"Station_ID":"QNCM4","Station_Nam":"QUINCY HILL","Latitude":"47.13640","Longitude":"-88.57950","Snowdepth":"34.000","Units":"in","Rept_Date":"2020-02-19 12"},"coordinates":[2032,5789]},{"type":"Point","properties":{"Station_ID":"MI-BG-3","Station_Nam":"L'ANSE 17.8 SE, MI","Latitude":"46.55730","Longitude":"-88.20770","Snowdepth":"34.000","Units":"in","Rept_Date":"2020-02-19 13"},"coordinates":[2119,5258]},{"type":"Point","properties":{"Station_ID":"LVDW3","Station_Nam":"LAC VIEUX DESERT","Latitude":"46.12110","Longitude":"-89.07580","Snowdepth":"33.000","Units":"in","Rept_Date":"2020-02-19 15"},"coordinates":[1916,4858]},{"type":"Point","properties":{"Station_ID":"ME-AR-18","Station_Nam":"NEW SWEDEN 4.9 NNW, ME","Latitude":"47.01080","Longitude":"-68.14390","Snowdepth":"32.500","Units":"in","Rept_Date":"2020-02-19 12"},"coordinates":[6828,5674]},{"type":"Point","properties":{"Station_ID":"PRDM4","Station_Nam":"PARADISE","Latitude":"46.60380","Longitude":"-85.03960","Snowdepth":"32.000","Units":"in","Rept_Date":"2020-02-19 11"},"coordinates":[2863,5301]},{"type":"Point","properties":{"Station_ID":"NH-CS-10","Station_Nam":"RANDOLPH 1.4 NE, NH","Latitude":"44.38824","Longitude":"-71.26950","Snowdepth":"32.000","Units":"in","Rept_Date":"2020-02-19 12"},"coordinates":[6095,3269]},{"type":"Point","properties":{"Station_ID":"CAN-NB-105","Station_Nam":"SISSON BROOK 3.8 E, CAN","Latitude":"46.98305","Longitude":"-67.32532","Snowdepth":"31.100","Units":"in","Rept_Date":"2020-02-19 12"},"coordinates":[7020,5649]},{"type":"Point","properties":{"Station_ID":"SUTV1","Station_Nam":"SUTTON","Latitude":"44.61220","Longitude":"-72.04810","Snowdepth":"31.000","Units":"in","Rept_Date":"2020-02-19 13"},"coordinates":[5912,3474]},{"type":"Point","properties":{"Station_ID":"ME-AR-23","Station_Nam":"MADAWASKA 2.5 E, ME","Latitude":"47.34933","Longitude":"-68.28141","Snowdepth":"31.000","Units":"in","Rept_Date":"2020-02-19 12"},"coordinates":[6796,5985]},{"type":"Point","properties":{"Station_ID":"HERM4","Station_Nam":"HERMAN,MI","Latitude":"46.65000","Longitude":"-88.33330","Snowdepth":"31.000","Units":"in","Rept_Date":"2020-02-19 13"},"coordinates":[2090,5343]},{"type":"Point","properties":{"Station_ID":"GLDM4","Station_Nam":"GLADSTONE NO. 2","Latitude":"45.84330","Longitude":"-87.03910","Snowdepth":"31.000","Units":"in","Rept_Date":"2020-02-19 12"},"coordinates":[2394,4603]},{"type":"Point","properties":{"Station_ID":"ANTW3","Station_Nam":"ANTIGO,WI","Latitude":"45.13330","Longitude":"-89.15000","Snowdepth":"31.000","Units":"in","Rept_Date":"2020-02-19 14"},"coordinates":[1898,3952]},{"type":"Point","properties":{"Station_ID":"MI-HG-6","Station_Nam":"CALUMET 5.8 ENE, MI","Latitude":"47.27200","Longitude":"-88.33400","Snowdepth":"30.500","Units":"in","Rept_Date":"2020-02-19 11"},"coordinates":[2090,5914]},{"type":"Point","properties":{"Station_ID":"SELN3","Station_Nam":"SECOND CONNECTICUT LAKE","Latitude":"45.13640","Longitude":"-71.20140","Snowdepth":"30.200","Units":"in","Rept_Date":"2020-02-19 19"},"coordinates":[6111,3955]},{"type":"Point","properties":{"Station_ID":"IWOM4","Station_Nam":"IRONWOOD#2","Latitude":"46.46520","Longitude":"-90.13820","Snowdepth":"30.000","Units":"in","Rept_Date":"2020-02-19 13"},"coordinates":[1666,5174]},{"type":"Point","properties":{"Station_ID":"HURW3","Station_Nam":"HURLEY","Latitude":"46.46250","Longitude":"-90.19550","Snowdepth":"30.000","Units":"in","Rept_Date":"2020-02-19 14"},"coordinates":[1653,5171]},{"type":"Point","properties":{"Station_ID":"CRVW3","Station_Nam":"CRIVITZ HIGH FALLS","Latitude":"45.35750","Longitude":"-88.19190","Snowdepth":"30.000","Units":"in","Rept_Date":"2020-02-19 13"},"coordinates":[2123,4158]},{"type":"Point","properties":{"Station_ID":"BABM5","Station_Nam":"BABBITT","Latitude":"47.71210","Longitude":"-91.95330","Snowdepth":"30.000","Units":"in","Rept_Date":"2020-02-19 13"},"coordinates":[1240,6317]},{"type":"Point","properties":{"Station_ID":"PTLQ6","Station_Nam":"PORTAGE LAKE","Latitude":"49.06950","Longitude":"-86.65940","Snowdepth":"29.680","Units":"in","Rept_Date":"2020-02-20 06"},"coordinates":[2483,7562]},{"type":"Point","properties":{"Station_ID":"MSNN6","Station_Nam":"MASON LAKE","Latitude":"43.60330","Longitude":"-74.42170","Snowdepth":"29.600","Units":"in","Rept_Date":"2020-02-19 17"},"coordinates":[5355,2549]},{"type":"Point","properties":{"Station_ID":"WI-VL-10","Station_Nam":"LAND O LAKES 4.3 WNW, WI","Latitude":"46.17440","Longitude":"-89.30380","Snowdepth":"29.500","Units":"in","Rept_Date":"2020-02-19 13"},"coordinates":[1862,4907]},{"type":"Point","properties":{"Station_ID":"VT-OL-1","Station_Nam":"WESTFIELD 0.7 WNW, VT","Latitude":"44.89160","Longitude":"-72.44350","Snowdepth":"29.500","Units":"in","Rept_Date":"2020-02-19 12"},"coordinates":[5819,3731]},{"type":"Point","properties":{"Station_ID":"MI-MQ-19","Station_Nam":"ISHPEMING 7.2 SW, MI","Latitude":"46.40550","Longitude":"-87.75670","Snowdepth":"29.000","Units":"in","Rept_Date":"2020-02-19 11"},"coordinates":[2225,5119]},{"type":"Point","properties":{"Station_ID":"WI-VL-9","Station_Nam":"LAND O' LAKES 11.7 W, WI","Latitude":"46.19023","Longitude":"-89.45790","Snowdepth":"28.000","Units":"in","Rept_Date":"2020-02-19 13"},"coordinates":[1826,4922]},{"type":"Point","properties":{"Station_ID":"STGW3","Station_Nam":"ST GERMAIN","Latitude":"45.91550","Longitude":"-89.48940","Snowdepth":"28.000","Units":"in","Rept_Date":"2020-02-19 12"},"coordinates":[1819,4670]},{"type":"Point","properties":{"Station_ID":"PDGM4","Station_Nam":"PAULDING","Latitude":"46.39760","Longitude":"-89.17940","Snowdepth":"28.000","Units":"in","Rept_Date":"2020-02-19 16"},"coordinates":[1891,5112]},{"type":"Point","properties":{"Station_ID":"OCNW3","Station_Nam":"OCONTO 4 W","Latitude":"44.89190","Longitude":"-87.95500","Snowdepth":"28.000","Units":"in","Rept_Date":"2020-02-19 13"},"coordinates":[2179,3731]},{"type":"Point","properties":{"Station_ID":"LNOW3","Station_Nam":"LAND O LAKES","Latitude":"46.19000","Longitude":"-89.45700","Snowdepth":"28.000","Units":"in","Rept_Date":"2020-02-19 13"},"coordinates":[1826,4921]},{"type":"Point","properties":{"Station_ID":"JAYV1","Station_Nam":"JAY PEAK","Latitude":"44.93830","Longitude":"-72.50490","Snowdepth":"28.000","Units":"in","Rept_Date":"2020-02-19 23"},"coordinates":[5805,3773]},{"type":"Point","properties":{"Station_ID":"GNLM4","Station_Nam":"GREENLAND 6N","Latitude":"46.87360","Longitude":"-89.10060","Snowdepth":"28.000","Units":"in","Rept_Date":"2020-02-19 13"},"coordinates":[1910,5548]},{"type":"Point","properties":{"Station_ID":"EVRW3","Station_Nam":"EAGLE RIVER-4 E","Latitude":"45.91890","Longitude":"-89.15280","Snowdepth":"28.000","Units":"in","Rept_Date":"2020-02-19 12"},"coordinates":[1898,4673]},{"type":"Point","properties":{"Station_ID":"ERI11","Station_Nam":"HRRD CHARLEY LAKE","Latitude":"43.43000","Longitude":"-74.32000","Snowdepth":"28.000","Units":"in","Rept_Date":"2020-02-19 17"},"coordinates":[5379,2390]},{"type":"Point","properties":{"Station_ID":"EAHV1","Station_Nam":"EAST HAVEN","Latitude":"44.64250","Longitude":"-71.89120","Snowdepth":"28.000","Units":"in","Rept_Date":"2020-02-19 12"},"coordinates":[5949,3502]},{"type":"Point","properties":{"Station_ID":"CHYN6","Station_Nam":"CHARLEY LAKE","Latitude":"43.43330","Longitude":"-74.31580","Snowdepth":"28.000","Units":"in","Rept_Date":"2020-02-19 17"},"coordinates":[5380,2393]},{"type":"Point","properties":{"Station_ID":"BBEM4","Station_Nam":"BIG BAY 9SW","Latitude":"46.74620","Longitude":"-87.88160","Snowdepth":"28.000","Units":"in","Rept_Date":"2020-02-19 13"},"coordinates":[2196,5431]},{"type":"Point","properties":{"Station_ID":"CAN-NB-96","Station_Nam":"SAINT-IGNACE 2.6 NE, CAN","Latitude":"46.71424","Longitude":"-65.05609","Snowdepth":"27.200","Units":"in","Rept_Date":"2020-02-19 11"},"coordinates":[7553,5402]},{"type":"Point","properties":{"Station_ID":"WI-OC-1","Station_Nam":"MOUNTAIN 1.1 SW, WI","Latitude":"45.17239","Longitude":"-88.48990","Snowdepth":"27.000","Units":"in","Rept_Date":"2020-02-19 13"},"coordinates":[2053,3988]},{"type":"Point","properties":{"Station_ID":"VT-ES-1","Station_Nam":"GRANBY 1.4 NW, VT","Latitude":"44.58330","Longitude":"-71.77870","Snowdepth":"27.000","Units":"in","Rept_Date":"2020-02-19 12"},"coordinates":[5975,3448]},{"type":"Point","properties":{"Station_ID":"MOUW3","Station_Nam":"MOUNTAIN 1 SW","Latitude":"45.17220","Longitude":"-88.49390","Snowdepth":"27.000","Units":"in","Rept_Date":"2020-02-19 13"},"coordinates":[2052,3988]},{"type":"Point","properties":{"Station_ID":"ME-AR-15","Station_Nam":"PRESQUE ISLE 1.3 WSW, ME","Latitude":"46.67960","Longitude":"-68.01270","Snowdepth":"27.000","Units":"in","Rept_Date":"2020-02-19 12"},"coordinates":[6859,5370]},{"type":"Point","properties":{"Station_ID":"ISLV1","Station_Nam":"ISLAND POND","Latitude":"44.81280","Longitude":"-71.89020","Snowdepth":"27.000","Units":"in","Rept_Date":"2020-02-19 15"},"coordinates":[5949,3658]},{"type":"Point","properties":{"Station_ID":"CARM1","Station_Nam":"CARIBOU WFO","Latitude":"46.86810","Longitude":"-68.01250","Snowdepth":"27.000","Units":"in","Rept_Date":"2020-02-20 05"},"coordinates":[6859,5543]},{"type":"Point","properties":{"Station_ID":"BNDM5","Station_Nam":"ELY 25E","Latitude":"47.97190","Longitude":"-91.44860","Snowdepth":"27.000","Units":"in","Rept_Date":"2020-02-19 13"},"coordinates":[1359,6555]},{"type":"Point","properties":{"Station_ID":"ERI03","Station_Nam":"HRRD BAKERS MILLS","Latitude":"43.60000","Longitude":"-74.07000","Snowdepth":"26.600","Units":"in","Rept_Date":"2020-02-19 17"},"coordinates":[5438,2546]},{"type":"Point","properties":{"Station_ID":"BKMN6","Station_Nam":"BAKERS MILLS","Latitude":"43.64720","Longitude":"-74.06110","Snowdepth":"26.600","Units":"in","Rept_Date":"2020-02-19 17"},"coordinates":[5440,2589]},{"type":"Point","properties":{"Station_ID":"VT-CL-18","Station_Nam":"WHEELOCK 1.6 S, VT","Latitude":"44.56491","Longitude":"-72.08830","Snowdepth":"26.500","Units":"in","Rept_Date":"2020-02-19 12"},"coordinates":[5903,3431]},{"type":"Point","properties":{"Station_ID":"ME-PN-45","Station_Nam":"MILLINOCKET 2.7 ESE, ME","Latitude":"45.65002","Longitude":"-68.64472","Snowdepth":"26.500","Units":"in","Rept_Date":"2020-02-19 12"},"coordinates":[6711,4426]},{"type":"Point","properties":{"Station_ID":"TRIQ6","Station_Nam":"TRIO LAKE","Latitude":"49.22880","Longitude":"-87.22920","Snowdepth":"26.420","Units":"in","Rept_Date":"2020-02-20 06"},"coordinates":[2349,7708]},{"type":"Point","properties":{"Station_ID":"LPSN6","Station_Nam":"LAKE PLEASANT","Latitude":"43.47080","Longitude":"-74.41670","Snowdepth":"26.200","Units":"in","Rept_Date":"2020-02-19 17"},"coordinates":[5356,2428]},{"type":"Point","properties":{"Station_ID":"ERI28","Station_Nam":"HRRD LAKE PLEASNAT","Latitude":"43.47000","Longitude":"-74.42000","Snowdepth":"26.200","Units":"in","Rept_Date":"2020-02-19 17"},"coordinates":[5355,2427]},{"type":"Point","properties":{"Station_ID":"WI-WB-2","Station_Nam":"STONE LAKE 2.0 NW, WI","Latitude":"45.85960","Longitude":"-91.57710","Snowdepth":"26.000","Units":"in","Rept_Date":"2020-02-19 13"},"coordinates":[1329,4618]},{"type":"Point","properties":{"Station_ID":"VT-BN-12","Station_Nam":"STAMFORD 5.0 NNE, VT","Latitude":"42.82000","Longitude":"-73.02000","Snowdepth":"26.000","Units":"in","Rept_Date":"2020-02-19 21"},"coordinates":[5684,1831]},{"type":"Point","properties":{"Station_ID":"VANM1","Station_Nam":"VAN BUREN","Latitude":"47.16600","Longitude":"-67.93900","Snowdepth":"26.000","Units":"in","Rept_Date":"2020-02-19 13"},"coordinates":[6876,5816]},{"type":"Point","properties":{"Station_ID":"SUAW3","Station_Nam":"SUAMICO","Latitude":"44.60190","Longitude":"-88.09780","Snowdepth":"26.000","Units":"in","Rept_Date":"2020-02-19 12"},"coordinates":[2145,3465]},{"type":"Point","properties":{"Station_ID":"NSNM1","Station_Nam":"NEW SHARON","Latitude":"44.63330","Longitude":"-70.00000","Snowdepth":"26.000","Units":"in","Rept_Date":"2020-02-19 12"},"coordinates":[6393,3494]},{"type":"Point","properties":{"Station_ID":"NH-CR-15","Station_Nam":"JACKSON 3.7 NW, NH","Latitude":"44.19069","Longitude":"-71.22598","Snowdepth":"26.000","Units":"in","Rept_Date":"2020-02-19 12"},"coordinates":[6105,3088]},{"type":"Point","properties":{"Station_ID":"NH-CR-11","Station_Nam":"NORTH CONWAY 1.4 SSW, NH","Latitude":"44.03556","Longitude":"-71.14010","Snowdepth":"26.000","Units":"in","Rept_Date":"2020-02-19 12"},"coordinates":[6125,2946]},{"type":"Point","properties":{"Station_ID":"MN7TCHCK","Station_Nam":"COOK 0.2 ENE","Latitude":"47.85225","Longitude":"-92.68378","Snowdepth":"26.000","Units":"in","Rept_Date":"2020-02-19 10"},"coordinates":[1069,6446]},{"type":"Point","properties":{"Station_ID":"MAIW3","Station_Nam":"MADELINE ISLAND","Latitude":"46.78330","Longitude":"-90.76670","Snowdepth":"26.000","Units":"in","Rept_Date":"2020-02-19 14"},"coordinates":[1519,5465]},{"type":"Point","properties":{"Station_ID":"LPLN6","Station_Nam":"LAKE PLACID 2 S","Latitude":"44.30420","Longitude":"-73.98390","Snowdepth":"26.000","Units":"in","Rept_Date":"2020-02-19 13"},"coordinates":[5458,3192]},{"type":"Point","properties":{"Station_ID":"HUBN3","Station_Nam":"HUBBARD BROOK","Latitude":"43.93330","Longitude":"-71.71670","Snowdepth":"26.000","Units":"in","Rept_Date":"2020-02-19 07"},"coordinates":[5990,2852]},{"type":"Point","properties":{"Station_ID":"GHMN3","Station_Nam":"PINKHAM NOTCH","Latitude":"44.25800","Longitude":"-71.25250","Snowdepth":"26.000","Units":"in","Rept_Date":"2020-02-19 11"},"coordinates":[6099,3150]},{"type":"Point","properties":{"Station_ID":"FLNW3","Station_Nam":"FLORENCE","Latitude":"45.93360","Longitude":"-88.25830","Snowdepth":"26.000","Units":"in","Rept_Date":"2020-02-19 13"},"coordinates":[2108,4686]},{"type":"Point","properties":{"Station_ID":"EDEV1","Station_Nam":"EDEN","Latitude":"44.71110","Longitude":"-72.54920","Snowdepth":"26.000","Units":"in","Rept_Date":"2020-02-19 23"},"coordinates":[5794,3565]},{"type":"Point","properties":{"Station_ID":"COKM5","Station_Nam":"COOK","Latitude":"47.85060","Longitude":"-92.69250","Snowdepth":"26.000","Units":"in","Rept_Date":"2020-02-19 10"},"coordinates":[1067,6444]},{"type":"Point","properties":{"Station_ID":"CLQM5","Station_Nam":"CLOQUET","Latitude":"46.70470","Longitude":"-92.52530","Snowdepth":"26.000","Units":"in","Rept_Date":"2020-02-19 14"},"coordinates":[1106,5393]},{"type":"Point","properties":{"Station_ID":"AVLV1","Station_Nam":"AVERILL","Latitude":"45.00570","Longitude":"-71.69030","Snowdepth":"26.000","Units":"in","Rept_Date":"2020-02-19 13"},"coordinates":[5996,3835]},{"type":"Point","properties":{"Station_ID":"APPV1","Station_Nam":"APPALACHIAN GAP","Latitude":"44.21060","Longitude":"-72.93170","Snowdepth":"26.000","Units":"in","Rept_Date":"2020-02-19 23"},"coordinates":[5705,3106]},{"type":"Point","properties":{"Station_ID":"ERF05","Station_Nam":"LLBOONVILLE 2SSW (J HILL)","Latitude":"43.43000","Longitude":"-75.35000","Snowdepth":"25.700","Units":"in","Rept_Date":"2020-02-19 17"},"coordinates":[5137,2390]},{"type":"Point","properties":{"Station_ID":"BONN6","Station_Nam":"BOONVILLE SNOW","Latitude":"43.43330","Longitude":"-75.35000","Snowdepth":"25.700","Units":"in","Rept_Date":"2020-02-19 17"},"coordinates":[5137,2393]},{"type":"Point","properties":{"Station_ID":"SVBQ6","Station_Nam":"SAVANT BASE","Latitude":"50.28730","Longitude":"-90.65670","Snowdepth":"25.550","Units":"in","Rept_Date":"2020-02-20 06"},"coordinates":[1545,8679]},{"type":"Point","properties":{"Station_ID":"MI-OT-17","Station_Nam":"GAYLORD 4.1 S, MI","Latitude":"44.96388","Longitude":"-84.68467","Snowdepth":"25.500","Units":"in","Rept_Date":"2020-02-19 12"},"coordinates":[2946,3797]},{"type":"Point","properties":{"Station_ID":"MI-HG-1","Station_Nam":"HOUGHTON 1.6 ESE, MI","Latitude":"47.10774","Longitude":"-88.52940","Snowdepth":"25.500","Units":"in","Rept_Date":"2020-02-19 13"},"coordinates":[2044,5763]},{"type":"Point","properties":{"Station_ID":"CAN-NB-64","Station_Nam":"KESWICK RIDGE 4.0 SE, CAN","Latitude":"45.97014","Longitude":"-66.85538","Snowdepth":"25.400","Units":"in","Rept_Date":"2020-02-19 12"},"coordinates":[7131,4720]},{"type":"Point","properties":{"Station_ID":"WRSM5","Station_Nam":"WRENSHALL","Latitude":"46.61550","Longitude":"-92.38380","Snowdepth":"25.000","Units":"in","Rept_Date":"2020-02-19 14"},"coordinates":[1139,5312]},{"type":"Point","properties":{"Station_ID":"WI-IR-3","Station_Nam":"PENCE 0.1 E, WI","Latitude":"46.41555","Longitude":"-90.27013","Snowdepth":"25.000","Units":"in","Rept_Date":"2020-02-19 13"},"coordinates":[1635,5128]},{"type":"Point","properties":{"Station_ID":"WI-BY-14","Station_Nam":"ASHLAND 9.8 W, WI","Latitude":"46.59742","Longitude":"-91.07856","Snowdepth":"25.000","Units":"in","Rept_Date":"2020-02-19 12"},"coordinates":[1446,5295]},{"type":"Point","properties":{"Station_ID":"TOGM5","Station_Nam":"CELINA 2E","Latitude":"47.86630","Longitude":"-93.02660","Snowdepth":"25.000","Units":"in","Rept_Date":"2020-02-19 14"},"coordinates":[989,6459]},{"type":"Point","properties":{"Station_ID":"ROXV1","Station_Nam":"ROXBURY GAP","Latitude":"44.10950","Longitude":"-72.78750","Snowdepth":"25.000","Units":"in","Rept_Date":"2020-02-19 23"},"coordinates":[5739,3013]},{"type":"Point","properties":{"Station_ID":"NH-CR-26","Station_Nam":"CENTER SANDWICH 4.9 E, NH","Latitude":"43.80976","Longitude":"-71.34150","Snowdepth":"25.000","Units":"in","Rept_Date":"2020-02-19 12"},"coordinates":[6078,2738]},{"type":"Point","properties":{"Station_ID":"MN-SL-15","Station_Nam":"CHISHOLM 0.4 WSW, MN","Latitude":"47.48557","Longitude":"-92.88690","Snowdepth":"25.000","Units":"in","Rept_Date":"2020-02-19 13"},"coordinates":[1021,6109]},{"type":"Point","properties":{"Station_ID":"MN-SL-108","Station_Nam":"IRON JUNCTION 3.4 NNW, MN","Latitude":"47.46150","Longitude":"-92.63130","Snowdepth":"25.000","Units":"in","Rept_Date":"2020-02-19 12"},"coordinates":[1081,6087]},{"type":"Point","properties":{"Station_ID":"MN-IT-23","Station_Nam":"BOVEY 13.4 N, MN","Latitude":"47.48855","Longitude":"-93.43497","Snowdepth":"25.000","Units":"in","Rept_Date":"2020-02-19 13"},"coordinates":[893,6112]},{"type":"Point","properties":{"Station_ID":"MN-IT-17","Station_Nam":"GRAND RAPIDS 6.1 N, MN","Latitude":"47.31165","Longitude":"-93.55036","Snowdepth":"25.000","Units":"in","Rept_Date":"2020-02-19 13"},"coordinates":[866,5950]},{"type":"Point","properties":{"Station_ID":"MN-CK-18","Station_Nam":"GRAND MARAIS 4.4 WSW, MN","Latitude":"47.74462","Longitude":"-90.43796","Snowdepth":"25.000","Units":"in","Rept_Date":"2020-02-19 13"},"coordinates":[1596,6347]},{"type":"Point","properties":{"Station_ID":"MMSN6","Station_Nam":"MCCAULEY MOUNTAIN","Latitude":"43.69720","Longitude":"-74.96500","Snowdepth":"25.000","Units":"in","Rept_Date":"2020-02-19 17"},"coordinates":[5227,2635]},{"type":"Point","properties":{"Station_ID":"LBKV1","Station_Nam":"LYE BROOK","Latitude":"43.05000","Longitude":"-73.03330","Snowdepth":"25.000","Units":"in","Rept_Date":"2020-02-20 06"},"coordinates":[5681,2042]},{"type":"Point","properties":{"Station_ID":"ESDN3","Station_Nam":"EAST SANDWICH","Latitude":"43.80990","Longitude":"-71.34250","Snowdepth":"25.000","Units":"in","Rept_Date":"2020-02-19 11"},"coordinates":[6078,2739]},{"type":"Point","properties":{"Station_ID":"DLHM5","Station_Nam":"DULUTH NWS","Latitude":"46.83680","Longitude":"-92.21080","Snowdepth":"25.000","Units":"in","Rept_Date":"2020-02-20 06"},"coordinates":[1180,5514]},{"type":"Point","properties":{"Station_ID":"DLH","Station_Nam":"DULUTH, MN","Latitude":"46.83690","Longitude":"-92.21030","Snowdepth":"25.000","Units":"in","Rept_Date":"2020-02-20 00"},"coordinates":[1180,5515]},{"type":"Point","properties":{"Station_ID":"CORV1","Station_Nam":"CORINTH","Latitude":"44.00690","Longitude":"-72.31940","Snowdepth":"25.000","Units":"in","Rept_Date":"2020-02-19 12"},"coordinates":[5848,2919]},{"type":"Point","properties":{"Station_ID":"CAN-NS-60","Station_Nam":"SYDNEY FORKS, CAN","Latitude":"46.05645","Longitude":"-60.31510","Snowdepth":"25.000","Units":"in","Rept_Date":"2020-02-19 13"},"coordinates":[8666,4799]},{"type":"Point","properties":{"Station_ID":"CAN-NB-13","Station_Nam":"BATHURST 3.8 NW, CAN","Latitude":"47.64212","Longitude":"-65.68756","Snowdepth":"25.000","Units":"in","Rept_Date":"2020-02-19 09"},"coordinates":[7405,6253]},{"type":"Point","properties":{"Station_ID":"GFNN6","Station_Nam":"GRIFFIN","Latitude":"43.46670","Longitude":"-74.21670","Snowdepth":"24.800","Units":"in","Rept_Date":"2020-02-19 17"},"coordinates":[5403,2424]},{"type":"Point","properties":{"Station_ID":"ERI21","Station_Nam":"HRRD GRIFFIN","Latitude":"43.47000","Longitude":"-74.22000","Snowdepth":"24.800","Units":"in","Rept_Date":"2020-02-19 17"},"coordinates":[5402,2427]},{"type":"Point","properties":{"Station_ID":"CAN-ON-526","Station_Nam":"HILTON BEACH 0.7 SW - MNRF, CAN","Latitude":"46.25357","Longitude":"-83.90014","Snowdepth":"24.800","Units":"in","Rept_Date":"2020-02-19 12"},"coordinates":[3130,4980]},{"type":"Point","properties":{"Station_ID":"FNLN3","Station_Nam":"FIRST CONNECTICUT LAKE","Latitude":"45.08500","Longitude":"-71.30670","Snowdepth":"24.700","Units":"in","Rept_Date":"2020-02-19 19"},"coordinates":[6086,3908]},{"type":"Point","properties":{"Station_ID":"CAN-NB-2","Station_Nam":"GRAFTON 2.7 NNE, CA","Latitude":"46.17062","Longitude":"-67.55330","Snowdepth":"24.500","Units":"in","Rept_Date":"2020-02-19 11"},"coordinates":[6967,4904]},{"type":"Point","properties":{"Station_ID":"CAN-NB-18","Station_Nam":"MCLEOD HILL 1.1 ENE, CA","Latitude":"46.02725","Longitude":"-66.67460","Snowdepth":"24.500","Units":"in","Rept_Date":"2020-02-19 12"},"coordinates":[7173,4772]},{"type":"Point","properties":{"Station_ID":"NY-HR-18","Station_Nam":"SALISBURY CENTER 1.8 NW, NY","Latitude":"43.16260","Longitude":"-74.80880","Snowdepth":"24.300","Units":"in","Rept_Date":"2020-02-19 11"},"coordinates":[5264,2145]},{"type":"Point","properties":{"Station_ID":"ERI02","Station_Nam":"HRRD ARIETTA","Latitude":"43.25000","Longitude":"-74.52000","Snowdepth":"24.200","Units":"in","Rept_Date":"2020-02-19 17"},"coordinates":[5332,2225]},{"type":"Point","properties":{"Station_ID":"ARIN6","Station_Nam":"ARIETTA","Latitude":"43.24440","Longitude":"-74.51670","Snowdepth":"24.200","Units":"in","Rept_Date":"2020-02-19 17"},"coordinates":[5333,2220]},{"type":"Point","properties":{"Station_ID":"WTRM4","Station_Nam":"WATERSMEET 12WSW","Latitude":"46.22310","Longitude":"-89.40850","Snowdepth":"24.000","Units":"in","Rept_Date":"2020-02-19 12"},"coordinates":[1838,4952]},{"type":"Point","properties":{"Station_ID":"WNBM5","Station_Nam":"DAM","Latitude":"47.43060","Longitude":"-94.05000","Snowdepth":"24.000","Units":"in","Rept_Date":"2020-02-19 14"},"coordinates":[748,6059]},{"type":"Point","properties":{"Station_ID":"WI-BY-2","Station_Nam":"MELLEN 18.6 SW, WI","Latitude":"46.16937","Longitude":"-90.98090","Snowdepth":"24.000","Units":"in","Rept_Date":"2020-02-19 13"},"coordinates":[1469,4902]},{"type":"Point","properties":{"Station_ID":"VT-OL-2","Station_Nam":"BARTON 3.0 ENE, VT","Latitude":"44.75863","Longitude":"-72.11680","Snowdepth":"24.000","Units":"in","Rept_Date":"2020-02-19 12"},"coordinates":[5896,3609]},{"type":"Point","properties":{"Station_ID":"TWCN6","Station_Nam":"TWITCHELL","Latitude":"43.99940","Longitude":"-74.91920","Snowdepth":"24.000","Units":"in","Rept_Date":"2020-02-19 17"},"coordinates":[5238,2912]},{"type":"Point","properties":{"Station_ID":"TOHM5","Station_Nam":"TWO HARBORS WWTP","Latitude":"47.01760","Longitude":"-91.66480","Snowdepth":"24.000","Units":"in","Rept_Date":"2020-02-19 13"},"coordinates":[1308,5680]},{"type":"Point","properties":{"Station_ID":"PTBN3","Station_Nam":"PITTSBURG RESERVOIR","Latitude":"45.04690","Longitude":"-71.38300","Snowdepth":"24.000","Units":"in","Rept_Date":"2020-02-19 12"},"coordinates":[6068,3873]},{"type":"Point","properties":{"Station_ID":"MN-CK-6","Station_Nam":"GRAND MARAIS 4.4 W, MN","Latitude":"47.74865","Longitude":"-90.43760","Snowdepth":"24.000","Units":"in","Rept_Date":"2020-02-19 13"},"coordinates":[1596,6351]},{"type":"Point","properties":{"Station_ID":"IRMM4","Station_Nam":"WWTP","Latitude":"46.46670","Longitude":"-90.18330","Snowdepth":"24.000","Units":"in","Rept_Date":"2020-02-19 13"},"coordinates":[1656,5175]},{"type":"Point","properties":{"Station_ID":"GGRM4","Station_Nam":"GREEN GARDEN NO.2","Latitude":"46.45330","Longitude":"-87.30380","Snowdepth":"24.000","Units":"in","Rept_Date":"2020-02-19 11"},"coordinates":[2332,5163]},{"type":"Point","properties":{"Station_ID":"FISM1","Station_Nam":"FORT KENT COOP","Latitude":"47.23850","Longitude":"-68.61240","Snowdepth":"24.000","Units":"in","Rept_Date":"2020-02-19 12"},"coordinates":[6718,5883]},{"type":"Point","properties":{"Station_ID":"EGRW3","Station_Nam":"EAGLE RIVER-SOUTH","Latitude":"45.91360","Longitude":"-89.24360","Snowdepth":"24.000","Units":"in","Rept_Date":"2020-02-19 13"},"coordinates":[1876,4668]},{"type":"Point","properties":{"Station_ID":"DFXM1","Station_Nam":"DOVER-FOXCROFT","Latitude":"45.18720","Longitude":"-69.18350","Snowdepth":"24.000","Units":"in","Rept_Date":"2020-02-19 12"},"coordinates":[6584,4002]},{"type":"Point","properties":{"Station_ID":"CMKW3","Station_Nam":"CLAM LAKE 4W","Latitude":"46.16940","Longitude":"-90.98080","Snowdepth":"24.000","Units":"in","Rept_Date":"2020-02-19 13"},"coordinates":[1469,4902]},{"type":"Point","properties":{"Station_ID":"CAN-PE-19","Station_Nam":"CHARLOTTETOWN 6.5 NNW, CAN","Latitude":"46.29235","Longitude":"-63.17271","Snowdepth":"24.000","Units":"in","Rept_Date":"2020-02-19 12"},"coordinates":[7995,5015]},{"type":"Point","properties":{"Station_ID":"BTLN3","Station_Nam":"BARTLETT","Latitude":"44.08380","Longitude":"-71.29340","Snowdepth":"24.000","Units":"in","Rept_Date":"2020-02-19 12"},"coordinates":[6089,2990]},{"type":"Point","properties":{"Station_ID":"BRDM1","Station_Nam":"BRIDGEWATER","Latitude":"46.42870","Longitude":"-67.84370","Snowdepth":"24.000","Units":"in","Rept_Date":"2020-02-19 23"},"coordinates":[6899,5140]},{"type":"Point","properties":{"Station_ID":"AURW3","Station_Nam":"AURORA","Latitude":"45.77000","Longitude":"-88.11810","Snowdepth":"24.000","Units":"in","Rept_Date":"2020-02-19 13"},"coordinates":[2141,4536]},{"type":"Point","properties":{"Station_ID":"ASTW3","Station_Nam":"ATHELSTANE","Latitude":"45.42500","Longitude":"-88.05750","Snowdepth":"24.000","Units":"in","Rept_Date":"2020-02-19 12"},"coordinates":[2155,4220]},{"type":"Point","properties":{"Station_ID":"SKRN6","Station_Nam":"SHAKER PLACE","Latitude":"43.35000","Longitude":"-74.53330","Snowdepth":"23.800","Units":"in","Rept_Date":"2020-02-19 17"},"coordinates":[5329,2317]},{"type":"Point","properties":{"Station_ID":"LWYN6","Station_Nam":"LEWEY LAKE","Latitude":"43.65080","Longitude":"-74.39030","Snowdepth":"23.800","Units":"in","Rept_Date":"2020-02-19 17"},"coordinates":[5362,2593]},{"type":"Point","properties":{"Station_ID":"ERI44","Station_Nam":"HRRD SHAKER PLACE","Latitude":"43.35000","Longitude":"-74.53000","Snowdepth":"23.800","Units":"in","Rept_Date":"2020-02-19 17"},"coordinates":[5330,2317]},{"type":"Point","properties":{"Station_ID":"KABQ6","Station_Nam":"CAB LAKE","Latitude":"49.59950","Longitude":"-89.17990","Snowdepth":"23.540","Units":"in","Rept_Date":"2020-02-20 06"},"coordinates":[1891,8048]},{"type":"Point","properties":{"Station_ID":"VT-BN-3","Station_Nam":"LANDGROVE 1.1 NNE, VT","Latitude":"43.29092","Longitude":"-72.83260","Snowdepth":"23.500","Units":"in","Rept_Date":"2020-02-19 11"},"coordinates":[5728,2263]},{"type":"Point","properties":{"Station_ID":"WVRV1","Station_Nam":"WRIGHTSVILLE DETENTION RESERVOIR","Latitude":"44.31060","Longitude":"-72.57530","Snowdepth":"23.000","Units":"in","Rept_Date":"2020-02-19 23"},"coordinates":[5788,3198]},{"type":"Point","properties":{"Station_ID":"WTRW3","Station_Nam":"WINTER","Latitude":"45.79920","Longitude":"-90.99470","Snowdepth":"23.000","Units":"in","Rept_Date":"2020-02-19 15"},"coordinates":[1465,4563]},{"type":"Point","properties":{"Station_ID":"RSTW3","Station_Nam":"ROSHOLT","Latitude":"44.62710","Longitude":"-89.30600","Snowdepth":"23.000","Units":"in","Rept_Date":"2020-02-19 11"},"coordinates":[1862,3488]},{"type":"Point","properties":{"Station_ID":"RRVM4","Station_Nam":"RAPID RIVER 9S","Latitude":"45.78750","Longitude":"-86.93920","Snowdepth":"23.000","Units":"in","Rept_Date":"2020-02-19 13"},"coordinates":[2417,4552]},{"type":"Point","properties":{"Station_ID":"RPDM4","Station_Nam":"RAPID RIVER 4SSE","Latitude":"45.87270","Longitude":"-86.94960","Snowdepth":"23.000","Units":"in","Rept_Date":"2020-02-19 14"},"coordinates":[2415,4630]},{"type":"Point","properties":{"Station_ID":"RHIW3","Station_Nam":"RHINELANDER","Latitude":"45.59860","Longitude":"-89.45080","Snowdepth":"23.000","Units":"in","Rept_Date":"2020-02-19 13"},"coordinates":[1828,4379]},{"type":"Point","properties":{"Station_ID":"NCON3","Station_Nam":"NORTH CONWAY","Latitude":"44.05620","Longitude":"-71.12970","Snowdepth":"23.000","Units":"in","Rept_Date":"2020-02-19 13"},"coordinates":[6128,2964]},{"type":"Point","properties":{"Station_ID":"MRAM4","Station_Nam":"MORAN","Latitude":"45.99030","Longitude":"-84.83610","Snowdepth":"23.000","Units":"in","Rept_Date":"2020-02-19 13"},"coordinates":[2911,4738]},{"type":"Point","properties":{"Station_ID":"MI-OT-16","Station_Nam":"GAYLORD 2.2 SSE, MI","Latitude":"44.99441","Longitude":"-84.65820","Snowdepth":"23.000","Units":"in","Rept_Date":"2020-02-19 12"},"coordinates":[2953,3825]},{"type":"Point","properties":{"Station_ID":"LNCM1","Station_Nam":"LINCOLN WATER DISTRICT","Latitude":"45.32410","Longitude":"-68.58300","Snowdepth":"23.000","Units":"in","Rept_Date":"2020-02-19 13"},"coordinates":[6725,4127]},{"type":"Point","properties":{"Station_ID":"INDN6","Station_Nam":"INDIAN LAKE","Latitude":"43.75500","Longitude":"-74.27560","Snowdepth":"23.000","Units":"in","Rept_Date":"2020-02-19 11"},"coordinates":[5389,2688]},{"type":"Point","properties":{"Station_ID":"IMNM4","Station_Nam":"IRON MOUTAIN 5N","Latitude":"45.87580","Longitude":"-88.04030","Snowdepth":"23.000","Units":"in","Rept_Date":"2020-02-19 13"},"coordinates":[2159,4633]},{"type":"Point","properties":{"Station_ID":"GMRM5","Station_Nam":"GRAND MARIAS WATER TREATMENT PLANT","Latitude":"47.75180","Longitude":"-90.32820","Snowdepth":"23.000","Units":"in","Rept_Date":"2020-02-19 14"},"coordinates":[1622,6354]},{"type":"Point","properties":{"Station_ID":"ESGM1","Station_Nam":"EAST SANGERVILLE","Latitude":"45.13690","Longitude":"-69.28060","Snowdepth":"23.000","Units":"in","Rept_Date":"2020-02-19 12"},"coordinates":[6562,3956]},{"type":"Point","properties":{"Station_ID":"AROM4","Station_Nam":"ARNOLD,MI","Latitude":"46.06670","Longitude":"-87.48330","Snowdepth":"23.000","Units":"in","Rept_Date":"2020-02-19 13"},"coordinates":[2290,4808]},{"type":"Point","properties":{"Station_ID":"AMAM4","Station_Nam":"AMASA 1W","Latitude":"46.23470","Longitude":"-88.45440","Snowdepth":"23.000","Units":"in","Rept_Date":"2020-02-19 14"},"coordinates":[2062,4962]},{"type":"Point","properties":{"Station_ID":"ME-OX-2","Station_Nam":"HARTFORD 1.4 N, ME","Latitude":"44.39318","Longitude":"-70.34760","Snowdepth":"22.500","Units":"in","Rept_Date":"2020-02-19 12"},"coordinates":[6311,3274]},{"type":"Point","properties":{"Station_ID":"WTLN6","Station_Nam":"WHITAKER LAKE","Latitude":"43.56470","Longitude":"-74.38110","Snowdepth":"22.200","Units":"in","Rept_Date":"2020-02-19 17"},"coordinates":[5364,2514]},{"type":"Point","properties":{"Station_ID":"WI-BY-22","Station_Nam":"MASON 11.5 WNW, WI","Latitude":"46.50198","Longitude":"-91.28339","Snowdepth":"22.000","Units":"in","Rept_Date":"2020-02-19 14"},"coordinates":[1398,5207]},{"type":"Point","properties":{"Station_ID":"VT-OL-9","Station_Nam":"GREENSBORO 2.1 NNW, VT","Latitude":"44.60528","Longitude":"-72.30940","Snowdepth":"22.000","Units":"in","Rept_Date":"2020-02-19 12"},"coordinates":[5851,3468]},{"type":"Point","properties":{"Station_ID":"VT-CL-14","Station_Nam":"LYNDONVILLE 1.1 W, VT","Latitude":"44.53582","Longitude":"-72.02867","Snowdepth":"22.000","Units":"in","Rept_Date":"2020-02-19 12"},"coordinates":[5917,3404]},{"type":"Point","properties":{"Station_ID":"SULW3","Station_Nam":"SUMMIT LAKE","Latitude":"45.37880","Longitude":"-89.19410","Snowdepth":"22.000","Units":"in","Rept_Date":"2020-02-19 11"},"coordinates":[1888,4177]},{"type":"Point","properties":{"Station_ID":"SSMM4","Station_Nam":"SAULT STE MARIE","Latitude":"46.48660","Longitude":"-84.40250","Snowdepth":"22.000","Units":"in","Rept_Date":"2020-02-19 13"},"coordinates":[3013,5193]},{"type":"Point","properties":{"Station_ID":"RGNM1","Station_Nam":"RANGELEY 2NW","Latitude":"44.98940","Longitude":"-70.67220","Snowdepth":"22.000","Units":"in","Rept_Date":"2020-02-19 12"},"coordinates":[6235,3820]},{"type":"Point","properties":{"Station_ID":"PKGM5","Station_Nam":"POKEGANA LK DAM","Latitude":"47.25080","Longitude":"-93.58610","Snowdepth":"22.000","Units":"in","Rept_Date":"2020-02-19 14"},"coordinates":[857,5894]},{"type":"Point","properties":{"Station_ID":"NY-OD-2","Station_Nam":"POINT ROCK 0.6 SE, NY","Latitude":"43.37335","Longitude":"-75.53840","Snowdepth":"22.000","Units":"in","Rept_Date":"2020-02-19 13"},"coordinates":[5093,2338]},{"type":"Point","properties":{"Station_ID":"NUMN3","Station_Nam":"NORTHUMBERLAND","Latitude":"44.52830","Longitude":"-71.50440","Snowdepth":"22.000","Units":"in","Rept_Date":"2020-02-19 13"},"coordinates":[6040,3397]},{"type":"Point","properties":{"Station_ID":"NSOM1","Station_Nam":"NORTH SEBAGO","Latitude":"43.87920","Longitude":"-70.63140","Snowdepth":"22.000","Units":"in","Rept_Date":"2020-02-19 17"},"coordinates":[6245,2802]},{"type":"Point","properties":{"Station_ID":"MTQM4","Station_Nam":"MANISTIQUE WWTP","Latitude":"45.95120","Longitude":"-86.25130","Snowdepth":"22.000","Units":"in","Rept_Date":"2020-02-19 12"},"coordinates":[2579,4702]},{"type":"Point","properties":{"Station_ID":"MN-IT-1","Station_Nam":"GRAND RAPIDS 2.0 E, MN","Latitude":"47.22266","Longitude":"-93.49600","Snowdepth":"22.000","Units":"in","Rept_Date":"2020-02-19 12"},"coordinates":[878,5868]},{"type":"Point","properties":{"Station_ID":"LILM1","Station_Nam":"LILLE","Latitude":"47.27770","Longitude":"-68.10520","Snowdepth":"22.000","Units":"in","Rept_Date":"2020-02-19 12"},"coordinates":[6837,5919]},{"type":"Point","properties":{"Station_ID":"KINM1","Station_Nam":"KINGFIELD","Latitude":"44.95950","Longitude":"-70.17530","Snowdepth":"22.000","Units":"in","Rept_Date":"2020-02-19 14"},"coordinates":[6352,3793]},{"type":"Point","properties":{"Station_ID":"KABM5","Station_Nam":"KABETOGAMA LAKE VISITOR CTR","Latitude":"48.40880","Longitude":"-93.04840","Snowdepth":"22.000","Units":"in","Rept_Date":"2020-02-19 13"},"coordinates":[983,6956]},{"type":"Point","properties":{"Station_ID":"HRSN6","Station_Nam":"HORSESHOE LAKE SNOW COURSE","Latitude":"44.13920","Longitude":"-74.57000","Snowdepth":"22.000","Units":"in","Rept_Date":"2020-02-19 17"},"coordinates":[5320,3041]},{"type":"Point","properties":{"Station_ID":"FARM1","Station_Nam":"FARMINGTON","Latitude":"44.68930","Longitude":"-70.15640","Snowdepth":"22.000","Units":"in","Rept_Date":"2020-02-19 12"},"coordinates":[6356,3545]},{"type":"Point","properties":{"Station_ID":"ERG18","Station_Nam":"NMPS HORSESHOE LAKE","Latitude":"44.15000","Longitude":"-74.60000","Snowdepth":"22.000","Units":"in","Rept_Date":"2020-02-19 17"},"coordinates":[5313,3051]},{"type":"Point","properties":{"Station_ID":"EMBM5","Station_Nam":"EMBARASS,MN","Latitude":"47.65810","Longitude":"-92.19580","Snowdepth":"22.000","Units":"in","Rept_Date":"2020-02-19 12"},"coordinates":[1184,6268]},{"type":"Point","properties":{"Station_ID":"ELYM5","Station_Nam":"ELY","Latitude":"47.90560","Longitude":"-91.82830","Snowdepth":"22.000","Units":"in","Rept_Date":"2020-02-19 16"},"coordinates":[1270,6495]},{"type":"Point","properties":{"Station_ID":"CSLM5","Station_Nam":"CASS LAKE,MN","Latitude":"47.38470","Longitude":"-94.61470","Snowdepth":"22.000","Units":"in","Rept_Date":"2020-02-19 14"},"coordinates":[616,6017]},{"type":"Point","properties":{"Station_ID":"CEFM4","Station_Nam":"EXPERIMENT FARM #2","Latitude":"46.33330","Longitude":"-86.91670","Snowdepth":"22.000","Units":"in","Rept_Date":"2020-02-19 13"},"coordinates":[2422,5053]},{"type":"Point","properties":{"Station_ID":"AWXW3","Station_Nam":"ASHLAND","Latitude":"46.58240","Longitude":"-90.88390","Snowdepth":"22.000","Units":"in","Rept_Date":"2020-02-19 13"},"coordinates":[1491,5281]},{"type":"Point","properties":{"Station_ID":"AVTW3","Station_Nam":"ARBOR VITAE-JOHNSON LAKE","Latitude":"45.89940","Longitude":"-89.72670","Snowdepth":"22.000","Units":"in","Rept_Date":"2020-02-19 12"},"coordinates":[1763,4655]},{"type":"Point","properties":{"Station_ID":"ANJM4","Station_Nam":"SNOW PAID OBSERVER FOR KANJ","Latitude":"46.48670","Longitude":"-84.40260","Snowdepth":"22.000","Units":"in","Rept_Date":"2020-02-20 06"},"coordinates":[3013,5193]},{"type":"Point","properties":{"Station_ID":"ANJ","Station_Nam":"SAULT STE MARIE","Latitude":"46.46670","Longitude":"-84.36670","Snowdepth":"22.000","Units":"in","Rept_Date":"2020-02-19 12"},"coordinates":[3021,5175]},{"type":"Point","properties":{"Station_ID":"AGNW3","Station_Nam":"ARGONNE-1.5 NW","Latitude":"45.67360","Longitude":"-88.90380","Snowdepth":"22.000","Units":"in","Rept_Date":"2020-02-19 13"},"coordinates":[1956,4448]},{"type":"Point","properties":{"Station_ID":"PCRN6","Station_Nam":"PETERS CORNERS","Latitude":"43.16530","Longitude":"-74.40560","Snowdepth":"21.800","Units":"in","Rept_Date":"2020-02-19 17"},"coordinates":[5359,2147]},{"type":"Point","properties":{"Station_ID":"ERI37","Station_Nam":"HRRD PETERS CORNERS","Latitude":"43.17000","Longitude":"-74.40000","Snowdepth":"21.800","Units":"in","Rept_Date":"2020-02-19 17"},"coordinates":[5360,2152]},{"type":"Point","properties":{"Station_ID":"WI-AS-4","Station_Nam":"ASHLAND 0.5 WNW, WI","Latitude":"46.58240","Longitude":"-90.88390","Snowdepth":"21.500","Units":"in","Rept_Date":"2020-02-19 13"},"coordinates":[1491,5281]},{"type":"Point","properties":{"Station_ID":"VT-WS-30","Station_Nam":"WOODBURY 3.4 NNW, VT","Latitude":"44.48825","Longitude":"-72.43258","Snowdepth":"21.500","Units":"in","Rept_Date":"2020-02-19 12"},"coordinates":[5822,3361]},{"type":"Point","properties":{"Station_ID":"SOCQ6","Station_Nam":"SOCKET LAKE","Latitude":"50.77870","Longitude":"-91.79300","Snowdepth":"21.460","Units":"in","Rept_Date":"2020-02-20 06"},"coordinates":[1278,9129]},{"type":"Point","properties":{"Station_ID":"WTNM4","Station_Nam":"WATTON 2WSW","Latitude":"46.52660","Longitude":"-88.64240","Snowdepth":"21.000","Units":"in","Rept_Date":"2020-02-19 13"},"coordinates":[2017,5230]},{"type":"Point","properties":{"Station_ID":"WLKW3","Station_Nam":"WHITE LAKE 1 SE","Latitude":"45.14520","Longitude":"-88.74160","Snowdepth":"21.000","Units":"in","Rept_Date":"2020-02-19 14"},"coordinates":[1994,3963]},{"type":"Point","properties":{"Station_ID":"SWSN6","Station_Nam":"STILLWATER RESERVOIR AREA","Latitude":"43.90000","Longitude":"-75.03330","Snowdepth":"21.000","Units":"in","Rept_Date":"2020-02-19 17"},"coordinates":[5211,2821]},{"type":"Point","properties":{"Station_ID":"SHIW3","Station_Nam":"SHIOCTON","Latitude":"44.43890","Longitude":"-88.58390","Snowdepth":"21.000","Units":"in","Rept_Date":"2020-02-19 15"},"coordinates":[2031,3315]},{"type":"Point","properties":{"Station_ID":"SAUW3","Station_Nam":"WAUSAU WSAW TV","Latitude":"44.94630","Longitude":"-89.62220","Snowdepth":"21.000","Units":"in","Rept_Date":"2020-02-20 04"},"coordinates":[1788,3781]},{"type":"Point","properties":{"Station_ID":"RHLW3","Station_Nam":"RHINELANDER 4NE","Latitude":"45.65270","Longitude":"-89.30740","Snowdepth":"21.000","Units":"in","Rept_Date":"2020-02-19 12"},"coordinates":[1861,4429]},{"type":"Point","properties":{"Station_ID":"PELW3","Station_Nam":"PELLA 3SE","Latitude":"44.73580","Longitude":"-88.73780","Snowdepth":"21.000","Units":"in","Rept_Date":"2020-02-19 11"},"coordinates":[1995,3588]},{"type":"Point","properties":{"Station_ID":"PEKN6","Station_Nam":"PECK LAKE","Latitude":"43.11500","Longitude":"-74.42360","Snowdepth":"21.000","Units":"in","Rept_Date":"2020-02-19 13"},"coordinates":[5355,2101]},{"type":"Point","properties":{"Station_ID":"NY-FK-9","Station_Nam":"GABRIELS 1.3 SE, NY","Latitude":"44.41934","Longitude":"-74.16194","Snowdepth":"21.000","Units":"in","Rept_Date":"2020-02-19 12"},"coordinates":[5416,3298]},{"type":"Point","properties":{"Station_ID":"NY-ES-6","Station_Nam":"OLMSTEDVILLE 4.6 NNE, NY","Latitude":"43.83350","Longitude":"-73.89780","Snowdepth":"21.000","Units":"in","Rept_Date":"2020-02-19 13"},"coordinates":[5478,2760]},{"type":"Point","properties":{"Station_ID":"NH-GR-49","Station_Nam":"PLYMOUTH 3.7 N, NH","Latitude":"43.79048","Longitude":"-71.68413","Snowdepth":"21.000","Units":"in","Rept_Date":"2020-02-19 12"},"coordinates":[5997,2721]},{"type":"Point","properties":{"Station_ID":"NCBN6","Station_Nam":"NEWCOMB","Latitude":"43.97070","Longitude":"-74.22200","Snowdepth":"21.000","Units":"in","Rept_Date":"2020-02-19 12"},"coordinates":[5402,2886]},{"type":"Point","properties":{"Station_ID":"ME-FR-4","Station_Nam":"NEW SHARON 2.0 NW, ME","Latitude":"44.66582","Longitude":"-70.02720","Snowdepth":"21.000","Units":"in","Rept_Date":"2020-02-19 12"},"coordinates":[6386,3524]},{"type":"Point","properties":{"Station_ID":"LEIM5","Station_Nam":"ORR 3E","Latitude":"48.05810","Longitude":"-92.75220","Snowdepth":"21.000","Units":"in","Rept_Date":"2020-02-19 12"},"coordinates":[1053,6634]},{"type":"Point","properties":{"Station_ID":"ERF27","Station_Nam":"BRRD STILLWATER RES N/S","Latitude":"43.90000","Longitude":"-75.05000","Snowdepth":"21.000","Units":"in","Rept_Date":"2020-02-19 17"},"coordinates":[5208,2821]},{"type":"Point","properties":{"Station_ID":"COUW3","Station_Nam":"COUDERAY,WI","Latitude":"45.86670","Longitude":"-91.45000","Snowdepth":"21.000","Units":"in","Rept_Date":"2020-02-19 22"},"coordinates":[1359,4625]},{"type":"Point","properties":{"Station_ID":"CLKM4","Station_Nam":"CLARKSBURG","Latitude":"46.49910","Longitude":"-87.84500","Snowdepth":"21.000","Units":"in","Rept_Date":"2020-02-19 12"},"coordinates":[2205,5205]},{"type":"Point","properties":{"Station_ID":"CAN-NS-103","Station_Nam":"TRAFALGAR 4.9 WSW, CAN","Latitude":"45.26217","Longitude":"-62.72285","Snowdepth":"21.000","Units":"in","Rept_Date":"2020-02-19 11"},"coordinates":[8101,4070]},{"type":"Point","properties":{"Station_ID":"BOON6","Station_Nam":"BOONVILLE 4 SSW","Latitude":"43.43610","Longitude":"-75.36970","Snowdepth":"21.000","Units":"in","Rept_Date":"2020-02-19 12"},"coordinates":[5132,2396]},{"type":"Point","properties":{"Station_ID":"APXM4","Station_Nam":"GAYLORD 9SSW","Latitude":"44.90720","Longitude":"-84.71880","Snowdepth":"21.000","Units":"in","Rept_Date":"2020-02-20 06"},"coordinates":[2938,3745]},{"type":"Point","properties":{"Station_ID":"WI-SR-1","Station_Nam":"HAYWARD 9.2 NNE, WI","Latitude":"46.13255","Longitude":"-91.40500","Snowdepth":"20.500","Units":"in","Rept_Date":"2020-02-19 12"},"coordinates":[1369,4869]},{"type":"Point","properties":{"Station_ID":"VT-WS-15","Station_Nam":"EAST CALAIS 1.5 SW, VT","Latitude":"44.35523","Longitude":"-72.45540","Snowdepth":"20.500","Units":"in","Rept_Date":"2020-02-19 12"},"coordinates":[5816,3239]},{"type":"Point","properties":{"Station_ID":"MN-BK-6","Station_Nam":"LAKE PARK 6.0 S, MN","Latitude":"46.79850","Longitude":"-96.12180","Snowdepth":"20.500","Units":"in","Rept_Date":"2020-02-19 13"},"coordinates":[262,5479]},{"type":"Point","properties":{"Station_ID":"MI-CX-7","Station_Nam":"EAST JORDAN 2.1 NNW, MI","Latitude":"45.18639","Longitude":"-85.14750","Snowdepth":"20.500","Units":"in","Rept_Date":"2020-02-19 13"},"coordinates":[2838,4001]},{"type":"Point","properties":{"Station_ID":"ME-FR-22","Station_Nam":"FARMINGTON 4.8 NNW, ME","Latitude":"44.73396","Longitude":"-70.18007","Snowdepth":"20.500","Units":"in","Rept_Date":"2020-02-19 14"},"coordinates":[6350,3586]},{"type":"Point","properties":{"Station_ID":"ZNOM4","Station_Nam":"NORWAY","Latitude":"45.77810","Longitude":"-87.89560","Snowdepth":"20.000","Units":"in","Rept_Date":"2020-02-20 01"},"coordinates":[2193,4544]},{"type":"Point","properties":{"Station_ID":"WI-RS-1","Station_Nam":"LADYSMITH 2.8 WNW, WI","Latitude":"45.48180","Longitude":"-91.14680","Snowdepth":"20.000","Units":"in","Rept_Date":"2020-02-19 13"},"coordinates":[1430,4272]},{"type":"Point","properties":{"Station_ID":"WI-ON-6","Station_Nam":"RHINELANDER 5.2 N, WI","Latitude":"45.71388","Longitude":"-89.42150","Snowdepth":"20.000","Units":"in","Rept_Date":"2020-02-19 13"},"coordinates":[1835,4485]},{"type":"Point","properties":{"Station_ID":"WI-LN-2","Station_Nam":"MERRILL 7.0 W, WI","Latitude":"45.17746","Longitude":"-89.84820","Snowdepth":"20.000","Units":"in","Rept_Date":"2020-02-19 12"},"coordinates":[1734,3993]},{"type":"Point","properties":{"Station_ID":"WI-BY-1","Station_Nam":"BAYFIELD 8.8 N, WI","Latitude":"46.93855","Longitude":"-90.83490","Snowdepth":"20.000","Units":"in","Rept_Date":"2020-02-19 13"},"coordinates":[1503,5608]},{"type":"Point","properties":{"Station_ID":"WHFN6","Station_Nam":"WILMINGTON 2W","Latitude":"44.39310","Longitude":"-73.85890","Snowdepth":"20.000","Units":"in","Rept_Date":"2020-02-19 13"},"coordinates":[5487,3273]},{"type":"Point","properties":{"Station_ID":"WASW3","Station_Nam":"WASHINGTON IS","Latitude":"45.35800","Longitude":"-86.89110","Snowdepth":"20.000","Units":"in","Rept_Date":"2020-02-19 13"},"coordinates":[2428,4158]},{"type":"Point","properties":{"Station_ID":"VT-OG-11","Station_Nam":"VERSHIRE 1.5 ESE, VT","Latitude":"43.96138","Longitude":"-72.29777","Snowdepth":"20.000","Units":"in","Rept_Date":"2020-02-19 13"},"coordinates":[5853,2878]},{"type":"Point","properties":{"Station_ID":"VT-ES-3","Station_Nam":"LUNENBURG 2.3 NNW, VT","Latitude":"44.49324","Longitude":"-71.70446","Snowdepth":"20.000","Units":"in","Rept_Date":"2020-02-19 13"},"coordinates":[5993,3365]},{"type":"Point","properties":{"Station_ID":"THRM5","Station_Nam":"THORHULT,MN","Latitude":"48.21670","Longitude":"-95.25000","Snowdepth":"20.000","Units":"in","Rept_Date":"2020-02-19 23"},"coordinates":[467,6780]},{"type":"Point","properties":{"Station_ID":"TAKW3","Station_Nam":"RICE RESERVOIR NO. 2","Latitude":"45.53770","Longitude":"-89.73220","Snowdepth":"20.000","Units":"in","Rept_Date":"2020-02-19 13"},"coordinates":[1762,4323]},{"type":"Point","properties":{"Station_ID":"RQLN6","Station_Nam":"RAQUETTE LAKE","Latitude":"43.80000","Longitude":"-74.66670","Snowdepth":"20.000","Units":"in","Rept_Date":"2020-02-19 17"},"coordinates":[5297,2730]},{"type":"Point","properties":{"Station_ID":"RLWM5","Station_Nam":"CAMP NORRIS DNR","Latitude":"48.61000","Longitude":"-95.18170","Snowdepth":"20.000","Units":"in","Rept_Date":"2020-02-19 14"},"coordinates":[483,7141]},{"type":"Point","properties":{"Station_ID":"RARM4","Station_Nam":"RAPID RIVER 1 SW","Latitude":"45.91500","Longitude":"-86.98800","Snowdepth":"20.000","Units":"in","Rept_Date":"2020-02-19 12"},"coordinates":[2406,4669]},{"type":"Point","properties":{"Station_ID":"RANM1","Station_Nam":"RANGELEY","Latitude":"44.98910","Longitude":"-70.67190","Snowdepth":"20.000","Units":"in","Rept_Date":"2020-02-19 11"},"coordinates":[6235,3820]},{"type":"Point","properties":{"Station_ID":"NH-CS-7","Station_Nam":"LANCASTER 0.5 N, NH","Latitude":"44.49611","Longitude":"-71.57640","Snowdepth":"20.000","Units":"in","Rept_Date":"2020-02-19 12"},"coordinates":[6023,3368]},{"type":"Point","properties":{"Station_ID":"MLLW3","Station_Nam":"MERRILL 8W","Latitude":"45.17810","Longitude":"-89.84810","Snowdepth":"20.000","Units":"in","Rept_Date":"2020-02-19 12"},"coordinates":[1735,3993]},{"type":"Point","properties":{"Station_ID":"IVPN6","Station_Nam":"IRVING POND","Latitude":"43.16670","Longitude":"-74.48330","Snowdepth":"20.000","Units":"in","Rept_Date":"2020-02-19 17"},"coordinates":[5341,2149]},{"type":"Point","properties":{"Station_ID":"INL","Station_Nam":"FALLS INTERNATIONAL ARPT","Latitude":"48.56640","Longitude":"-93.40310","Snowdepth":"20.000","Units":"in","Rept_Date":"2020-02-20 00"},"coordinates":[900,7101]},{"type":"Point","properties":{"Station_ID":"IFSM5","Station_Nam":"INTERNATIONAL FALLS SNOW","Latitude":"48.57780","Longitude":"-93.39640","Snowdepth":"20.000","Units":"in","Rept_Date":"2020-02-19 12"},"coordinates":[902,7111]},{"type":"Point","properties":{"Station_ID":"ERJ61","Station_Nam":"CAROGA LAKE","Latitude":"43.13000","Longitude":"-74.48000","Snowdepth":"20.000","Units":"in","Rept_Date":"2020-02-19 17"},"coordinates":[5341,2115]},{"type":"Point","properties":{"Station_ID":"ERI17","Station_Nam":"HRRD EDINBURG HILL","Latitude":"43.32000","Longitude":"-74.05000","Snowdepth":"20.000","Units":"in","Rept_Date":"2020-02-19 17"},"coordinates":[5442,2289]},{"type":"Point","properties":{"Station_ID":"ERG29","Station_Nam":"NMPS RAQUETTE LAKE","Latitude":"44.23000","Longitude":"-74.75000","Snowdepth":"20.000","Units":"in","Rept_Date":"2020-02-19 17"},"coordinates":[5278,3124]},{"type":"Point","properties":{"Station_ID":"EJNM4","Station_Nam":"EAST JORDAN 2NW","Latitude":"45.18630","Longitude":"-85.14770","Snowdepth":"20.000","Units":"in","Rept_Date":"2020-02-19 13"},"coordinates":[2838,4001]},{"type":"Point","properties":{"Station_ID":"EDHN6","Station_Nam":"EDINBURGH HILL","Latitude":"43.31670","Longitude":"-74.05000","Snowdepth":"20.000","Units":"in","Rept_Date":"2020-02-19 17"},"coordinates":[5442,2286]},{"type":"Point","properties":{"Station_ID":"BREW3","Station_Nam":"SURING","Latitude":"44.99580","Longitude":"-88.37860","Snowdepth":"20.000","Units":"in","Rept_Date":"2020-02-19 13"},"coordinates":[2079,3826]},{"type":"Point","properties":{"Station_ID":"BFHW3","Station_Nam":"BAYFIELD FISH HATCHERY","Latitude":"46.78670","Longitude":"-90.86420","Snowdepth":"20.000","Units":"in","Rept_Date":"2020-02-19 14"},"coordinates":[1496,5469]},{"type":"Point","properties":{"Station_ID":"BETM1","Station_Nam":"BETHEL 6 SSE","Latitude":"44.32000","Longitude":"-70.75680","Snowdepth":"20.000","Units":"in","Rept_Date":"2020-02-19 12"},"coordinates":[6215,3206]},{"type":"Point","properties":{"Station_ID":"BAUM5","Station_Nam":"BAUDETTE,MN","Latitude":"48.71670","Longitude":"-94.61670","Snowdepth":"20.000","Units":"in","Rept_Date":"2020-02-19 21"},"coordinates":[615,7238]},{"type":"Point","properties":{"Station_ID":"WI-PR-2","Station_Nam":"BUTTERNUT 5.9 SW, WI","Latitude":"45.96501","Longitude":"-90.59750","Snowdepth":"19.500","Units":"in","Rept_Date":"2020-02-19 12"},"coordinates":[1559,4715]},{"type":"Point","properties":{"Station_ID":"VT-OL-5","Station_Nam":"DERBY CENTER 1.8 NW, VT","Latitude":"44.97200","Longitude":"-72.14780","Snowdepth":"19.500","Units":"in","Rept_Date":"2020-02-19 12"},"coordinates":[5889,3804]},{"type":"Point","properties":{"Station_ID":"NH-CR-9","Station_Nam":"MADISON 1.7 SE, NH","Latitude":"43.87928","Longitude":"-71.12660","Snowdepth":"19.500","Units":"in","Rept_Date":"2020-02-19 12"},"coordinates":[6128,2802]},{"type":"Point","properties":{"Station_ID":"MI-DL-4","Station_Nam":"GLADSTONE 2.1 SW, MI","Latitude":"45.83218","Longitude":"-87.05727","Snowdepth":"19.500","Units":"in","Rept_Date":"2020-02-19 12"},"coordinates":[2389,4593]},{"type":"Point","properties":{"Station_ID":"PSXN6","Station_Nam":"PISECO","Latitude":"43.43330","Longitude":"-74.51670","Snowdepth":"19.400","Units":"in","Rept_Date":"2020-02-19 17"},"coordinates":[5333,2393]},{"type":"Point","properties":{"Station_ID":"ERI38","Station_Nam":"HRRD PISECO","Latitude":"43.43000","Longitude":"-74.52000","Snowdepth":"19.400","Units":"in","Rept_Date":"2020-02-19 17"},"coordinates":[5332,2390]},{"type":"Point","properties":{"Station_ID":"HWKN6","Station_Nam":"HAWKINSVILLE","Latitude":"43.50000","Longitude":"-75.23330","Snowdepth":"19.300","Units":"in","Rept_Date":"2020-02-19 17"},"coordinates":[5164,2454]},{"type":"Point","properties":{"Station_ID":"ERF16","Station_Nam":"BRRD HASKINVILLE 2E","Latitude":"43.50000","Longitude":"-75.23000","Snowdepth":"19.300","Units":"in","Rept_Date":"2020-02-19 17"},"coordinates":[5165,2454]},{"type":"Point","properties":{"Station_ID":"WSFW3","Station_Nam":"TOWN OF WESTFORD","Latitude":"43.47190","Longitude":"-88.88250","Snowdepth":"19.000","Units":"in","Rept_Date":"2020-02-19 13"},"coordinates":[1961,2429]},{"type":"Point","properties":{"Station_ID":"WRTS2","Station_Nam":"WATERTOWN,SD","Latitude":"44.90280","Longitude":"-97.11360","Snowdepth":"19.000","Units":"in","Rept_Date":"2020-02-19 15"},"coordinates":[29,3741]},{"type":"Point","properties":{"Station_ID":"WORV1","Station_Nam":"WORCESTER 2 W","Latitude":"44.37470","Longitude":"-72.58220","Snowdepth":"19.000","Units":"in","Rept_Date":"2020-02-19 12"},"coordinates":[5787,3257]},{"type":"Point","properties":{"Station_ID":"WI-DD-16","Station_Nam":"BEAVER DAM 2.4 WNW, WI","Latitude":"43.47210","Longitude":"-88.88280","Snowdepth":"19.000","Units":"in","Rept_Date":"2020-02-19 13"},"coordinates":[1961,2429]},{"type":"Point","properties":{"Station_ID":"VANM4","Station_Nam":"VANDERBILT 11ENE","Latitude":"45.17020","Longitude":"-84.43970","Snowdepth":"19.000","Units":"in","Rept_Date":"2020-02-19 13"},"coordinates":[3004,3986]},{"type":"Point","properties":{"Station_ID":"PERV1","Station_Nam":"PERU","Latitude":"43.26670","Longitude":"-72.90000","Snowdepth":"19.000","Units":"in","Rept_Date":"2020-02-19 12"},"coordinates":[5712,2240]},{"type":"Point","properties":{"Station_ID":"NYMM5","Station_Nam":"NEW YORK MILLS","Latitude":"46.50920","Longitude":"-95.37990","Snowdepth":"19.000","Units":"in","Rept_Date":"2020-02-19 13"},"coordinates":[436,5214]},{"type":"Point","properties":{"Station_ID":"MIEM4","Station_Nam":"MICHIGAMME 3WNW","Latitude":"46.54530","Longitude":"-88.18000","Snowdepth":"19.000","Units":"in","Rept_Date":"2020-02-19 13"},"coordinates":[2126,5247]},{"type":"Point","properties":{"Station_ID":"MI-AT-6","Station_Nam":"MANCELONA 0.5 ESE, MI","Latitude":"44.89981","Longitude":"-85.05100","Snowdepth":"19.000","Units":"in","Rept_Date":"2020-02-19 13"},"coordinates":[2860,3738]},{"type":"Point","properties":{"Station_ID":"INDM5","Station_Nam":"INDUS,MN","Latitude":"48.61670","Longitude":"-93.90000","Snowdepth":"19.000","Units":"in","Rept_Date":"2020-02-19 14"},"coordinates":[784,7147]},{"type":"Point","properties":{"Station_ID":"HRTM1","Station_Nam":"HARTFORD","Latitude":"44.37440","Longitude":"-70.31620","Snowdepth":"19.000","Units":"in","Rept_Date":"2020-02-19 12"},"coordinates":[6318,3256]},{"type":"Point","properties":{"Station_ID":"CHBV1","Station_Nam":"CAMELS HUMP MOUNTAIN BASE","Latitude":"44.31660","Longitude":"-72.84280","Snowdepth":"19.000","Units":"in","Rept_Date":"2020-02-19 23"},"coordinates":[5726,3203]},{"type":"Point","properties":{"Station_ID":"CAN-QC-51","Station_Nam":"BELOEIL 0.7 NW, CAN","Latitude":"45.58049","Longitude":"-73.21218","Snowdepth":"19.000","Units":"in","Rept_Date":"2020-02-19 12"},"coordinates":[5639,4362]},{"type":"Point","properties":{"Station_ID":"CAN-ON-757","Station_Nam":"SAULT STE. MARIE 2.8 ESE - GLFC, CAN","Latitude":"46.50300","Longitude":"-84.30300","Snowdepth":"19.000","Units":"in","Rept_Date":"2020-02-19 13"},"coordinates":[3036,5208]},{"type":"Point","properties":{"Station_ID":"ATY","Station_Nam":"WATERTOWN MUNICIPAL AIRPORT","Latitude":"44.91420","Longitude":"-97.15440","Snowdepth":"19.000","Units":"in","Rept_Date":"2020-02-20 00"},"coordinates":[20,3751]},{"type":"Point","properties":{"Station_ID":"ABGW3","Station_Nam":"AMBERG 9 E","Latitude":"45.48250","Longitude":"-87.81190","Snowdepth":"19.000","Units":"in","Rept_Date":"2020-02-19 12"},"coordinates":[2212,4273]},{"type":"Point","properties":{"Station_ID":"CAN-PE-43","Station_Nam":"GLENCOE 0.3 W, CAN","Latitude":"46.20115","Longitude":"-62.81740","Snowdepth":"18.900","Units":"in","Rept_Date":"2020-02-19 12"},"coordinates":[8078,4932]},{"type":"Point","properties":{"Station_ID":"CAN-NB-97","Station_Nam":"NEW MARYLAND 0.6 NW, CAN","Latitude":"45.90112","Longitude":"-66.68739","Snowdepth":"18.900","Units":"in","Rept_Date":"2020-02-19 10"},"coordinates":[7170,4656]},{"type":"Point","properties":{"Station_ID":"VT-WS-33","Station_Nam":"WAITSFIELD 3.5 WNW, VT","Latitude":"44.20052","Longitude":"-72.89421","Snowdepth":"18.500","Units":"in","Rept_Date":"2020-02-19 13"},"coordinates":[5713,3097]},{"type":"Point","properties":{"Station_ID":"VT-WS-10","Station_Nam":"NORTHFIELD 1.5 N, VT","Latitude":"44.16986","Longitude":"-72.65200","Snowdepth":"18.500","Units":"in","Rept_Date":"2020-02-19 12"},"coordinates":[5770,3069]},{"type":"Point","properties":{"Station_ID":"VT-WR-2","Station_Nam":"POMFRET 2.6 N, VT","Latitude":"43.74230","Longitude":"-72.52550","Snowdepth":"18.500","Units":"in","Rept_Date":"2020-02-19 12"},"coordinates":[5800,2677]},{"type":"Point","properties":{"Station_ID":"ME-AN-32","Station_Nam":"WINTHROP 9.4 W, ME","Latitude":"44.30476","Longitude":"-70.15835","Snowdepth":"18.500","Units":"in","Rept_Date":"2020-02-19 12"},"coordinates":[6356,3192]},{"type":"Point","properties":{"Station_ID":"CAN-PE-7","Station_Nam":"MORELL 1.4 NNW, CA","Latitude":"46.42741","Longitude":"-62.70870","Snowdepth":"18.500","Units":"in","Rept_Date":"2020-02-19 11"},"coordinates":[8104,5139]},{"type":"Point","properties":{"Station_ID":"WWWW3","Station_Nam":"WAUPACA","Latitude":"44.35470","Longitude":"-89.05920","Snowdepth":"18.000","Units":"in","Rept_Date":"2020-02-19 14"},"coordinates":[1920,3238]},{"type":"Point","properties":{"Station_ID":"WUNW3","Station_Nam":"WAUSAU-NORTHEAST","Latitude":"44.97310","Longitude":"-89.61690","Snowdepth":"18.000","Units":"in","Rept_Date":"2020-02-19 12"},"coordinates":[1789,3805]},{"type":"Point","properties":{"Station_ID":"WI-PT-8","Station_Nam":"RUDOLPH 2.1 NNE, WI","Latitude":"44.52553","Longitude":"-89.78677","Snowdepth":"18.000","Units":"in","Rept_Date":"2020-02-19 11"},"coordinates":[1749,3395]},{"type":"Point","properties":{"Station_ID":"WI-PR-6","Station_Nam":"PHILLIPS 1.3 S, WI","Latitude":"45.67677","Longitude":"-90.39543","Snowdepth":"18.000","Units":"in","Rept_Date":"2020-02-19 12"},"coordinates":[1606,4451]},{"type":"Point","properties":{"Station_ID":"WI-DN-1","Station_Nam":"BOYCEVILLE 3.3 N, WI","Latitude":"45.08913","Longitude":"-92.02760","Snowdepth":"18.000","Units":"in","Rept_Date":"2020-02-19 13"},"coordinates":[1223,3912]},{"type":"Point","properties":{"Station_ID":"VT-WR-6","Station_Nam":"LUDLOW 3.4 S, VT","Latitude":"43.34720","Longitude":"-72.69680","Snowdepth":"18.000","Units":"in","Rept_Date":"2020-02-19 13"},"coordinates":[5760,2314]},{"type":"Point","properties":{"Station_ID":"TUPN6","Station_Nam":"TUPPER LAKE SNOW COURSE","Latitude":"44.10560","Longitude":"-74.53440","Snowdepth":"18.000","Units":"in","Rept_Date":"2020-02-19 17"},"coordinates":[5329,3010]},{"type":"Point","properties":{"Station_ID":"SHHW3","Station_Nam":"SHAWANO 2SSW","Latitude":"44.76310","Longitude":"-88.61830","Snowdepth":"18.000","Units":"in","Rept_Date":"2020-02-19 14"},"coordinates":[2023,3613]},{"type":"Point","properties":{"Station_ID":"OCON6","Station_Nam":"OSCEOLA","Latitude":"43.49910","Longitude":"-75.71210","Snowdepth":"18.000","Units":"in","Rept_Date":"2020-02-19 12"},"coordinates":[5052,2454]},{"type":"Point","properties":{"Station_ID":"NUMM5","Station_Nam":"NEW ULM 3SE","Latitude":"44.29450","Longitude":"-94.40840","Snowdepth":"18.000","Units":"in","Rept_Date":"2020-02-19 12"},"coordinates":[664,3183]},{"type":"Point","properties":{"Station_ID":"NH-MR-41","Station_Nam":"NEWBURY 1.6 NW, NH","Latitude":"43.33667","Longitude":"-72.06060","Snowdepth":"18.000","Units":"in","Rept_Date":"2020-02-19 12"},"coordinates":[5909,2305]},{"type":"Point","properties":{"Station_ID":"NH-CR-46","Station_Nam":"NORTH CONWAY 1.8 SSE, NH","Latitude":"44.02955","Longitude":"-71.11664","Snowdepth":"18.000","Units":"in","Rept_Date":"2020-02-19 13"},"coordinates":[6131,2940]},{"type":"Point","properties":{"Station_ID":"NCKN6","Station_Nam":"NORTH CREEK 5 SE","Latitude":"43.66110","Longitude":"-73.89690","Snowdepth":"18.000","Units":"in","Rept_Date":"2020-02-19 12"},"coordinates":[5478,2602]},{"type":"Point","properties":{"Station_ID":"MWTM1","Station_Nam":"MILLINOCKET WWTP","Latitude":"45.64030","Longitude":"-68.67480","Snowdepth":"18.000","Units":"in","Rept_Date":"2020-02-19 11"},"coordinates":[6704,4417]},{"type":"Point","properties":{"Station_ID":"MNF74YNU","Station_Nam":"NEW ULM 3.3 ESE","Latitude":"44.29029","Longitude":"-94.40196","Snowdepth":"18.000","Units":"in","Rept_Date":"2020-02-19 11"},"coordinates":[666,3179]},{"type":"Point","properties":{"Station_ID":"MN7M8EBJ","Station_Nam":"LUTSEN 15.7 NNW","Latitude":"47.85324","Longitude":"-89.92908","Snowdepth":"18.000","Units":"in","Rept_Date":"2020-02-19 14"},"coordinates":[1715,6447]},{"type":"Point","properties":{"Station_ID":"MN-MW-8","Station_Nam":"AUSTIN 2.4 W, MN","Latitude":"43.67190","Longitude":"-93.02280","Snowdepth":"18.000","Units":"in","Rept_Date":"2020-02-19 13"},"coordinates":[989,2612]},{"type":"Point","properties":{"Station_ID":"MI-CP-14","Station_Nam":"SAULT STE. MARIE 2.2 E, MI","Latitude":"46.48933","Longitude":"-84.31971","Snowdepth":"18.000","Units":"in","Rept_Date":"2020-02-19 13"},"coordinates":[3032,5196]},{"type":"Point","properties":{"Station_ID":"ME-CM-86","Station_Nam":"POWNAL 4.1 S, ME","Latitude":"43.85370","Longitude":"-70.17210","Snowdepth":"18.000","Units":"in","Rept_Date":"2020-02-19 12"},"coordinates":[6352,2779]},{"type":"Point","properties":{"Station_ID":"JEFN3","Station_Nam":"JEFFERSON","Latitude":"44.41690","Longitude":"-71.50080","Snowdepth":"18.000","Units":"in","Rept_Date":"2020-02-19 12"},"coordinates":[6040,3295]},{"type":"Point","properties":{"Station_ID":"JCBM4","Station_Nam":"JACOBSVILLE","Latitude":"47.00830","Longitude":"-88.43180","Snowdepth":"18.000","Units":"in","Rept_Date":"2020-02-19 12"},"coordinates":[2067,5672]},{"type":"Point","properties":{"Station_ID":"HGHN6","Station_Nam":"HIGHMARKET","Latitude":"43.57520","Longitude":"-75.52070","Snowdepth":"18.000","Units":"in","Rept_Date":"2020-02-19 11"},"coordinates":[5097,2523]},{"type":"Point","properties":{"Station_ID":"ERG36","Station_Nam":"NMPS TUPPER LAKE","Latitude":"44.12000","Longitude":"-74.55000","Snowdepth":"18.000","Units":"in","Rept_Date":"2020-02-19 17"},"coordinates":[5325,3023]},{"type":"Point","properties":{"Station_ID":"EMRV1","Station_Nam":"LAKE ELMORE RAWS","Latitude":"44.54310","Longitude":"-72.52940","Snowdepth":"18.000","Units":"in","Rept_Date":"2020-02-19 23"},"coordinates":[5799,3411]},{"type":"Point","properties":{"Station_ID":"CHRM4","Station_Nam":"CHARLEVOIX","Latitude":"45.31720","Longitude":"-85.26720","Snowdepth":"18.000","Units":"in","Rept_Date":"2020-02-19 13"},"coordinates":[2810,4121]},{"type":"Point","properties":{"Station_ID":"CAN-ON-42","Station_Nam":"VANKLEEK HILL 3.4 S, CA","Latitude":"45.48987","Longitude":"-74.64570","Snowdepth":"18.000","Units":"in","Rept_Date":"2020-02-19 12"},"coordinates":[5302,4279]},{"type":"Point","properties":{"Station_ID":"BRLN3","Station_Nam":"BERLIN","Latitude":"44.45350","Longitude":"-71.18540","Snowdepth":"18.000","Units":"in","Rept_Date":"2020-02-19 12"},"coordinates":[6115,3329]},{"type":"Point","properties":{"Station_ID":"BAGM4","Station_Nam":"BARAGA 7NW","Latitude":"46.82100","Longitude":"-88.60590","Snowdepth":"18.000","Units":"in","Rept_Date":"2020-02-19 13"},"coordinates":[2026,5500]},{"type":"Point","properties":{"Station_ID":"ASTM5","Station_Nam":"AUSTIN WASTE WATER TREATMENT FACILITY","Latitude":"43.65420","Longitude":"-92.97390","Snowdepth":"18.000","Units":"in","Rept_Date":"2020-02-19 13"},"coordinates":[1001,2596]},{"type":"Point","properties":{"Station_ID":"ERI18","Station_Nam":"HRRD ELM LAKE","Latitude":"43.52000","Longitude":"-74.35000","Snowdepth":"17.600","Units":"in","Rept_Date":"2020-02-19 17"},"coordinates":[5372,2473]},{"type":"Point","properties":{"Station_ID":"EMLN6","Station_Nam":"ELM LAKE","Latitude":"43.51670","Longitude":"-74.35000","Snowdepth":"17.600","Units":"in","Rept_Date":"2020-02-19 17"},"coordinates":[5372,2470]},{"type":"Point","properties":{"Station_ID":"WI-PR-8","Station_Nam":"PHILLIPS 0.4 SSW, WI","Latitude":"45.69086","Longitude":"-90.40200","Snowdepth":"17.500","Units":"in","Rept_Date":"2020-02-19 13"},"coordinates":[1605,4464]},{"type":"Point","properties":{"Station_ID":"VT-WR-17","Station_Nam":"ROCHESTER 2.3 NE, VT","Latitude":"43.89418","Longitude":"-72.76992","Snowdepth":"17.500","Units":"in","Rept_Date":"2020-02-19 12"},"coordinates":[5743,2816]},{"type":"Point","properties":{"Station_ID":"MN-CW-22","Station_Nam":"FORT RIPLEY 0.8 N, MN","Latitude":"46.18089","Longitude":"-94.36510","Snowdepth":"17.500","Units":"in","Rept_Date":"2020-02-19 13"},"coordinates":[674,4913]},{"type":"Point","properties":{"Station_ID":"ME-CM-3","Station_Nam":"NEW GLOUCESTER 3.0 SE, ME","Latitude":"43.92372","Longitude":"-70.25790","Snowdepth":"17.500","Units":"in","Rept_Date":"2020-02-19 12"},"coordinates":[6332,2843]},{"type":"Point","properties":{"Station_ID":"CAN-NB-16","Station_Nam":"DORCHESTER 1.0 SSE, CAN","Latitude":"45.89160","Longitude":"-64.51269","Snowdepth":"17.500","Units":"in","Rept_Date":"2020-02-19 12"},"coordinates":[7681,4648]},{"type":"Point","properties":{"Station_ID":"WPFN6","Station_Nam":"MARIPOSA 1NNW SNOW","Latitude":"42.73330","Longitude":"-75.81670","Snowdepth":"17.000","Units":"in","Rept_Date":"2020-02-19 13"},"coordinates":[5028,1751]},{"type":"Point","properties":{"Station_ID":"WNDM1","Station_Nam":"WINDHAM 2NW","Latitude":"43.85670","Longitude":"-70.46630","Snowdepth":"17.000","Units":"in","Rept_Date":"2020-02-19 12"},"coordinates":[6283,2782]},{"type":"Point","properties":{"Station_ID":"WI-BT-14","Station_Nam":"OAKLAND 9.0 ENE, WI","Latitude":"45.95184","Longitude":"-92.21653","Snowdepth":"17.000","Units":"in","Rept_Date":"2020-02-19 13"},"coordinates":[1179,4703]},{"type":"Point","properties":{"Station_ID":"VT-CH-4","Station_Nam":"UNDERHILL 4.4 NNE, VT","Latitude":"44.58774","Longitude":"-72.92250","Snowdepth":"17.000","Units":"in","Rept_Date":"2020-02-19 12"},"coordinates":[5707,3452]},{"type":"Point","properties":{"Station_ID":"UVDV1","Station_Nam":"NERON SITE AT UNION VILLAGE DAM","Latitude":"43.79140","Longitude":"-72.25720","Snowdepth":"17.000","Units":"in","Rept_Date":"2020-02-19 13"},"coordinates":[5863,2722]},{"type":"Point","properties":{"Station_ID":"TOPM1","Station_Nam":"TOPSFIELD","Latitude":"45.43470","Longitude":"-67.72020","Snowdepth":"17.000","Units":"in","Rept_Date":"2020-02-19 12"},"coordinates":[6928,4229]},{"type":"Point","properties":{"Station_ID":"RLKW3","Station_Nam":"REST LAKE","Latitude":"46.12220","Longitude":"-89.87720","Snowdepth":"17.000","Units":"in","Rept_Date":"2020-02-19 14"},"coordinates":[1728,4859]},{"type":"Point","properties":{"Station_ID":"RHRW3","Station_Nam":"RHINELANDER WJFW TV-12","Latitude":"45.62220","Longitude":"-89.41000","Snowdepth":"17.000","Units":"in","Rept_Date":"2020-02-20 04"},"coordinates":[1837,4401]},{"type":"Point","properties":{"Station_ID":"PULW3","Station_Nam":"PULASKI WWTP","Latitude":"44.67830","Longitude":"-88.22750","Snowdepth":"17.000","Units":"in","Rept_Date":"2020-02-19 12"},"coordinates":[2115,3535]},{"type":"Point","properties":{"Station_ID":"NY-SR-22","Station_Nam":"GREENFIELD CENTER 1.6 W, NY","Latitude":"43.12684","Longitude":"-73.87860","Snowdepth":"17.000","Units":"in","Rept_Date":"2020-02-19 14"},"coordinates":[5482,2112]},{"type":"Point","properties":{"Station_ID":"NUNV1","Station_Nam":"NORTH UNDERHILL","Latitude":"44.58760","Longitude":"-72.92150","Snowdepth":"17.000","Units":"in","Rept_Date":"2020-02-19 12"},"coordinates":[5707,3452]},{"type":"Point","properties":{"Station_ID":"NONW3","Station_Nam":"NEW LONDON","Latitude":"44.35890","Longitude":"-88.71890","Snowdepth":"17.000","Units":"in","Rept_Date":"2020-02-19 12"},"coordinates":[2000,3242]},{"type":"Point","properties":{"Station_ID":"NH-MR-6","Station_Nam":"DANBURY 2.2 ESE, NH","Latitude":"43.52000","Longitude":"-71.81900","Snowdepth":"17.000","Units":"in","Rept_Date":"2020-02-19 13"},"coordinates":[5966,2473]},{"type":"Point","properties":{"Station_ID":"MI-OT-4","Station_Nam":"GAYLORD 1.7 WNW, MI","Latitude":"45.03280","Longitude":"-84.71090","Snowdepth":"17.000","Units":"in","Rept_Date":"2020-02-19 13"},"coordinates":[2940,3860]},{"type":"Point","properties":{"Station_ID":"ME-YK-3","Station_Nam":"HOLLIS CENTER 5.4 NW, ME","Latitude":"43.64750","Longitude":"-70.67510","Snowdepth":"17.000","Units":"in","Rept_Date":"2020-02-19 12"},"coordinates":[6234,2590]},{"type":"Point","properties":{"Station_ID":"ME-CM-125","Station_Nam":"CUMBERLAND CENTER 4.4 NW, ME","Latitude":"43.84640","Longitude":"-70.31340","Snowdepth":"17.000","Units":"in","Rept_Date":"2020-02-19 12"},"coordinates":[6319,2772]},{"type":"Point","properties":{"Station_ID":"MCLN8","Station_Nam":"MC LEOD,ND","Latitude":"46.40250","Longitude":"-97.23810","Snowdepth":"17.000","Units":"in","Rept_Date":"2020-02-19 17"},"coordinates":[0,5116]},{"type":"Point","properties":{"Station_ID":"MALN6","Station_Nam":"MALONE","Latitude":"44.84180","Longitude":"-74.30600","Snowdepth":"17.000","Units":"in","Rept_Date":"2020-02-19 12"},"coordinates":[5382,3685]},{"type":"Point","properties":{"Station_ID":"LTPN6","Station_Nam":"LITTLE TUPPER LAKE","Latitude":"44.06670","Longitude":"-74.63330","Snowdepth":"17.000","Units":"in","Rept_Date":"2020-02-19 17"},"coordinates":[5305,2974]},{"type":"Point","properties":{"Station_ID":"JKMM1","Station_Nam":"JACKMAN","Latitude":"45.62600","Longitude":"-70.24600","Snowdepth":"17.000","Units":"in","Rept_Date":"2020-02-19 12"},"coordinates":[6335,4404]},{"type":"Point","properties":{"Station_ID":"ILEW3","Station_Nam":"STILES 1S","Latitude":"44.84190","Longitude":"-88.05420","Snowdepth":"17.000","Units":"in","Rept_Date":"2020-02-19 13"},"coordinates":[2156,3685]},{"type":"Point","properties":{"Station_ID":"HOLM1","Station_Nam":"HOLLIS","Latitude":"43.64750","Longitude":"-70.67490","Snowdepth":"17.000","Units":"in","Rept_Date":"2020-02-19 12"},"coordinates":[6234,2590]},{"type":"Point","properties":{"Station_ID":"GLRM5","Station_Nam":"GLACIAL RIDGE","Latitude":"47.71670","Longitude":"-96.26670","Snowdepth":"17.000","Units":"in","Rept_Date":"2020-02-20 06"},"coordinates":[228,6321]},{"type":"Point","properties":{"Station_ID":"GLLM5","Station_Nam":"GULL LAKE DAM","Latitude":"46.41190","Longitude":"-94.35000","Snowdepth":"17.000","Units":"in","Rept_Date":"2020-02-19 14"},"coordinates":[678,5125]},{"type":"Point","properties":{"Station_ID":"GFDN6","Station_Nam":"CHASES LAKE","Latitude":"43.75920","Longitude":"-75.29980","Snowdepth":"17.000","Units":"in","Rept_Date":"2020-02-19 11"},"coordinates":[5149,2692]},{"type":"Point","properties":{"Station_ID":"GAYM4","Station_Nam":"GAYLORD","Latitude":"45.03320","Longitude":"-84.71130","Snowdepth":"17.000","Units":"in","Rept_Date":"2020-02-19 13"},"coordinates":[2940,3860]},{"type":"Point","properties":{"Station_ID":"ERG19","Station_Nam":"NMPS LITTLE TUPPER LAKE","Latitude":"44.07000","Longitude":"-74.63000","Snowdepth":"17.000","Units":"in","Rept_Date":"2020-02-19 17"},"coordinates":[5306,2977]},{"type":"Point","properties":{"Station_ID":"EPTW3","Station_Nam":"EAU PLEINE TENDER","Latitude":"44.77220","Longitude":"-89.76720","Snowdepth":"17.000","Units":"in","Rept_Date":"2020-02-19 13"},"coordinates":[1753,3621]},{"type":"Point","properties":{"Station_ID":"DURM1","Station_Nam":"DURHAM","Latitude":"43.99960","Longitude":"-70.09630","Snowdepth":"17.000","Units":"in","Rept_Date":"2020-02-19 12"},"coordinates":[6370,2913]},{"type":"Point","properties":{"Station_ID":"DTVM4","Station_Nam":"DETOUR VILLAGE","Latitude":"45.99830","Longitude":"-83.90130","Snowdepth":"17.000","Units":"in","Rept_Date":"2020-02-19 13"},"coordinates":[3130,4746]},{"type":"Point","properties":{"Station_ID":"CLGM5","Station_Nam":"COLLEGEVILLE ST JOHN","Latitude":"45.57940","Longitude":"-94.39200","Snowdepth":"17.000","Units":"in","Rept_Date":"2020-02-20 00"},"coordinates":[668,4361]},{"type":"Point","properties":{"Station_ID":"CDLM4","Station_Nam":"CADILLAC 9&10 NEWS","Latitude":"44.21130","Longitude":"-85.40860","Snowdepth":"17.000","Units":"in","Rept_Date":"2020-02-19 12"},"coordinates":[2776,3107]},{"type":"Point","properties":{"Station_ID":"BFSW3","Station_Nam":"BIG FALLS-5 NW","Latitude":"44.63980","Longitude":"-89.11330","Snowdepth":"17.000","Units":"in","Rept_Date":"2020-02-19 13"},"coordinates":[1907,3500]},{"type":"Point","properties":{"Station_ID":"ME-CM-54","Station_Nam":"WINDHAM 3.9 NW, ME","Latitude":"43.85787","Longitude":"-70.46200","Snowdepth":"16.900","Units":"in","Rept_Date":"2020-02-19 12"},"coordinates":[6284,2783]},{"type":"Point","properties":{"Station_ID":"VT-CL-23","Station_Nam":"RYEGATE 1.5 N, VT","Latitude":"44.23024","Longitude":"-72.10523","Snowdepth":"16.800","Units":"in","Rept_Date":"2020-02-19 12"},"coordinates":[5899,3124]},{"type":"Point","properties":{"Station_ID":"CATQ6","Station_Nam":"CAT LAKE","Latitude":"51.72690","Longitude":"-91.82210","Snowdepth":"16.650","Units":"in","Rept_Date":"2020-02-20 06"},"coordinates":[1271,9999]},{"type":"Point","properties":{"Station_ID":"ERI15","Station_Nam":"HRRD DAILY CREEK","Latitude":"43.27000","Longitude":"-73.97000","Snowdepth":"16.400","Units":"in","Rept_Date":"2020-02-19 17"},"coordinates":[5461,2244]},{"type":"Point","properties":{"Station_ID":"DAIN6","Station_Nam":"DALY CREEK","Latitude":"43.26670","Longitude":"-73.96670","Snowdepth":"16.400","Units":"in","Rept_Date":"2020-02-19 17"},"coordinates":[5462,2240]},{"type":"Point","properties":{"Station_ID":"CAN-NB-1","Station_Nam":"FREDERICTON 4.0 SSE, CA","Latitude":"45.92897","Longitude":"-66.62830","Snowdepth":"16.300","Units":"in","Rept_Date":"2020-02-19 12"},"coordinates":[7184,4682]},{"type":"Point","properties":{"Station_ID":"WSDN6","Station_Nam":"WEST DAY","Latitude":"43.28330","Longitude":"-74.08330","Snowdepth":"16.000","Units":"in","Rept_Date":"2020-02-19 17"},"coordinates":[5434,2256]},{"type":"Point","properties":{"Station_ID":"WNNM5","Station_Nam":"WINNEBAGO","Latitude":"43.76920","Longitude":"-94.18730","Snowdepth":"16.000","Units":"in","Rept_Date":"2020-02-19 14"},"coordinates":[716,2701]},{"type":"Point","properties":{"Station_ID":"WI-SR-5","Station_Nam":"HAYWARD 9.7 NE, WI","Latitude":"46.12030","Longitude":"-91.35370","Snowdepth":"16.000","Units":"in","Rept_Date":"2020-02-19 14"},"coordinates":[1381,4857]},{"type":"Point","properties":{"Station_ID":"VT-WS-19","Station_Nam":"WATERBURY 3.0 NW, VT","Latitude":"44.36060","Longitude":"-72.80770","Snowdepth":"16.000","Units":"in","Rept_Date":"2020-02-19 11"},"coordinates":[5734,3244]},{"type":"Point","properties":{"Station_ID":"TOPN6","Station_Nam":"TUPPER LAKE SUNMOUNT","Latitude":"44.23070","Longitude":"-74.43820","Snowdepth":"16.000","Units":"in","Rept_Date":"2020-02-19 12"},"coordinates":[5351,3125]},{"type":"Point","properties":{"Station_ID":"TCEM4","Station_Nam":"TRAVERSE CITY 5ESE","Latitude":"44.73370","Longitude":"-85.51180","Snowdepth":"16.000","Units":"in","Rept_Date":"2020-02-19 12"},"coordinates":[2752,3586]},{"type":"Point","properties":{"Station_ID":"STPW3","Station_Nam":"STEVENS POINT","Latitude":"44.51130","Longitude":"-89.58550","Snowdepth":"16.000","Units":"in","Rept_Date":"2020-02-19 13"},"coordinates":[1796,3382]},{"type":"Point","properties":{"Station_ID":"SD-CD-30","Station_Nam":"WATERTOWN 2.3 E, SD","Latitude":"44.91604","Longitude":"-97.11925","Snowdepth":"16.000","Units":"in","Rept_Date":"2020-02-19 14"},"coordinates":[28,3753]},{"type":"Point","properties":{"Station_ID":"PSHW3","Station_Nam":"PESHTIGO","Latitude":"45.02810","Longitude":"-87.73560","Snowdepth":"16.000","Units":"in","Rept_Date":"2020-02-19 13"},"coordinates":[2230,3856]},{"type":"Point","properties":{"Station_ID":"OPPN6","Station_Nam":"OPPENHEIM","Latitude":"43.07190","Longitude":"-74.69310","Snowdepth":"16.000","Units":"in","Rept_Date":"2020-02-19 17"},"coordinates":[5291,2062]},{"type":"Point","properties":{"Station_ID":"NH-GR-47","Station_Nam":"LITTLETON 7.3 W, NH","Latitude":"44.31847","Longitude":"-71.91086","Snowdepth":"16.000","Units":"in","Rept_Date":"2020-02-19 13"},"coordinates":[5944,3205]},{"type":"Point","properties":{"Station_ID":"NH-GR-1","Station_Nam":"BRISTOL 0.4 SSE, NH","Latitude":"43.59490","Longitude":"-71.74140","Snowdepth":"16.000","Units":"in","Rept_Date":"2020-02-19 12"},"coordinates":[5984,2541]},{"type":"Point","properties":{"Station_ID":"MNEY8CTB","Station_Nam":"MIDLAND JUNCTION 2.2 ENE","Latitude":"44.33041","Longitude":"-91.95891","Snowdepth":"16.000","Units":"in","Rept_Date":"2020-02-19 14"},"coordinates":[1239,3216]},{"type":"Point","properties":{"Station_ID":"MN-SH-10","Station_Nam":"BIG LAKE 5.6 NNE, MN","Latitude":"45.41409","Longitude":"-93.69190","Snowdepth":"16.000","Units":"in","Rept_Date":"2020-02-19 13"},"coordinates":[832,4210]},{"type":"Point","properties":{"Station_ID":"MI-GT-25","Station_Nam":"TRAVERSE CITY 4.7 ESE, MI","Latitude":"44.73370","Longitude":"-85.51189","Snowdepth":"16.000","Units":"in","Rept_Date":"2020-02-19 12"},"coordinates":[2752,3586]},{"type":"Point","properties":{"Station_ID":"LLKN6","Station_Nam":"LONG LAKE","Latitude":"43.98330","Longitude":"-74.45000","Snowdepth":"16.000","Units":"in","Rept_Date":"2020-02-19 17"},"coordinates":[5348,2898]},{"type":"Point","properties":{"Station_ID":"JOHV1","Station_Nam":"JOHNSON 2 N","Latitude":"44.65790","Longitude":"-72.67850","Snowdepth":"16.000","Units":"in","Rept_Date":"2020-02-19 12"},"coordinates":[5764,3516]},{"type":"Point","properties":{"Station_ID":"JEFV1","Station_Nam":"JEFFERSONVILLE","Latitude":"44.58430","Longitude":"-72.78700","Snowdepth":"16.000","Units":"in","Rept_Date":"2020-02-19 12"},"coordinates":[5739,3449]},{"type":"Point","properties":{"Station_ID":"FLDM5","Station_Nam":"FLOODWOOD,MN","Latitude":"47.00000","Longitude":"-92.91670","Snowdepth":"16.000","Units":"in","Rept_Date":"2020-02-19 14"},"coordinates":[1014,5664]},{"type":"Point","properties":{"Station_ID":"ERJ62","Station_Nam":"OPPENHEIM","Latitude":"43.08000","Longitude":"-74.69000","Snowdepth":"16.000","Units":"in","Rept_Date":"2020-02-19 17"},"coordinates":[5292,2069]},{"type":"Point","properties":{"Station_ID":"ERI53","Station_Nam":"HRRD WEST DAY","Latitude":"43.28000","Longitude":"-74.08000","Snowdepth":"16.000","Units":"in","Rept_Date":"2020-02-19 17"},"coordinates":[5435,2253]},{"type":"Point","properties":{"Station_ID":"ERG20","Station_Nam":"NMPS LONG LAKE","Latitude":"43.98000","Longitude":"-74.45000","Snowdepth":"16.000","Units":"in","Rept_Date":"2020-02-19 17"},"coordinates":[5348,2895]},{"type":"Point","properties":{"Station_ID":"ENGM4","Station_Nam":"ENGADINE MDOT","Latitude":"46.12800","Longitude":"-85.56960","Snowdepth":"16.000","Units":"in","Rept_Date":"2020-02-19 12"},"coordinates":[2739,4864]},{"type":"Point","properties":{"Station_ID":"CVZW3","Station_Nam":"WISCONSIN PUBLIC SERVICE","Latitude":"45.23530","Longitude":"-88.01360","Snowdepth":"16.000","Units":"in","Rept_Date":"2020-02-19 12"},"coordinates":[2165,4046]},{"type":"Point","properties":{"Station_ID":"BULV1","Station_Nam":"BUELS GORE","Latitude":"44.21910","Longitude":"-72.95170","Snowdepth":"16.000","Units":"in","Rept_Date":"2020-02-19 23"},"coordinates":[5700,3114]},{"type":"Point","properties":{"Station_ID":"BRAM5","Station_Nam":"BRAINERD","Latitude":"46.34320","Longitude":"-94.20900","Snowdepth":"16.000","Units":"in","Rept_Date":"2020-02-19 13"},"coordinates":[711,5062]},{"type":"Point","properties":{"Station_ID":"BDMW3","Station_Nam":"BEAVER DAM 1 N","Latitude":"43.46860","Longitude":"-88.83970","Snowdepth":"16.000","Units":"in","Rept_Date":"2020-02-19 13"},"coordinates":[1971,2426]},{"type":"Point","properties":{"Station_ID":"APPW3","Station_Nam":"APPLETON","Latitude":"44.27690","Longitude":"-88.43770","Snowdepth":"16.000","Units":"in","Rept_Date":"2020-02-19 12"},"coordinates":[2066,3167]},{"type":"Point","properties":{"Station_ID":"ALBM5","Station_Nam":"ALBERT LEA 3 SE","Latitude":"43.60640","Longitude":"-93.30190","Snowdepth":"16.000","Units":"in","Rept_Date":"2020-02-19 14"},"coordinates":[924,2552]},{"type":"Point","properties":{"Station_ID":"WI-CB-5","Station_Nam":"PORTAGE 7.2 SW, WI","Latitude":"43.47933","Longitude":"-89.57370","Snowdepth":"15.500","Units":"in","Rept_Date":"2020-02-19 13"},"coordinates":[1799,2435]},{"type":"Point","properties":{"Station_ID":"NH-MR-45","Station_Nam":"NORTHFIELD 2.8 E, NH","Latitude":"43.43945","Longitude":"-71.53730","Snowdepth":"15.500","Units":"in","Rept_Date":"2020-02-19 12"},"coordinates":[6032,2399]},{"type":"Point","properties":{"Station_ID":"NH-CR-16","Station_Nam":"WOLFEBORO 0.6 SW, NH","Latitude":"43.58464","Longitude":"-71.21760","Snowdepth":"15.500","Units":"in","Rept_Date":"2020-02-19 12"},"coordinates":[6107,2532]},{"type":"Point","properties":{"Station_ID":"MN-BK-10","Station_Nam":"DETROIT LAKES 5.7 N, MN","Latitude":"46.88666","Longitude":"-95.84444","Snowdepth":"15.500","Units":"in","Rept_Date":"2020-02-19 10"},"coordinates":[327,5560]},{"type":"Point","properties":{"Station_ID":"ME-YK-67","Station_Nam":"CORNISH 5.6 ESE, ME","Latitude":"43.78308","Longitude":"-70.69539","Snowdepth":"15.500","Units":"in","Rept_Date":"2020-02-19 12"},"coordinates":[6230,2714]},{"type":"Point","properties":{"Station_ID":"CAN-PE-3","Station_Nam":"WELLINGTON 1.6 NE, CA","Latitude":"46.46672","Longitude":"-63.98920","Snowdepth":"15.500","Units":"in","Rept_Date":"2020-02-19 11"},"coordinates":[7803,5175]},{"type":"Point","properties":{"Station_ID":"WPHN6","Station_Nam":"GEORGETOWN SNOW","Latitude":"42.76670","Longitude":"-75.70000","Snowdepth":"15.000","Units":"in","Rept_Date":"2020-02-19 13"},"coordinates":[5055,1782]},{"type":"Point","properties":{"Station_ID":"WLKM5","Station_Nam":"AH-GWAH-CHING","Latitude":"47.15000","Longitude":"-94.65000","Snowdepth":"15.000","Units":"in","Rept_Date":"2020-02-19 11"},"coordinates":[608,5802]},{"type":"Point","properties":{"Station_ID":"WIRW3","Station_Nam":"WIS RAPIDS GRAND AV B","Latitude":"44.39940","Longitude":"-89.83050","Snowdepth":"15.000","Units":"in","Rept_Date":"2020-02-19 13"},"coordinates":[1739,3279]},{"type":"Point","properties":{"Station_ID":"WIPW3","Station_Nam":"WISCONSIN RAPIDS-SOUTHEAST","Latitude":"44.38190","Longitude":"-89.80470","Snowdepth":"15.000","Units":"in","Rept_Date":"2020-02-19 12"},"coordinates":[1745,3263]},{"type":"Point","properties":{"Station_ID":"WILW3","Station_Nam":"RESERVOIR","Latitude":"45.70000","Longitude":"-89.83330","Snowdepth":"15.000","Units":"in","Rept_Date":"2020-02-19 12"},"coordinates":[1738,4472]},{"type":"Point","properties":{"Station_ID":"WI-TR-8","Station_Nam":"ETTRICK 4.0 WNW, WI","Latitude":"44.19004","Longitude":"-91.34249","Snowdepth":"15.000","Units":"in","Rept_Date":"2020-02-19 13"},"coordinates":[1384,3087]},{"type":"Point","properties":{"Station_ID":"WI-EC-23","Station_Nam":"EAU CLAIRE 3.7 S, WI","Latitude":"44.76858","Longitude":"-91.49898","Snowdepth":"15.000","Units":"in","Rept_Date":"2020-02-19 14"},"coordinates":[1347,3618]},{"type":"Point","properties":{"Station_ID":"WI-CH-7","Station_Nam":"CHIPPEWA FALLS 1.2 E, WI","Latitude":"44.92920","Longitude":"-91.36730","Snowdepth":"15.000","Units":"in","Rept_Date":"2020-02-19 13"},"coordinates":[1378,3765]},{"type":"Point","properties":{"Station_ID":"WELM5","Station_Nam":"WELLS","Latitude":"43.74680","Longitude":"-93.73680","Snowdepth":"15.000","Units":"in","Rept_Date":"2020-02-19 14"},"coordinates":[822,2681]},{"type":"Point","properties":{"Station_ID":"WAWN6","Station_Nam":"WAWBEEK","Latitude":"44.24440","Longitude":"-74.36060","Snowdepth":"15.000","Units":"in","Rept_Date":"2020-02-19 17"},"coordinates":[5369,3137]},{"type":"Point","properties":{"Station_ID":"STRW3","Station_Nam":"STRATFORD 1NW","Latitude":"44.81750","Longitude":"-90.08990","Snowdepth":"15.000","Units":"in","Rept_Date":"2020-02-19 13"},"coordinates":[1678,3663]},{"type":"Point","properties":{"Station_ID":"SJBV1","Station_Nam":"SAINT JOHNSBURY","Latitude":"44.42000","Longitude":"-72.01940","Snowdepth":"15.000","Units":"in","Rept_Date":"2020-02-19 21"},"coordinates":[5919,3298]},{"type":"Point","properties":{"Station_ID":"SBNM5","Station_Nam":"SABIN","Latitude":"46.77690","Longitude":"-96.65610","Snowdepth":"15.000","Units":"in","Rept_Date":"2020-02-19 14"},"coordinates":[137,5460]},{"type":"Point","properties":{"Station_ID":"RST","Station_Nam":"ROCHESTER INTERNATIONAL ARPT","Latitude":"43.90890","Longitude":"-92.49780","Snowdepth":"15.000","Units":"in","Rept_Date":"2020-02-20 00"},"coordinates":[1113,2829]},{"type":"Point","properties":{"Station_ID":"RSRM5","Station_Nam":"ROCHESTER AP 2NE","Latitude":"43.92810","Longitude":"-92.47580","Snowdepth":"15.000","Units":"in","Rept_Date":"2020-02-19 18"},"coordinates":[1118,2847]},{"type":"Point","properties":{"Station_ID":"POLM1","Station_Nam":"POLAND","Latitude":"44.00700","Longitude":"-70.36140","Snowdepth":"15.000","Units":"in","Rept_Date":"2020-02-19 12"},"coordinates":[6308,2919]},{"type":"Point","properties":{"Station_ID":"PLOW3","Station_Nam":"PLOVER","Latitude":"44.44280","Longitude":"-89.54530","Snowdepth":"15.000","Units":"in","Rept_Date":"2020-02-19 13"},"coordinates":[1806,3319]},{"type":"Point","properties":{"Station_ID":"NY-WR-10","Station_Nam":"WARRENSBURG 2.1 WNW, NY","Latitude":"43.51784","Longitude":"-73.81069","Snowdepth":"15.000","Units":"in","Rept_Date":"2020-02-19 13"},"coordinates":[5498,2471]},{"type":"Point","properties":{"Station_ID":"NWSM1","Station_Nam":"NEW SHARON","Latitude":"44.63520","Longitude":"-70.00020","Snowdepth":"15.000","Units":"in","Rept_Date":"2020-02-19 12"},"coordinates":[6393,3495]},{"type":"Point","properties":{"Station_ID":"NVLN6","Station_Nam":"NORTHVILLE","Latitude":"43.23330","Longitude":"-74.16670","Snowdepth":"15.000","Units":"in","Rept_Date":"2020-02-19 13"},"coordinates":[5415,2210]},{"type":"Point","properties":{"Station_ID":"NOHV1","Station_Nam":"NORTH HARTLAND LAKE","Latitude":"43.60270","Longitude":"-72.36210","Snowdepth":"15.000","Units":"in","Rept_Date":"2020-02-19 12"},"coordinates":[5838,2549]},{"type":"Point","properties":{"Station_ID":"NHNW3","Station_Nam":"NEW HOLSTEIN-EAST-WWTP","Latitude":"43.95310","Longitude":"-88.07720","Snowdepth":"15.000","Units":"in","Rept_Date":"2020-02-19 12"},"coordinates":[2150,2870]},{"type":"Point","properties":{"Station_ID":"NH-MR-60","Station_Nam":"SOUTH SUTTON 1.3 SE, NH","Latitude":"43.29531","Longitude":"-71.90238","Snowdepth":"15.000","Units":"in","Rept_Date":"2020-02-19 13"},"coordinates":[5946,2267]},{"type":"Point","properties":{"Station_ID":"MNP0GYWA","Station_Nam":"WALKER 2.0 SSE","Latitude":"47.07505","Longitude":"-94.56757","Snowdepth":"15.000","Units":"in","Rept_Date":"2020-02-19 11"},"coordinates":[627,5733]},{"type":"Point","properties":{"Station_ID":"MNG0GYSN","Station_Nam":"LONSDALE 1.1 SSW","Latitude":"44.46445","Longitude":"-93.43293","Snowdepth":"15.000","Units":"in","Rept_Date":"2020-02-19 12"},"coordinates":[893,3339]},{"type":"Point","properties":{"Station_ID":"MN-SE-2","Station_Nam":"OWATONNA 0.8 E, MN","Latitude":"44.09170","Longitude":"-93.21380","Snowdepth":"15.000","Units":"in","Rept_Date":"2020-02-19 12"},"coordinates":[945,2997]},{"type":"Point","properties":{"Station_ID":"MN-RC-1","Station_Nam":"MONTGOMERY 3.2 ENE, MN","Latitude":"44.46400","Longitude":"-93.51980","Snowdepth":"15.000","Units":"in","Rept_Date":"2020-02-19 11"},"coordinates":[873,3338]},{"type":"Point","properties":{"Station_ID":"MN-PK-15","Station_Nam":"MENTOR 2.5 SSW, MN","Latitude":"47.66625","Longitude":"-96.17328","Snowdepth":"15.000","Units":"in","Rept_Date":"2020-02-19 13"},"coordinates":[250,6275]},{"type":"Point","properties":{"Station_ID":"MFDW3","Station_Nam":"MARSHFIELD EXP FARM","Latitude":"44.64110","Longitude":"-90.13330","Snowdepth":"15.000","Units":"in","Rept_Date":"2020-02-19 13"},"coordinates":[1668,3501]},{"type":"Point","properties":{"Station_ID":"KSEM4","Station_Nam":"KALKASKA 11SE","Latitude":"44.58970","Longitude":"-85.04860","Snowdepth":"15.000","Units":"in","Rept_Date":"2020-02-19 13"},"coordinates":[2861,3454]},{"type":"Point","properties":{"Station_ID":"HMYM1","Station_Nam":"HARMONY","Latitude":"44.94660","Longitude":"-69.54560","Snowdepth":"15.000","Units":"in","Rept_Date":"2020-02-19 12"},"coordinates":[6499,3781]},{"type":"Point","properties":{"Station_ID":"GYX","Station_Nam":"PORTLAND, ME","Latitude":"43.89250","Longitude":"-70.25500","Snowdepth":"15.000","Units":"in","Rept_Date":"2020-02-19 12"},"coordinates":[6333,2814]},{"type":"Point","properties":{"Station_ID":"FORW3","Station_Nam":"FORESTVILLE-4E","Latitude":"44.69780","Longitude":"-87.39690","Snowdepth":"15.000","Units":"in","Rept_Date":"2020-02-19 13"},"coordinates":[2310,3553]},{"type":"Point","properties":{"Station_ID":"FLAM4","Station_Nam":"FIFE LAKE 2WNW","Latitude":"44.58480","Longitude":"-85.36530","Snowdepth":"15.000","Units":"in","Rept_Date":"2020-02-19 12"},"coordinates":[2787,3449]},{"type":"Point","properties":{"Station_ID":"FEDM5","Station_Nam":"LEECH LAKE DAM","Latitude":"47.24670","Longitude":"-94.22280","Snowdepth":"15.000","Units":"in","Rept_Date":"2020-02-19 14"},"coordinates":[708,5890]},{"type":"Point","properties":{"Station_ID":"ERH20","Station_Nam":"NMPS WAWBEEK","Latitude":"44.25000","Longitude":"-74.33000","Snowdepth":"15.000","Units":"in","Rept_Date":"2020-02-19 17"},"coordinates":[5376,3142]},{"type":"Point","properties":{"Station_ID":"EPMW3","Station_Nam":"EPHRAIM-1 NE WWTP","Latitude":"45.17080","Longitude":"-87.15360","Snowdepth":"15.000","Units":"in","Rept_Date":"2020-02-19 14"},"coordinates":[2367,3987]},{"type":"Point","properties":{"Station_ID":"CGPM4","Station_Nam":"DOLLAR BAY","Latitude":"47.11670","Longitude":"-88.51370","Snowdepth":"15.000","Units":"in","Rept_Date":"2020-02-19 13"},"coordinates":[2048,5771]},{"type":"Point","properties":{"Station_ID":"CAN-ON-208","Station_Nam":"PAKENHAM 7.8 NNW, CAN","Latitude":"45.39166","Longitude":"-76.34111","Snowdepth":"15.000","Units":"in","Rept_Date":"2020-02-19 12"},"coordinates":[4904,4189]},{"type":"Point","properties":{"Station_ID":"BGGW3","Station_Nam":"GREEN BAY,WI","Latitude":"44.53170","Longitude":"-88.09720","Snowdepth":"15.000","Units":"in","Rept_Date":"2020-02-19 13"},"coordinates":[2145,3401]},{"type":"Point","properties":{"Station_ID":"BEAW3","Station_Nam":"BEAVER DAM,WI","Latitude":"43.45000","Longitude":"-88.85000","Snowdepth":"15.000","Units":"in","Rept_Date":"2020-02-19 13"},"coordinates":[1969,2409]},{"type":"Point","properties":{"Station_ID":"BALW3","Station_Nam":"BALDWIN","Latitude":"44.96330","Longitude":"-92.39050","Snowdepth":"15.000","Units":"in","Rept_Date":"2020-02-19 13"},"coordinates":[1138,3796]},{"type":"Point","properties":{"Station_ID":"CAN-QC-16","Station_Nam":"SAINT-ARMAND 3.6 W, CAN","Latitude":"45.02631","Longitude":"-73.08795","Snowdepth":"14.600","Units":"in","Rept_Date":"2020-02-19 12"},"coordinates":[5668,3854]},{"type":"Point","properties":{"Station_ID":"CAN-NB-98","Station_Nam":"HOYT 4.2 S, CAN","Latitude":"45.54763","Longitude":"-66.55440","Snowdepth":"14.600","Units":"in","Rept_Date":"2020-02-19 11"},"coordinates":[7201,4332]},{"type":"Point","properties":{"Station_ID":"WI-WN-9","Station_Nam":"NEENAH 1.1 ENE, WI","Latitude":"44.17370","Longitude":"-88.45130","Snowdepth":"14.500","Units":"in","Rept_Date":"2020-02-19 13"},"coordinates":[2062,3072]},{"type":"Point","properties":{"Station_ID":"WI-WH-7","Station_Nam":"WILD ROSE 0.5 E, WI","Latitude":"44.17764","Longitude":"-89.23812","Snowdepth":"14.500","Units":"in","Rept_Date":"2020-02-19 13"},"coordinates":[1878,3076]},{"type":"Point","properties":{"Station_ID":"MN-AT-5","Station_Nam":"TAMARACK 1.4 SW, MN","Latitude":"46.63760","Longitude":"-93.14554","Snowdepth":"14.500","Units":"in","Rept_Date":"2020-02-19 11"},"coordinates":[961,5332]},{"type":"Point","properties":{"Station_ID":"MI-GT-21","Station_Nam":"KINGSLEY 2.7 ENE, MI","Latitude":"44.59871","Longitude":"-85.48426","Snowdepth":"14.500","Units":"in","Rept_Date":"2020-02-19 13"},"coordinates":[2759,3462]},{"type":"Point","properties":{"Station_ID":"CAN-MB-32","Station_Nam":"PINAWA 1.0 SW, CA","Latitude":"50.14747","Longitude":"-95.89020","Snowdepth":"14.500","Units":"in","Rept_Date":"2020-02-19 13"},"coordinates":[316,8551]},{"type":"Point","properties":{"Station_ID":"CAN-ON-491","Station_Nam":"MILVERTON 1.1 ESE- CANWARN, CAN","Latitude":"43.56074","Longitude":"-80.90887","Snowdepth":"14.400","Units":"in","Rept_Date":"2020-02-19 11"},"coordinates":[3832,2510]},{"type":"Point","properties":{"Station_ID":"WTBW3","Station_Nam":"WEST BEND PUBLIC WORKS","Latitude":"43.41110","Longitude":"-88.19380","Snowdepth":"14.000","Units":"in","Rept_Date":"2020-02-19 13"},"coordinates":[2123,2373]},{"type":"Point","properties":{"Station_ID":"WPGN6","Station_Nam":"GEORGETOWN 2SE SNOW","Latitude":"42.75000","Longitude":"-75.70000","Snowdepth":"14.000","Units":"in","Rept_Date":"2020-02-19 13"},"coordinates":[5055,1767]},{"type":"Point","properties":{"Station_ID":"WLDM5","Station_Nam":"WILD RIVER STATE PARK","Latitude":"45.52310","Longitude":"-92.74890","Snowdepth":"14.000","Units":"in","Rept_Date":"2020-02-19 14"},"coordinates":[1054,4310]},{"type":"Point","properties":{"Station_ID":"WI-GN-5","Station_Nam":"MONTICELLO 2.2 SE, WI","Latitude":"42.71990","Longitude":"-89.56360","Snowdepth":"14.000","Units":"in","Rept_Date":"2020-02-19 13"},"coordinates":[1801,1739]},{"type":"Point","properties":{"Station_ID":"WAOW3","Station_Nam":"WAUTOMA SILVER LAKE SANITARY DISTRICT","Latitude":"44.04110","Longitude":"-89.24330","Snowdepth":"14.000","Units":"in","Rept_Date":"2020-02-19 14"},"coordinates":[1876,2951]},{"type":"Point","properties":{"Station_ID":"WAIV1","Station_Nam":"WAITSFIELD","Latitude":"44.17560","Longitude":"-72.79610","Snowdepth":"14.000","Units":"in","Rept_Date":"2020-02-19 11"},"coordinates":[5736,3074]},{"type":"Point","properties":{"Station_ID":"VT-WS-11","Station_Nam":"WAITSFIELD 1.8 SE, VT","Latitude":"44.17551","Longitude":"-72.79540","Snowdepth":"14.000","Units":"in","Rept_Date":"2020-02-19 11"},"coordinates":[5737,3074]},{"type":"Point","properties":{"Station_ID":"VT-LM-7","Station_Nam":"HYDE PARK 2.9 NE, VT","Latitude":"44.62080","Longitude":"-72.57250","Snowdepth":"14.000","Units":"in","Rept_Date":"2020-02-19 12"},"coordinates":[5789,3482]},{"type":"Point","properties":{"Station_ID":"VT-LM-1","Station_Nam":"STOWE 0.2 SW, VT","Latitude":"44.46399","Longitude":"-72.69070","Snowdepth":"14.000","Units":"in","Rept_Date":"2020-02-19 12"},"coordinates":[5761,3338]},{"type":"Point","properties":{"Station_ID":"VT-CH-11","Station_Nam":"UNDERHILL 5.1 NNE, VT","Latitude":"44.59811","Longitude":"-72.91880","Snowdepth":"14.000","Units":"in","Rept_Date":"2020-02-19 13"},"coordinates":[5708,3461]},{"type":"Point","properties":{"Station_ID":"TURM1","Station_Nam":"TURNER","Latitude":"44.28220","Longitude":"-70.25610","Snowdepth":"14.000","Units":"in","Rept_Date":"2020-02-19 12"},