{"type":"Topology","objects":{"snowdepth_geo":{"type":"GeometryCollection","name":"snowdepth","crs":{"type":"name","properties":{"name":"urn:ogc:def:crs:OGC:1.3:CRS84"}},"geometries":[{"type":"Point","properties":{"Station_ID":"PRKM4","Station_Nam":"MUNISING EAST","Latitude":"46.42580","Longitude":"-86.62000","Snowdepth":"76.500","Units":"in","Rept_Date":"2020-12-13 06"},"coordinates":[2481,6701]},{"type":"Point","properties":{"Station_ID":"VT-WS-23","Station_Nam":"CABOT 2.3 E, VT","Latitude":"44.39807","Longitude":"-72.26570","Snowdepth":"50.000","Units":"in","Rept_Date":"2020-12-12 13"},"coordinates":[5855,5439]},{"type":"Point","properties":{"Station_ID":"IA-BH-17","Station_Nam":"GILBERTVILLE 1.0 NW, IA","Latitude":"42.43070","Longitude":"-92.22526","Snowdepth":"22.000","Units":"in","Rept_Date":"2020-12-12 14"},"coordinates":[1163,4215]},{"type":"Point","properties":{"Station_ID":"CAN-NB-50","Station_Nam":"DOYLEVILLE 2.4 WNW, CAN","Latitude":"47.90803","Longitude":"-66.13279","Snowdepth":"14.800","Units":"in","Rept_Date":"2020-12-12 13"},"coordinates":[7296,7623]},{"type":"Point","properties":{"Station_ID":"HTLN3","Station_Nam":"HERMIT LAKE SNOWPLOT","Latitude":"44.26130","Longitude":"-71.28330","Snowdepth":"14.000","Units":"in","Rept_Date":"2020-12-12 10"},"coordinates":[6086,5354]},{"type":"Point","properties":{"Station_ID":"APN","Station_Nam":"PHELPS COLLINS FIELD","Latitude":"45.07810","Longitude":"-83.56030","Snowdepth":"14.000","Units":"in","Rept_Date":"2020-12-13 00"},"coordinates":[3200,5863]},{"type":"Point","properties":{"Station_ID":"ALPM4","Station_Nam":"SNOW PAID OBSERVER FOR KAPN","Latitude":"45.03110","Longitude":"-83.55970","Snowdepth":"14.000","Units":"in","Rept_Date":"2020-12-13 06"},"coordinates":[3200,5833]},{"type":"Point","properties":{"Station_ID":"QOU","Station_Nam":"QOU","Latitude":"50.79250","Longitude":"-69.67470","Snowdepth":"13.701","Units":"in","Rept_Date":"2020-12-12 12"},"coordinates":[6464,9418]},{"type":"Point","properties":{"Station_ID":"MLZ","Station_Nam":"MLZ","Latitude":"50.66170","Longitude":"-68.82360","Snowdepth":"12.402","Units":"in","Rept_Date":"2020-12-12 12"},"coordinates":[6664,9336]},{"type":"Point","properties":{"Station_ID":"QCO","Station_Nam":"QCO","Latitude":"51.45280","Longitude":"-72.20110","Snowdepth":"11.417","Units":"in","Rept_Date":"2020-12-12 12"},"coordinates":[5870,9828]},{"type":"Point","properties":{"Station_ID":"HLSN3","Station_Nam":"HERMIT LAKE SNOTEL","Latitude":"44.26130","Longitude":"-71.28320","Snowdepth":"11.020","Units":"in","Rept_Date":"2020-12-13 06"},"coordinates":[6086,5354]},{"type":"Point","properties":{"Station_ID":"QLB","Station_Nam":"QLB","Latitude":"50.72360","Longitude":"-75.10000","Snowdepth":"10.787","Units":"in","Rept_Date":"2020-12-12 12"},"coordinates":[5189,9375]},{"type":"Point","properties":{"Station_ID":"NH-CS-10","Station_Nam":"RANDOLPH 1.4 NE, NH","Latitude":"44.38824","Longitude":"-71.26950","Snowdepth":"10.500","Units":"in","Rept_Date":"2020-12-12 12"},"coordinates":[6089,5433]},{"type":"Point","properties":{"Station_ID":"TRIQ6","Station_Nam":"TRIO LAKE","Latitude":"49.22880","Longitude":"-87.22920","Snowdepth":"10.310","Units":"in","Rept_Date":"2020-12-13 06"},"coordinates":[2338,8445]},{"type":"Point","properties":{"Station_ID":"QGO","Station_Nam":"QGO","Latitude":"48.85500","Longitude":"-74.20640","Snowdepth":"10.118","Units":"in","Rept_Date":"2020-12-12 12"},"coordinates":[5399,8212]},{"type":"Point","properties":{"Station_ID":"RGNM1","Station_Nam":"RANGELEY 2NW","Latitude":"44.98940","Longitude":"-70.67220","Snowdepth":"10.000","Units":"in","Rept_Date":"2020-12-12 14"},"coordinates":[6229,5807]},{"type":"Point","properties":{"Station_ID":"RANM1","Station_Nam":"RANGELEY","Latitude":"44.98910","Longitude":"-70.67190","Snowdepth":"10.000","Units":"in","Rept_Date":"2020-12-12 13"},"coordinates":[6229,5807]},{"type":"Point","properties":{"Station_ID":"QMA","Station_Nam":"QMA","Latitude":"50.10330","Longitude":"-70.47190","Snowdepth":"10.000","Units":"in","Rept_Date":"2020-12-12 12"},"coordinates":[6276,8989]},{"type":"Point","properties":{"Station_ID":"MWN","Station_Nam":"MOUNT WASHINGTON","Latitude":"44.26670","Longitude":"-71.30000","Snowdepth":"10.000","Units":"in","Rept_Date":"2020-12-12 12"},"coordinates":[6082,5358]},{"type":"Point","properties":{"Station_ID":"ESGM1","Station_Nam":"EAST SANGERVILLE","Latitude":"45.13690","Longitude":"-69.28060","Snowdepth":"10.000","Units":"in","Rept_Date":"2020-12-12 12"},"coordinates":[6556,5899]},{"type":"Point","properties":{"Station_ID":"QTM","Station_Nam":"QTM","Latitude":"51.05780","Longitude":"-72.57190","Snowdepth":"9.842","Units":"in","Rept_Date":"2020-12-12 12"},"coordinates":[5783,9583]},{"type":"Point","properties":{"Station_ID":"QCX","Station_Nam":"QCX","Latitude":"51.32830","Longitude":"-70.08060","Snowdepth":"9.449","Units":"in","Rept_Date":"2020-12-12 12"},"coordinates":[6368,9751]},{"type":"Point","properties":{"Station_ID":"ME-AR-18","Station_Nam":"NEW SWEDEN 4.9 NNW, ME","Latitude":"47.01080","Longitude":"-68.14390","Snowdepth":"9.000","Units":"in","Rept_Date":"2020-12-12 12"},"coordinates":[6824,7065]},{"type":"Point","properties":{"Station_ID":"KMWN","Station_Nam":"MOUNT WASHINGTON","Latitude":"44.26666","Longitude":"-71.30000","Snowdepth":"9.000","Units":"in","Rept_Date":"2020-12-13 06"},"coordinates":[6082,5358]},{"type":"Point","properties":{"Station_ID":"DUBI4","Station_Nam":"DUBUQUE #3","Latitude":"42.40870","Longitude":"-90.73250","Snowdepth":"9.000","Units":"in","Rept_Date":"2020-12-12 18"},"coordinates":[1514,4202]},{"type":"Point","properties":{"Station_ID":"DBQ","Station_Nam":"DUBUQUE REGIONAL AIRPORT","Latitude":"42.40310","Longitude":"-90.70920","Snowdepth":"9.000","Units":"in","Rept_Date":"2020-12-13 00"},"coordinates":[1520,4198]},{"type":"Point","properties":{"Station_ID":"CARM1","Station_Nam":"CARIBOU WFO","Latitude":"46.86810","Longitude":"-68.01250","Snowdepth":"9.000","Units":"in","Rept_Date":"2020-12-13 05"},"coordinates":[6854,6976]},{"type":"Point","properties":{"Station_ID":"CAR","Station_Nam":"CARIBOU, ME","Latitude":"46.86830","Longitude":"-68.01360","Snowdepth":"9.000","Units":"in","Rept_Date":"2020-12-12 12"},"coordinates":[6854,6976]},{"type":"Point","properties":{"Station_ID":"QMD","Station_Nam":"QMD","Latitude":"49.29060","Longitude":"-75.84500","Snowdepth":"8.740","Units":"in","Rept_Date":"2020-12-12 12"},"coordinates":[5014,8483]},{"type":"Point","properties":{"Station_ID":"PTLQ6","Station_Nam":"PORTAGE LAKE","Latitude":"49.06950","Longitude":"-86.65940","Snowdepth":"8.310","Units":"in","Rept_Date":"2020-12-13 06"},"coordinates":[2472,8346]},{"type":"Point","properties":{"Station_ID":"DVLQ6","Station_Nam":"DEVIOUS LAKE","Latitude":"49.19890","Longitude":"-87.76440","Snowdepth":"8.070","Units":"in","Rept_Date":"2020-12-13 06"},"coordinates":[2212,8426]},{"type":"Point","properties":{"Station_ID":"MMNV1","Station_Nam":"MT. MANSFIELD","Latitude":"44.52480","Longitude":"-72.81540","Snowdepth":"8.000","Units":"in","Rept_Date":"2020-12-12 21"},"coordinates":[5726,5518]},{"type":"Point","properties":{"Station_ID":"ME-FR-2","Station_Nam":"TEMPLE 1.8 W, ME","Latitude":"44.68329","Longitude":"-70.26420","Snowdepth":"8.000","Units":"in","Rept_Date":"2020-12-12 12"},"coordinates":[6325,5617]},{"type":"Point","properties":{"Station_ID":"QGD","Station_Nam":"QGD","Latitude":"51.11140","Longitude":"-67.13940","Snowdepth":"7.756","Units":"in","Rept_Date":"2020-12-12 12"},"coordinates":[7060,9616]},{"type":"Point","properties":{"Station_ID":"AUDQ6","Station_Nam":"AUDEN","Latitude":"48.52600","Longitude":"-82.57570","Snowdepth":"7.480","Units":"in","Rept_Date":"2020-12-13 06"},"coordinates":[3432,8008]},{"type":"Point","properties":{"Station_ID":"QWG","Station_Nam":"QWG","Latitude":"48.48890","Longitude":"-73.45940","Snowdepth":"7.165","Units":"in","Rept_Date":"2020-12-12 12"},"coordinates":[5574,7985]},{"type":"Point","properties":{"Station_ID":"MFU","Station_Nam":"MFU","Latitude":"51.52170","Longitude":"-66.91110","Snowdepth":"7.126","Units":"in","Rept_Date":"2020-12-12 12"},"coordinates":[7113,9871]},{"type":"Point","properties":{"Station_ID":"WI-DD-6","Station_Nam":"THERESA 0.5 SSW, WI","Latitude":"43.51135","Longitude":"-88.45578","Snowdepth":"7.000","Units":"in","Rept_Date":"2020-12-12 18"},"coordinates":[2049,4888]},{"type":"Point","properties":{"Station_ID":"NH-CS-4","Station_Nam":"PITTSBURG 6.1 NE, NH","Latitude":"45.11060","Longitude":"-71.29760","Snowdepth":"7.000","Units":"in","Rept_Date":"2020-12-12 12"},"coordinates":[6082,5883]},{"type":"Point","properties":{"Station_ID":"NH-CS-19","Station_Nam":"CARROLL 4.6 NE, NH","Latitude":"44.33765","Longitude":"-71.46461","Snowdepth":"7.000","Units":"in","Rept_Date":"2020-12-12 12"},"coordinates":[6043,5402]},{"type":"Point","properties":{"Station_ID":"IA-SR-42","Station_Nam":"AMES 2.1 WNW, IA","Latitude":"42.03730","Longitude":"-93.66180","Snowdepth":"7.000","Units":"in","Rept_Date":"2020-12-12 15"},"coordinates":[826,3971]},{"type":"Point","properties":{"Station_ID":"HTLM4","Station_Nam":"SNOW PAID OBSERVER FOR KHTL","Latitude":"44.34470","Longitude":"-84.67730","Snowdepth":"7.000","Units":"in","Rept_Date":"2020-12-13 00"},"coordinates":[2938,5406]},{"type":"Point","properties":{"Station_ID":"HTL","Station_Nam":"ROSCOMMON COUNTY AIRPORT","Latitude":"44.35000","Longitude":"-84.66670","Snowdepth":"7.000","Units":"in","Rept_Date":"2020-12-13 00"},"coordinates":[2940,5410]},{"type":"Point","properties":{"Station_ID":"CINI4","Station_Nam":"CARROLL,IA","Latitude":"42.06670","Longitude":"-94.85000","Snowdepth":"7.000","Units":"in","Rept_Date":"2020-12-12 13"},"coordinates":[547,3989]},{"type":"Point","properties":{"Station_ID":"CDLM4","Station_Nam":"CADILLAC 9&10 NEWS","Latitude":"44.21130","Longitude":"-85.40860","Snowdepth":"7.000","Units":"in","Rept_Date":"2020-12-12 12"},"coordinates":[2766,5323]},{"type":"Point","properties":{"Station_ID":"BNWI4","Station_Nam":"BOONE,IA","Latitude":"42.05000","Longitude":"-93.93330","Snowdepth":"7.000","Units":"in","Rept_Date":"2020-12-12 14"},"coordinates":[762,3979]},{"type":"Point","properties":{"Station_ID":"APXM4","Station_Nam":"GAYLORD 9SSW","Latitude":"44.90720","Longitude":"-84.71880","Snowdepth":"7.000","Units":"in","Rept_Date":"2020-12-13 06"},"coordinates":[2928,5756]},{"type":"Point","properties":{"Station_ID":"ADXI4","Station_Nam":"ADEL 2SE","Latitude":"41.59360","Longitude":"-93.97930","Snowdepth":"7.000","Units":"in","Rept_Date":"2020-12-12 13"},"coordinates":[751,3695]},{"type":"Point","properties":{"Station_ID":"QTV","Station_Nam":"QTV","Latitude":"49.66000","Longitude":"-69.35690","Snowdepth":"6.732","Units":"in","Rept_Date":"2020-12-12 12"},"coordinates":[6538,8713]},{"type":"Point","properties":{"Station_ID":"NH-ST-31","Station_Nam":"STRAFFORD 2.9 N, NH","Latitude":"43.31175","Longitude":"-71.13510","Snowdepth":"6.500","Units":"in","Rept_Date":"2020-12-12 12"},"coordinates":[6121,4764]},{"type":"Point","properties":{"Station_ID":"IA-SR-41","Station_Nam":"MAXWELL 2.5 N, IA","Latitude":"41.92682","Longitude":"-93.40693","Snowdepth":"6.500","Units":"in","Rept_Date":"2020-12-12 14"},"coordinates":[886,3902]},{"type":"Point","properties":{"Station_ID":"IA-PK-73","Station_Nam":"DES MOINES 4.1 N, IA","Latitude":"41.63605","Longitude":"-93.60630","Snowdepth":"6.500","Units":"in","Rept_Date":"2020-12-12 13"},"coordinates":[839,3721]},{"type":"Point","properties":{"Station_ID":"IA-PK-3","Station_Nam":"DES MOINES 4.5 WNW, IA","Latitude":"41.60663","Longitude":"-93.69560","Snowdepth":"6.500","Units":"in","Rept_Date":"2020-12-12 13"},"coordinates":[818,3703]},{"type":"Point","properties":{"Station_ID":"IA-PK-107","Station_Nam":"DES MOINES 4.8 NW, IA","Latitude":"41.62784","Longitude":"-93.68143","Snowdepth":"6.500","Units":"in","Rept_Date":"2020-12-12 13"},"coordinates":[821,3716]},{"type":"Point","properties":{"Station_ID":"IA-JH-20","Station_Nam":"CORALVILLE 1.4 S, IA","Latitude":"41.67016","Longitude":"-91.60296","Snowdepth":"6.500","Units":"in","Rept_Date":"2020-12-12 14"},"coordinates":[1310,3742]},{"type":"Point","properties":{"Station_ID":"QLP","Station_Nam":"QLP","Latitude":"48.13920","Longitude":"-72.63830","Snowdepth":"6.378","Units":"in","Rept_Date":"2020-12-12 12"},"coordinates":[5767,7767]},{"type":"Point","properties":{"Station_ID":"MRL","Station_Nam":"MRL","Latitude":"51.28330","Longitude":"-68.84060","Snowdepth":"6.181","Units":"in","Rept_Date":"2020-12-12 12"},"coordinates":[6660,9723]},{"type":"Point","properties":{"Station_ID":"WVLM1","Station_Nam":"WATERVILLE TREATMENT PLT","Latitude":"44.52720","Longitude":"-69.65440","Snowdepth":"6.000","Units":"in","Rept_Date":"2020-12-12 13"},"coordinates":[6469,5520]},{"type":"Point","properties":{"Station_ID":"WI-LF-6","Station_Nam":"SOUTH WAYNE 3.9 SSW, WI","Latitude":"42.51173","Longitude":"-89.89555","Snowdepth":"6.000","Units":"in","Rept_Date":"2020-12-12 13"},"coordinates":[1711,4266]},{"type":"Point","properties":{"Station_ID":"WI-DD-4","Station_Nam":"BEAVER DAM 1.4 SSW, WI","Latitude":"43.44719","Longitude":"-88.85260","Snowdepth":"6.000","Units":"in","Rept_Date":"2020-12-12 14"},"coordinates":[1956,4848]},{"type":"Point","properties":{"Station_ID":"WGCI4","Station_Nam":"WAVELAND","Latitude":"41.58330","Longitude":"-93.66670","Snowdepth":"6.000","Units":"in","Rept_Date":"2020-12-12 13"},"coordinates":[825,3688]},{"type":"Point","properties":{"Station_ID":"STOI2","Station_Nam":"STOCKTON 3 NNE","Latitude":"42.40050","Longitude":"-89.99580","Snowdepth":"6.000","Units":"in","Rept_Date":"2020-12-13 03"},"coordinates":[1687,4197]},{"type":"Point","properties":{"Station_ID":"NH-RC-48","Station_Nam":"NORTHWOOD 2.9 WSW, NH","Latitude":"43.20114","Longitude":"-71.25750","Snowdepth":"6.000","Units":"in","Rept_Date":"2020-12-12 12"},"coordinates":[6092,4695]},{"type":"Point","properties":{"Station_ID":"MSN","Station_Nam":"MADISON DANE COUNTY RGNL","Latitude":"43.13970","Longitude":"-89.33750","Snowdepth":"6.000","Units":"in","Rept_Date":"2020-12-13 00"},"coordinates":[1842,4657]},{"type":"Point","properties":{"Station_ID":"ME-OX-26","Station_Nam":"OXFORD 5.3 SW, ME","Latitude":"44.09787","Longitude":"-70.59612","Snowdepth":"6.000","Units":"in","Rept_Date":"2020-12-12 12"},"coordinates":[6247,5253]},{"type":"Point","properties":{"Station_ID":"ME-KB-53","Station_Nam":"READFIELD 2.0 NNE, ME","Latitude":"44.41620","Longitude":"-69.95190","Snowdepth":"6.000","Units":"in","Rept_Date":"2020-12-12 12"},"coordinates":[6399,5451]},{"type":"Point","properties":{"Station_ID":"ME-AR-15","Station_Nam":"PRESQUE ISLE 1.3 WSW, ME","Latitude":"46.67960","Longitude":"-68.01270","Snowdepth":"6.000","Units":"in","Rept_Date":"2020-12-12 12"},"coordinates":[6854,6859]},{"type":"Point","properties":{"Station_ID":"MAPM4","Station_Nam":"MAPLE CITY 1E","Latitude":"44.85500","Longitude":"-85.83520","Snowdepth":"6.000","Units":"in","Rept_Date":"2020-12-12 23"},"coordinates":[2665,5724]},{"type":"Point","properties":{"Station_ID":"KMSN","Station_Nam":"MADISON DANE COUNTY RGNL","Latitude":"43.13333","Longitude":"-89.35000","Snowdepth":"6.000","Units":"in","Rept_Date":"2020-12-13 00"},"coordinates":[1839,4653]},{"type":"Point","properties":{"Station_ID":"KDSM","Station_Nam":"DES MOINES INTERNATIONAL","Latitude":"41.53333","Longitude":"-93.66666","Snowdepth":"6.000","Units":"in","Rept_Date":"2020-12-13 06"},"coordinates":[825,3657]},{"type":"Point","properties":{"Station_ID":"IL-JD-8","Station_Nam":"STOCKTON 3.4 NNE, IL","Latitude":"42.39960","Longitude":"-89.99020","Snowdepth":"6.000","Units":"in","Rept_Date":"2020-12-12 13"},"coordinates":[1689,4196]},{"type":"Point","properties":{"Station_ID":"IL-JD-11","Station_Nam":"EAST DUBUQUE 1.7 SE, IL","Latitude":"42.47565","Longitude":"-90.61300","Snowdepth":"6.000","Units":"in","Rept_Date":"2020-12-12 13"},"coordinates":[1542,4243]},{"type":"Point","properties":{"Station_ID":"IA-SR-17","Station_Nam":"AMES 0.9 ENE, IA","Latitude":"42.02886","Longitude":"-93.60950","Snowdepth":"6.000","Units":"in","Rept_Date":"2020-12-12 13"},"coordinates":[838,3965]},{"type":"Point","properties":{"Station_ID":"IA-SR-12","Station_Nam":"AMES 2.1 N, IA","Latitude":"42.05442","Longitude":"-93.62670","Snowdepth":"6.000","Units":"in","Rept_Date":"2020-12-12 14"},"coordinates":[834,3981]},{"type":"Point","properties":{"Station_ID":"IA-DL-34","Station_Nam":"ADEL 0.6 SE, IA","Latitude":"41.60681","Longitude":"-94.01858","Snowdepth":"6.000","Units":"in","Rept_Date":"2020-12-12 13"},"coordinates":[742,3703]},{"type":"Point","properties":{"Station_ID":"GHMN3","Station_Nam":"PINKHAM NOTCH","Latitude":"44.25800","Longitude":"-71.25250","Snowdepth":"6.000","Units":"in","Rept_Date":"2020-12-12 10"},"coordinates":[6093,5352]},{"type":"Point","properties":{"Station_ID":"DSXI4","Station_Nam":"DES MOINES SNOW","Latitude":"41.54130","Longitude":"-93.65570","Snowdepth":"6.000","Units":"in","Rept_Date":"2020-12-13 06"},"coordinates":[827,3662]},{"type":"Point","properties":{"Station_ID":"DSM","Station_Nam":"DES MOINES INTERNATIONAL","Latitude":"41.53340","Longitude":"-93.66300","Snowdepth":"6.000","Units":"in","Rept_Date":"2020-12-13 00"},"coordinates":[826,3657]},{"type":"Point","properties":{"Station_ID":"CLQM5","Station_Nam":"CLOQUET","Latitude":"46.70470","Longitude":"-92.52530","Snowdepth":"6.000","Units":"in","Rept_Date":"2020-12-12 14"},"coordinates":[1093,6874]},{"type":"Point","properties":{"Station_ID":"BDMW3","Station_Nam":"BEAVER DAM 1 N","Latitude":"43.46860","Longitude":"-88.83970","Snowdepth":"6.000","Units":"in","Rept_Date":"2020-12-12 17"},"coordinates":[1959,4861]},{"type":"Point","properties":{"Station_ID":"QWE","Station_Nam":"QWE","Latitude":"47.84610","Longitude":"-73.80670","Snowdepth":"5.905","Units":"in","Rept_Date":"2020-12-12 12"},"coordinates":[5493,7585]},{"type":"Point","properties":{"Station_ID":"IA-PK-37","Station_Nam":"WINDSOR HEIGHTS 0.8 SE, IA","Latitude":"41.59810","Longitude":"-93.69950","Snowdepth":"5.800","Units":"in","Rept_Date":"2020-12-12 13"},"coordinates":[817,3697]},{"type":"Point","properties":{"Station_ID":"FTHQ6","Station_Nam":"FORT HOPE","Latitude":"51.55820","Longitude":"-87.90510","Snowdepth":"5.790","Units":"in","Rept_Date":"2020-12-13 06"},"coordinates":[2179,9894]},{"type":"Point","properties":{"Station_ID":"QLI","Station_Nam":"QLI","Latitude":"50.27080","Longitude":"-73.92280","Snowdepth":"5.669","Units":"in","Rept_Date":"2020-12-12 12"},"coordinates":[5465,9093]},{"type":"Point","properties":{"Station_ID":"QLM","Station_Nam":"QLM","Latitude":"48.92030","Longitude":"-70.25280","Snowdepth":"5.630","Units":"in","Rept_Date":"2020-12-12 12"},"coordinates":[6328,8253]},{"type":"Point","properties":{"Station_ID":"WI-DA-99","Station_Nam":"FITCHBURG 1.1 NW, WI","Latitude":"42.99740","Longitude":"-89.44046","Snowdepth":"5.500","Units":"in","Rept_Date":"2020-12-12 13"},"coordinates":[1818,4568]},{"type":"Point","properties":{"Station_ID":"WI-DA-31","Station_Nam":"DEERFIELD 0.6 N, WI","Latitude":"43.05958","Longitude":"-89.07340","Snowdepth":"5.500","Units":"in","Rept_Date":"2020-12-12 17"},"coordinates":[1904,4607]},{"type":"Point","properties":{"Station_ID":"NH-GR-56","Station_Nam":"EASTON 0.6 ESE, NH","Latitude":"44.14790","Longitude":"-71.78950","Snowdepth":"5.500","Units":"in","Rept_Date":"2020-12-12 13"},"coordinates":[5967,5284]},{"type":"Point","properties":{"Station_ID":"ME-FR-22","Station_Nam":"FARMINGTON 4.8 NNW, ME","Latitude":"44.73396","Longitude":"-70.18007","Snowdepth":"5.500","Units":"in","Rept_Date":"2020-12-12 14"},"coordinates":[6345,5648]},{"type":"Point","properties":{"Station_ID":"IA-PK-97","Station_Nam":"ANKENY 1.5 NNE, IA","Latitude":"41.74376","Longitude":"-93.59088","Snowdepth":"5.500","Units":"in","Rept_Date":"2020-12-12 13"},"coordinates":[842,3788]},{"type":"Point","properties":{"Station_ID":"IA-PK-89","Station_Nam":"ANKENY 3.7 NNE, IA","Latitude":"41.77305","Longitude":"-93.57635","Snowdepth":"5.500","Units":"in","Rept_Date":"2020-12-12 13"},"coordinates":[846,3806]},{"type":"Point","properties":{"Station_ID":"IA-DV-2","Station_Nam":"MOULTON 3.6 ENE, IA","Latitude":"40.70487","Longitude":"-92.61551","Snowdepth":"5.500","Units":"in","Rept_Date":"2020-12-12 13"},"coordinates":[1072,3142]},{"type":"Point","properties":{"Station_ID":"OGIQ6","Station_Nam":"OGOKI CAMP","Latitude":"50.76680","Longitude":"-87.85820","Snowdepth":"5.390","Units":"in","Rept_Date":"2020-12-13 06"},"coordinates":[2190,9402]},{"type":"Point","properties":{"Station_ID":"WI-GT-2","Station_Nam":"PLATTEVILLE 0.3 NE, WI","Latitude":"42.73820","Longitude":"-90.47267","Snowdepth":"5.300","Units":"in","Rept_Date":"2020-12-12 16"},"coordinates":[1575,4407]},{"type":"Point","properties":{"Station_ID":"KABQ6","Station_Nam":"CAB LAKE","Latitude":"49.59950","Longitude":"-89.17990","Snowdepth":"5.280","Units":"in","Rept_Date":"2020-12-13 06"},"coordinates":[1879,8675]},{"type":"Point","properties":{"Station_ID":"WI-DA-45","Station_Nam":"MADISON 6.1 W, WI","Latitude":"43.06948","Longitude":"-89.50788","Snowdepth":"5.100","Units":"in","Rept_Date":"2020-12-12 13"},"coordinates":[1802,4613]},{"type":"Point","properties":{"Station_ID":"CAN-NB-105","Station_Nam":"SISSON BROOK 3.8 E, CAN","Latitude":"46.98305","Longitude":"-67.32532","Snowdepth":"5.100","Units":"in","Rept_Date":"2020-12-12 12"},"coordinates":[7016,7048]},{"type":"Point","properties":{"Station_ID":"WI-IW-3","Station_Nam":"MINERAL POINT 7.3 ENE, WI","Latitude":"42.91400","Longitude":"-90.05700","Snowdepth":"5.000","Units":"in","Rept_Date":"2020-12-12 13"},"coordinates":[1673,4516]},{"type":"Point","properties":{"Station_ID":"WI-DA-78","Station_Nam":"SUN PRAIRIE 3.0 W, WI","Latitude":"43.17607","Longitude":"-89.29134","Snowdepth":"5.000","Units":"in","Rept_Date":"2020-12-12 13"},"coordinates":[1853,4679]},{"type":"Point","properties":{"Station_ID":"WEAN3","Station_Nam":"WEARE 2 NE","Latitude":"43.09900","Longitude":"-71.75710","Snowdepth":"5.000","Units":"in","Rept_Date":"2020-12-12 14"},"coordinates":[5974,4631]},{"type":"Point","properties":{"Station_ID":"SPTI4","Station_Nam":"STRAWBERRY POINT","Latitude":"42.68530","Longitude":"-91.53300","Snowdepth":"5.000","Units":"in","Rept_Date":"2020-12-12 13"},"coordinates":[1326,4374]},{"type":"Point","properties":{"Station_ID":"NH-BK-2","Station_Nam":"BELMONT 1.7 SW, NH","Latitude":"43.43556","Longitude":"-71.50690","Snowdepth":"5.000","Units":"in","Rept_Date":"2020-12-12 12"},"coordinates":[6033,4841]},{"type":"Point","properties":{"Station_ID":"MYOM4","Station_Nam":"MIO WWTP","Latitude":"44.64660","Longitude":"-84.11580","Snowdepth":"5.000","Units":"in","Rept_Date":"2020-12-12 13"},"coordinates":[3070,5594]},{"type":"Point","properties":{"Station_ID":"MTLT1","Station_Nam":"GATLINBURG,TN","Latitude":"35.65500","Longitude":"-83.44110","Snowdepth":"5.000","Units":"in","Rept_Date":"2020-12-12 13"},"coordinates":[3228,0]},{"type":"Point","properties":{"Station_ID":"ME-CM-125","Station_Nam":"GRAY 2.9 SSE, ME","Latitude":"43.84640","Longitude":"-70.31340","Snowdepth":"5.000","Units":"in","Rept_Date":"2020-12-12 12"},"coordinates":[6314,5096]},{"type":"Point","properties":{"Station_ID":"MDDW3","Station_Nam":"MIDDLETON,WI","Latitude":"43.09060","Longitude":"-89.51470","Snowdepth":"5.000","Units":"in","Rept_Date":"2020-12-12 13"},"coordinates":[1801,4626]},{"type":"Point","properties":{"Station_ID":"MCLI4","Station_Nam":"MONTICELLO","Latitude":"42.24110","Longitude":"-91.17320","Snowdepth":"5.000","Units":"in","Rept_Date":"2020-12-12 13"},"coordinates":[1411,4097]},{"type":"Point","properties":{"Station_ID":"LSXI4","Station_Nam":"LITTLE SIOUX,IA","Latitude":"41.81670","Longitude":"-96.01670","Snowdepth":"5.000","Units":"in","Rept_Date":"2020-12-12 13"},"coordinates":[272,3833]},{"type":"Point","properties":{"Station_ID":"KTVC","Station_Nam":"CHERRY CAPITAL AIRPORT","Latitude":"44.73333","Longitude":"-85.56666","Snowdepth":"5.000","Units":"in","Rept_Date":"2020-12-13 00"},"coordinates":[2729,5648]},{"type":"Point","properties":{"Station_ID":"JAMI4","Station_Nam":"MOSQUITO CRK","Latitude":"41.79870","Longitude":"-94.30820","Snowdepth":"5.000","Units":"in","Rept_Date":"2020-12-12 13"},"coordinates":[674,3822]},{"type":"Point","properties":{"Station_ID":"IA-PT-2","Station_Nam":"COUNCIL BLUFFS 3.4 NNE, IA","Latitude":"41.28530","Longitude":"-95.83360","Snowdepth":"5.000","Units":"in","Rept_Date":"2020-12-12 13"},"coordinates":[315,3503]},{"type":"Point","properties":{"Station_ID":"IA-PK-88","Station_Nam":"DES MOINES 5.4 WNW, IA","Latitude":"41.61721","Longitude":"-93.70573","Snowdepth":"5.000","Units":"in","Rept_Date":"2020-12-12 13"},"coordinates":[815,3709]},{"type":"Point","properties":{"Station_ID":"IA-PK-83","Station_Nam":"ALTOONA 1.5 SSE, IA","Latitude":"41.63125","Longitude":"-93.46584","Snowdepth":"5.000","Units":"in","Rept_Date":"2020-12-12 13"},"coordinates":[872,3718]},{"type":"Point","properties":{"Station_ID":"IA-PK-21","Station_Nam":"JOHNSTON 3.7 NNW, IA","Latitude":"41.73660","Longitude":"-93.72360","Snowdepth":"5.000","Units":"in","Rept_Date":"2020-12-12 13"},"coordinates":[811,3784]},{"type":"Point","properties":{"Station_ID":"IA-GT-1","Station_Nam":"JAMAICA 3.2 S, IA","Latitude":"41.79913","Longitude":"-94.30930","Snowdepth":"5.000","Units":"in","Rept_Date":"2020-12-12 13"},"coordinates":[674,3823]},{"type":"Point","properties":{"Station_ID":"IA-DV-10","Station_Nam":"BLOOMFIELD 8.4 NNE, IA","Latitude":"40.85602","Longitude":"-92.34318","Snowdepth":"5.000","Units":"in","Rept_Date":"2020-12-12 13"},"coordinates":[1136,3236]},{"type":"Point","properties":{"Station_ID":"IA-DL-31","Station_Nam":"DALLAS CENTER 1.5 E, IA","Latitude":"41.68151","Longitude":"-93.95534","Snowdepth":"5.000","Units":"in","Rept_Date":"2020-12-12 17"},"coordinates":[757,3749]},{"type":"Point","properties":{"Station_ID":"HRTM1","Station_Nam":"HARTFORD","Latitude":"44.37440","Longitude":"-70.31620","Snowdepth":"5.000","Units":"in","Rept_Date":"2020-12-12 12"},"coordinates":[6313,5425]},{"type":"Point","properties":{"Station_ID":"HORW3","Station_Nam":"HORICON WWTP","Latitude":"43.45000","Longitude":"-88.63330","Snowdepth":"5.000","Units":"in","Rept_Date":"2020-12-12 13"},"coordinates":[2008,4850]},{"type":"Point","properties":{"Station_ID":"HGHN6","Station_Nam":"HIGHMARKET","Latitude":"43.60510","Longitude":"-75.55430","Snowdepth":"5.000","Units":"in","Rept_Date":"2020-12-12 11"},"coordinates":[5082,4946]},{"type":"Point","properties":{"Station_ID":"DMX","Station_Nam":"DES MOINES, IA","Latitude":"41.73610","Longitude":"-93.72330","Snowdepth":"5.000","Units":"in","Rept_Date":"2020-12-13 06"},"coordinates":[811,3783]},{"type":"Point","properties":{"Station_ID":"CUSW3","Station_Nam":"COLUMBUS","Latitude":"43.32610","Longitude":"-89.00810","Snowdepth":"5.000","Units":"in","Rept_Date":"2020-12-12 13"},"coordinates":[1920,4773]},{"type":"Point","properties":{"Station_ID":"CLUI4","Station_Nam":"CLUTIER,IA","Latitude":"42.08330","Longitude":"-92.40000","Snowdepth":"5.000","Units":"in","Rept_Date":"2020-12-12 13"},"coordinates":[1122,3999]},{"type":"Point","properties":{"Station_ID":"AVLV1","Station_Nam":"AVERILL","Latitude":"45.00570","Longitude":"-71.69030","Snowdepth":"5.000","Units":"in","Rept_Date":"2020-12-12 13"},"coordinates":[5990,5817]},{"type":"Point","properties":{"Station_ID":"AMOI4","Station_Nam":"ANAMOSA 3 SSW","Latitude":"42.07630","Longitude":"-91.30190","Snowdepth":"5.000","Units":"in","Rept_Date":"2020-12-12 13"},"coordinates":[1380,3995]},{"type":"Point","properties":{"Station_ID":"ABNM3","Station_Nam":"ASHBURNHAM NORTH","Latitude":"42.66170","Longitude":"-71.93590","Snowdepth":"5.000","Units":"in","Rept_Date":"2020-12-12 12"},"coordinates":[5932,4359]},{"type":"Point","properties":{"Station_ID":"CATQ6","Station_Nam":"CAT LAKE","Latitude":"51.72690","Longitude":"-91.82210","Snowdepth":"4.570","Units":"in","Rept_Date":"2020-12-13 06"},"coordinates":[1258,9999]},{"type":"Point","properties":{"Station_ID":"WI-DA-39","Station_Nam":"MADISON 4.0 W, WI","Latitude":"43.07741","Longitude":"-89.46757","Snowdepth":"4.500","Units":"in","Rept_Date":"2020-12-12 13"},"coordinates":[1812,4618]},{"type":"Point","properties":{"Station_ID":"IA-WR-7","Station_Nam":"INDIANOLA 0.8 SSW, IA","Latitude":"41.35047","Longitude":"-93.57290","Snowdepth":"4.500","Units":"in","Rept_Date":"2020-12-12 13"},"coordinates":[847,3543]},{"type":"Point","properties":{"Station_ID":"IA-DL-33","Station_Nam":"WAUKEE 1.6 N, IA","Latitude":"41.63119","Longitude":"-93.85778","Snowdepth":"4.500","Units":"in","Rept_Date":"2020-12-12 13"},"coordinates":[780,3718]},{"type":"Point","properties":{"Station_ID":"SOCQ6","Station_Nam":"SOCKET LAKE","Latitude":"50.77870","Longitude":"-91.79300","Snowdepth":"4.450","Units":"in","Rept_Date":"2020-12-13 06"},"coordinates":[1265,9409]},{"type":"Point","properties":{"Station_ID":"CAN-NL-82","Station_Nam":"GANDER 2.7 NW, CAN","Latitude":"48.97737","Longitude":"-54.63396","Snowdepth":"4.300","Units":"in","Rept_Date":"2020-12-12 10"},"coordinates":[9999,8288]},{"type":"Point","properties":{"Station_ID":"ME-CM-54","Station_Nam":"WINDHAM 3.9 NW, ME","Latitude":"43.85787","Longitude":"-70.46200","Snowdepth":"4.200","Units":"in","Rept_Date":"2020-12-12 12"},"coordinates":[6279,5103]},{"type":"Point","properties":{"Station_ID":"WI-RK-6","Station_Nam":"EVANSVILLE 0.4 E, WI","Latitude":"42.77913","Longitude":"-89.29020","Snowdepth":"4.100","Units":"in","Rept_Date":"2020-12-12 12"},"coordinates":[1853,4432]},{"type":"Point","properties":{"Station_ID":"ZRGI4","Station_Nam":"ZEARING,IA","Latitude":"42.15000","Longitude":"-93.30000","Snowdepth":"4.000","Units":"in","Rept_Date":"2020-12-12 13"},"coordinates":[911,4041]},{"type":"Point","properties":{"Station_ID":"WSFW3","Station_Nam":"TOWN OF WESTFORD","Latitude":"43.47190","Longitude":"-88.88250","Snowdepth":"4.000","Units":"in","Rept_Date":"2020-12-12 13"},"coordinates":[1949,4863]},{"type":"Point","properties":{"Station_ID":"WNDM1","Station_Nam":"WINDHAM 2NW","Latitude":"43.85670","Longitude":"-70.46630","Snowdepth":"4.000","Units":"in","Rept_Date":"2020-12-12 12"},"coordinates":[6278,5103]},{"type":"Point","properties":{"Station_ID":"WLFM5","Station_Nam":"WOLF RIDGE ENVIRON LEARNING CENTER","Latitude":"47.38240","Longitude":"-91.19730","Snowdepth":"4.000","Units":"in","Rept_Date":"2020-12-12 13"},"coordinates":[1405,7296]},{"type":"Point","properties":{"Station_ID":"WI-DD-16","Station_Nam":"BEAVER DAM 2.4 WNW, WI","Latitude":"43.47210","Longitude":"-88.88280","Snowdepth":"4.000","Units":"in","Rept_Date":"2020-12-12 13"},"coordinates":[1949,4863]},{"type":"Point","properties":{"Station_ID":"WI-DD-14","Station_Nam":"THERESA 0.1 ESE, WI","Latitude":"43.51691","Longitude":"-88.45026","Snowdepth":"4.000","Units":"in","Rept_Date":"2020-12-12 13"},"coordinates":[2051,4891]},{"type":"Point","properties":{"Station_ID":"WI-DA-33","Station_Nam":"OREGON 0.4 SSW, WI","Latitude":"42.92080","Longitude":"-89.38540","Snowdepth":"4.000","Units":"in","Rept_Date":"2020-12-12 13"},"coordinates":[1831,4520]},{"type":"Point","properties":{"Station_ID":"WI-CB-1","Station_Nam":"COLUMBUS 1.2 S, WI","Latitude":"43.31887","Longitude":"-89.02680","Snowdepth":"4.000","Units":"in","Rept_Date":"2020-12-12 14"},"coordinates":[1915,4768]},{"type":"Point","properties":{"Station_ID":"VT-OL-12","Station_Nam":"GREENSBORO 3.9 NNE, VT","Latitude":"44.63100","Longitude":"-72.28000","Snowdepth":"4.000","Units":"in","Rept_Date":"2020-12-12 14"},"coordinates":[5851,5584]},{"type":"Point","properties":{"Station_ID":"TURM1","Station_Nam":"TURNER","Latitude":"44.28220","Longitude":"-70.25610","Snowdepth":"4.000","Units":"in","Rept_Date":"2020-12-12 12"},"coordinates":[6327,5367]},{"type":"Point","properties":{"Station_ID":"PERI4","Station_Nam":"PERRY,IA","Latitude":"41.83810","Longitude":"-94.11110","Snowdepth":"4.000","Units":"in","Rept_Date":"2020-12-12 13"},"coordinates":[720,3847]},{"type":"Point","properties":{"Station_ID":"OMA","Station_Nam":"EPPLEY AIRFIELD","Latitude":"41.30220","Longitude":"-95.89330","Snowdepth":"4.000","Units":"in","Rept_Date":"2020-12-13 00"},"coordinates":[301,3513]},{"type":"Point","properties":{"Station_ID":"NWSM1","Station_Nam":"NEW SHARON","Latitude":"44.63520","Longitude":"-70.00020","Snowdepth":"4.000","Units":"in","Rept_Date":"2020-12-12 12"},"coordinates":[6387,5587]},{"type":"Point","properties":{"Station_ID":"NH-CR-16","Station_Nam":"WOLFEBORO 0.6 SW, NH","Latitude":"43.58464","Longitude":"-71.21760","Snowdepth":"4.000","Units":"in","Rept_Date":"2020-12-12 12"},"coordinates":[6101,4933]},{"type":"Point","properties":{"Station_ID":"NE-LA-1","Station_Nam":"LINCOLN 4.5 SE, NE","Latitude":"40.77076","Longitude":"-96.62792","Snowdepth":"4.000","Units":"in","Rept_Date":"2020-12-12 13"},"coordinates":[129,3183]},{"type":"Point","properties":{"Station_ID":"NE-DG-35","Station_Nam":"BENNINGTON 2.9 SSW, NE","Latitude":"41.32763","Longitude":"-96.17473","Snowdepth":"4.000","Units":"in","Rept_Date":"2020-12-12 13"},"coordinates":[235,3529]},{"type":"Point","properties":{"Station_ID":"NE-DG-19","Station_Nam":"ELKHORN 0.7 ENE, NE","Latitude":"41.28780","Longitude":"-96.22450","Snowdepth":"4.000","Units":"in","Rept_Date":"2020-12-12 13"},"coordinates":[223,3504]},{"type":"Point","properties":{"Station_ID":"NE-DG-18","Station_Nam":"ELKHORN 0.8 NNW, NE","Latitude":"41.29391","Longitude":"-96.24100","Snowdepth":"4.000","Units":"in","Rept_Date":"2020-12-12 13"},"coordinates":[220,3508]},{"type":"Point","properties":{"Station_ID":"MWTM1","Station_Nam":"MILLINOCKET WWTP","Latitude":"45.64030","Longitude":"-68.67480","Snowdepth":"4.000","Units":"in","Rept_Date":"2020-12-12 12"},"coordinates":[6699,6212]},{"type":"Point","properties":{"Station_ID":"MRBW3","Station_Nam":"MT HOREB","Latitude":"42.98030","Longitude":"-89.73940","Snowdepth":"4.000","Units":"in","Rept_Date":"2020-12-12 13"},"coordinates":[1748,4557]},{"type":"Point","properties":{"Station_ID":"MKX","Station_Nam":"MILWAUKEE, WI","Latitude":"42.96810","Longitude":"-88.54920","Snowdepth":"4.000","Units":"in","Rept_Date":"2020-12-13 06"},"coordinates":[2027,4550]},{"type":"Point","properties":{"Station_ID":"ME-YK-3","Station_Nam":"HOLLIS CENTER 5.4 NW, ME","Latitude":"43.64750","Longitude":"-70.67510","Snowdepth":"4.000","Units":"in","Rept_Date":"2020-12-12 12"},"coordinates":[6229,4972]},{"type":"Point","properties":{"Station_ID":"ME-FR-4","Station_Nam":"NEW SHARON 2.0 NW, ME","Latitude":"44.66582","Longitude":"-70.02720","Snowdepth":"4.000","Units":"in","Rept_Date":"2020-12-12 12"},"coordinates":[6381,5606]},{"type":"Point","properties":{"Station_ID":"MA-WR-75","Station_Nam":"WARREN 2.4 WSW, MA","Latitude":"42.20400","Longitude":"-72.23540","Snowdepth":"4.000","Units":"in","Rept_Date":"2020-12-12 12"},"coordinates":[5862,4074]},{"type":"Point","properties":{"Station_ID":"LPLN6","Station_Nam":"LAKE PLACID 2 S","Latitude":"44.30420","Longitude":"-73.98390","Snowdepth":"4.000","Units":"in","Rept_Date":"2020-12-12 13"},"coordinates":[5451,5381]},{"type":"Point","properties":{"Station_ID":"LOOW3","Station_Nam":"WATERLOO","Latitude":"43.18830","Longitude":"-88.98440","Snowdepth":"4.000","Units":"in","Rept_Date":"2020-12-12 15"},"coordinates":[1925,4687]},{"type":"Point","properties":{"Station_ID":"LKMW3","Station_Nam":"LAKE MILLS,WI","Latitude":"43.06670","Longitude":"-88.91220","Snowdepth":"4.000","Units":"in","Rept_Date":"2020-12-12 14"},"coordinates":[1942,4611]},{"type":"Point","properties":{"Station_ID":"LANW3","Station_Nam":"LANCASTER 4WSW","Latitude":"42.82780","Longitude":"-90.78890","Snowdepth":"4.000","Units":"in","Rept_Date":"2020-12-12 14"},"coordinates":[1501,4463]},{"type":"Point","properties":{"Station_ID":"KOMA","Station_Nam":"OMAHA EPPLEY AIRFIELD","Latitude":"41.30000","Longitude":"-95.90000","Snowdepth":"4.000","Units":"in","Rept_Date":"2020-12-13 06"},"coordinates":[300,3512]},{"type":"Point","properties":{"Station_ID":"JKMM1","Station_Nam":"JACKMAN","Latitude":"45.62600","Longitude":"-70.24600","Snowdepth":"4.000","Units":"in","Rept_Date":"2020-12-12 12"},"coordinates":[6330,6203]},{"type":"Point","properties":{"Station_ID":"IA-GT-7","Station_Nam":"BAGLEY 0.2 W, IA","Latitude":"41.84592","Longitude":"-94.43346","Snowdepth":"4.000","Units":"in","Rept_Date":"2020-12-12 14"},"coordinates":[644,3852]},{"type":"Point","properties":{"Station_ID":"IA-DV-1","Station_Nam":"BLOOMFIELD 9.4 NNE, IA","Latitude":"40.87464","Longitude":"-92.35238","Snowdepth":"4.000","Units":"in","Rept_Date":"2020-12-12 13"},"coordinates":[1134,3247]},{"type":"Point","properties":{"Station_ID":"IA-BN-12","Station_Nam":"BOONE 4.5 WSW, IA","Latitude":"42.03152","Longitude":"-93.96190","Snowdepth":"4.000","Units":"in","Rept_Date":"2020-12-12 13"},"coordinates":[755,3967]},{"type":"Point","properties":{"Station_ID":"HOLM1","Station_Nam":"HOLLIS","Latitude":"43.64750","Longitude":"-70.67490","Snowdepth":"4.000","Units":"in","Rept_Date":"2020-12-12 12"},"coordinates":[6229,4972]},{"type":"Point","properties":{"Station_ID":"GTHI4","Station_Nam":"GUTHRIE CENTER,IA","Latitude":"41.68330","Longitude":"-94.50000","Snowdepth":"4.000","Units":"in","Rept_Date":"2020-12-12 14"},"coordinates":[629,3750]},{"type":"Point","properties":{"Station_ID":"FMTN1","Station_Nam":"FREMONT,NE","Latitude":"41.43330","Longitude":"-96.48330","Snowdepth":"4.000","Units":"in","Rept_Date":"2020-12-12 13"},"coordinates":[163,3595]},{"type":"Point","properties":{"Station_ID":"FISM1","Station_Nam":"FORT KENT COOP","Latitude":"47.23850","Longitude":"-68.61240","Snowdepth":"4.000","Units":"in","Rept_Date":"2020-12-12 12"},"coordinates":[6713,7207]},{"type":"Point","properties":{"Station_ID":"DURM1","Station_Nam":"DURHAM","Latitude":"43.99960","Longitude":"-70.09630","Snowdepth":"4.000","Units":"in","Rept_Date":"2020-12-12 12"},"coordinates":[6365,5192]},{"type":"Point","properties":{"Station_ID":"DOUG006","Station_Nam":"OMAHA 2.9 W, NE","Latitude":"41.26580","Longitude":"-95.99270","Snowdepth":"4.000","Units":"in","Rept_Date":"2020-12-12 13"},"coordinates":[278,3491]},{"type":"Point","properties":{"Station_ID":"CRPI4","Station_Nam":"CEDAR RAPIDS NO 1","Latitude":"42.05000","Longitude":"-91.58810","Snowdepth":"4.000","Units":"in","Rept_Date":"2020-12-12 23"},"coordinates":[1313,3979]},{"type":"Point","properties":{"Station_ID":"CASS001","Station_Nam":"PLATTSMOUTH 1.4 SW, NE","Latitude":"40.99460","Longitude":"-95.89760","Snowdepth":"4.000","Units":"in","Rept_Date":"2020-12-12 13"},"coordinates":[300,3322]},{"type":"Point","properties":{"Station_ID":"CAN-ON-245","Station_Nam":"PHELPSTON 3.1 ESE, CAN","Latitude":"44.50564","Longitude":"-79.81035","Snowdepth":"4.000","Units":"in","Rept_Date":"2020-12-12 13"},"coordinates":[4081,5506]},{"type":"Point","properties":{"Station_ID":"CAN-NB-13","Station_Nam":"BATHURST 3.8 NW, CAN","Latitude":"47.64212","Longitude":"-65.68756","Snowdepth":"4.000","Units":"in","Rept_Date":"2020-12-12 11"},"coordinates":[7401,7458]},{"type":"Point","properties":{"Station_ID":"BGRM4","Station_Nam":"WATER WORKS","Latitude":"43.70000","Longitude":"-85.48330","Snowdepth":"4.000","Units":"in","Rept_Date":"2020-12-12 12"},"coordinates":[2748,5005]},{"type":"Point","properties":{"Station_ID":"AUDI4","Station_Nam":"AUDUBON,IA","Latitude":"41.71670","Longitude":"-94.93330","Snowdepth":"4.000","Units":"in","Rept_Date":"2020-12-12 14"},"coordinates":[527,3771]},{"type":"Point","properties":{"Station_ID":"WI-DA-77","Station_Nam":"VERONA 3.9 WSW, WI","Latitude":"42.97286","Longitude":"-89.61041","Snowdepth":"3.900","Units":"in","Rept_Date":"2020-12-12 14"},"coordinates":[1778,4553]},{"type":"Point","properties":{"Station_ID":"SVBQ6","Station_Nam":"SAVANT BASE","Latitude":"50.28730","Longitude":"-90.65670","Snowdepth":"3.900","Units":"in","Rept_Date":"2020-12-13 06"},"coordinates":[1532,9103]},{"type":"Point","properties":{"Station_ID":"LANC007","Station_Nam":"DAVEY 1.2 NNW, NE","Latitude":"41.00320","Longitude":"-96.67630","Snowdepth":"3.800","Units":"in","Rept_Date":"2020-12-12 13"},"coordinates":[117,3327]},{"type":"Point","properties":{"Station_ID":"IA-LN-53","Station_Nam":"ROBINS 0.8 SE, IA","Latitude":"42.06960","Longitude":"-91.66042","Snowdepth":"3.800","Units":"in","Rept_Date":"2020-12-12 13"},"coordinates":[1296,3991]},{"type":"Point","properties":{"Station_ID":"MI-BG-3","Station_Nam":"THREE LAKES, MI","Latitude":"46.55730","Longitude":"-88.20770","Snowdepth":"3.700","Units":"in","Rept_Date":"2020-12-12 13"},"coordinates":[2108,6783]},{"type":"Point","properties":{"Station_ID":"WI-GT-9","Station_Nam":"CASSVILLE 7.8 ENE, WI","Latitude":"42.74949","Longitude":"-90.84390","Snowdepth":"3.600","Units":"in","Rept_Date":"2020-12-12 13"},"coordinates":[1488,4414]},{"type":"Point","properties":{"Station_ID":"MA-WR-88","Station_Nam":"LEICESTER 2.5 WSW, MA","Latitude":"42.23742","Longitude":"-71.94612","Snowdepth":"3.600","Units":"in","Rept_Date":"2020-12-12 12"},"coordinates":[5930,4095]},{"type":"Point","properties":{"Station_ID":"CAN-ON-620","Station_Nam":"GOODERHAM 3.4 SSW, CAN","Latitude":"44.87690","Longitude":"-78.39265","Snowdepth":"3.600","Units":"in","Rept_Date":"2020-12-12 13"},"coordinates":[4415,5737]},{"type":"Point","properties":{"Station_ID":"WI-DA-75","Station_Nam":"COTTAGE GROVE 2.2 E, WI","Latitude":"43.08112","Longitude":"-89.15945","Snowdepth":"3.500","Units":"in","Rept_Date":"2020-12-12 13"},"coordinates":[1884,4620]},{"type":"Point","properties":{"Station_ID":"WI-DA-13","Station_Nam":"MADISON 3.7 WSW, WI","Latitude":"43.06230","Longitude":"-89.45650","Snowdepth":"3.500","Units":"in","Rept_Date":"2020-12-12 13"},"coordinates":[1814,4608]},{"type":"Point","properties":{"Station_ID":"VT-ES-3","Station_Nam":"LUNENBURG 2.3 NNW, VT","Latitude":"44.49324","Longitude":"-71.70446","Snowdepth":"3.500","Units":"in","Rept_Date":"2020-12-12 12"},"coordinates":[5987,5499]},{"type":"Point","properties":{"Station_ID":"NH-HL-49","Station_Nam":"MONT VERNON 1.3 SSW, NH","Latitude":"42.87616","Longitude":"-71.68280","Snowdepth":"3.500","Units":"in","Rept_Date":"2020-12-12 13"},"coordinates":[5992,4493]},{"type":"Point","properties":{"Station_ID":"MI-OG-6","Station_Nam":"WEST BRANCH 2.1 SSW, MI","Latitude":"44.24814","Longitude":"-84.25089","Snowdepth":"3.500","Units":"in","Rept_Date":"2020-12-12 13"},"coordinates":[3038,5346]},{"type":"Point","properties":{"Station_ID":"ME-AN-43","Station_Nam":"LISBON 0.6 S, ME","Latitude":"44.02320","Longitude":"-70.10550","Snowdepth":"3.500","Units":"in","Rept_Date":"2020-12-12 12"},"coordinates":[6363,5206]},{"type":"Point","properties":{"Station_ID":"IL-SP-27","Station_Nam":"DAVIS 2.7 N, IL","Latitude":"42.46110","Longitude":"-89.40890","Snowdepth":"3.500","Units":"in","Rept_Date":"2020-12-12 14"},"coordinates":[1825,4234]},{"type":"Point","properties":{"Station_ID":"IA-PT-13","Station_Nam":"COUNCIL BLUFFS 2.1 SSE, IA","Latitude":"41.21159","Longitude":"-95.84800","Snowdepth":"3.500","Units":"in","Rept_Date":"2020-12-12 15"},"coordinates":[312,3457]},{"type":"Point","properties":{"Station_ID":"IA-HR-16","Station_Nam":"LOGAN 0.8 WNW, IA","Latitude":"41.65000","Longitude":"-95.80577","Snowdepth":"3.500","Units":"in","Rept_Date":"2020-12-12 13"},"coordinates":[322,3730]},{"type":"Point","properties":{"Station_ID":"IA-CS-7","Station_Nam":"ANITA 0.6 S, IA","Latitude":"41.43552","Longitude":"-94.76717","Snowdepth":"3.500","Units":"in","Rept_Date":"2020-12-12 13"},"coordinates":[566,3596]},{"type":"Point","properties":{"Station_ID":"CAN-MB-32","Station_Nam":"PINAWA 1.0 SW, CA","Latitude":"50.14747","Longitude":"-95.89020","Snowdepth":"3.500","Units":"in","Rept_Date":"2020-12-12 13"},"coordinates":[302,9016]},{"type":"Point","properties":{"Station_ID":"NE-LA-30","Station_Nam":"WAVERLY 0.4 W, NE","Latitude":"40.91605","Longitude":"-96.53823","Snowdepth":"3.400","Units":"in","Rept_Date":"2020-12-12 14"},"coordinates":[150,3273]},{"type":"Point","properties":{"Station_ID":"IA-CL-4","Station_Nam":"MURRAY 1.7 W, IA","Latitude":"41.04128","Longitude":"-93.98046","Snowdepth":"3.300","Units":"in","Rept_Date":"2020-12-12 13"},"coordinates":[751,3351]},{"type":"Point","properties":{"Station_ID":"CAN-MB-368","Station_Nam":"WHITESHELL 1.3 NE, CAN","Latitude":"49.74405","Longitude":"-95.19123","Snowdepth":"3.300","Units":"in","Rept_Date":"2020-12-12 14"},"coordinates":[466,8765]},{"type":"Point","properties":{"Station_ID":"QGA","Station_Nam":"QGA","Latitude":"47.25640","Longitude":"-73.73810","Snowdepth":"3.268","Units":"in","Rept_Date":"2020-12-12 12"},"coordinates":[5509,7218]},{"type":"Point","properties":{"Station_ID":"WI-WW-26","Station_Nam":"WHITEWATER 4.7 SSE, WI","Latitude":"42.77690","Longitude":"-88.68760","Snowdepth":"3.000","Units":"in","Rept_Date":"2020-12-12 13"},"coordinates":[1995,4431]},{"type":"Point","properties":{"Station_ID":"WI-DA-82","Station_Nam":"MIDDLETON 1.9 NE, WI","Latitude":"43.12027","Longitude":"-89.47696","Snowdepth":"3.000","Units":"in","Rept_Date":"2020-12-12 13"},"coordinates":[1809,4644]},{"type":"Point","properties":{"Station_ID":"WI-DA-60","Station_Nam":"MIDDLETON 0.8 SSW, WI","Latitude":"43.09292","Longitude":"-89.51258","Snowdepth":"3.000","Units":"in","Rept_Date":"2020-12-12 15"},"coordinates":[1801,4627]},{"type":"Point","properties":{"Station_ID":"UNDI4","Station_Nam":"UNDERWOOD","Latitude":"41.38940","Longitude":"-95.68110","Snowdepth":"3.000","Units":"in","Rept_Date":"2020-12-12 13"},"coordinates":[351,3568]},{"type":"Point","properties":{"Station_ID":"TOPM1","Station_Nam":"TOPSFIELD","Latitude":"45.43470","Longitude":"-67.72020","Snowdepth":"3.000","Units":"in","Rept_Date":"2020-12-12 12"},"coordinates":[6923,6084]},{"type":"Point","properties":{"Station_ID":"TLDI4","Station_Nam":"TOLEDO,IA","Latitude":"41.98330","Longitude":"-92.58330","Snowdepth":"3.000","Units":"in","Rept_Date":"2020-12-12 13"},"coordinates":[1079,3937]},{"type":"Point","properties":{"Station_ID":"SUTV1","Station_Nam":"SUTTON","Latitude":"44.61220","Longitude":"-72.04810","Snowdepth":"3.000","Units":"in","Rept_Date":"2020-12-12 12"},"coordinates":[5906,5573]},{"type":"Point","properties":{"Station_ID":"SLRW3","Station_Nam":"SLINGER","Latitude":"43.33390","Longitude":"-88.29780","Snowdepth":"3.000","Units":"in","Rept_Date":"2020-12-12 13"},"coordinates":[2087,4777]},{"type":"Point","properties":{"Station_ID":"SFVC3","Station_Nam":"STAFFORDVILLE","Latitude":"41.99840","Longitude":"-72.26060","Snowdepth":"3.000","Units":"in","Rept_Date":"2020-12-12 10"},"coordinates":[5856,3946]},{"type":"Point","properties":{"Station_ID":"RDFN6","Station_Nam":"REDFIELD 8N","Latitude":"43.64130","Longitude":"-75.88400","Snowdepth":"3.000","Units":"in","Rept_Date":"2020-12-12 12"},"coordinates":[5004,4969]},{"type":"Point","properties":{"Station_ID":"QCAI2","Station_Nam":"MOLINE SNOW","Latitude":"41.39990","Longitude":"-90.54800","Snowdepth":"3.000","Units":"in","Rept_Date":"2020-12-13 00"},"coordinates":[1558,3574]},{"type":"Point","properties":{"Station_ID":"OCON6","Station_Nam":"OSCEOLA","Latitude":"43.50370","Longitude":"-75.72170","Snowdepth":"3.000","Units":"in","Rept_Date":"2020-12-12 13"},"coordinates":[5042,4883]},{"type":"Point","properties":{"Station_ID":"OAKI4","Station_Nam":"OAKLAND,IA","Latitude":"41.31330","Longitude":"-95.39060","Snowdepth":"3.000","Units":"in","Rept_Date":"2020-12-12 13"},"coordinates":[419,3520]},{"type":"Point","properties":{"Station_ID":"NY-FK-7","Station_Nam":"SARANAC LAKE 6.2 N, NY","Latitude":"44.41359","Longitude":"-74.15211","Snowdepth":"3.000","Units":"in","Rept_Date":"2020-12-12 12"},"coordinates":[5411,5449]},{"type":"Point","properties":{"Station_ID":"NY-ES-11","Station_Nam":"VERMONTVILLE 2.8 S, NY","Latitude":"44.41205","Longitude":"-74.06760","Snowdepth":"3.000","Units":"in","Rept_Date":"2020-12-12 12"},"coordinates":[5431,5448]},{"type":"Point","properties":{"Station_ID":"NWTI4","Station_Nam":"NEWTON,IA","Latitude":"41.70000","Longitude":"-93.05000","Snowdepth":"3.000","Units":"in","Rept_Date":"2020-12-12 13"},"coordinates":[970,3761]},{"type":"Point","properties":{"Station_ID":"NUMN3","Station_Nam":"NORTHUMBERLAND","Latitude":"44.52830","Longitude":"-71.50440","Snowdepth":"3.000","Units":"in","Rept_Date":"2020-12-12 12"},"coordinates":[6034,5520]},{"type":"Point","properties":{"Station_ID":"NH-RC-79","Station_Nam":"NOTTINGHAM 1.2 S, NH","Latitude":"43.09778","Longitude":"-71.10256","Snowdepth":"3.000","Units":"in","Rept_Date":"2020-12-12 13"},"coordinates":[6128,4630]},{"type":"Point","properties":{"Station_ID":"NH-RC-18","Station_Nam":"DEERFIELD 3.2 WSW, NH","Latitude":"43.13350","Longitude":"-71.27940","Snowdepth":"3.000","Units":"in","Rept_Date":"2020-12-12 12"},"coordinates":[6087,4653]},{"type":"Point","properties":{"Station_ID":"NH-MR-45","Station_Nam":"NORTHFIELD 2.8 E, NH","Latitude":"43.43945","Longitude":"-71.53730","Snowdepth":"3.000","Units":"in","Rept_Date":"2020-12-12 12"},"coordinates":[6026,4843]},{"type":"Point","properties":{"Station_ID":"NH-MR-4","Station_Nam":"BOW 1.6 NW, NH","Latitude":"43.14994","Longitude":"-71.55650","Snowdepth":"3.000","Units":"in","Rept_Date":"2020-12-12 12"},"coordinates":[6021,4663]},{"type":"Point","properties":{"Station_ID":"NH-MR-25","Station_Nam":"CHICHESTER 2.7 SSW, NH","Latitude":"43.21150","Longitude":"-71.41430","Snowdepth":"3.000","Units":"in","Rept_Date":"2020-12-12 12"},"coordinates":[6055,4701]},{"type":"Point","properties":{"Station_ID":"NE-SY-31","Station_Nam":"GRETNA 3.0 NNE, NE","Latitude":"41.18158","Longitude":"-96.22400","Snowdepth":"3.000","Units":"in","Rept_Date":"2020-12-12 13"},"coordinates":[224,3438]},{"type":"Point","properties":{"Station_ID":"NE-SW-7","Station_Nam":"SEWARD 0.5 NE, NE","Latitude":"40.91689","Longitude":"-97.08981","Snowdepth":"3.000","Units":"in","Rept_Date":"2020-12-12 13"},"coordinates":[20,3274]},{"type":"Point","properties":{"Station_ID":"NE-SN-3","Station_Nam":"WESTON 0.2 ENE, NE","Latitude":"41.19322","Longitude":"-96.73740","Snowdepth":"3.000","Units":"in","Rept_Date":"2020-12-12 13"},"coordinates":[103,3446]},{"type":"Point","properties":{"Station_ID":"NE-LA-64","Station_Nam":"DAVEY 3.7 S, NE","Latitude":"40.92966","Longitude":"-96.65748","Snowdepth":"3.000","Units":"in","Rept_Date":"2020-12-12 13"},"coordinates":[122,3282]},{"type":"Point","properties":{"Station_ID":"NE-DG-8","Station_Nam":"OMAHA 7.0 W, NE","Latitude":"41.27451","Longitude":"-96.14630","Snowdepth":"3.000","Units":"in","Rept_Date":"2020-12-12 13"},"coordinates":[242,3496]},{"type":"Point","properties":{"Station_ID":"NE-DD-3","Station_Nam":"FREMONT 0.6 S, NE","Latitude":"41.43141","Longitude":"-96.49210","Snowdepth":"3.000","Units":"in","Rept_Date":"2020-12-12 13"},"coordinates":[161,3594]},{"type":"Point","properties":{"Station_ID":"MSHI4","Station_Nam":"MARSHALLTOWN,IA","Latitude":"42.06670","Longitude":"-92.93330","Snowdepth":"3.000","Units":"in","Rept_Date":"2020-12-12 13"},"coordinates":[997,3989]},{"type":"Point","properties":{"Station_ID":"MONW3","Station_Nam":"MONROE,WI","Latitude":"42.60000","Longitude":"-89.66670","Snowdepth":"3.000","Units":"in","Rept_Date":"2020-12-12 13"},"coordinates":[1765,4321]},{"type":"Point","properties":{"Station_ID":"MN-CN-36","Station_Nam":"CLOQUET 3.4 ENE, MN","Latitude":"46.74146","Longitude":"-92.42698","Snowdepth":"3.000","Units":"in","Rept_Date":"2020-12-12 13"},"coordinates":[1116,6897]},{"type":"Point","properties":{"Station_ID":"MLI","Station_Nam":"QUAD CITY INTL","Latitude":"41.44860","Longitude":"-90.50750","Snowdepth":"3.000","Units":"in","Rept_Date":"2020-12-13 00"},"coordinates":[1567,3604]},{"type":"Point","properties":{"Station_ID":"MKTI4","Station_Nam":"MAQUOKETA","Latitude":"42.07710","Longitude":"-90.66470","Snowdepth":"3.000","Units":"in","Rept_Date":"2020-12-12 13"},"coordinates":[1530,3995]},{"type":"Point","properties":{"Station_ID":"MI-OC-3","Station_Nam":"HART 3 WSW, MI","Latitude":"43.67470","Longitude":"-86.42250","Snowdepth":"3.000","Units":"in","Rept_Date":"2020-12-12 12"},"coordinates":[2527,4989]},{"type":"Point","properties":{"Station_ID":"MHT","Station_Nam":"MANCHESTER AIRPORT GRENIER INDSTRL ARPK","Latitude":"42.93440","Longitude":"-71.43690","Snowdepth":"3.000","Units":"in","Rept_Date":"2020-12-12 12"},"coordinates":[6050,4529]},{"type":"Point","properties":{"Station_ID":"ME-CM-137","Station_Nam":"GRAY 1.5 NE, ME","Latitude":"43.90034","Longitude":"-70.30883","Snowdepth":"3.000","Units":"in","Rept_Date":"2020-12-12 12"},"coordinates":[6315,5130]},{"type":"Point","properties":{"Station_ID":"ME-AN-41","Station_Nam":"AUBURN 2.1 NNW, ME","Latitude":"44.11275","Longitude":"-70.26452","Snowdepth":"3.000","Units":"in","Rept_Date":"2020-12-12 12"},"coordinates":[6325,5262]},{"type":"Point","properties":{"Station_ID":"LVRM1","Station_Nam":"LIVERMORE FALLS 1 E","Latitude":"44.47160","Longitude":"-70.15940","Snowdepth":"3.000","Units":"in","Rept_Date":"2020-12-12 12"},"coordinates":[6350,5485]},{"type":"Point","properties":{"Station_ID":"LOGI4","Station_Nam":"LOGAN,IA","Latitude":"41.63330","Longitude":"-95.81670","Snowdepth":"3.000","Units":"in","Rept_Date":"2020-12-12 13"},"coordinates":[319,3719]},{"type":"Point","properties":{"Station_ID":"LILM1","Station_Nam":"LILLE","Latitude":"47.27770","Longitude":"-68.10520","Snowdepth":"3.000","Units":"in","Rept_Date":"2020-12-12 12"},"coordinates":[6833,7231]},{"type":"Point","properties":{"Station_ID":"LEIM5","Station_Nam":"ORR 3E","Latitude":"48.05810","Longitude":"-92.75220","Snowdepth":"3.000","Units":"in","Rept_Date":"2020-12-12 12"},"coordinates":[1040,7716]},{"type":"Point","properties":{"Station_ID":"KSEM4","Station_Nam":"KALKASKA 11SE","Latitude":"44.58970","Longitude":"-85.04860","Snowdepth":"3.000","Units":"in","Rept_Date":"2020-12-12 13"},"coordinates":[2850,5559]},{"type":"Point","properties":{"Station_ID":"KOFF","Station_Nam":"OMAHA / OFFUTT AIR FORCE BASE","Latitude":"41.11666","Longitude":"-95.90000","Snowdepth":"3.000","Units":"in","Rept_Date":"2020-12-13 00"},"coordinates":[300,3398]},{"type":"Point","properties":{"Station_ID":"JAPN3","Station_Nam":"JAFFREY SILVER RANCH AIRPARK","Latitude":"42.80880","Longitude":"-72.00530","Snowdepth":"3.000","Units":"in","Rept_Date":"2020-12-12 12"},"coordinates":[5916,4451]},{"type":"Point","properties":{"Station_ID":"IL-SP-7","Station_Nam":"DAVIS 0.5 N, IL","Latitude":"42.42919","Longitude":"-89.41730","Snowdepth":"3.000","Units":"in","Rept_Date":"2020-12-12 14"},"coordinates":[1823,4215]},{"type":"Point","properties":{"Station_ID":"IA-WR-5","Station_Nam":"HARTFORD 1.0 E, IA","Latitude":"41.46014","Longitude":"-93.38550","Snowdepth":"3.000","Units":"in","Rept_Date":"2020-12-12 14"},"coordinates":[891,3612]},{"type":"Point","properties":{"Station_ID":"IA-TY-2","Station_Nam":"NEW MARKET 4.7 N, IA","Latitude":"40.80060","Longitude":"-94.91020","Snowdepth":"3.000","Units":"in","Rept_Date":"2020-12-12 13"},"coordinates":[532,3201]},{"type":"Point","properties":{"Station_ID":"IA-LN-31","Station_Nam":"CEDAR RAPIDS 2.7 NE, IA","Latitude":"42.00070","Longitude":"-91.63260","Snowdepth":"3.000","Units":"in","Rept_Date":"2020-12-12 13"},"coordinates":[1303,3948]},{"type":"Point","properties":{"Station_ID":"IA-DV-7","Station_Nam":"BLOOMFIELD 4.2 WNW, IA","Latitude":"40.77675","Longitude":"-92.48850","Snowdepth":"3.000","Units":"in","Rept_Date":"2020-12-12 13"},"coordinates":[1102,3186]},{"type":"Point","properties":{"Station_ID":"IA-CL-3","Station_Nam":"MURRAY 0.5 N, IA","Latitude":"41.04831","Longitude":"-93.94960","Snowdepth":"3.000","Units":"in","Rept_Date":"2020-12-12 13"},"coordinates":[758,3355]},{"type":"Point","properties":{"Station_ID":"IA-BH-6","Station_Nam":"WATERLOO 1.9 SSE, IA","Latitude":"42.46500","Longitude":"-92.34100","Snowdepth":"3.000","Units":"in","Rept_Date":"2020-12-12 13"},"coordinates":[1136,4237]},{"type":"Point","properties":{"Station_ID":"HUDN3","Station_Nam":"HUDSON 1 SSE","Latitude":"42.78300","Longitude":"-71.41480","Snowdepth":"3.000","Units":"in","Rept_Date":"2020-12-12 12"},"coordinates":[6055,4435]},{"type":"Point","properties":{"Station_ID":"HRTM4","Station_Nam":"HART,MI","Latitude":"43.70000","Longitude":"-86.36670","Snowdepth":"3.000","Units":"in","Rept_Date":"2020-12-12 12"},"coordinates":[2540,5005]},{"type":"Point","properties":{"Station_ID":"HRFI4","Station_Nam":"HARTFORD,IA","Latitude":"41.46670","Longitude":"-93.41670","Snowdepth":"3.000","Units":"in","Rept_Date":"2020-12-12 14"},"coordinates":[883,3616]},{"type":"Point","properties":{"Station_ID":"GYX","Station_Nam":"PORTLAND, ME","Latitude":"43.89250","Longitude":"-70.25500","Snowdepth":"3.000","Units":"in","Rept_Date":"2020-12-12 12"},"coordinates":[6327,5125]},{"type":"Point","properties":{"Station_ID":"GRAN1","Station_Nam":"GRETNA,NE","Latitude":"41.20000","Longitude":"-96.20000","Snowdepth":"3.000","Units":"in","Rept_Date":"2020-12-12 14"},"coordinates":[229,3450]},{"type":"Point","properties":{"Station_ID":"GLAM4","Station_Nam":"GLADWIN","Latitude":"43.97580","Longitude":"-84.49080","Snowdepth":"3.000","Units":"in","Rept_Date":"2020-12-12 13"},"coordinates":[2981,5177]},{"type":"Point","properties":{"Station_ID":"FDCW3","Station_Nam":"FOND DU LAC-MID","Latitude":"43.63330","Longitude":"-88.45000","Snowdepth":"3.000","Units":"in","Rept_Date":"2020-12-13 06"},"coordinates":[2051,4964]},{"type":"Point","properties":{"Station_ID":"FCLN1","Station_Nam":"FT CALHOUN 4W","Latitude":"41.44670","Longitude":"-96.09190","Snowdepth":"3.000","Units":"in","Rept_Date":"2020-12-12 13"},"coordinates":[255,3603]},{"type":"Point","properties":{"Station_ID":"EKRI4","Station_Nam":"ELKADER 6SSW","Latitude":"42.77540","Longitude":"-91.45370","Snowdepth":"3.000","Units":"in","Rept_Date":"2020-12-12 13"},"coordinates":[1345,4430]},{"type":"Point","properties":{"Station_ID":"DOUG059","Station_Nam":"OMAHA 13.2 WSW, NE","Latitude":"41.20603","Longitude":"-96.18116","Snowdepth":"3.000","Units":"in","Rept_Date":"2020-12-12 13"},"coordinates":[234,3454]},{"type":"Point","properties":{"Station_ID":"DLHM5","Station_Nam":"DULUTH NWS","Latitude":"46.83680","Longitude":"-92.21080","Snowdepth":"3.000","Units":"in","Rept_Date":"2020-12-13 06"},"coordinates":[1167,6957]},{"type":"Point","properties":{"Station_ID":"DLH","Station_Nam":"DULUTH, MN","Latitude":"46.83690","Longitude":"-92.21030","Snowdepth":"3.000","Units":"in","Rept_Date":"2020-12-13 00"},"coordinates":[1167,6957]},{"type":"Point","properties":{"Station_ID":"DHMM1","Station_Nam":"DEDHAM","Latitude":"44.67880","Longitude":"-68.63560","Snowdepth":"3.000","Units":"in","Rept_Date":"2020-12-12 12"},"coordinates":[6708,5614]},{"type":"Point","properties":{"Station_ID":"CTEN1","Station_Nam":"DOANE COLLEGE","Latitude":"40.61670","Longitude":"-96.95000","Snowdepth":"3.000","Units":"in","Rept_Date":"2020-12-12 13"},"coordinates":[53,3087]},{"type":"Point","properties":{"Station_ID":"CT-TL-2","Station_Nam":"STAFFORDVILLE 0.4 NNW, CT","Latitude":"41.99874","Longitude":"-72.26100","Snowdepth":"3.000","Units":"in","Rept_Date":"2020-12-12 11"},"coordinates":[5856,3947]},{"type":"Point","properties":{"Station_ID":"CRNI4","Station_Nam":"CORNING","Latitude":"40.98860","Longitude":"-94.74910","Snowdepth":"3.000","Units":"in","Rept_Date":"2020-12-12 13"},"coordinates":[570,3318]},{"type":"Point","properties":{"Station_ID":"CORV1","Station_Nam":"CORINTH","Latitude":"44.00690","Longitude":"-72.31940","Snowdepth":"3.000","Units":"in","Rept_Date":"2020-12-12 12"},"coordinates":[5842,5196]},{"type":"Point","properties":{"Station_ID":"BRLN3","Station_Nam":"BERLIN","Latitude":"44.45350","Longitude":"-71.18540","Snowdepth":"3.000","Units":"in","Rept_Date":"2020-12-12 12"},"coordinates":[6109,5474]},{"type":"Point","properties":{"Station_ID":"BEAW3","Station_Nam":"BEAVER DAM,WI","Latitude":"43.45000","Longitude":"-88.85000","Snowdepth":"3.000","Units":"in","Rept_Date":"2020-12-12 13"},"coordinates":[1957,4850]},{"type":"Point","properties":{"Station_ID":"ATLI4","Station_Nam":"ATLANTIC,IA","Latitude":"41.41810","Longitude":"-95.00310","Snowdepth":"3.000","Units":"in","Rept_Date":"2020-12-12 13"},"coordinates":[511,3585]},{"type":"Point","properties":{"Station_ID":"ASBM3","Station_Nam":"ASHBURNHAM","Latitude":"42.61780","Longitude":"-71.91590","Snowdepth":"3.000","Units":"in","Rept_Date":"2020-12-12 12"},"coordinates":[5937,4332]},{"type":"Point","properties":{"Station_ID":"ALO","Station_Nam":"WATERLOO MUNICIPAL AIRPORT","Latitude":"42.55690","Longitude":"-92.40000","Snowdepth":"3.000","Units":"in","Rept_Date":"2020-12-13 00"},"coordinates":[1122,4294]},{"type":"Point","properties":{"Station_ID":"AESI4","Station_Nam":"BLO SQUAW CK ON THE SOUTH SKUNK R.","Latitude":"41.96250","Longitude":"-93.56110","Snowdepth":"3.000","Units":"in","Rept_Date":"2020-12-12 12"},"coordinates":[849,3924]},{"type":"Point","properties":{"Station_ID":"WI-GT-6","Station_Nam":"MUSCODA 0.5 WSW, WI","Latitude":"43.18483","Longitude":"-90.44318","Snowdepth":"2.800","Units":"in","Rept_Date":"2020-12-12 15"},"coordinates":[1582,4685]},{"type":"Point","properties":{"Station_ID":"WI-DA-72","Station_Nam":"MADISON 4.0 SW, WI","Latitude":"43.03801","Longitude":"-89.44355","Snowdepth":"2.800","Units":"in","Rept_Date":"2020-12-12 13"},"coordinates":[1817,4593]},{"type":"Point","properties":{"Station_ID":"NE-CA-4","Station_Nam":"ELMWOOD 3.4 WSW, NE","Latitude":"40.81849","Longitude":"-96.35093","Snowdepth":"2.800","Units":"in","Rept_Date":"2020-12-12 14"},"coordinates":[194,3212]},{"type":"Point","properties":{"Station_ID":"CAN-QC-47","Station_Nam":"SAINTE-FOY 1.8 ENE, CAN","Latitude":"46.76934","Longitude":"-71.27124","Snowdepth":"2.800","Units":"in","Rept_Date":"2020-12-12 12"},"coordinates":[6089,6915]},{"type":"Point","properties":{"Station_ID":"CAN-ON-771","Station_Nam":"KENORA 8.7 NNE - CANWARN, CAN","Latitude":"49.84171","Longitude":"-94.44386","Snowdepth":"2.800","Units":"in","Rept_Date":"2020-12-12 13"},"coordinates":[642,8826]},{"type":"Point","properties":{"Station_ID":"IA-BT-12","Station_Nam":"FAIRFAX 4.0 NW, IA","Latitude":"41.96223","Longitude":"-91.83675","Snowdepth":"2.700","Units":"in","Rept_Date":"2020-12-12 13"},"coordinates":[1255,3924]},{"type":"Point","properties":{"Station_ID":"WI-DA-87","Station_Nam":"DUNKIRK 0.1 NW, WI","Latitude":"42.88356","Longitude":"-89.21056","Snowdepth":"2.600","Units":"in","Rept_Date":"2020-12-12 12"},"coordinates":[1872,4497]},{"type":"Point","properties":{"Station_ID":"MA-MD-104","Station_Nam":"LITTLETON 2.8 NNW, MA","Latitude":"42.57170","Longitude":"-71.49910","Snowdepth":"2.600","Units":"in","Rept_Date":"2020-12-12 12"},"coordinates":[6035,4303]},{"type":"Point","properties":{"Station_ID":"WI-OZ-17","Station_Nam":"WEST BEND 7.3 E, WI","Latitude":"43.42860","Longitude":"-88.03870","Snowdepth":"2.500","Units":"in","Rept_Date":"2020-12-12 13"},"coordinates":[2147,4836]},{"type":"Point","properties":{"Station_ID":"WI-DD-20","Station_Nam":"BEAVER DAM 3.9 E, WI","Latitude":"43.45950","Longitude":"-88.75930","Snowdepth":"2.500","Units":"in","Rept_Date":"2020-12-12 13"},"coordinates":[1978,4856]},{"type":"Point","properties":{"Station_ID":"WI-DD-15","Station_Nam":"COLUMBUS 4.8 ENE, WI","Latitude":"43.35742","Longitude":"-88.93819","Snowdepth":"2.500","Units":"in","Rept_Date":"2020-12-12 15"},"coordinates":[1936,4792]},{"type":"Point","properties":{"Station_ID":"WI-DA-62","Station_Nam":"WAUNAKEE 4.9 W, WI","Latitude":"43.19755","Longitude":"-89.54904","Snowdepth":"2.500","Units":"in","Rept_Date":"2020-12-12 15"},"coordinates":[1792,4693]},{"type":"Point","properties":{"Station_ID":"VT-WS-30","Station_Nam":"WOODBURY 3.4 NNW, VT","Latitude":"44.48825","Longitude":"-72.43258","Snowdepth":"2.500","Units":"in","Rept_Date":"2020-12-12 12"},"coordinates":[5816,5496]},{"type":"Point","properties":{"Station_ID":"VT-OL-9","Station_Nam":"GREENSBORO 2.1 NNW, VT","Latitude":"44.60528","Longitude":"-72.30940","Snowdepth":"2.500","Units":"in","Rept_Date":"2020-12-12 12"},"coordinates":[5845,5568]},{"type":"Point","properties":{"Station_ID":"VT-OL-24","Station_Nam":"DERBY LINE 1.9 W, VT","Latitude":"45.00454","Longitude":"-72.14170","Snowdepth":"2.500","Units":"in","Rept_Date":"2020-12-12 12"},"coordinates":[5884,5817]},{"type":"Point","properties":{"Station_ID":"NY-FK-9","Station_Nam":"GABRIELS 1.3 SE, NY","Latitude":"44.41934","Longitude":"-74.16194","Snowdepth":"2.500","Units":"in","Rept_Date":"2020-12-12 12"},"coordinates":[5409,5453]},{"type":"Point","properties":{"Station_ID":"NH-HL-19","Station_Nam":"BROOKLINE 2.1 SW, NH","Latitude":"42.71235","Longitude":"-71.69760","Snowdepth":"2.500","Units":"in","Rept_Date":"2020-12-12 12"},"coordinates":[5988,4391]},{"type":"Point","properties":{"Station_ID":"NE-LA-19","Station_Nam":"LINCOLN 6.8 SE, NE","Latitude":"40.74944","Longitude":"-96.59280","Snowdepth":"2.500","Units":"in","Rept_Date":"2020-12-12 13"},"coordinates":[137,3169]},{"type":"Point","properties":{"Station_ID":"MI-NW-8","Station_Nam":"WHITE CLOUD 7.5 ENE, MI","Latitude":"43.60630","Longitude":"-85.64190","Snowdepth":"2.500","Units":"in","Rept_Date":"2020-12-12 12"},"coordinates":[2711,4947]},{"type":"Point","properties":{"Station_ID":"MI-HG-20","Station_Nam":"CALUMET 1.1 SSW, MI","Latitude":"47.23165","Longitude":"-88.45823","Snowdepth":"2.500","Units":"in","Rept_Date":"2020-12-12 11"},"coordinates":[2049,7202]},{"type":"Point","properties":{"Station_ID":"ME-YK-67","Station_Nam":"CORNISH 5.6 ESE, ME","Latitude":"43.78308","Longitude":"-70.69539","Snowdepth":"2.500","Units":"in","Rept_Date":"2020-12-12 12"},"coordinates":[6224,5057]},{"type":"Point","properties":{"Station_ID":"ME-SM-10","Station_Nam":"NORTH NEW PORTLAND 0.3 WSW, ME","Latitude":"44.92353","Longitude":"-70.02788","Snowdepth":"2.500","Units":"in","Rept_Date":"2020-12-12 12"},"coordinates":[6381,5766]},{"type":"Point","properties":{"Station_ID":"ME-CM-86","Station_Nam":"POWNAL 4.1 S, ME","Latitude":"43.85370","Longitude":"-70.17210","Snowdepth":"2.500","Units":"in","Rept_Date":"2020-12-12 12"},"coordinates":[6347,5101]},{"type":"Point","properties":{"Station_ID":"ME-CM-3","Station_Nam":"NEW GLOUCESTER 3.0 SE, ME","Latitude":"43.92372","Longitude":"-70.25790","Snowdepth":"2.500","Units":"in","Rept_Date":"2020-12-12 12"},"coordinates":[6327,5144]},{"type":"Point","properties":{"Station_ID":"MA-WR-58","Station_Nam":"LUNENBURG 0.6 NE, MA","Latitude":"42.60180","Longitude":"-71.71653","Snowdepth":"2.500","Units":"in","Rept_Date":"2020-12-12 13"},"coordinates":[5984,4322]},{"type":"Point","properties":{"Station_ID":"MA-WR-56","Station_Nam":"STERLING 4.3 NW, MA","Latitude":"42.47540","Longitude":"-71.81140","Snowdepth":"2.500","Units":"in","Rept_Date":"2020-12-12 12"},"coordinates":[5962,4243]},{"type":"Point","properties":{"Station_ID":"MA-MD-42","Station_Nam":"HOLLISTON 0.8 S, MA","Latitude":"42.18820","Longitude":"-71.43390","Snowdepth":"2.500","Units":"in","Rept_Date":"2020-12-12 12"},"coordinates":[6050,4065]},{"type":"Point","properties":{"Station_ID":"IL-SP-3","Station_Nam":"ORANGEVILLE 2.8 NW, IL","Latitude":"42.49607","Longitude":"-89.68430","Snowdepth":"2.500","Units":"in","Rept_Date":"2020-12-12 13"},"coordinates":[1761,4256]},{"type":"Point","properties":{"Station_ID":"IL-JD-6","Station_Nam":"HANOVER 0.2 NW, IL","Latitude":"42.25640","Longitude":"-90.28109","Snowdepth":"2.500","Units":"in","Rept_Date":"2020-12-12 13"},"coordinates":[1620,4107]},{"type":"Point","properties":{"Station_ID":"BURT002","Station_Nam":"CRAIG 6.2 S, NE","Latitude":"41.69650","Longitude":"-96.36190","Snowdepth":"2.500","Units":"in","Rept_Date":"2020-12-12 13"},"coordinates":[191,3759]},{"type":"Point","properties":{"Station_ID":"IA-LN-30","Station_Nam":"CENTER POINT 0.6 NNW, IA","Latitude":"42.19324","Longitude":"-91.78255","Snowdepth":"2.300","Units":"in","Rept_Date":"2020-12-12 12"},"coordinates":[1268,4068]},{"type":"Point","properties":{"Station_ID":"IA-BH-3","Station_Nam":"CEDAR FALLS 0.4 WNW, IA","Latitude":"42.52318","Longitude":"-92.45961","Snowdepth":"2.300","Units":"in","Rept_Date":"2020-12-12 13"},"coordinates":[1108,4273]},{"type":"Point","properties":{"Station_ID":"WI-CB-5","Station_Nam":"PORTAGE 7.2 SW, WI","Latitude":"43.47933","Longitude":"-89.57370","Snowdepth":"2.200","Units":"in","Rept_Date":"2020-12-12 13"},"coordinates":[1787,4868]},{"type":"Point","properties":{"Station_ID":"IL-CR-12","Station_Nam":"MOUNT CARROLL 6.8 NNW, IL","Latitude":"42.18735","Longitude":"-90.02185","Snowdepth":"2.200","Units":"in","Rept_Date":"2020-12-12 13"},"coordinates":[1681,4064]},{"type":"Point","properties":{"Station_ID":"IA-CL-2","Station_Nam":"OSCEOLA 2.5 WSW, IA","Latitude":"41.01666","Longitude":"-93.81750","Snowdepth":"2.200","Units":"in","Rept_Date":"2020-12-12 13"},"coordinates":[789,3336]},{"type":"Point","properties":{"Station_ID":"IA-BN-3","Station_Nam":"OGDEN 1.6 SE, IA","Latitude":"42.02000","Longitude":"-94.01000","Snowdepth":"2.200","Units":"in","Rept_Date":"2020-12-12 15"},"coordinates":[744,3960]},{"type":"Point","properties":{"Station_ID":"ZBWN3","Station_Nam":"NASHUA CWSU","Latitude":"42.73440","Longitude":"-71.48030","Snowdepth":"2.000","Units":"in","Rept_Date":"2020-12-12 13"},"coordinates":[6039,4404]},{"type":"Point","properties":{"Station_ID":"WTBW3","Station_Nam":"WEST BEND PUBLIC WORKS","Latitude":"43.41110","Longitude":"-88.19380","Snowdepth":"2.000","Units":"in","Rept_Date":"2020-12-12 13"},"coordinates":[2111,4825]},{"type":"Point","properties":{"Station_ID":"WRSM5","Station_Nam":"WRENSHALL","Latitude":"46.61550","Longitude":"-92.38380","Snowdepth":"2.000","Units":"in","Rept_Date":"2020-12-12 14"},"coordinates":[1126,6819]},{"type":"Point","properties":{"Station_ID":"WOLN3","Station_Nam":"WOLFEBORO","Latitude":"43.59020","Longitude":"-71.20190","Snowdepth":"2.000","Units":"in","Rept_Date":"2020-12-12 12"},"coordinates":[6105,4937]},{"type":"Point","properties":{"Station_ID":"WLBI4","Station_Nam":"WILLIAMSBURG 3 SE","Latitude":"41.64020","Longitude":"-91.97840","Snowdepth":"2.000","Units":"in","Rept_Date":"2020-12-12 13"},"coordinates":[1221,3724]},{"type":"Point","properties":{"Station_ID":"WI-WS-30","Station_Nam":"HARTFORD 2.9 ENE, WI","Latitude":"43.34256","Longitude":"-88.33687","Snowdepth":"2.000","Units":"in","Rept_Date":"2020-12-12 13"},"coordinates":[2077,4783]},{"type":"Point","properties":{"Station_ID":"WI-SK-2","Station_Nam":"ROCK SPRINGS 2.8 WSW, WI","Latitude":"43.45901","Longitude":"-89.96540","Snowdepth":"2.000","Units":"in","Rept_Date":"2020-12-12 13"},"coordinates":[1695,4855]},{"type":"Point","properties":{"Station_ID":"WI-MC-15","Station_Nam":"VALDERS 3.3 WSW, WI","Latitude":"44.03991","Longitude":"-87.94202","Snowdepth":"2.000","Units":"in","Rept_Date":"2020-12-12 13"},"coordinates":[2170,5217]},{"type":"Point","properties":{"Station_ID":"WAUI4","Station_Nam":"WAUKON","Latitude":"43.27410","Longitude":"-91.47110","Snowdepth":"2.000","Units":"in","Rept_Date":"2020-12-12 12"},"coordinates":[1341,4740]},{"type":"Point","properties":{"Station_ID":"WATW3","Station_Nam":"WATERTOWN,WI","Latitude":"43.17500","Longitude":"-88.73530","Snowdepth":"2.000","Units":"in","Rept_Date":"2020-12-12 13"},"coordinates":[1984,4679]},{"type":"Point","properties":{"Station_ID":"VT-WS-19","Station_Nam":"WATERBURY 3.0 NW, VT","Latitude":"44.36060","Longitude":"-72.80770","Snowdepth":"2.000","Units":"in","Rept_Date":"2020-12-12 11"},"coordinates":[5727,5416]},{"type":"Point","properties":{"Station_ID":"VT-WH-30","Station_Nam":"MARLBORO 2.0 NNE, VT","Latitude":"42.88484","Longitude":"-72.70935","Snowdepth":"2.000","Units":"in","Rept_Date":"2020-12-12 13"},"coordinates":[5751,4498]},{"type":"Point","properties":{"Station_ID":"VT-OL-2","Station_Nam":"BARTON 3.0 ENE, VT","Latitude":"44.75863","Longitude":"-72.11680","Snowdepth":"2.000","Units":"in","Rept_Date":"2020-12-12 12"},"coordinates":[5890,5664]},{"type":"Point","properties":{"Station_ID":"VT-OL-1","Station_Nam":"WESTFIELD 0.7 WNW, VT","Latitude":"44.89160","Longitude":"-72.44350","Snowdepth":"2.000","Units":"in","Rept_Date":"2020-12-12 12"},"coordinates":[5813,5746]},{"type":"Point","properties":{"Station_ID":"VT-BN-3","Station_Nam":"LANDGROVE 1.1 NNE, VT","Latitude":"43.29092","Longitude":"-72.83260","Snowdepth":"2.000","Units":"in","Rept_Date":"2020-12-12 12"},"coordinates":[5722,4751]},{"type":"Point","properties":{"Station_ID":"VT-BN-12","Station_Nam":"STAMFORD 5.0 NNE, VT","Latitude":"42.82000","Longitude":"-73.02000","Snowdepth":"2.000","Units":"in","Rept_Date":"2020-12-12 21"},"coordinates":[5678,4458]},{"type":"Point","properties":{"Station_ID":"VOLI4","Station_Nam":"VOLGA 1NE","Latitude":"42.81150","Longitude":"-91.52300","Snowdepth":"2.000","Units":"in","Rept_Date":"2020-12-12 13"},"coordinates":[1329,4452]},{"type":"Point","properties":{"Station_ID":"TEKN1","Station_Nam":"TEKAMAH,NE","Latitude":"41.76670","Longitude":"-96.23330","Snowdepth":"2.000","Units":"in","Rept_Date":"2020-12-12 14"},"coordinates":[221,3802]},{"type":"Point","properties":{"Station_ID":"TCMN1","Station_Nam":"TECUMSEH,NE","Latitude":"40.36670","Longitude":"-96.18330","Snowdepth":"2.000","Units":"in","Rept_Date":"2020-12-12 14"},"coordinates":[233,2931]},{"type":"Point","properties":{"Station_ID":"TAKM7","Station_Nam":"TARKIO #2","Latitude":"40.43730","Longitude":"-95.38660","Snowdepth":"2.000","Units":"in","Rept_Date":"2020-12-12 13"},"coordinates":[420,2975]},{"type":"Point","properties":{"Station_ID":"SPNN1","Station_Nam":"MAHA SCOUT CAMP","Latitude":"41.06390","Longitude":"-96.00690","Snowdepth":"2.000","Units":"in","Rept_Date":"2020-12-12 14"},"coordinates":[275,3365]},{"type":"Point","properties":{"Station_ID":"SNYI4","Station_Nam":"STANLEY","Latitude":"42.63330","Longitude":"-91.86320","Snowdepth":"2.000","Units":"in","Rept_Date":"2020-12-12 13"},"coordinates":[1249,4341]},{"type":"Point","properties":{"Station_ID":"SDHI4","Station_Nam":"SHENANDOAH,IA","Latitude":"40.78330","Longitude":"-95.35000","Snowdepth":"2.000","Units":"in","Rept_Date":"2020-12-12 14"},"coordinates":[429,3191]},{"type":"Point","properties":{"Station_ID":"SCOM4","Station_Nam":"SCOTTVILLE 2 SE","Latitude":"43.93310","Longitude":"-86.24530","Snowdepth":"2.000","Units":"in","Rept_Date":"2020-12-12 12"},"coordinates":[2569,5150]},{"type":"Point","properties":{"Station_ID":"SBRM3","Station_Nam":"SOUTHBRIDGE","Latitude":"42.05830","Longitude":"-72.07210","Snowdepth":"2.000","Units":"in","Rept_Date":"2020-12-12 12"},"coordinates":[5900,3984]},{"type":"Point","properties":{"Station_ID":"RCHW3","Station_Nam":"RICHRIELD,WI","Latitude":"43.21080","Longitude":"-88.20940","Snowdepth":"2.000","Units":"in","Rept_Date":"2020-12-12 12"},"coordinates":[2107,4701]},{"type":"Point","properties":{"Station_ID":"RANI4","Station_Nam":"RANDOLPH,IA","Latitude":"40.86670","Longitude":"-95.56670","Snowdepth":"2.000","Units":"in","Rept_Date":"2020-12-12 15"},"coordinates":[378,3242]},{"type":"Point","properties":{"Station_ID":"QNCM4","Station_Nam":"QUINCY HILL","Latitude":"47.13640","Longitude":"-88.57950","Snowdepth":"2.000","Units":"in","Rept_Date":"2020-12-12 12"},"coordinates":[2020,7143]},{"type":"Point","properties":{"Station_ID":"PORW3","Station_Nam":"PORTAGE,WI","Latitude":"43.53190","Longitude":"-89.43780","Snowdepth":"2.000","Units":"in","Rept_Date":"2020-12-12 14"},"coordinates":[1819,4901]},{"type":"Point","properties":{"Station_ID":"PDLM4","Station_Nam":"PAINESDALE","Latitude":"47.04160","Longitude":"-88.67170","Snowdepth":"2.000","Units":"in","Rept_Date":"2020-12-12 13"},"coordinates":[1999,7084]},{"type":"Point","properties":{"Station_ID":"OAXN1","Station_Nam":"VALLEY 1WNW","Latitude":"41.31970","Longitude":"-96.36720","Snowdepth":"2.000","Units":"in","Rept_Date":"2020-12-13 06"},"coordinates":[190,3524]},{"type":"Point","properties":{"Station_ID":"OAX","Station_Nam":"OMAHA, NE","Latitude":"41.32000","Longitude":"-96.36670","Snowdepth":"2.000","Units":"in","Rept_Date":"2020-12-13 00"},"coordinates":[190,3524]},{"type":"Point","properties":{"Station_ID":"NVLV1","Station_Nam":"NASHVILLE","Latitude":"44.44970","Longitude":"-72.92640","Snowdepth":"2.000","Units":"in","Rept_Date":"2020-12-12 12"},"coordinates":[5700,5472]},{"type":"Point","properties":{"Station_ID":"NH-MR-26","Station_Nam":"PITTSFIELD 0.2 SSW, NH","Latitude":"43.29880","Longitude":"-71.33450","Snowdepth":"2.000","Units":"in","Rept_Date":"2020-12-12 13"},"coordinates":[6074,4756]},{"type":"Point","properties":{"Station_ID":"NH-CR-15","Station_Nam":"JACKSON 3.7 NW, NH","Latitude":"44.19069","Longitude":"-71.22598","Snowdepth":"2.000","Units":"in","Rept_Date":"2020-12-12 12"},"coordinates":[6099,5310]},{"type":"Point","properties":{"Station_ID":"NENI4","Station_Nam":"NORTH ENGLISH","Latitude":"41.51190","Longitude":"-92.07240","Snowdepth":"2.000","Units":"in","Rept_Date":"2020-12-12 13"},"coordinates":[1199,3644]},{"type":"Point","properties":{"Station_ID":"NE-SY-25","Station_Nam":"GRETNA 2.9 NNE, NE","Latitude":"41.17831","Longitude":"-96.21984","Snowdepth":"2.000","Units":"in","Rept_Date":"2020-12-12 14"},"coordinates":[225,3436]},{"type":"Point","properties":{"Station_ID":"NE-LA-56","Station_Nam":"LINCOLN 8.1 SSE, NE","Latitude":"40.71326","Longitude":"-96.61527","Snowdepth":"2.000","Units":"in","Rept_Date":"2020-12-12 14"},"coordinates":[132,3147]},{"type":"Point","properties":{"Station_ID":"NE-LA-52","Station_Nam":"LINCOLN 1.2 ENE, NE","Latitude":"40.82411","Longitude":"-96.66780","Snowdepth":"2.000","Units":"in","Rept_Date":"2020-12-12 13"},"coordinates":[119,3216]},{"type":"Point","properties":{"Station_ID":"MYVM7","Station_Nam":"MARYVILLE","Latitude":"40.34580","Longitude":"-94.83410","Snowdepth":"2.000","Units":"in","Rept_Date":"2020-12-12 13"},"coordinates":[550,2918]},{"type":"Point","properties":{"Station_ID":"MRLV1","Station_Nam":"MARLBORO","Latitude":"42.86000","Longitude":"-72.72000","Snowdepth":"2.000","Units":"in","Rept_Date":"2020-12-12 13"},"coordinates":[5748,4483]},{"type":"Point","properties":{"Station_ID":"MN-SL-18","Station_Nam":"DULUTH 1.4 NNW, MN","Latitude":"46.80321","Longitude":"-92.11240","Snowdepth":"2.000","Units":"in","Rept_Date":"2020-12-12 14"},"coordinates":[1190,6936]},{"type":"Point","properties":{"Station_ID":"MI-OT-4","Station_Nam":"GAYLORD 1.7 WNW, MI","Latitude":"45.03280","Longitude":"-84.71090","Snowdepth":"2.000","Units":"in","Rept_Date":"2020-12-12 13"},"coordinates":[2930,5834]},{"type":"Point","properties":{"Station_ID":"MI-OT-17","Station_Nam":"GAYLORD 4.1 S, MI","Latitude":"44.96388","Longitude":"-84.68467","Snowdepth":"2.000","Units":"in","Rept_Date":"2020-12-12 13"},"coordinates":[2936,5791]},{"type":"Point","properties":{"Station_ID":"MI-OT-16","Station_Nam":"GAYLORD 2.2 SSE, MI","Latitude":"44.99441","Longitude":"-84.65820","Snowdepth":"2.000","Units":"in","Rept_Date":"2020-12-12 14"},"coordinates":[2942,5810]},{"type":"Point","properties":{"Station_ID":"MI-ME-12","Station_Nam":"BIG RAPIDS 3.1 SE, MI","Latitude":"43.67722","Longitude":"-85.43519","Snowdepth":"2.000","Units":"in","Rept_Date":"2020-12-12 12"},"coordinates":[2759,4991]},{"type":"Point","properties":{"Station_ID":"MI-GT-21","Station_Nam":"KINGSLEY 2.7 ENE, MI","Latitude":"44.59871","Longitude":"-85.48426","Snowdepth":"2.000","Units":"in","Rept_Date":"2020-12-12 13"},"coordinates":[2748,5564]},{"type":"Point","properties":{"Station_ID":"ME-YK-5","Station_Nam":"KENNEBUNK 1.8 WNW, ME","Latitude":"43.39320","Longitude":"-70.58060","Snowdepth":"2.000","Units":"in","Rept_Date":"2020-12-12 12"},"coordinates":[6251,4814]},{"type":"Point","properties":{"Station_ID":"ME-CM-143","Station_Nam":"PORTLAND 5.4 NW, ME","Latitude":"43.72010","Longitude":"-70.28710","Snowdepth":"2.000","Units":"in","Rept_Date":"2020-12-12 12"},"coordinates":[6320,5018]},{"type":"Point","properties":{"Station_ID":"MA-WR-42","Station_Nam":"NORTHBOROUGH 2.3 N, MA","Latitude":"42.34535","Longitude":"-71.64390","Snowdepth":"2.000","Units":"in","Rept_Date":"2020-12-12 13"},"coordinates":[6001,4162]},{"type":"Point","properties":{"Station_ID":"LYON1","Station_Nam":"LYONS,NE","Latitude":"41.93810","Longitude":"-96.47920","Snowdepth":"2.000","Units":"in","Rept_Date":"2020-12-12 14"},"coordinates":[164,3909]},{"type":"Point","properties":{"Station_ID":"LODW3","Station_Nam":"LODI","Latitude":"43.32170","Longitude":"-89.53110","Snowdepth":"2.000","Units":"in","Rept_Date":"2020-12-12 13"},"coordinates":[1797,4770]},{"type":"Point","properties":{"Station_ID":"LNK","Station_Nam":"LINCOLN MUNICIPAL AIRPORT","Latitude":"40.85080","Longitude":"-96.75920","Snowdepth":"2.000","Units":"in","Rept_Date":"2020-12-13 00"},"coordinates":[98,3233]},{"type":"Point","properties":{"Station_ID":"LGEW3","Station_Nam":"LAKE GENEVA, WI","Latitude":"42.60000","Longitude":"-88.43440","Snowdepth":"2.000","Units":"in","Rept_Date":"2020-12-12 13"},"coordinates":[2054,4321]},{"type":"Point","properties":{"Station_ID":"KSLI4","Station_Nam":"KESLEY","Latitude":"42.66110","Longitude":"-92.90830","Snowdepth":"2.000","Units":"in","Rept_Date":"2020-12-12 15"},"coordinates":[1003,4359]},{"type":"Point","properties":{"Station_ID":"KMHT","Station_Nam":"MANCHESTER AIRPORT","Latitude":"42.93333","Longitude":"-71.43333","Snowdepth":"2.000","Units":"in","Rept_Date":"2020-12-13 06"},"coordinates":[6050,4528]},{"type":"Point","properties":{"Station_ID":"JOHV1","Station_Nam":"JOHNSON 2 N","Latitude":"44.65790","Longitude":"-72.67850","Snowdepth":"2.000","Units":"in","Rept_Date":"2020-12-12 13"},"coordinates":[5758,5601]},{"type":"Point","properties":{"Station_ID":"JEFV1","Station_Nam":"JEFFERSONVILLE","Latitude":"44.58430","Longitude":"-72.78700","Snowdepth":"2.000","Units":"in","Rept_Date":"2020-12-12 12"},"coordinates":[5732,5555]},{"type":"Point","properties":{"Station_ID":"IWAI4","Station_Nam":"IOWA FALLS,IA","Latitude":"42.53330","Longitude":"-93.26670","Snowdepth":"2.000","Units":"in","Rept_Date":"2020-12-12 14"},"coordinates":[919,4279]},{"type":"Point","properties":{"Station_ID":"ISLV1","Station_Nam":"ISLAND POND","Latitude":"44.81280","Longitude":"-71.89020","Snowdepth":"2.000","Units":"in","Rept_Date":"2020-12-12 14"},"coordinates":[5943,5697]},{"type":"Point","properties":{"Station_ID":"IL-RI-13","Station_Nam":"MOLINE 0.7 NNE, IL","Latitude":"41.49455","Longitude":"-90.48410","Snowdepth":"2.000","Units":"in","Rept_Date":"2020-12-12 13"},"coordinates":[1573,3633]},{"type":"Point","properties":{"Station_ID":"IA-IA-2","Station_Nam":"MARENGO 2.6 SSW, IA","Latitude":"41.76208","Longitude":"-92.08470","Snowdepth":"2.000","Units":"in","Rept_Date":"2020-12-12 13"},"coordinates":[1197,3799]},{"type":"Point","properties":{"Station_ID":"HUBN3","Station_Nam":"HUBBARD BROOK","Latitude":"43.93330","Longitude":"-71.71670","Snowdepth":"2.000","Units":"in","Rept_Date":"2020-12-13 06"},"coordinates":[5984,5150]},{"type":"Point","properties":{"Station_ID":"HERM4","Station_Nam":"HERMAN,MI","Latitude":"46.65000","Longitude":"-88.33330","Snowdepth":"2.000","Units":"in","Rept_Date":"2020-12-12 13"},"coordinates":[2078,6840]},{"type":"Point","properties":{"Station_ID":"HARW3","Station_Nam":"HARTFORD,WI","Latitude":"43.31670","Longitude":"-88.40000","Snowdepth":"2.000","Units":"in","Rept_Date":"2020-12-12 15"},"coordinates":[2063,4767]},{"type":"Point","properties":{"Station_ID":"GRWI4","Station_Nam":"GARWIN,IA","Latitude":"42.10000","Longitude":"-92.66670","Snowdepth":"2.000","Units":"in","Rept_Date":"2020-12-12 12"},"coordinates":[1060,4010]},{"type":"Point","properties":{"Station_ID":"GLNM4","Station_Nam":"GLENNIE 2SE","Latitude":"44.53580","Longitude":"-83.70220","Snowdepth":"2.000","Units":"in","Rept_Date":"2020-12-12 12"},"coordinates":[3167,5525]},{"type":"Point","properties":{"Station_ID":"GAYM4","Station_Nam":"GAYLORD","Latitude":"45.03320","Longitude":"-84.71130","Snowdepth":"2.000","Units":"in","Rept_Date":"2020-12-12 13"},"coordinates":[2930,5835]},{"type":"Point","properties":{"Station_ID":"FCHM3","Station_Nam":"FITCHBURG COOP","Latitude":"42.61680","Longitude":"-71.80170","Snowdepth":"2.000","Units":"in","Rept_Date":"2020-12-12 13"},"coordinates":[5964,4331]},{"type":"Point","properties":{"Station_ID":"FCDW3","Station_Nam":"FOND DU LAC-AM","Latitude":"43.76670","Longitude":"-88.46670","Snowdepth":"2.000","Units":"in","Rept_Date":"2020-12-12 13"},"coordinates":[2047,5047]},{"type":"Point","properties":{"Station_ID":"EZBI2","Station_Nam":"ELIZABETH","Latitude":"42.31620","Longitude":"-90.22690","Snowdepth":"2.000","Units":"in","Rept_Date":"2020-12-12 12"},"coordinates":[1633,4144]},{"type":"Point","properties":{"Station_ID":"EHYM3","Station_Nam":"EAST HAWLEY","Latitude":"42.57410","Longitude":"-72.86790","Snowdepth":"2.000","Units":"in","Rept_Date":"2020-12-12 13"},"coordinates":[5713,4305]},{"type":"Point","properties":{"Station_ID":"DENW3","Station_Nam":"DENMARK WWTP","Latitude":"44.35130","Longitude":"-87.81190","Snowdepth":"2.000","Units":"in","Rept_Date":"2020-12-12 14"},"coordinates":[2201,5410]},{"type":"Point","properties":{"Station_ID":"DARW3","Station_Nam":"DARLINGTON","Latitude":"42.67780","Longitude":"-90.11860","Snowdepth":"2.000","Units":"in","Rept_Date":"2020-12-12 14"},"coordinates":[1659,4369]},{"type":"Point","properties":{"Station_ID":"CT-TL-33","Station_Nam":"TOLLAND 3.6 NNE, CT","Latitude":"41.91859","Longitude":"-72.33910","Snowdepth":"2.000","Units":"in","Rept_Date":"2020-12-12 12"},"coordinates":[5838,3897]},{"type":"Point","properties":{"Station_ID":"CON","Station_Nam":"CONCORD MUNI ARPT","Latitude":"43.20280","Longitude":"-71.50220","Snowdepth":"2.000","Units":"in","Rept_Date":"2020-12-12 12"},"coordinates":[6034,4696]},{"type":"Point","properties":{"Station_ID":"COKM5","Station_Nam":"COOK","Latitude":"47.85060","Longitude":"-92.69250","Snowdepth":"2.000","Units":"in","Rept_Date":"2020-12-12 12"},"coordinates":[1054,7587]},{"type":"Point","properties":{"Station_ID":"CHMW3","Station_Nam":"MADISON,WI","Latitude":"43.06030","Longitude":"-89.47810","Snowdepth":"2.000","Units":"in","Rept_Date":"2020-12-12 13"},"coordinates":[1809,4607]},{"type":"Point","properties":{"Station_ID":"BNDM5","Station_Nam":"ELY 25E","Latitude":"47.97190","Longitude":"-91.44860","Snowdepth":"2.000","Units":"in","Rept_Date":"2020-12-12 13"},"coordinates":[1346,7663]},{"type":"Point","properties":{"Station_ID":"BLVI4","Station_Nam":"MISSISSIPPI RIVER","Latitude":"42.26670","Longitude":"-90.41670","Snowdepth":"2.000","Units":"in","Rept_Date":"2020-12-12 12"},"coordinates":[1589,4113]},{"type":"Point","properties":{"Station_ID":"BCNI4","Station_Nam":"BEACONSFIELD,IA","Latitude":"40.82360","Longitude":"-94.04390","Snowdepth":"2.000","Units":"in","Rept_Date":"2020-12-12 13"},"coordinates":[736,3216]},{"type":"Point","properties":{"Station_ID":"BABW3","Station_Nam":"BARABOO WWTP","Latitude":"43.48330","Longitude":"-89.63330","Snowdepth":"2.000","Units":"in","Rept_Date":"2020-12-12 13"},"coordinates":[1773,4870]},{"type":"Point","properties":{"Station_ID":"ALXI4","Station_Nam":"WATERLOO SNOW","Latitude":"42.53130","Longitude":"-92.37550","Snowdepth":"2.000","Units":"in","Rept_Date":"2020-12-13 06"},"coordinates":[1128,4278]},{"type":"Point","properties":{"Station_ID":"ALLW3","Station_Nam":"ALLENTON","Latitude":"43.42360","Longitude":"-88.35110","Snowdepth":"2.000","Units":"in","Rept_Date":"2020-12-12 13"},"coordinates":[2074,4833]},{"type":"Point","properties":{"Station_ID":"WI-WS-33","Station_Nam":"ALLENTON 1.4 WSW, WI","Latitude":"43.41683","Longitude":"-88.36900","Snowdepth":"1.800","Units":"in","Rept_Date":"2020-12-12 12"},"coordinates":[2070,4829]},{"type":"Point","properties":{"Station_ID":"WI-WK-30","Station_Nam":"SUSSEX 3.4 W, WI","Latitude":"43.14425","Longitude":"-88.28540","Snowdepth":"1.800","Units":"in","Rept_Date":"2020-12-12 14"},"coordinates":[2090,4659]},{"type":"Point","properties":{"Station_ID":"WI-JF-17","Station_Nam":"JOHNSON CREEK 2.7 SSW, WI","Latitude":"43.04559","Longitude":"-88.79925","Snowdepth":"1.800","Units":"in","Rept_Date":"2020-12-12 12"},"coordinates":[1969,4598]},{"type":"Point","properties":{"Station_ID":"MA-WR-69","Station_Nam":"NORTHBRIDGE 1.7 WNW, MA","Latitude":"42.16305","Longitude":"-71.67888","Snowdepth":"1.800","Units":"in","Rept_Date":"2020-12-12 14"},"coordinates":[5993,4049]},{"type":"Point","properties":{"Station_ID":"IA-ST-42","Station_Nam":"RIVERDALE 0.5 N, IA","Latitude":"41.54319","Longitude":"-90.46752","Snowdepth":"1.800","Units":"in","Rept_Date":"2020-12-12 15"},"coordinates":[1577,3663]},{"type":"Point","properties":{"Station_ID":"IA-JH-1","Station_Nam":"SOLON 0.3 ESE, IA","Latitude":"41.80398","Longitude":"-91.48910","Snowdepth":"1.800","Units":"in","Rept_Date":"2020-12-12 13"},"coordinates":[1336,3826]},{"type":"Point","properties":{"Station_ID":"VT-OL-25","Station_Nam":"NEWPORT 1.5 WSW, VT","Latitude":"44.93059","Longitude":"-72.23731","Snowdepth":"1.700","Units":"in","Rept_Date":"2020-12-12 12"},"coordinates":[5861,5771]},{"type":"Point","properties":{"Station_ID":"QIQ","Station_Nam":"QIQ","Latitude":"49.82390","Longitude":"-68.54310","Snowdepth":"1.614","Units":"in","Rept_Date":"2020-12-12 12"},"coordinates":[6730,8815]},{"type":"Point","properties":{"Station_ID":"WI-WS-5","Station_Nam":"JACKSON 0.2 WSW, WI","Latitude":"43.32007","Longitude":"-88.16820","Snowdepth":"1.600","Units":"in","Rept_Date":"2020-12-12 12"},"coordinates":[2117,4769]},{"type":"Point","properties":{"Station_ID":"WI-WK-61","Station_Nam":"HARTLAND 5.0 NNE, WI","Latitude":"43.16351","Longitude":"-88.30400","Snowdepth":"1.500","Units":"in","Rept_Date":"2020-12-12 12"},"coordinates":[2085,4671]},{"type":"Point","properties":{"Station_ID":"WI-RK-12","Station_Nam":"JANESVILLE 3.1 W, WI","Latitude":"42.67576","Longitude":"-89.07614","Snowdepth":"1.500","Units":"in","Rept_Date":"2020-12-12 13"},"coordinates":[1904,4368]},{"type":"Point","properties":{"Station_ID":"WI-LF-5","Station_Nam":"BENTON 0.3 WNW, WI","Latitude":"42.57194","Longitude":"-90.38755","Snowdepth":"1.500","Units":"in","Rept_Date":"2020-12-12 13"},"coordinates":[1595,4303]},{"type":"Point","properties":{"Station_ID":"WI-JF-19","Station_Nam":"WATERTOWN 0.8 S, WI","Latitude":"43.18063","Longitude":"-88.72399","Snowdepth":"1.500","Units":"in","Rept_Date":"2020-12-12 13"},"coordinates":[1986,4682]},{"type":"Point","properties":{"Station_ID":"WI-DL-18","Station_Nam":"ELDORADO 2.3 S, WI","Latitude":"43.79206","Longitude":"-88.61655","Snowdepth":"1.500","Units":"in","Rept_Date":"2020-12-12 14"},"coordinates":[2012,5062]},{"type":"Point","properties":{"Station_ID":"WI-CB-4","Station_Nam":"PORTAGE 5.7 WSW, WI","Latitude":"43.51411","Longitude":"-89.56910","Snowdepth":"1.500","Units":"in","Rept_Date":"2020-12-12 12"},"coordinates":[1788,4889]},{"type":"Point","properties":{"Station_ID":"VT-WR-2","Station_Nam":"POMFRET 2.6 N, VT","Latitude":"43.74230","Longitude":"-72.52550","Snowdepth":"1.500","Units":"in","Rept_Date":"2020-12-12 12"},"coordinates":[5794,5031]},{"type":"Point","properties":{"Station_ID":"VT-LM-1","Station_Nam":"STOWE 0.2 SW, VT","Latitude":"44.46399","Longitude":"-72.69070","Snowdepth":"1.500","Units":"in","Rept_Date":"2020-12-12 12"},"coordinates":[5755,5480]},{"type":"Point","properties":{"Station_ID":"VT-CL-18","Station_Nam":"WHEELOCK 1.6 S, VT","Latitude":"44.56491","Longitude":"-72.08830","Snowdepth":"1.500","Units":"in","Rept_Date":"2020-12-12 12"},"coordinates":[5897,5543]},{"type":"Point","properties":{"Station_ID":"NY-OD-2","Station_Nam":"POINT ROCK 0.6 SE, NY","Latitude":"43.37335","Longitude":"-75.53840","Snowdepth":"1.500","Units":"in","Rept_Date":"2020-12-12 12"},"coordinates":[5086,4802]},{"type":"Point","properties":{"Station_ID":"NY-HR-18","Station_Nam":"SALISBURY CENTER 1.8 NW, NY","Latitude":"43.16260","Longitude":"-74.80880","Snowdepth":"1.500","Units":"in","Rept_Date":"2020-12-12 11"},"coordinates":[5257,4671]},{"type":"Point","properties":{"Station_ID":"NH-HL-25","Station_Nam":"AMHERST 3.7 NNE, NH","Latitude":"42.91409","Longitude":"-71.61020","Snowdepth":"1.500","Units":"in","Rept_Date":"2020-12-12 12"},"coordinates":[6009,4516]},{"type":"Point","properties":{"Station_ID":"NH-BK-1","Station_Nam":"TILTON NORTHFIELD 3.3 NE, NH","Latitude":"43.48000","Longitude":"-71.55000","Snowdepth":"1.500","Units":"in","Rept_Date":"2020-12-12 12"},"coordinates":[6023,4868]},{"type":"Point","properties":{"Station_ID":"NE-LA-22","Station_Nam":"RAYMOND 7.3 WNW, NE","Latitude":"40.99820","Longitude":"-96.90930","Snowdepth":"1.500","Units":"in","Rept_Date":"2020-12-12 14"},"coordinates":[63,3324]},{"type":"Point","properties":{"Station_ID":"MO-ND-6","Station_Nam":"HOPKINS 3.9 WSW, MO","Latitude":"40.53581","Longitude":"-94.88790","Snowdepth":"1.500","Units":"in","Rept_Date":"2020-12-12 13"},"coordinates":[538,3037]},{"type":"Point","properties":{"Station_ID":"MN-CK-18","Station_Nam":"GRAND MARAIS 4.4 WSW, MN","Latitude":"47.74462","Longitude":"-90.43796","Snowdepth":"1.500","Units":"in","Rept_Date":"2020-12-12 13"},"coordinates":[1584,7521]},{"type":"Point","properties":{"Station_ID":"MI-BZ-1","Station_Nam":"BENZONIA 5.3 S, MI","Latitude":"44.53976","Longitude":"-86.10650","Snowdepth":"1.500","Units":"in","Rept_Date":"2020-12-12 14"},"coordinates":[2602,5528]},{"type":"Point","properties":{"Station_ID":"ME-YK-65","Station_Nam":"NORTH BERWICK 5.3 W, ME","Latitude":"43.29801","Longitude":"-70.83956","Snowdepth":"1.500","Units":"in","Rept_Date":"2020-12-12 15"},"coordinates":[6190,4755]},{"type":"Point","properties":{"Station_ID":"ME-LN-13","Station_Nam":"WALDOBORO 1.5 NNE, ME","Latitude":"44.11481","Longitude":"-69.36644","Snowdepth":"1.500","Units":"in","Rept_Date":"2020-12-12 13"},"coordinates":[6536,5263]},{"type":"Point","properties":{"Station_ID":"ME-KX-6","Station_Nam":"UNION 3.0 NW, ME","Latitude":"44.24435","Longitude":"-69.31540","Snowdepth":"1.500","Units":"in","Rept_Date":"2020-12-12 12"},"coordinates":[6548,5344]},{"type":"Point","properties":{"Station_ID":"ME-KX-12","Station_Nam":"UNION 3.0 W, ME","Latitude":"44.21320","Longitude":"-69.34160","Snowdepth":"1.500","Units":"in","Rept_Date":"2020-12-12 12"},"coordinates":[6542,5324]},{"type":"Point","properties":{"Station_ID":"MA-WR-41","Station_Nam":"AUBURN 2.6 SW, MA","Latitude":"42.17336","Longitude":"-71.86869","Snowdepth":"1.500","Units":"in","Rept_Date":"2020-12-12 13"},"coordinates":[5948,4055]},{"type":"Point","properties":{"Station_ID":"MA-WR-28","Station_Nam":"BERLIN 1.3 WSW, MA","Latitude":"42.37750","Longitude":"-71.65830","Snowdepth":"1.500","Units":"in","Rept_Date":"2020-12-12 12"},"coordinates":[5998,4182]},{"type":"Point","properties":{"Station_ID":"MA-MD-115","Station_Nam":"HUDSON 1.4 NW, MA","Latitude":"42.40372","Longitude":"-71.58680","Snowdepth":"1.500","Units":"in","Rept_Date":"2020-12-12 12"},"coordinates":[6014,4199]},{"type":"Point","properties":{"Station_ID":"MA-HS-7","Station_Nam":"PLAINFIELD 2.2 SW, MA","Latitude":"42.49272","Longitude":"-72.94540","Snowdepth":"1.500","Units":"in","Rept_Date":"2020-12-12 13"},"coordinates":[5695,4254]},{"type":"Point","properties":{"Station_ID":"MA-ES-48","Station_Nam":"ANDOVER 0.6 E, MA","Latitude":"42.65659","Longitude":"-71.13048","Snowdepth":"1.500","Units":"in","Rept_Date":"2020-12-12 10"},"coordinates":[6122,4356]},{"type":"Point","properties":{"Station_ID":"IA-AL-6","Station_Nam":"POSTVILLE 5.5 NE, IA","Latitude":"43.14090","Longitude":"-91.49260","Snowdepth":"1.500","Units":"in","Rept_Date":"2020-12-12 13"},"coordinates":[1336,4657]},{"type":"Point","properties":{"Station_ID":"WI-WW-2","Station_Nam":"LAKE GENEVA 0.6 ENE, WI","Latitude":"42.59169","Longitude":"-88.41770","Snowdepth":"1.400","Units":"in","Rept_Date":"2020-12-12 13"},"coordinates":[2058,4316]},{"type":"Point","properties":{"Station_ID":"MI-IC-6","Station_Nam":"NATIONAL CITY 4.5 NNE, MI","Latitude":"44.29330","Longitude":"-83.68410","Snowdepth":"1.400","Units":"in","Rept_Date":"2020-12-12 15"},"coordinates":[3171,5374]},{"type":"Point","properties":{"Station_ID":"IA-BC-9","Station_Nam":"WINTHROP 5.6 NNE, IA","Latitude":"42.55206","Longitude":"-91.70663","Snowdepth":"1.400","Units":"in","Rept_Date":"2020-12-12 15"},"coordinates":[1285,4291]},{"type":"Point","properties":{"Station_ID":"WI-WW-12","Station_Nam":"ELKHORN 0.4 ESE, WI","Latitude":"42.66970","Longitude":"-88.53170","Snowdepth":"1.300","Units":"in","Rept_Date":"2020-12-12 11"},"coordinates":[2032,4364]},{"type":"Point","properties":{"Station_ID":"WI-WK-73","Station_Nam":"MENOMONEE FALLS 3.2 NNW, WI","Latitude":"43.18817","Longitude":"-88.15555","Snowdepth":"1.300","Units":"in","Rept_Date":"2020-12-12 13"},"coordinates":[2120,4687]},{"type":"Point","properties":{"Station_ID":"MI-PI-1","Station_Nam":"ROGERS CITY 0.2 WSW, MI","Latitude":"45.41740","Longitude":"-83.81060","Snowdepth":"1.300","Units":"in","Rept_Date":"2020-12-12 13"},"coordinates":[3141,6074]},{"type":"Point","properties":{"Station_ID":"WI-SR-1","Station_Nam":"HAYWARD 9.2 NNE, WI","Latitude":"46.13255","Longitude":"-91.40500","Snowdepth":"1.200","Units":"in","Rept_Date":"2020-12-12 12"},"coordinates":[1356,6519]},{"type":"Point","properties":{"Station_ID":"NE-JF-4","Station_Nam":"FAIRBURY 0.6 N, NE","Latitude":"40.14954","Longitude":"-97.17528","Snowdepth":"1.200","Units":"in","Rept_Date":"2020-12-12 13"},"coordinates":[0,2796]},{"type":"Point","properties":{"Station_ID":"IL-HY-15","Station_Nam":"COAL VALLEY 2.6 E, IL","Latitude":"41.44513","Longitude":"-90.39730","Snowdepth":"1.200","Units":"in","Rept_Date":"2020-12-12 13"},"coordinates":[1593,3602]},{"type":"Point","properties":{"Station_ID":"CAN-QC-56","Station_Nam":"SUTTON 2.6 N, CAN","Latitude":"45.13119","Longitude":"-72.61218","Snowdepth":"1.200","Units":"in","Rept_Date":"2020-12-12 12"},"coordinates":[5773,5896]},{"type":"Point","properties":{"Station_ID":"IL-SP-6","Station_Nam":"FREEPORT 2.0 NW, IL","Latitude":"42.30955","Longitude":"-89.66370","Snowdepth":"1.100","Units":"in","Rept_Date":"2020-12-12 13"},"coordinates":[1766,4140]},{"type":"Point","properties":{"Station_ID":"WTNM4","Station_Nam":"WATTON 2WSW","Latitude":"46.52660","Longitude":"-88.64240","Snowdepth":"1.000","Units":"in","Rept_Date":"2020-12-12 13"},"coordinates":[2006,6764]},{"type":"Point","properties":{"Station_ID":"WSTW3","Station_Nam":"WEST BEND -FIRE","Latitude":"43.43138","Longitude":"-88.16111","Snowdepth":"1.000","Units":"in","Rept_Date":"2020-12-12 13"},"coordinates":[2119,4838]},{"type":"Point","properties":{"Station_ID":"WSHI4","Station_Nam":"WASHINGTON","Latitude":"41.28240","Longitude":"-91.70780","Snowdepth":"1.000","Units":"in","Rept_Date":"2020-12-12 13"},"coordinates":[1285,3501]},{"type":"Point","properties":{"Station_ID":"WRUM5","Station_Nam":"WARROAD 4W","Latitude":"48.89600","Longitude":"-95.40700","Snowdepth":"1.000","Units":"in","Rept_Date":"2020-12-13 04"},"coordinates":[416,8238]},{"type":"Point","properties":{"Station_ID":"WORV1","Station_Nam":"WORCESTER 2 W","Latitude":"44.37470","Longitude":"-72.58220","Snowdepth":"1.000","Units":"in","Rept_Date":"2020-12-12 12"},"coordinates":[5780,5425]},{"type":"Point","properties":{"Station_ID":"WI-WW-14","Station_Nam":"DARIEN 1.6 NNE, WI","Latitude":"42.62361","Longitude":"-88.70083","Snowdepth":"1.000","Units":"in","Rept_Date":"2020-12-12 13"},"coordinates":[1992,4335]},{"type":"Point","properties":{"Station_ID":"WI-WS-16","Station_Nam":"GERMANTOWN 1.3 NE, WI","Latitude":"43.23127","Longitude":"-88.10234","Snowdepth":"1.000","Units":"in","Rept_Date":"2020-12-12 12"},"coordinates":[2133,4714]},{"type":"Point","properties":{"Station_ID":"WI-WN-9","Station_Nam":"NEENAH 1.1 ENE, WI","Latitude":"44.17370","Longitude":"-88.45130","Snowdepth":"1.000","Units":"in","Rept_Date":"2020-12-12 13"},"coordinates":[2051,5300]},{"type":"Point","properties":{"Station_ID":"WI-WN-7","Station_Nam":"OMRO 2.3 WSW, WI","Latitude":"44.02074","Longitude":"-88.77970","Snowdepth":"1.000","Units":"in","Rept_Date":"2020-12-12 13"},"coordinates":[1973,5205]},{"type":"Point","properties":{"Station_ID":"WI-WN-19","Station_Nam":"OSHKOSH 1.6 ESE, WI","Latitude":"44.01097","Longitude":"-88.52354","Snowdepth":"1.000","Units":"in","Rept_Date":"2020-12-12 13"},"coordinates":[2034,5199]},