{"type":"Topology","objects":{"snowdepth_geo":{"type":"GeometryCollection","name":"snowdepth","crs":{"type":"name","properties":{"name":"urn:ogc:def:crs:OGC:1.3:CRS84"}},"geometries":[{"type":"Point","properties":{"Station_ID":"PRKM4","Station_Nam":"MUNISING EAST","Latitude":"46.42580","Longitude":"-86.62000","Snowdepth":"76.500","Units":"in","Rept_Date":"2020-03-24 06"},"coordinates":[2492,5944]},{"type":"Point","properties":{"Station_ID":"OGIQ6","Station_Nam":"OGOKI CAMP","Latitude":"50.76680","Longitude":"-87.85820","Snowdepth":"61.100","Units":"in","Rept_Date":"2020-03-24 06"},"coordinates":[2202,9265]},{"type":"Point","properties":{"Station_ID":"GLRM5","Station_Nam":"GLACIAL RIDGE","Latitude":"47.71670","Longitude":"-96.26670","Snowdepth":"49.000","Units":"in","Rept_Date":"2020-03-23 15"},"coordinates":[228,6931]},{"type":"Point","properties":{"Station_ID":"PDLM4","Station_Nam":"PAINESDALE","Latitude":"47.04160","Longitude":"-88.67170","Snowdepth":"48.000","Units":"in","Rept_Date":"2020-03-23 12"},"coordinates":[2011,6415]},{"type":"Point","properties":{"Station_ID":"CLUM4","Station_Nam":"CALUMET-TAMARACK","Latitude":"47.24550","Longitude":"-88.46790","Snowdepth":"47.000","Units":"in","Rept_Date":"2020-03-23 13"},"coordinates":[2058,6571]},{"type":"Point","properties":{"Station_ID":"DVLQ6","Station_Nam":"DEVIOUS LAKE","Latitude":"49.19890","Longitude":"-87.76440","Snowdepth":"43.460","Units":"in","Rept_Date":"2020-03-24 06"},"coordinates":[2224,8065]},{"type":"Point","properties":{"Station_ID":"MNSM4","Station_Nam":"MUNISING","Latitude":"46.41210","Longitude":"-86.66250","Snowdepth":"36.000","Units":"in","Rept_Date":"2020-03-23 10"},"coordinates":[2482,5934]},{"type":"Point","properties":{"Station_ID":"KSGM4","Station_Nam":"KEARSARGE","Latitude":"47.27520","Longitude":"-88.41700","Snowdepth":"35.000","Units":"in","Rept_Date":"2020-03-23 12"},"coordinates":[2070,6594]},{"type":"Point","properties":{"Station_ID":"CAN-NS-39","Station_Nam":"ST. ANNS 2.8 NW, CA","Latitude":"46.25082","Longitude":"-60.64340","Snowdepth":"34.000","Units":"in","Rept_Date":"2020-03-23 12"},"coordinates":[8589,5810]},{"type":"Point","properties":{"Station_ID":"MI-BG-3","Station_Nam":"L'ANSE 17.8 SE, MI","Latitude":"46.55730","Longitude":"-88.20770","Snowdepth":"33.500","Units":"in","Rept_Date":"2020-03-23 13"},"coordinates":[2119,6045]},{"type":"Point","properties":{"Station_ID":"ME-AR-18","Station_Nam":"NEW SWEDEN 4.9 NNW, ME","Latitude":"47.01080","Longitude":"-68.14390","Snowdepth":"33.500","Units":"in","Rept_Date":"2020-03-23 12"},"coordinates":[6828,6392]},{"type":"Point","properties":{"Station_ID":"PTLQ6","Station_Nam":"PORTAGE LAKE","Latitude":"49.06950","Longitude":"-86.65940","Snowdepth":"33.190","Units":"in","Rept_Date":"2020-03-24 06"},"coordinates":[2483,7966]},{"type":"Point","properties":{"Station_ID":"MQT","Station_Nam":"MARQUETTE, MI","Latitude":"46.53140","Longitude":"-87.54920","Snowdepth":"32.000","Units":"in","Rept_Date":"2020-03-24 06"},"coordinates":[2274,6025]},{"type":"Point","properties":{"Station_ID":"CAN-QC-47","Station_Nam":"SAINTE-FOY 1.8 ENE, CAN","Latitude":"46.76934","Longitude":"-71.27124","Snowdepth":"30.500","Units":"in","Rept_Date":"2020-03-23 12"},"coordinates":[6094,6207]},{"type":"Point","properties":{"Station_ID":"CAN-NB-105","Station_Nam":"SISSON BROOK 3.8 E, CAN","Latitude":"46.98305","Longitude":"-67.32532","Snowdepth":"30.500","Units":"in","Rept_Date":"2020-03-23 12"},"coordinates":[7020,6370]},{"type":"Point","properties":{"Station_ID":"IBLM5","Station_Nam":"ISABELLA 14W","Latitude":"47.59360","Longitude":"-91.65140","Snowdepth":"30.000","Units":"in","Rept_Date":"2020-03-23 14"},"coordinates":[1311,6837]},{"type":"Point","properties":{"Station_ID":"TRIQ6","Station_Nam":"TRIO LAKE","Latitude":"49.22880","Longitude":"-87.22920","Snowdepth":"29.170","Units":"in","Rept_Date":"2020-03-24 06"},"coordinates":[2349,8088]},{"type":"Point","properties":{"Station_ID":"STEM4","Station_Nam":"STEUBEN","Latitude":"46.18530","Longitude":"-86.46410","Snowdepth":"29.000","Units":"in","Rept_Date":"2020-03-23 13"},"coordinates":[2529,5760]},{"type":"Point","properties":{"Station_ID":"AUDQ6","Station_Nam":"AUDEN","Latitude":"48.52600","Longitude":"-82.57570","Snowdepth":"28.820","Units":"in","Rept_Date":"2020-03-24 06"},"coordinates":[3441,7551]},{"type":"Point","properties":{"Station_ID":"CAN-NB-13","Station_Nam":"BATHURST 3.8 NW, CAN","Latitude":"47.64212","Longitude":"-65.68756","Snowdepth":"28.500","Units":"in","Rept_Date":"2020-03-23 09"},"coordinates":[7405,6874]},{"type":"Point","properties":{"Station_ID":"CAN-NL-82","Station_Nam":"GANDER 2.7 NW, CAN","Latitude":"48.97737","Longitude":"-54.63396","Snowdepth":"28.300","Units":"in","Rept_Date":"2020-03-23 10"},"coordinates":[9999,7896]},{"type":"Point","properties":{"Station_ID":"VANM1","Station_Nam":"VAN BUREN","Latitude":"47.16600","Longitude":"-67.93900","Snowdepth":"27.000","Units":"in","Rept_Date":"2020-03-23 11"},"coordinates":[6876,6510]},{"type":"Point","properties":{"Station_ID":"MI-HG-6","Station_Nam":"CALUMET 5.8 ENE, MI","Latitude":"47.27200","Longitude":"-88.33400","Snowdepth":"27.000","Units":"in","Rept_Date":"2020-03-23 11"},"coordinates":[2090,6591]},{"type":"Point","properties":{"Station_ID":"CARM1","Station_Nam":"CARIBOU WFO","Latitude":"46.86810","Longitude":"-68.01250","Snowdepth":"27.000","Units":"in","Rept_Date":"2020-03-24 04"},"coordinates":[6859,6282]},{"type":"Point","properties":{"Station_ID":"SVBQ6","Station_Nam":"SAVANT BASE","Latitude":"50.28730","Longitude":"-90.65670","Snowdepth":"26.730","Units":"in","Rept_Date":"2020-03-24 06"},"coordinates":[1545,8898]},{"type":"Point","properties":{"Station_ID":"MOSN3","Station_Nam":"MOOSE FALLS","Latitude":"45.18890","Longitude":"-71.18810","Snowdepth":"26.600","Units":"in","Rept_Date":"2020-03-23 22"},"coordinates":[6114,4998]},{"type":"Point","properties":{"Station_ID":"MN-CK-18","Station_Nam":"GRAND MARAIS 4.4 WSW, MN","Latitude":"47.74462","Longitude":"-90.43796","Snowdepth":"26.000","Units":"in","Rept_Date":"2020-03-23 13"},"coordinates":[1596,6953]},{"type":"Point","properties":{"Station_ID":"CAN-NB-11","Station_Nam":"MIRAMICHI 3.3 S, CAN","Latitude":"46.99343","Longitude":"-65.50690","Snowdepth":"25.500","Units":"in","Rept_Date":"2020-03-23 13"},"coordinates":[7447,6378]},{"type":"Point","properties":{"Station_ID":"FISM1","Station_Nam":"FORT KENT COOP","Latitude":"47.23850","Longitude":"-68.61240","Snowdepth":"25.000","Units":"in","Rept_Date":"2020-03-23 11"},"coordinates":[6718,6566]},{"type":"Point","properties":{"Station_ID":"SELN3","Station_Nam":"SECOND CONNECTICUT LAKE","Latitude":"45.13640","Longitude":"-71.20140","Snowdepth":"23.500","Units":"in","Rept_Date":"2020-03-23 22"},"coordinates":[6111,4958]},{"type":"Point","properties":{"Station_ID":"MI-HG-1","Station_Nam":"HOUGHTON 1.6 ESE, MI","Latitude":"47.10774","Longitude":"-88.52940","Snowdepth":"23.500","Units":"in","Rept_Date":"2020-03-23 13"},"coordinates":[2044,6466]},{"type":"Point","properties":{"Station_ID":"WRPW3","Station_Nam":"WATER PURIFICATION PLANT","Latitude":"44.38800","Longitude":"-89.80550","Snowdepth":"23.000","Units":"in","Rept_Date":"2020-03-23 11"},"coordinates":[1744,4385]},{"type":"Point","properties":{"Station_ID":"SOCQ6","Station_Nam":"SOCKET LAKE","Latitude":"50.77870","Longitude":"-91.79300","Snowdepth":"22.950","Units":"in","Rept_Date":"2020-03-24 06"},"coordinates":[1278,9274]},{"type":"Point","properties":{"Station_ID":"KABQ6","Station_Nam":"CAB LAKE","Latitude":"49.59950","Longitude":"-89.17990","Snowdepth":"22.830","Units":"in","Rept_Date":"2020-03-24 06"},"coordinates":[1891,8372]},{"type":"Point","properties":{"Station_ID":"MN-IT-23","Station_Nam":"BOVEY 13.4 N, MN","Latitude":"47.48855","Longitude":"-93.43497","Snowdepth":"22.000","Units":"in","Rept_Date":"2020-03-23 13"},"coordinates":[893,6757]},{"type":"Point","properties":{"Station_ID":"CLQM5","Station_Nam":"CLOQUET","Latitude":"46.70470","Longitude":"-92.52530","Snowdepth":"22.000","Units":"in","Rept_Date":"2020-03-23 13"},"coordinates":[1106,6157]},{"type":"Point","properties":{"Station_ID":"CAN-NB-96","Station_Nam":"SAINT-IGNACE 2.6 NE, CAN","Latitude":"46.71424","Longitude":"-65.05609","Snowdepth":"22.000","Units":"in","Rept_Date":"2020-03-23 11"},"coordinates":[7553,6165]},{"type":"Point","properties":{"Station_ID":"BERM4","Station_Nam":"BERGLAND DAM","Latitude":"46.58690","Longitude":"-89.54750","Snowdepth":"22.000","Units":"in","Rept_Date":"2020-03-23 12"},"coordinates":[1805,6067]},{"type":"Point","properties":{"Station_ID":"WI-VL-10","Station_Nam":"LAND O LAKES 4.3 WNW, WI","Latitude":"46.17440","Longitude":"-89.30380","Snowdepth":"21.500","Units":"in","Rept_Date":"2020-03-23 13"},"coordinates":[1862,5752]},{"type":"Point","properties":{"Station_ID":"MN-IT-10","Station_Nam":"DEER RIVER 3.7 W, MN","Latitude":"47.33564","Longitude":"-93.87514","Snowdepth":"21.500","Units":"in","Rept_Date":"2020-03-23 14"},"coordinates":[789,6640]},{"type":"Point","properties":{"Station_ID":"WI-VL-9","Station_Nam":"LAND O' LAKES 11.7 W, WI","Latitude":"46.19023","Longitude":"-89.45790","Snowdepth":"21.000","Units":"in","Rept_Date":"2020-03-23 13"},"coordinates":[1826,5764]},{"type":"Point","properties":{"Station_ID":"LNOW3","Station_Nam":"LAND O LAKES","Latitude":"46.19000","Longitude":"-89.45700","Snowdepth":"21.000","Units":"in","Rept_Date":"2020-03-23 12"},"coordinates":[1826,5764]},{"type":"Point","properties":{"Station_ID":"KABM5","Station_Nam":"KABETOGAMA LAKE VISITOR CTR","Latitude":"48.40880","Longitude":"-93.04840","Snowdepth":"21.000","Units":"in","Rept_Date":"2020-03-23 12"},"coordinates":[983,7461]},{"type":"Point","properties":{"Station_ID":"GNLM4","Station_Nam":"GREENLAND 6N","Latitude":"46.87360","Longitude":"-89.10060","Snowdepth":"21.000","Units":"in","Rept_Date":"2020-03-23 12"},"coordinates":[1910,6287]},{"type":"Point","properties":{"Station_ID":"ELYM5","Station_Nam":"ELY","Latitude":"47.90560","Longitude":"-91.82830","Snowdepth":"21.000","Units":"in","Rept_Date":"2020-03-23 13"},"coordinates":[1270,7076]},{"type":"Point","properties":{"Station_ID":"CATQ6","Station_Nam":"CAT LAKE","Latitude":"51.72690","Longitude":"-91.82210","Snowdepth":"20.390","Units":"in","Rept_Date":"2020-03-24 06"},"coordinates":[1271,9999]},{"type":"Point","properties":{"Station_ID":"MI-MQ-19","Station_Nam":"ISHPEMING 7.2 SW, MI","Latitude":"46.40550","Longitude":"-87.75670","Snowdepth":"20.000","Units":"in","Rept_Date":"2020-03-23 11"},"coordinates":[2225,5928]},{"type":"Point","properties":{"Station_ID":"INL","Station_Nam":"FALLS INTERNATIONAL ARPT","Latitude":"48.56640","Longitude":"-93.40310","Snowdepth":"20.000","Units":"in","Rept_Date":"2020-03-23 12"},"coordinates":[900,7581]},{"type":"Point","properties":{"Station_ID":"IFSM5","Station_Nam":"INTERNATIONAL FALLS SNOW","Latitude":"48.57780","Longitude":"-93.39640","Snowdepth":"20.000","Units":"in","Rept_Date":"2020-03-23 12"},"coordinates":[902,7590]},{"type":"Point","properties":{"Station_ID":"HURW3","Station_Nam":"HURLEY","Latitude":"46.46250","Longitude":"-90.19550","Snowdepth":"20.000","Units":"in","Rept_Date":"2020-03-23 13"},"coordinates":[1653,5972]},{"type":"Point","properties":{"Station_ID":"CRVW3","Station_Nam":"CRIVITZ HIGH FALLS","Latitude":"45.35750","Longitude":"-88.19190","Snowdepth":"20.000","Units":"in","Rept_Date":"2020-03-23 12"},"coordinates":[2123,5127]},{"type":"Point","properties":{"Station_ID":"BABM5","Station_Nam":"BABBITT","Latitude":"47.71210","Longitude":"-91.95330","Snowdepth":"20.000","Units":"in","Rept_Date":"2020-03-23 12"},"coordinates":[1240,6928]},{"type":"Point","properties":{"Station_ID":"MN-IT-17","Station_Nam":"GRAND RAPIDS 6.1 N, MN","Latitude":"47.31165","Longitude":"-93.55036","Snowdepth":"19.500","Units":"in","Rept_Date":"2020-03-23 13"},"coordinates":[866,6622]},{"type":"Point","properties":{"Station_ID":"SUAW3","Station_Nam":"SUAMICO","Latitude":"44.60190","Longitude":"-88.09780","Snowdepth":"19.000","Units":"in","Rept_Date":"2020-03-23 11"},"coordinates":[2145,4549]},{"type":"Point","properties":{"Station_ID":"PDGM4","Station_Nam":"PAULDING","Latitude":"46.39760","Longitude":"-89.17940","Snowdepth":"19.000","Units":"in","Rept_Date":"2020-03-23 13"},"coordinates":[1891,5922]},{"type":"Point","properties":{"Station_ID":"LEIM5","Station_Nam":"ORR 3E","Latitude":"48.05810","Longitude":"-92.75220","Snowdepth":"19.000","Units":"in","Rept_Date":"2020-03-23 11"},"coordinates":[1053,7193]},{"type":"Point","properties":{"Station_ID":"GLDM4","Station_Nam":"GLADSTONE NO. 2","Latitude":"45.84330","Longitude":"-87.03910","Snowdepth":"19.000","Units":"in","Rept_Date":"2020-03-23 11"},"coordinates":[2394,5498]},{"type":"Point","properties":{"Station_ID":"EVRW3","Station_Nam":"EAGLE RIVER-4 E","Latitude":"45.91890","Longitude":"-89.15280","Snowdepth":"19.000","Units":"in","Rept_Date":"2020-03-23 12"},"coordinates":[1898,5556]},{"type":"Point","properties":{"Station_ID":"CEFM4","Station_Nam":"EXPERIMENT FARM #2","Latitude":"46.33330","Longitude":"-86.91670","Snowdepth":"19.000","Units":"in","Rept_Date":"2020-03-23 12"},"coordinates":[2422,5873]},{"type":"Point","properties":{"Station_ID":"BRAM1","Station_Nam":"BRASSUA DAM","Latitude":"45.66020","Longitude":"-69.81190","Snowdepth":"19.000","Units":"in","Rept_Date":"2020-03-23 11"},"coordinates":[6437,5358]},{"type":"Point","properties":{"Station_ID":"MN-SL-15","Station_Nam":"CHISHOLM 0.4 WSW, MN","Latitude":"47.48557","Longitude":"-92.88690","Snowdepth":"18.500","Units":"in","Rept_Date":"2020-03-23 12"},"coordinates":[1021,6755]},{"type":"Point","properties":{"Station_ID":"WTNM4","Station_Nam":"WATTON 2WSW","Latitude":"46.52660","Longitude":"-88.64240","Snowdepth":"18.000","Units":"in","Rept_Date":"2020-03-23 12"},"coordinates":[2017,6021]},{"type":"Point","properties":{"Station_ID":"SSMM4","Station_Nam":"SAULT STE MARIE","Latitude":"46.48660","Longitude":"-84.40250","Snowdepth":"18.000","Units":"in","Rept_Date":"2020-03-23 12"},"coordinates":[3013,5991]},{"type":"Point","properties":{"Station_ID":"MIEM4","Station_Nam":"MICHIGAMME 3WNW","Latitude":"46.54530","Longitude":"-88.18000","Snowdepth":"18.000","Units":"in","Rept_Date":"2020-03-23 12"},"coordinates":[2126,6035]},{"type":"Point","properties":{"Station_ID":"LVDW3","Station_Nam":"LAC VIEUX DESERT","Latitude":"46.12110","Longitude":"-89.07580","Snowdepth":"18.000","Units":"in","Rept_Date":"2020-03-23 12"},"coordinates":[1916,5711]},{"type":"Point","properties":{"Station_ID":"LILM1","Station_Nam":"LILLE","Latitude":"47.27770","Longitude":"-68.10520","Snowdepth":"18.000","Units":"in","Rept_Date":"2020-03-23 11"},"coordinates":[6837,6596]},{"type":"Point","properties":{"Station_ID":"EMBM5","Station_Nam":"EMBARASS,MN","Latitude":"47.65810","Longitude":"-92.19580","Snowdepth":"18.000","Units":"in","Rept_Date":"2020-03-23 11"},"coordinates":[1184,6887]},{"type":"Point","properties":{"Station_ID":"COKM5","Station_Nam":"COOK","Latitude":"47.85060","Longitude":"-92.69250","Snowdepth":"18.000","Units":"in","Rept_Date":"2020-03-23 11"},"coordinates":[1067,7034]},{"type":"Point","properties":{"Station_ID":"BRDM1","Station_Nam":"BRIDGEWATER","Latitude":"46.42870","Longitude":"-67.84370","Snowdepth":"18.000","Units":"in","Rept_Date":"2020-03-23 22"},"coordinates":[6899,5946]},{"type":"Point","properties":{"Station_ID":"BNDM5","Station_Nam":"ELY 25E","Latitude":"47.97190","Longitude":"-91.44860","Snowdepth":"18.000","Units":"in","Rept_Date":"2020-03-23 12"},"coordinates":[1359,7127]},{"type":"Point","properties":{"Station_ID":"ANJM4","Station_Nam":"SNOW PAID OBSERVER FOR KANJ","Latitude":"46.48670","Longitude":"-84.40260","Snowdepth":"18.000","Units":"in","Rept_Date":"2020-03-23 18"},"coordinates":[3013,5991]},{"type":"Point","properties":{"Station_ID":"ANJ","Station_Nam":"SAULT STE MARIE","Latitude":"46.46670","Longitude":"-84.36670","Snowdepth":"18.000","Units":"in","Rept_Date":"2020-03-24 00"},"coordinates":[3021,5975]},{"type":"Point","properties":{"Station_ID":"WI-VL-14","Station_Nam":"BOULDER JUNCTION 1.4 NE, WI","Latitude":"46.12840","Longitude":"-89.62470","Snowdepth":"17.500","Units":"in","Rept_Date":"2020-03-23 13"},"coordinates":[1787,5717]},{"type":"Point","properties":{"Station_ID":"WNBM5","Station_Nam":"DAM","Latitude":"47.43060","Longitude":"-94.05000","Snowdepth":"17.000","Units":"in","Rept_Date":"2020-03-23 13"},"coordinates":[748,6713]},{"type":"Point","properties":{"Station_ID":"TOGM5","Station_Nam":"CELINA 2E","Latitude":"47.86630","Longitude":"-93.02660","Snowdepth":"17.000","Units":"in","Rept_Date":"2020-03-23 13"},"coordinates":[989,7046]},{"type":"Point","properties":{"Station_ID":"STGW3","Station_Nam":"ST GERMAIN","Latitude":"45.91550","Longitude":"-89.48940","Snowdepth":"17.000","Units":"in","Rept_Date":"2020-03-23 11"},"coordinates":[1819,5554]},{"type":"Point","properties":{"Station_ID":"RKWM1","Station_Nam":"MOOSEHEAD LAKE","Latitude":"45.58330","Longitude":"-69.71670","Snowdepth":"17.000","Units":"in","Rept_Date":"2020-03-23 11"},"coordinates":[6459,5300]},{"type":"Point","properties":{"Station_ID":"RGNM1","Station_Nam":"RANGELEY 2NW","Latitude":"44.98940","Longitude":"-70.67220","Snowdepth":"17.000","Units":"in","Rept_Date":"2020-03-23 10"},"coordinates":[6235,4845]},{"type":"Point","properties":{"Station_ID":"MN-SL-105","Station_Nam":"DULUTH 11.8 NNE, MN","Latitude":"46.94680","Longitude":"-92.03925","Snowdepth":"17.000","Units":"in","Rept_Date":"2020-03-23 13"},"coordinates":[1220,6343]},{"type":"Point","properties":{"Station_ID":"MN-IT-7","Station_Nam":"GRAND RAPIDS 6.2 SSW, MN","Latitude":"47.13687","Longitude":"-93.56660","Snowdepth":"17.000","Units":"in","Rept_Date":"2020-03-23 12"},"coordinates":[862,6488]},{"type":"Point","properties":{"Station_ID":"GGRM4","Station_Nam":"GREEN GARDEN NO.2","Latitude":"46.45330","Longitude":"-87.30380","Snowdepth":"17.000","Units":"in","Rept_Date":"2020-03-23 12"},"coordinates":[2332,5965]},{"type":"Point","properties":{"Station_ID":"DFXM1","Station_Nam":"DOVER-FOXCROFT","Latitude":"45.18720","Longitude":"-69.18350","Snowdepth":"17.000","Units":"in","Rept_Date":"2020-03-23 11"},"coordinates":[6584,4997]},{"type":"Point","properties":{"Station_ID":"MN-BM-14","Station_Nam":"SOLWAY 2.1 S, MN","Latitude":"47.49069","Longitude":"-95.12177","Snowdepth":"16.500","Units":"in","Rept_Date":"2020-03-23 14"},"coordinates":[497,6759]},{"type":"Point","properties":{"Station_ID":"CAN-ON-220","Station_Nam":"DEEP RIVER 1.5 SE - MNRF, CAN","Latitude":"46.09592","Longitude":"-77.47853","Snowdepth":"16.500","Units":"in","Rept_Date":"2020-03-23 12"},"coordinates":[4638,5692]},{"type":"Point","properties":{"Station_ID":"WI-BY-2","Station_Nam":"MELLEN 18.6 SW, WI","Latitude":"46.16937","Longitude":"-90.98090","Snowdepth":"16.000","Units":"in","Rept_Date":"2020-03-23 13"},"coordinates":[1469,5748]},{"type":"Point","properties":{"Station_ID":"MNV905PW","Station_Nam":"ROOSEVELT 5.3 N","Latitude":"48.87933","Longitude":"-95.08224","Snowdepth":"16.000","Units":"in","Rept_Date":"2020-03-23 12"},"coordinates":[506,7821]},{"type":"Point","properties":{"Station_ID":"MN-SL-108","Station_Nam":"IRON JUNCTION 3.4 NNW, MN","Latitude":"47.46150","Longitude":"-92.63130","Snowdepth":"16.000","Units":"in","Rept_Date":"2020-03-23 13"},"coordinates":[1081,6736]},{"type":"Point","properties":{"Station_ID":"MN-CK-6","Station_Nam":"GRAND MARAIS 4.4 W, MN","Latitude":"47.74865","Longitude":"-90.43760","Snowdepth":"16.000","Units":"in","Rept_Date":"2020-03-23 13"},"coordinates":[1596,6956]},{"type":"Point","properties":{"Station_ID":"CMKW3","Station_Nam":"CLAM LAKE 4W","Latitude":"46.16940","Longitude":"-90.98080","Snowdepth":"16.000","Units":"in","Rept_Date":"2020-03-23 12"},"coordinates":[1469,5748]},{"type":"Point","properties":{"Station_ID":"CAN-NB-18","Station_Nam":"MCLEOD HILL 1.1 ENE, CA","Latitude":"46.02725","Longitude":"-66.67460","Snowdepth":"16.000","Units":"in","Rept_Date":"2020-03-23 12"},"coordinates":[7173,5639]},{"type":"Point","properties":{"Station_ID":"AMAM4","Station_Nam":"AMASA 1W","Latitude":"46.23470","Longitude":"-88.45440","Snowdepth":"16.000","Units":"in","Rept_Date":"2020-03-23 13"},"coordinates":[2062,5798]},{"type":"Point","properties":{"Station_ID":"CAN-MB-298","Station_Nam":"GARDENTON 4.2 W - SRRCD, CAN","Latitude":"49.09480","Longitude":"-96.75446","Snowdepth":"15.600","Units":"in","Rept_Date":"2020-03-23 14"},"coordinates":[114,7986]},{"type":"Point","properties":{"Station_ID":"VT-CL-3","Station_Nam":"GROTON 4.4 WSW, VT","Latitude":"44.19440","Longitude":"-72.28240","Snowdepth":"15.500","Units":"in","Rept_Date":"2020-03-23 11"},"coordinates":[5857,4237]},{"type":"Point","properties":{"Station_ID":"MI-CP-14","Station_Nam":"SAULT STE. MARIE 2.2 E, MI","Latitude":"46.48933","Longitude":"-84.31971","Snowdepth":"15.500","Units":"in","Rept_Date":"2020-03-23 12"},"coordinates":[3032,5993]},{"type":"Point","properties":{"Station_ID":"WI-ON-8","Station_Nam":"HAZELHURST 2.1 SSE, WI","Latitude":"45.78186","Longitude":"-89.70330","Snowdepth":"15.000","Units":"in","Rept_Date":"2020-03-23 13"},"coordinates":[1768,5451]},{"type":"Point","properties":{"Station_ID":"MWN","Station_Nam":"MOUNT WASHINGTON","Latitude":"44.26670","Longitude":"-71.30000","Snowdepth":"15.000","Units":"in","Rept_Date":"2020-03-24 04"},"coordinates":[6088,4292]},{"type":"Point","properties":{"Station_ID":"KMWN","Station_Nam":"MOUNT WASHINGTON","Latitude":"44.26666","Longitude":"-71.30000","Snowdepth":"15.000","Units":"in","Rept_Date":"2020-03-24 06"},"coordinates":[6088,4292]},{"type":"Point","properties":{"Station_ID":"INDM5","Station_Nam":"INDUS,MN","Latitude":"48.61670","Longitude":"-93.90000","Snowdepth":"15.000","Units":"in","Rept_Date":"2020-03-23 13"},"coordinates":[784,7620]},{"type":"Point","properties":{"Station_ID":"DLHM5","Station_Nam":"DULUTH NWS","Latitude":"46.83680","Longitude":"-92.21080","Snowdepth":"15.000","Units":"in","Rept_Date":"2020-03-24 06"},"coordinates":[1180,6258]},{"type":"Point","properties":{"Station_ID":"DLH","Station_Nam":"DULUTH, MN","Latitude":"46.83690","Longitude":"-92.21030","Snowdepth":"15.000","Units":"in","Rept_Date":"2020-03-24 00"},"coordinates":[1180,6258]},{"type":"Point","properties":{"Station_ID":"CRLM5","Station_Nam":"CROSS LAKE DAM","Latitude":"46.66930","Longitude":"-94.11060","Snowdepth":"15.000","Units":"in","Rept_Date":"2020-03-23 13"},"coordinates":[734,6130]},{"type":"Point","properties":{"Station_ID":"CLKM4","Station_Nam":"CLARKSBURG","Latitude":"46.49910","Longitude":"-87.84500","Snowdepth":"15.000","Units":"in","Rept_Date":"2020-03-23 11"},"coordinates":[2205,6000]},{"type":"Point","properties":{"Station_ID":"MN-IT-1","Station_Nam":"GRAND RAPIDS 2.0 E, MN","Latitude":"47.22266","Longitude":"-93.49600","Snowdepth":"14.500","Units":"in","Rept_Date":"2020-03-23 12"},"coordinates":[878,6554]},{"type":"Point","properties":{"Station_ID":"FTHQ6","Station_Nam":"FORT HOPE","Latitude":"51.55820","Longitude":"-87.90510","Snowdepth":"14.290","Units":"in","Rept_Date":"2020-03-24 06"},"coordinates":[2191,9870]},{"type":"Point","properties":{"Station_ID":"WRSM5","Station_Nam":"WRENSHALL","Latitude":"46.61550","Longitude":"-92.38380","Snowdepth":"14.000","Units":"in","Rept_Date":"2020-03-23 13"},"coordinates":[1139,6089]},{"type":"Point","properties":{"Station_ID":"WI-IR-3","Station_Nam":"PENCE 0.1 E, WI","Latitude":"46.41555","Longitude":"-90.27013","Snowdepth":"14.000","Units":"in","Rept_Date":"2020-03-23 13"},"coordinates":[1635,5936]},{"type":"Point","properties":{"Station_ID":"WI-DG-20","Station_Nam":"SOLON SPRINGS 1.2 W, WI","Latitude":"46.35217","Longitude":"-91.84405","Snowdepth":"14.000","Units":"in","Rept_Date":"2020-03-23 13"},"coordinates":[1266,5888]},{"type":"Point","properties":{"Station_ID":"WI-BY-14","Station_Nam":"ASHLAND 9.8 W, WI","Latitude":"46.59742","Longitude":"-91.07856","Snowdepth":"14.000","Units":"in","Rept_Date":"2020-03-23 12"},"coordinates":[1446,6075]},{"type":"Point","properties":{"Station_ID":"MN-CS-1","Station_Nam":"PILLAGER 5.1 N, MN","Latitude":"46.40250","Longitude":"-94.46310","Snowdepth":"14.000","Units":"in","Rept_Date":"2020-03-23 13"},"coordinates":[651,5926]},{"type":"Point","properties":{"Station_ID":"JCBM4","Station_Nam":"JACOBSVILLE","Latitude":"47.00830","Longitude":"-88.43180","Snowdepth":"14.000","Units":"in","Rept_Date":"2020-03-23 11"},"coordinates":[2067,6390]},{"type":"Point","properties":{"Station_ID":"BRSW3","Station_Nam":"BRULE,WI","Latitude":"46.53780","Longitude":"-91.59190","Snowdepth":"14.000","Units":"in","Rept_Date":"2020-03-23 15"},"coordinates":[1325,6030]},{"type":"Point","properties":{"Station_ID":"BAUM5","Station_Nam":"BAUDETTE,MN","Latitude":"48.71670","Longitude":"-94.61670","Snowdepth":"14.000","Units":"in","Rept_Date":"2020-03-23 20"},"coordinates":[615,7696]},{"type":"Point","properties":{"Station_ID":"AVTW3","Station_Nam":"ARBOR VITAE-JOHNSON LAKE","Latitude":"45.89940","Longitude":"-89.72670","Snowdepth":"14.000","Units":"in","Rept_Date":"2020-03-23 11"},"coordinates":[1763,5541]},{"type":"Point","properties":{"Station_ID":"CAN-ON-526","Station_Nam":"HILTON BEACH 0.7 SW - MNRF, CAN","Latitude":"46.25357","Longitude":"-83.90014","Snowdepth":"13.800","Units":"in","Rept_Date":"2020-03-23 12"},"coordinates":[3130,5812]},{"type":"Point","properties":{"Station_ID":"CAN-PE-19","Station_Nam":"CHARLOTTETOWN 6.5 NNW, CAN","Latitude":"46.29235","Longitude":"-63.17271","Snowdepth":"13.400","Units":"in","Rept_Date":"2020-03-23 12"},"coordinates":[7995,5842]},{"type":"Point","properties":{"Station_ID":"WI-BY-22","Station_Nam":"MASON 11.5 WNW, WI","Latitude":"46.50198","Longitude":"-91.28339","Snowdepth":"13.000","Units":"in","Rept_Date":"2020-03-23 14"},"coordinates":[1398,6002]},{"type":"Point","properties":{"Station_ID":"MN7M8EBJ","Station_Nam":"LUTSEN 15.7 NNW","Latitude":"47.85324","Longitude":"-89.92908","Snowdepth":"13.000","Units":"in","Rept_Date":"2020-03-23 13"},"coordinates":[1715,7036]},{"type":"Point","properties":{"Station_ID":"MN-BK-6","Station_Nam":"LAKE PARK 6.0 S, MN","Latitude":"46.79850","Longitude":"-96.12180","Snowdepth":"13.000","Units":"in","Rept_Date":"2020-03-23 13"},"coordinates":[262,6229]},{"type":"Point","properties":{"Station_ID":"LBKV1","Station_Nam":"LYE BROOK","Latitude":"43.05000","Longitude":"-73.03330","Snowdepth":"13.000","Units":"in","Rept_Date":"2020-03-24 06"},"coordinates":[5681,3362]},{"type":"Point","properties":{"Station_ID":"GHMN3","Station_Nam":"PINKHAM NOTCH","Latitude":"44.25800","Longitude":"-71.25250","Snowdepth":"13.000","Units":"in","Rept_Date":"2020-03-23 09"},"coordinates":[6099,4286]},{"type":"Point","properties":{"Station_ID":"CAN-NS-60","Station_Nam":"SYDNEY FORKS, CAN","Latitude":"46.05645","Longitude":"-60.31510","Snowdepth":"13.000","Units":"in","Rept_Date":"2020-03-23 13"},"coordinates":[8666,5661]},{"type":"Point","properties":{"Station_ID":"CAN-NS-103","Station_Nam":"TRAFALGAR 4.9 WSW, CAN","Latitude":"45.26217","Longitude":"-62.72285","Snowdepth":"13.000","Units":"in","Rept_Date":"2020-03-23 12"},"coordinates":[8101,5054]},{"type":"Point","properties":{"Station_ID":"CAN-MB-133","Station_Nam":"ST PIERRE JOLYS 2.5 NW, CA","Latitude":"49.45872","Longitude":"-97.00620","Snowdepth":"13.000","Units":"in","Rept_Date":"2020-03-23 13"},"coordinates":[55,8264]},{"type":"Point","properties":{"Station_ID":"AGNW3","Station_Nam":"ARGONNE-1.5 NW","Latitude":"45.67360","Longitude":"-88.90380","Snowdepth":"13.000","Units":"in","Rept_Date":"2020-03-23 12"},"coordinates":[1956,5369]},{"type":"Point","properties":{"Station_ID":"NH-CS-10","Station_Nam":"RANDOLPH 1.4 NE, NH","Latitude":"44.38824","Longitude":"-71.26950","Snowdepth":"12.500","Units":"in","Rept_Date":"2020-03-23 12"},"coordinates":[6095,4385]},{"type":"Point","properties":{"Station_ID":"CAN-NB-2","Station_Nam":"GRAFTON 2.7 NNE, CA","Latitude":"46.17062","Longitude":"-67.55330","Snowdepth":"12.500","Units":"in","Rept_Date":"2020-03-23 10"},"coordinates":[6967,5749]},{"type":"Point","properties":{"Station_ID":"FNLN3","Station_Nam":"FIRST CONNECTICUT LAKE","Latitude":"45.08500","Longitude":"-71.30670","Snowdepth":"12.200","Units":"in","Rept_Date":"2020-03-23 22"},"coordinates":[6086,4918]},{"type":"Point","properties":{"Station_ID":"CAN-ON-757","Station_Nam":"SAULT STE. MARIE 2.8 ESE - GLFC, CAN","Latitude":"46.50300","Longitude":"-84.30300","Snowdepth":"12.200","Units":"in","Rept_Date":"2020-03-23 13"},"coordinates":[3036,6003]},{"type":"Point","properties":{"Station_ID":"ZNOM4","Station_Nam":"NORWAY","Latitude":"45.77810","Longitude":"-87.89560","Snowdepth":"12.000","Units":"in","Rept_Date":"2020-03-24 00"},"coordinates":[2193,5449]},{"type":"Point","properties":{"Station_ID":"WTRM4","Station_Nam":"WATERSMEET 12WSW","Latitude":"46.22310","Longitude":"-89.40850","Snowdepth":"12.000","Units":"in","Rept_Date":"2020-03-23 11"},"coordinates":[1838,5789]},{"type":"Point","properties":{"Station_ID":"WRUM5","Station_Nam":"WARROAD 4W","Latitude":"48.89600","Longitude":"-95.40700","Snowdepth":"12.000","Units":"in","Rept_Date":"2020-03-24 03"},"coordinates":[430,7834]},{"type":"Point","properties":{"Station_ID":"WI-DG-16","Station_Nam":"POPLAR 2.0 E, WI","Latitude":"46.58390","Longitude":"-91.74620","Snowdepth":"12.000","Units":"in","Rept_Date":"2020-03-23 13"},"coordinates":[1289,6065]},{"type":"Point","properties":{"Station_ID":"WI-BY-1","Station_Nam":"BAYFIELD 8.8 N, WI","Latitude":"46.93855","Longitude":"-90.83490","Snowdepth":"12.000","Units":"in","Rept_Date":"2020-03-23 13"},"coordinates":[1503,6336]},{"type":"Point","properties":{"Station_ID":"PRNW3","Station_Nam":"PRENTICE,WI","Latitude":"45.54780","Longitude":"-90.30000","Snowdepth":"12.000","Units":"in","Rept_Date":"2020-03-23 13"},"coordinates":[1628,5272]},{"type":"Point","properties":{"Station_ID":"PKGM5","Station_Nam":"POKEGANA LK DAM","Latitude":"47.25080","Longitude":"-93.58610","Snowdepth":"12.000","Units":"in","Rept_Date":"2020-03-23 13"},"coordinates":[857,6575]},{"type":"Point","properties":{"Station_ID":"MI-DL-1","Station_Nam":"GARDEN CORNERS 0.8 NW, MI","Latitude":"45.89815","Longitude":"-86.54850","Snowdepth":"12.000","Units":"in","Rept_Date":"2020-03-23 13"},"coordinates":[2509,5540]},{"type":"Point","properties":{"Station_ID":"JKMM1","Station_Nam":"JACKMAN","Latitude":"45.62600","Longitude":"-70.24600","Snowdepth":"12.000","Units":"in","Rept_Date":"2020-03-23 11"},"coordinates":[6335,5332]},{"type":"Point","properties":{"Station_ID":"GDCM4","Station_Nam":"GARDEN CORNERS","Latitude":"45.89830","Longitude":"-86.54850","Snowdepth":"12.000","Units":"in","Rept_Date":"2020-03-23 12"},"coordinates":[2509,5541]},{"type":"Point","properties":{"Station_ID":"FLNW3","Station_Nam":"FLORENCE","Latitude":"45.93360","Longitude":"-88.25830","Snowdepth":"12.000","Units":"in","Rept_Date":"2020-03-23 12"},"coordinates":[2108,5568]},{"type":"Point","properties":{"Station_ID":"FEDM5","Station_Nam":"LEECH LAKE DAM","Latitude":"47.24670","Longitude":"-94.22280","Snowdepth":"12.000","Units":"in","Rept_Date":"2020-03-23 13"},"coordinates":[708,6572]},{"type":"Point","properties":{"Station_ID":"AURW3","Station_Nam":"AURORA","Latitude":"45.77000","Longitude":"-88.11810","Snowdepth":"12.000","Units":"in","Rept_Date":"2020-03-23 12"},"coordinates":[2141,5442]},{"type":"Point","properties":{"Station_ID":"VT-BN-12","Station_Nam":"STAMFORD 5.0 NNE, VT","Latitude":"42.82000","Longitude":"-73.02000","Snowdepth":"11.500","Units":"in","Rept_Date":"2020-03-23 21"},"coordinates":[5684,3186]},{"type":"Point","properties":{"Station_ID":"MN-AT-4","Station_Nam":"MCGREGOR 7.3 N, MN","Latitude":"46.71375","Longitude":"-93.28850","Snowdepth":"11.200","Units":"in","Rept_Date":"2020-03-23 13"},"coordinates":[927,6164]},{"type":"Point","properties":{"Station_ID":"SUTV1","Station_Nam":"SUTTON","Latitude":"44.61220","Longitude":"-72.04810","Snowdepth":"11.000","Units":"in","Rept_Date":"2020-03-23 12"},"coordinates":[5912,4557]},{"type":"Point","properties":{"Station_ID":"NSNM1","Station_Nam":"NEW SHARON","Latitude":"44.63330","Longitude":"-70.00000","Snowdepth":"11.000","Units":"in","Rept_Date":"2020-03-23 12"},"coordinates":[6393,4573]},{"type":"Point","properties":{"Station_ID":"LBRM5","Station_Nam":"LAKE BRONSON DAM","Latitude":"48.72410","Longitude":"-96.62180","Snowdepth":"11.000","Units":"in","Rept_Date":"2020-03-23 13"},"coordinates":[145,7702]},{"type":"Point","properties":{"Station_ID":"KINM1","Station_Nam":"KINGFIELD","Latitude":"44.95950","Longitude":"-70.17530","Snowdepth":"11.000","Units":"in","Rept_Date":"2020-03-23 10"},"coordinates":[6352,4822]},{"type":"Point","properties":{"Station_ID":"GRFN8","Station_Nam":"UNIVERSITY","Latitude":"47.93330","Longitude":"-97.08330","Snowdepth":"11.000","Units":"in","Rept_Date":"2020-03-24 05"},"coordinates":[36,7097]},{"type":"Point","properties":{"Station_ID":"GRBM5","Station_Nam":"GRAND RAPIDS 12N","Latitude":"47.39800","Longitude":"-93.51330","Snowdepth":"11.000","Units":"in","Rept_Date":"2020-03-23 12"},"coordinates":[874,6688]},{"type":"Point","properties":{"Station_ID":"COTM5","Station_Nam":"COTTON","Latitude":"47.16870","Longitude":"-92.46290","Snowdepth":"11.000","Units":"in","Rept_Date":"2020-03-23 12"},"coordinates":[1121,6512]},{"type":"Point","properties":{"Station_ID":"CAN-PE-3","Station_Nam":"WELLINGTON 1.6 NE, CA","Latitude":"46.46672","Longitude":"-63.98920","Snowdepth":"11.000","Units":"in","Rept_Date":"2020-03-23 11"},"coordinates":[7803,5975]},{"type":"Point","properties":{"Station_ID":"WI-ON-6","Station_Nam":"RHINELANDER 5.2 N, WI","Latitude":"45.71388","Longitude":"-89.42150","Snowdepth":"10.500","Units":"in","Rept_Date":"2020-03-23 14"},"coordinates":[1835,5399]},{"type":"Point","properties":{"Station_ID":"WI-PR-2","Station_Nam":"BUTTERNUT 5.9 SW, WI","Latitude":"45.96501","Longitude":"-90.59750","Snowdepth":"10.000","Units":"in","Rept_Date":"2020-03-23 12"},"coordinates":[1559,5592]},{"type":"Point","properties":{"Station_ID":"SDYM5","Station_Nam":"DAM","Latitude":"46.81670","Longitude":"-93.36670","Snowdepth":"10.000","Units":"in","Rept_Date":"2020-03-23 13"},"coordinates":[909,6243]},{"type":"Point","properties":{"Station_ID":"RANM1","Station_Nam":"RANGELEY","Latitude":"44.98910","Longitude":"-70.67190","Snowdepth":"10.000","Units":"in","Rept_Date":"2020-03-23 10"},"coordinates":[6235,4845]},{"type":"Point","properties":{"Station_ID":"PTBN3","Station_Nam":"PITTSBURG RESERVOIR","Latitude":"45.04690","Longitude":"-71.38300","Snowdepth":"10.000","Units":"in","Rept_Date":"2020-03-23 12"},"coordinates":[6068,4889]},{"type":"Point","properties":{"Station_ID":"MRAM4","Station_Nam":"MORAN","Latitude":"45.99030","Longitude":"-84.83610","Snowdepth":"10.000","Units":"in","Rept_Date":"2020-03-23 12"},"coordinates":[2911,5611]},{"type":"Point","properties":{"Station_ID":"MN2EOYHJ","Station_Nam":"OGILVIE 5.6 N","Latitude":"45.91288","Longitude":"-93.42259","Snowdepth":"10.000","Units":"in","Rept_Date":"2020-03-23 13"},"coordinates":[896,5552]},{"type":"Point","properties":{"Station_ID":"ME-FR-4","Station_Nam":"NEW SHARON 2.0 NW, ME","Latitude":"44.66582","Longitude":"-70.02720","Snowdepth":"10.000","Units":"in","Rept_Date":"2020-03-23 12"},"coordinates":[6386,4598]},{"type":"Point","properties":{"Station_ID":"AVLV1","Station_Nam":"AVERILL","Latitude":"45.00570","Longitude":"-71.69030","Snowdepth":"10.000","Units":"in","Rept_Date":"2020-03-23 12"},"coordinates":[5996,4858]},{"type":"Point","properties":{"Station_ID":"WI-SR-1","Station_Nam":"HAYWARD 9.2 NNE, WI","Latitude":"46.13255","Longitude":"-91.40500","Snowdepth":"9.500","Units":"in","Rept_Date":"2020-03-23 12"},"coordinates":[1369,5720]},{"type":"Point","properties":{"Station_ID":"MN-PK-15","Station_Nam":"MENTOR 2.5 SSW, MN","Latitude":"47.66625","Longitude":"-96.17328","Snowdepth":"9.500","Units":"in","Rept_Date":"2020-03-23 13"},"coordinates":[250,6893]},{"type":"Point","properties":{"Station_ID":"MI-AT-6","Station_Nam":"MANCELONA 0.5 ESE, MI","Latitude":"44.89981","Longitude":"-85.05100","Snowdepth":"9.500","Units":"in","Rept_Date":"2020-03-23 13"},"coordinates":[2860,4777]},{"type":"Point","properties":{"Station_ID":"VT-ES-1","Station_Nam":"GRANBY 1.4 NW, VT","Latitude":"44.58330","Longitude":"-71.77870","Snowdepth":"9.000","Units":"in","Rept_Date":"2020-03-23 12"},"coordinates":[5975,4535]},{"type":"Point","properties":{"Station_ID":"RHIW3","Station_Nam":"RHINELANDER","Latitude":"45.59860","Longitude":"-89.45080","Snowdepth":"9.000","Units":"in","Rept_Date":"2020-03-23 12"},"coordinates":[1828,5311]},{"type":"Point","properties":{"Station_ID":"PBAN8","Station_Nam":"SITE 1-3MI.N","Latitude":"48.97420","Longitude":"-97.23860","Snowdepth":"9.000","Units":"in","Rept_Date":"2020-03-23 12"},"coordinates":[0,7893]},{"type":"Point","properties":{"Station_ID":"MN-BK-10","Station_Nam":"DETROIT LAKES 5.7 N, MN","Latitude":"46.88666","Longitude":"-95.84444","Snowdepth":"9.000","Units":"in","Rept_Date":"2020-03-23 10"},"coordinates":[327,6297]},{"type":"Point","properties":{"Station_ID":"MI-OT-17","Station_Nam":"GAYLORD 4.1 S, MI","Latitude":"44.96388","Longitude":"-84.68467","Snowdepth":"9.000","Units":"in","Rept_Date":"2020-03-23 12"},"coordinates":[2946,4826]},{"type":"Point","properties":{"Station_ID":"LPLN6","Station_Nam":"LAKE PLACID 2 S","Latitude":"44.30420","Longitude":"-73.98390","Snowdepth":"9.000","Units":"in","Rept_Date":"2020-03-23 12"},"coordinates":[5458,4321]},{"type":"Point","properties":{"Station_ID":"CAN-ON-245","Station_Nam":"PHELPSTON 3.1 ESE, CAN","Latitude":"44.50564","Longitude":"-79.81035","Snowdepth":"9.000","Units":"in","Rept_Date":"2020-03-23 14"},"coordinates":[4090,4475]},{"type":"Point","properties":{"Station_ID":"BTLN3","Station_Nam":"BARTLETT","Latitude":"44.08380","Longitude":"-71.29340","Snowdepth":"9.000","Units":"in","Rept_Date":"2020-03-23 11"},"coordinates":[6089,4153]},{"type":"Point","properties":{"Station_ID":"ASTW3","Station_Nam":"ATHELSTANE","Latitude":"45.42500","Longitude":"-88.05750","Snowdepth":"9.000","Units":"in","Rept_Date":"2020-03-23 11"},"coordinates":[2155,5178]},{"type":"Point","properties":{"Station_ID":"CAN-NB-97","Station_Nam":"NEW MARYLAND 0.6 NW, CAN","Latitude":"45.90112","Longitude":"-66.68739","Snowdepth":"8.700","Units":"in","Rept_Date":"2020-03-23 11"},"coordinates":[7170,5543]},{"type":"Point","properties":{"Station_ID":"MN-CW-22","Station_Nam":"FORT RIPLEY 0.8 N, MN","Latitude":"46.18089","Longitude":"-94.36510","Snowdepth":"8.500","Units":"in","Rept_Date":"2020-03-23 13"},"coordinates":[674,5757]},{"type":"Point","properties":{"Station_ID":"CAN-PE-7","Station_Nam":"MORELL 1.4 NNW, CA","Latitude":"46.42741","Longitude":"-62.70870","Snowdepth":"8.500","Units":"in","Rept_Date":"2020-03-23 11"},"coordinates":[8104,5945]},{"type":"Point","properties":{"Station_ID":"WI-SR-5","Station_Nam":"HAYWARD 9.7 NE, WI","Latitude":"46.12030","Longitude":"-91.35370","Snowdepth":"8.000","Units":"in","Rept_Date":"2020-03-23 14"},"coordinates":[1381,5710]},{"type":"Point","properties":{"Station_ID":"STMM4","Station_Nam":"STAMBAUGH 2SSE","Latitude":"46.05550","Longitude":"-88.62780","Snowdepth":"8.000","Units":"in","Rept_Date":"2020-03-23 12"},"coordinates":[2021,5661]},{"type":"Point","properties":{"Station_ID":"NH-CR-41","Station_Nam":"ALBANY 2.8 SW, NH","Latitude":"43.92648","Longitude":"-71.21556","Snowdepth":"8.000","Units":"in","Rept_Date":"2020-03-23 13"},"coordinates":[6107,4032]},{"type":"Point","properties":{"Station_ID":"MWTM1","Station_Nam":"MILLINOCKET WWTP","Latitude":"45.64030","Longitude":"-68.67480","Snowdepth":"8.000","Units":"in","Rept_Date":"2020-03-23 10"},"coordinates":[6704,5343]},{"type":"Point","properties":{"Station_ID":"MN-AT-5","Station_Nam":"TAMARACK 1.4 SW, MN","Latitude":"46.63760","Longitude":"-93.14554","Snowdepth":"8.000","Units":"in","Rept_Date":"2020-03-23 11"},"coordinates":[961,6106]},{"type":"Point","properties":{"Station_ID":"MEDN3","Station_Nam":"MEREDITH 3 NNE","Latitude":"43.69300","Longitude":"-71.47340","Snowdepth":"8.000","Units":"in","Rept_Date":"2020-03-24 04"},"coordinates":[6047,3854]},{"type":"Point","properties":{"Station_ID":"LNKM1","Station_Nam":"LINCOLN SANITARY DISTRICT/WTP","Latitude":"45.37520","Longitude":"-68.50820","Snowdepth":"8.000","Units":"in","Rept_Date":"2020-03-23 11"},"coordinates":[6743,5140]},{"type":"Point","properties":{"Station_ID":"KGFK","Station_Nam":"GRAND FORKS INTERNATIONAL","Latitude":"47.95000","Longitude":"-97.18333","Snowdepth":"8.000","Units":"in","Rept_Date":"2020-03-24 00"},"coordinates":[13,7110]},{"type":"Point","properties":{"Station_ID":"GFK","Station_Nam":"GRAND FORKS INTERNATIONAL AIRPORT","Latitude":"47.94920","Longitude":"-97.17610","Snowdepth":"8.000","Units":"in","Rept_Date":"2020-03-24 00"},"coordinates":[15,7109]},{"type":"Point","properties":{"Station_ID":"EGRW3","Station_Nam":"EAGLE RIVER-SOUTH","Latitude":"45.91360","Longitude":"-89.24360","Snowdepth":"8.000","Units":"in","Rept_Date":"2020-03-23 12"},"coordinates":[1876,5552]},{"type":"Point","properties":{"Station_ID":"BREW3","Station_Nam":"SURING","Latitude":"44.99580","Longitude":"-88.37860","Snowdepth":"8.000","Units":"in","Rept_Date":"2020-03-23 12"},"coordinates":[2079,4850]},{"type":"Point","properties":{"Station_ID":"BAGM4","Station_Nam":"BARAGA 7NW","Latitude":"46.82100","Longitude":"-88.60590","Snowdepth":"8.000","Units":"in","Rept_Date":"2020-03-23 12"},"coordinates":[2026,6246]},{"type":"Point","properties":{"Station_ID":"WI-BN-6","Station_Nam":"SUAMICO 4.4 WNW, WI","Latitude":"44.66111","Longitude":"-88.11780","Snowdepth":"7.700","Units":"in","Rept_Date":"2020-03-23 13"},"coordinates":[2141,4594]},{"type":"Point","properties":{"Station_ID":"WI-TY-3","Station_Nam":"MEDFORD 0.8 ENE, WI","Latitude":"45.14421","Longitude":"-90.33349","Snowdepth":"7.500","Units":"in","Rept_Date":"2020-03-23 13"},"coordinates":[1621,4964]},{"type":"Point","properties":{"Station_ID":"ME-FR-22","Station_Nam":"FARMINGTON 4.8 NNW, ME","Latitude":"44.73396","Longitude":"-70.18007","Snowdepth":"7.500","Units":"in","Rept_Date":"2020-03-23 14"},"coordinates":[6350,4650]},{"type":"Point","properties":{"Station_ID":"WI-TY-2","Station_Nam":"SHELDON 8.1 ENE, WI","Latitude":"45.35598","Longitude":"-90.80296","Snowdepth":"7.000","Units":"in","Rept_Date":"2020-03-23 13"},"coordinates":[1510,5126]},{"type":"Point","properties":{"Station_ID":"WI-PR-6","Station_Nam":"PHILLIPS 1.3 S, WI","Latitude":"45.67677","Longitude":"-90.39543","Snowdepth":"7.000","Units":"in","Rept_Date":"2020-03-23 12"},"coordinates":[1606,5371]},{"type":"Point","properties":{"Station_ID":"TOPM1","Station_Nam":"TOPSFIELD","Latitude":"45.43470","Longitude":"-67.72020","Snowdepth":"7.000","Units":"in","Rept_Date":"2020-03-23 11"},"coordinates":[6928,5186]},{"type":"Point","properties":{"Station_ID":"NY-FK-7","Station_Nam":"SARANAC LAKE 6.2 N, NY","Latitude":"44.41359","Longitude":"-74.15211","Snowdepth":"7.000","Units":"in","Rept_Date":"2020-03-23 12"},"coordinates":[5418,4405]},{"type":"Point","properties":{"Station_ID":"MI-OT-16","Station_Nam":"GAYLORD 2.2 SSE, MI","Latitude":"44.99441","Longitude":"-84.65820","Snowdepth":"7.000","Units":"in","Rept_Date":"2020-03-23 12"},"coordinates":[2953,4849]},{"type":"Point","properties":{"Station_ID":"HUBN3","Station_Nam":"HUBBARD BROOK","Latitude":"43.93330","Longitude":"-71.71670","Snowdepth":"7.000","Units":"in","Rept_Date":"2020-03-23 18"},"coordinates":[5990,4037]},{"type":"Point","properties":{"Station_ID":"CORV1","Station_Nam":"CORINTH","Latitude":"44.00690","Longitude":"-72.31940","Snowdepth":"7.000","Units":"in","Rept_Date":"2020-03-23 11"},"coordinates":[5848,4094]},{"type":"Point","properties":{"Station_ID":"BRUM5","Station_Nam":"BRUNO,MN","Latitude":"46.28330","Longitude":"-92.50000","Snowdepth":"7.000","Units":"in","Rept_Date":"2020-03-23 13"},"coordinates":[1112,5835]},{"type":"Point","properties":{"Station_ID":"BRAM5","Station_Nam":"BRAINERD","Latitude":"46.34320","Longitude":"-94.20900","Snowdepth":"7.000","Units":"in","Rept_Date":"2020-03-23 12"},"coordinates":[711,5881]},{"type":"Point","properties":{"Station_ID":"AROM4","Station_Nam":"ARNOLD,MI","Latitude":"46.06670","Longitude":"-87.48330","Snowdepth":"7.000","Units":"in","Rept_Date":"2020-03-23 12"},"coordinates":[2290,5669]},{"type":"Point","properties":{"Station_ID":"IL-GY-10","Station_Nam":"MINOOKA 0.3 NE, IL","Latitude":"41.45182","Longitude":"-88.25430","Snowdepth":"6.200","Units":"in","Rept_Date":"2020-03-23 14"},"coordinates":[2109,2139]},{"type":"Point","properties":{"Station_ID":"WI-RS-1","Station_Nam":"LADYSMITH 2.8 WNW, WI","Latitude":"45.48180","Longitude":"-91.14680","Snowdepth":"6.000","Units":"in","Rept_Date":"2020-03-23 13"},"coordinates":[1430,5222]},{"type":"Point","properties":{"Station_ID":"VT-ES-3","Station_Nam":"LUNENBURG 2.3 NNW, VT","Latitude":"44.49324","Longitude":"-71.70446","Snowdepth":"6.000","Units":"in","Rept_Date":"2020-03-23 11"},"coordinates":[5993,4466]},{"type":"Point","properties":{"Station_ID":"RHRW3","Station_Nam":"RHINELANDER WJFW TV-12","Latitude":"45.62220","Longitude":"-89.41000","Snowdepth":"6.000","Units":"in","Rept_Date":"2020-03-24 03"},"coordinates":[1837,5329]},{"type":"Point","properties":{"Station_ID":"RHI","Station_Nam":"RHINELANDER-ONEIDA COUNTY AIRPORT","Latitude":"45.63080","Longitude":"-89.46530","Snowdepth":"6.000","Units":"in","Rept_Date":"2020-03-23 12"},"coordinates":[1824,5336]},{"type":"Point","properties":{"Station_ID":"PELW3","Station_Nam":"PELLA 3SE","Latitude":"44.73580","Longitude":"-88.73780","Snowdepth":"6.000","Units":"in","Rept_Date":"2020-03-23 10"},"coordinates":[1995,4651]},{"type":"Point","properties":{"Station_ID":"OTTM5","Station_Nam":"OTTERTAIL,MN","Latitude":"46.41670","Longitude":"-95.56670","Snowdepth":"6.000","Units":"in","Rept_Date":"2020-03-23 11"},"coordinates":[392,5937]},{"type":"Point","properties":{"Station_ID":"NUMN3","Station_Nam":"NORTHUMBERLAND","Latitude":"44.52830","Longitude":"-71.50440","Snowdepth":"6.000","Units":"in","Rept_Date":"2020-03-23 12"},"coordinates":[6040,4493]},{"type":"Point","properties":{"Station_ID":"NH-GR-49","Station_Nam":"PLYMOUTH 3.7 N, NH","Latitude":"43.79048","Longitude":"-71.68413","Snowdepth":"6.000","Units":"in","Rept_Date":"2020-03-23 12"},"coordinates":[5997,3928]},{"type":"Point","properties":{"Station_ID":"NH-CR-26","Station_Nam":"CENTER SANDWICH 4.9 E, NH","Latitude":"43.80976","Longitude":"-71.34150","Snowdepth":"6.000","Units":"in","Rept_Date":"2020-03-23 11"},"coordinates":[6078,3943]},{"type":"Point","properties":{"Station_ID":"ND-CS-25","Station_Nam":"FARGO 2.1 N, ND","Latitude":"46.90816","Longitude":"-96.77937","Snowdepth":"6.000","Units":"in","Rept_Date":"2020-03-23 14"},"coordinates":[108,6313]},{"type":"Point","properties":{"Station_ID":"MN-OT-3","Station_Nam":"BATTLE LAKE 2S, MN","Latitude":"46.25833","Longitude":"-95.71470","Snowdepth":"6.000","Units":"in","Rept_Date":"2020-03-23 13"},"coordinates":[358,5816]},{"type":"Point","properties":{"Station_ID":"MI-OT-4","Station_Nam":"GAYLORD 1.7 WNW, MI","Latitude":"45.03280","Longitude":"-84.71090","Snowdepth":"6.000","Units":"in","Rept_Date":"2020-03-23 13"},"coordinates":[2940,4878]},{"type":"Point","properties":{"Station_ID":"KSYR","Station_Nam":"SYRACUSE HANCOCK INTERNATIONAL  AIRPORT","Latitude":"43.11666","Longitude":"-76.10000","Snowdepth":"6.000","Units":"in","Rept_Date":"2020-03-24 06"},"coordinates":[4961,3413]},{"type":"Point","properties":{"Station_ID":"KPSM","Station_Nam":"PEASE AIR FORCE BASE / PORTSMOUTH","Latitude":"43.08333","Longitude":"-70.81666","Snowdepth":"6.000","Units":"in","Rept_Date":"2020-03-24 06"},"coordinates":[6201,3387]},{"type":"Point","properties":{"Station_ID":"KMHT","Station_Nam":"MANCHESTER AIRPORT","Latitude":"42.93333","Longitude":"-71.43333","Snowdepth":"6.000","Units":"in","Rept_Date":"2020-03-24 06"},"coordinates":[6056,3273]},{"type":"Point","properties":{"Station_ID":"INDN6","Station_Nam":"INDIAN LAKE","Latitude":"43.75500","Longitude":"-74.27560","Snowdepth":"6.000","Units":"in","Rept_Date":"2020-03-23 12"},"coordinates":[5389,3901]},{"type":"Point","properties":{"Station_ID":"IL-GY-16","Station_Nam":"MORRIS 6.4 ESE, IL","Latitude":"41.33153","Longitude":"-88.31410","Snowdepth":"6.000","Units":"in","Rept_Date":"2020-03-23 13"},"coordinates":[2095,2047]},{"type":"Point","properties":{"Station_ID":"HOLW3","Station_Nam":"HOLCOMBE","Latitude":"45.22370","Longitude":"-91.12700","Snowdepth":"6.000","Units":"in","Rept_Date":"2020-03-23 12"},"coordinates":[1434,5024]},{"type":"Point","properties":{"Station_ID":"GAYM4","Station_Nam":"GAYLORD","Latitude":"45.03320","Longitude":"-84.71130","Snowdepth":"6.000","Units":"in","Rept_Date":"2020-03-23 12"},"coordinates":[2940,4879]},{"type":"Point","properties":{"Station_ID":"ESGM1","Station_Nam":"EAST SANGERVILLE","Latitude":"45.13690","Longitude":"-69.28060","Snowdepth":"6.000","Units":"in","Rept_Date":"2020-03-23 11"},"coordinates":[6562,4958]},{"type":"Point","properties":{"Station_ID":"ESDN3","Station_Nam":"EAST SANDWICH","Latitude":"43.80990","Longitude":"-71.34250","Snowdepth":"6.000","Units":"in","Rept_Date":"2020-03-23 10"},"coordinates":[6078,3943]},{"type":"Point","properties":{"Station_ID":"EJNM4","Station_Nam":"EAST JORDAN 2NW","Latitude":"45.18630","Longitude":"-85.14770","Snowdepth":"6.000","Units":"in","Rept_Date":"2020-03-23 12"},"coordinates":[2838,4996]},{"type":"Point","properties":{"Station_ID":"COUW3","Station_Nam":"COUDERAY,WI","Latitude":"45.86670","Longitude":"-91.45000","Snowdepth":"6.000","Units":"in","Rept_Date":"2020-03-23 21"},"coordinates":[1359,5516]},{"type":"Point","properties":{"Station_ID":"CNNW3","Station_Nam":"CRANDON","Latitude":"45.55110","Longitude":"-88.89830","Snowdepth":"6.000","Units":"in","Rept_Date":"2020-03-23 11"},"coordinates":[1957,5275]},{"type":"Point","properties":{"Station_ID":"BGFW3","Station_Nam":"BIG FALLS HYDRO","Latitude":"45.55560","Longitude":"-90.95920","Snowdepth":"6.000","Units":"in","Rept_Date":"2020-03-23 12"},"coordinates":[1474,5278]},{"type":"Point","properties":{"Station_ID":"ALB","Station_Nam":"ALBANY INTL AP","Latitude":"42.74810","Longitude":"-73.80330","Snowdepth":"6.000","Units":"in","Rept_Date":"2020-03-24 00"},"coordinates":[5500,3131]},{"type":"Point","properties":{"Station_ID":"VT-OL-9","Station_Nam":"GREENSBORO 2.1 NNW, VT","Latitude":"44.60528","Longitude":"-72.30940","Snowdepth":"5.500","Units":"in","Rept_Date":"2020-03-23 12"},"coordinates":[5851,4551]},{"type":"Point","properties":{"Station_ID":"MI-CX-7","Station_Nam":"EAST JORDAN 2.1 NNW, MI","Latitude":"45.18639","Longitude":"-85.14750","Snowdepth":"5.500","Units":"in","Rept_Date":"2020-03-23 13"},"coordinates":[2838,4996]},{"type":"Point","properties":{"Station_ID":"IL-GY-4","Station_Nam":"COAL CITY 0.4 N, IL","Latitude":"41.29474","Longitude":"-88.27780","Snowdepth":"5.500","Units":"in","Rept_Date":"2020-03-23 14"},"coordinates":[2103,2019]},{"type":"Point","properties":{"Station_ID":"CAN-NB-16","Station_Nam":"DORCHESTER 1.0 SSE, CAN","Latitude":"45.89160","Longitude":"-64.51269","Snowdepth":"5.500","Units":"in","Rept_Date":"2020-03-23 12"},"coordinates":[7681,5535]},{"type":"Point","properties":{"Station_ID":"IL-KK-41","Station_Nam":"KANKAKEE 3.3 E, IL","Latitude":"41.12453","Longitude":"-87.79939","Snowdepth":"5.400","Units":"in","Rept_Date":"2020-03-23 13"},"coordinates":[2215,1889]},{"type":"Point","properties":{"Station_ID":"WLKW3","Station_Nam":"WHITE LAKE 1 SE","Latitude":"45.14520","Longitude":"-88.74160","Snowdepth":"5.000","Units":"in","Rept_Date":"2020-03-23 13"},"coordinates":[1994,4964]},{"type":"Point","properties":{"Station_ID":"WILW3","Station_Nam":"RESERVOIR","Latitude":"45.70000","Longitude":"-89.83330","Snowdepth":"5.000","Units":"in","Rept_Date":"2020-03-23 11"},"coordinates":[1738,5389]},{"type":"Point","properties":{"Station_ID":"VT-CL-18","Station_Nam":"WHEELOCK 1.6 S, VT","Latitude":"44.56491","Longitude":"-72.08830","Snowdepth":"5.000","Units":"in","Rept_Date":"2020-03-23 12"},"coordinates":[5903,4521]},{"type":"Point","properties":{"Station_ID":"VT-BN-3","Station_Nam":"LANDGROVE 1.1 NNE, VT","Latitude":"43.29092","Longitude":"-72.83260","Snowdepth":"5.000","Units":"in","Rept_Date":"2020-03-23 10"},"coordinates":[5728,3546]},{"type":"Point","properties":{"Station_ID":"RHLW3","Station_Nam":"RHINELANDER 4NE","Latitude":"45.65270","Longitude":"-89.30740","Snowdepth":"5.000","Units":"in","Rept_Date":"2020-03-23 11"},"coordinates":[1861,5353]},{"type":"Point","properties":{"Station_ID":"PEOI2","Station_Nam":"PEOTONE,IL","Latitude":"41.33330","Longitude":"-87.80000","Snowdepth":"5.000","Units":"in","Rept_Date":"2020-03-23 11"},"coordinates":[2215,2049]},{"type":"Point","properties":{"Station_ID":"NYMM5","Station_Nam":"NEW YORK MILLS","Latitude":"46.50920","Longitude":"-95.37990","Snowdepth":"5.000","Units":"in","Rept_Date":"2020-03-23 12"},"coordinates":[436,6008]},{"type":"Point","properties":{"Station_ID":"MN76ACVS","Station_Nam":"GRAND MARAIS 3.0 WNW","Latitude":"47.76602","Longitude":"-90.26427","Snowdepth":"5.000","Units":"in","Rept_Date":"2020-03-23 12"},"coordinates":[1637,6969]},{"type":"Point","properties":{"Station_ID":"MN-RM-54","Station_Nam":"SAINT PAUL 5.1 SW, MN","Latitude":"44.90390","Longitude":"-93.18820","Snowdepth":"5.000","Units":"in","Rept_Date":"2020-03-23 13"},"coordinates":[951,4780]},{"type":"Point","properties":{"Station_ID":"KBTV","Station_Nam":"BURLINGTON INTERNATIONAL","Latitude":"44.46666","Longitude":"-73.15000","Snowdepth":"5.000","Units":"in","Rept_Date":"2020-03-24 00"},"coordinates":[5653,4445]},{"type":"Point","properties":{"Station_ID":"KBGR","Station_Nam":"BANGOR INTL AIRPORT","Latitude":"44.80000","Longitude":"-68.81666","Snowdepth":"5.000","Units":"in","Rept_Date":"2020-03-24 06"},"coordinates":[6670,4700]},{"type":"Point","properties":{"Station_ID":"KALB","Station_Nam":"ALBANY INTERNATIONAL AIRPORT","Latitude":"42.75000","Longitude":"-73.80000","Snowdepth":"5.000","Units":"in","Rept_Date":"2020-03-24 06"},"coordinates":[5501,3132]},{"type":"Point","properties":{"Station_ID":"JKJI2","Station_Nam":"JOLIET","Latitude":"41.55030","Longitude":"-88.12670","Snowdepth":"5.000","Units":"in","Rept_Date":"2020-03-23 12"},"coordinates":[2139,2215]},{"type":"Point","properties":{"Station_ID":"IL-WL-46","Station_Nam":"PEOTONE 0.4 ENE, IL","Latitude":"41.33361","Longitude":"-87.78910","Snowdepth":"5.000","Units":"in","Rept_Date":"2020-03-23 12"},"coordinates":[2218,2049]},{"type":"Point","properties":{"Station_ID":"IL-KD-34","Station_Nam":"PLAINFIELD 4.8 SW, IL","Latitude":"41.56779","Longitude":"-88.27010","Snowdepth":"5.000","Units":"in","Rept_Date":"2020-03-23 13"},"coordinates":[2105,2228]},{"type":"Point","properties":{"Station_ID":"IL-GY-1","Station_Nam":"CARBON HILL 3.1 N, IL","Latitude":"41.34139","Longitude":"-88.29810","Snowdepth":"5.000","Units":"in","Rept_Date":"2020-03-23 13"},"coordinates":[2098,2055]},{"type":"Point","properties":{"Station_ID":"IL-DK-24","Station_Nam":"SOMONAUK 1.9 NE, IL","Latitude":"41.65063","Longitude":"-88.65663","Snowdepth":"5.000","Units":"in","Rept_Date":"2020-03-23 11"},"coordinates":[2014,2291]},{"type":"Point","properties":{"Station_ID":"ENGM4","Station_Nam":"ENGADINE MDOT","Latitude":"46.12800","Longitude":"-85.56960","Snowdepth":"5.000","Units":"in","Rept_Date":"2020-03-23 11"},"coordinates":[2739,5716]},{"type":"Point","properties":{"Station_ID":"CTYI2","Station_Nam":"COAL CITY","Latitude":"41.34160","Longitude":"-88.29780","Snowdepth":"5.000","Units":"in","Rept_Date":"2020-03-23 12"},"coordinates":[2098,2055]},{"type":"Point","properties":{"Station_ID":"BTV","Station_Nam":"BURLINGTON, VT","Latitude":"44.47140","Longitude":"-73.15330","Snowdepth":"5.000","Units":"in","Rept_Date":"2020-03-24 00"},"coordinates":[5653,4449]},{"type":"Point","properties":{"Station_ID":"BOUI2","Station_Nam":"BOURBONNAIS,IL","Latitude":"41.16670","Longitude":"-87.91670","Snowdepth":"5.000","Units":"in","Rept_Date":"2020-03-23 12"},"coordinates":[2188,1921]},{"type":"Point","properties":{"Station_ID":"BGRM1","Station_Nam":"BANGOR FSS","Latitude":"44.80440","Longitude":"-68.81330","Snowdepth":"5.000","Units":"in","Rept_Date":"2020-03-24 06"},"coordinates":[6671,4704]},{"type":"Point","properties":{"Station_ID":"IL-WL-63","Station_Nam":"NEW LENOX 1.8 SE, IL","Latitude":"41.49964","Longitude":"-87.96030","Snowdepth":"4.900","Units":"in","Rept_Date":"2020-03-23 13"},"coordinates":[2178,2176]},{"type":"Point","properties":{"Station_ID":"CAN-ON-92","Station_Nam":"DUNROBIN 1.9 W - MVCA, CAN","Latitude":"45.42318","Longitude":"-76.04525","Snowdepth":"4.700","Units":"in","Rept_Date":"2020-03-23 12"},"coordinates":[4974,5177]},{"type":"Point","properties":{"Station_ID":"IN-PT-117","Station_Nam":"VALPARAISO 5.5 SSW, IN","Latitude":"41.40786","Longitude":"-87.10440","Snowdepth":"4.500","Units":"in","Rept_Date":"2020-03-23 11"},"coordinates":[2378,2106]},{"type":"Point","properties":{"Station_ID":"IL-WL-97","Station_Nam":"NEW LENOX 3.3 E, IL","Latitude":"41.51934","Longitude":"-87.91930","Snowdepth":"4.500","Units":"in","Rept_Date":"2020-03-23 13"},"coordinates":[2187,2191]},{"type":"Point","properties":{"Station_ID":"IL-WL-149","Station_Nam":"BULT FIELD-MONEE 4.9 SE, IL","Latitude":"41.37740","Longitude":"-87.67975","Snowdepth":"4.500","Units":"in","Rept_Date":"2020-03-23 14"},"coordinates":[2243,2082]},{"type":"Point","properties":{"Station_ID":"IL-LK-16","Station_Nam":"BUFFALO GROVE 1.5 N, IL","Latitude":"42.18800","Longitude":"-87.95900","Snowdepth":"4.500","Units":"in","Rept_Date":"2020-03-23 13"},"coordinates":[2178,2702]},{"type":"Point","properties":{"Station_ID":"IL-CK-316","Station_Nam":"OAK LAWN 0.8 WSW, IL","Latitude":"41.71069","Longitude":"-87.76631","Snowdepth":"4.500","Units":"in","Rept_Date":"2020-03-23 13"},"coordinates":[2223,2337]},{"type":"Point","properties":{"Station_ID":"IL-CK-211","Station_Nam":"OAK LAWN 1.6 WNW, IL","Latitude":"41.72686","Longitude":"-87.77770","Snowdepth":"4.500","Units":"in","Rept_Date":"2020-03-23 13"},"coordinates":[2220,2350]},{"type":"Point","properties":{"Station_ID":"IL-WL-80","Station_Nam":"LOCKPORT 1.3 SE, IL","Latitude":"41.57454","Longitude":"-88.03300","Snowdepth":"4.200","Units":"in","Rept_Date":"2020-03-23 13"},"coordinates":[2160,2233]},{"type":"Point","properties":{"Station_ID":"IL-WL-16","Station_Nam":"HOMER GLEN 0.8 ENE, IL","Latitude":"41.62737","Longitude":"-87.92810","Snowdepth":"4.200","Units":"in","Rept_Date":"2020-03-23 13"},"coordinates":[2185,2274]},{"type":"Point","properties":{"Station_ID":"IL-WL-131","Station_Nam":"HOMER GLEN 0.7 NNE, IL","Latitude":"41.60842","Longitude":"-87.93270","Snowdepth":"4.200","Units":"in","Rept_Date":"2020-03-23 13"},"coordinates":[2184,2259]},{"type":"Point","properties":{"Station_ID":"WI-DN-1","Station_Nam":"BOYCEVILLE 3.3 N, WI","Latitude":"45.08913","Longitude":"-92.02760","Snowdepth":"4.000","Units":"in","Rept_Date":"2020-03-23 13"},"coordinates":[1223,4922]},{"type":"Point","properties":{"Station_ID":"WI-BR-2","Station_Nam":"CHETEK 2.0 SE, WI","Latitude":"45.29427","Longitude":"-91.62470","Snowdepth":"4.000","Units":"in","Rept_Date":"2020-03-23 13"},"coordinates":[1318,5078]},{"type":"Point","properties":{"Station_ID":"WI-BR-18","Station_Nam":"CHETEK 5.8 SW, WI","Latitude":"45.24953","Longitude":"-91.72425","Snowdepth":"4.000","Units":"in","Rept_Date":"2020-03-23 13"},"coordinates":[1294,5044]},{"type":"Point","properties":{"Station_ID":"VT-OL-1","Station_Nam":"WESTFIELD 0.7 WNW, VT","Latitude":"44.89160","Longitude":"-72.44350","Snowdepth":"4.000","Units":"in","Rept_Date":"2020-03-23 12"},"coordinates":[5819,4770]},{"type":"Point","properties":{"Station_ID":"SULW3","Station_Nam":"SUMMIT LAKE","Latitude":"45.37880","Longitude":"-89.19410","Snowdepth":"4.000","Units":"in","Rept_Date":"2020-03-23 10"},"coordinates":[1888,5143]},{"type":"Point","properties":{"Station_ID":"SBNM5","Station_Nam":"SABIN","Latitude":"46.77690","Longitude":"-96.65610","Snowdepth":"4.000","Units":"in","Rept_Date":"2020-03-23 12"},"coordinates":[137,6213]},{"type":"Point","properties":{"Station_ID":"RRVM4","Station_Nam":"RAPID RIVER 9S","Latitude":"45.78750","Longitude":"-86.93920","Snowdepth":"4.000","Units":"in","Rept_Date":"2020-03-23 14"},"coordinates":[2417,5456]},{"type":"Point","properties":{"Station_ID":"RLKW3","Station_Nam":"REST LAKE","Latitude":"46.12220","Longitude":"-89.87720","Snowdepth":"4.000","Units":"in","Rept_Date":"2020-03-23 13"},"coordinates":[1728,5712]},{"type":"Point","properties":{"Station_ID":"PAWI2","Station_Nam":"PAW PAW,IL","Latitude":"41.70000","Longitude":"-88.96670","Snowdepth":"4.000","Units":"in","Rept_Date":"2020-03-23 12"},"coordinates":[1941,2329]},{"type":"Point","properties":{"Station_ID":"NH-CR-11","Station_Nam":"NORTH CONWAY 1.4 SSW, NH","Latitude":"44.03556","Longitude":"-71.14010","Snowdepth":"4.000","Units":"in","Rept_Date":"2020-03-23 12"},"coordinates":[6125,4116]},{"type":"Point","properties":{"Station_ID":"ND-CS-1","Station_Nam":"WEST FARGO 3.8 SSE, ND","Latitude":"46.82750","Longitude":"-96.85280","Snowdepth":"4.000","Units":"in","Rept_Date":"2020-03-23 13"},"coordinates":[91,6251]},{"type":"Point","properties":{"Station_ID":"MOSI2","Station_Nam":"MORRIS,IL","Latitude":"41.37390","Longitude":"-88.43360","Snowdepth":"4.000","Units":"in","Rept_Date":"2020-03-23 13"},"coordinates":[2066,2080]},{"type":"Point","properties":{"Station_ID":"MFWI2","Station_Nam":"MIDWAY COOP","Latitude":"41.73730","Longitude":"-87.77760","Snowdepth":"4.000","Units":"in","Rept_Date":"2020-03-23 12"},"coordinates":[2220,2358]},{"type":"Point","properties":{"Station_ID":"MDTI2","Station_Nam":"MENDOTA 2SE","Latitude":"41.52940","Longitude":"-89.12670","Snowdepth":"4.000","Units":"in","Rept_Date":"2020-03-23 12"},"coordinates":[1904,2199]},{"type":"Point","properties":{"Station_ID":"MATI2","Station_Nam":"MANHATTAN","Latitude":"41.45840","Longitude":"-87.90980","Snowdepth":"4.000","Units":"in","Rept_Date":"2020-03-23 13"},"coordinates":[2189,2144]},{"type":"Point","properties":{"Station_ID":"LKZI2","Station_Nam":"LAKE ZURICH","Latitude":"42.19250","Longitude":"-88.06530","Snowdepth":"4.000","Units":"in","Rept_Date":"2020-03-23 12"},"coordinates":[2153,2706]},{"type":"Point","properties":{"Station_ID":"KSEM4","Station_Nam":"KALKASKA 11SE","Latitude":"44.58970","Longitude":"-85.04860","Snowdepth":"4.000","Units":"in","Rept_Date":"2020-03-23 12"},"coordinates":[2861,4540]},{"type":"Point","properties":{"Station_ID":"KKEI2","Station_Nam":"WATER POLLUTION CONTROL","Latitude":"41.13330","Longitude":"-87.88330","Snowdepth":"4.000","Units":"in","Rept_Date":"2020-03-23 12"},"coordinates":[2196,1896]},{"type":"Point","properties":{"Station_ID":"JOLI2","Station_Nam":"DES PLAINES RIVER AT BRANDON LOCK & DAM","Latitude":"41.50410","Longitude":"-88.10830","Snowdepth":"4.000","Units":"in","Rept_Date":"2020-03-23 11"},"coordinates":[2143,2179]},{"type":"Point","properties":{"Station_ID":"IL-WL-25","Station_Nam":"CRETE 2.6 E, IL","Latitude":"41.44681","Longitude":"-87.56570","Snowdepth":"4.000","Units":"in","Rept_Date":"2020-03-23 13"},"coordinates":[2270,2135]},{"type":"Point","properties":{"Station_ID":"IL-WL-20","Station_Nam":"MANHATTAN 4.7 ENE, IL","Latitude":"41.45845","Longitude":"-87.90980","Snowdepth":"4.000","Units":"in","Rept_Date":"2020-03-23 14"},"coordinates":[2189,2144]},{"type":"Point","properties":{"Station_ID":"IL-KN-96","Station_Nam":"ELBURN 0.3 NW, IL","Latitude":"41.89390","Longitude":"-88.47610","Snowdepth":"4.000","Units":"in","Rept_Date":"2020-03-23 13"},"coordinates":[2057,2477]},{"type":"Point","properties":{"Station_ID":"IL-KN-67","Station_Nam":"ST. CHARLES 6.0 NW, IL","Latitude":"41.98401","Longitude":"-88.38030","Snowdepth":"4.000","Units":"in","Rept_Date":"2020-03-23 13"},"coordinates":[2079,2546]},{"type":"Point","properties":{"Station_ID":"IL-KN-4","Station_Nam":"SUGAR GROVE 0.7 NE, IL","Latitude":"41.77622","Longitude":"-88.44780","Snowdepth":"4.000","Units":"in","Rept_Date":"2020-03-23 13"},"coordinates":[2063,2387]},{"type":"Point","properties":{"Station_ID":"IL-KN-23","Station_Nam":"BATAVIA 1.5 WNW, IL","Latitude":"41.85937","Longitude":"-88.32750","Snowdepth":"4.000","Units":"in","Rept_Date":"2020-03-23 13"},"coordinates":[2091,2451]},{"type":"Point","properties":{"Station_ID":"IL-DP-16","Station_Nam":"AURORA 3.6 SE, IL","Latitude":"41.73455","Longitude":"-88.23910","Snowdepth":"4.000","Units":"in","Rept_Date":"2020-03-23 13"},"coordinates":[2112,2356]},{"type":"Point","properties":{"Station_ID":"IL-DP-127","Station_Nam":"DOWNERS GROVE 0.4 NNE, IL","Latitude":"41.80331","Longitude":"-88.01542","Snowdepth":"4.000","Units":"in","Rept_Date":"2020-03-23 10"},"coordinates":[2165,2408]},{"type":"Point","properties":{"Station_ID":"IL-CK-64","Station_Nam":"HOMEWOOD 0.1 ESE, IL","Latitude":"41.55769","Longitude":"-87.65940","Snowdepth":"4.000","Units":"in","Rept_Date":"2020-03-23 13"},"coordinates":[2248,2220]},{"type":"Point","properties":{"Station_ID":"IL-CK-306","Station_Nam":"OAK FOREST 0.6 N, IL","Latitude":"41.61550","Longitude":"-87.75070","Snowdepth":"4.000","Units":"in","Rept_Date":"2020-03-23 13"},"coordinates":[2227,2264]},{"type":"Point","properties":{"Station_ID":"IL-CK-152","Station_Nam":"CHICAGO RIDGE 0.2 WSW, IL","Latitude":"41.70177","Longitude":"-87.78200","Snowdepth":"4.000","Units":"in","Rept_Date":"2020-03-23 13"},"coordinates":[2219,2330]},{"type":"Point","properties":{"Station_ID":"IL-CK-149","Station_Nam":"OAK LAWN 0.5 SSW, IL","Latitude":"41.70845","Longitude":"-87.75390","Snowdepth":"4.000","Units":"in","Rept_Date":"2020-03-23 13"},"coordinates":[2226,2336]},{"type":"Point","properties":{"Station_ID":"HMYM1","Station_Nam":"HARMONY","Latitude":"44.94660","Longitude":"-69.54560","Snowdepth":"4.000","Units":"in","Rept_Date":"2020-03-23 11"},"coordinates":[6499,4813]},{"type":"Point","properties":{"Station_ID":"FLDM5","Station_Nam":"FLOODWOOD,MN","Latitude":"47.00000","Longitude":"-92.91670","Snowdepth":"4.000","Units":"in","Rept_Date":"2020-03-23 13"},"coordinates":[1014,6383]},{"type":"Point","properties":{"Station_ID":"FDRN8","Station_Nam":"FARGO 3S","Latitude":"46.82930","Longitude":"-96.79620","Snowdepth":"4.000","Units":"in","Rept_Date":"2020-03-24 05"},"coordinates":[104,6253]},{"type":"Point","properties":{"Station_ID":"FAR","Station_Nam":"HECTOR INTERNATIONAL ARPT","Latitude":"46.91560","Longitude":"-96.81440","Snowdepth":"4.000","Units":"in","Rept_Date":"2020-03-24 00"},"coordinates":[100,6319]},{"type":"Point","properties":{"Station_ID":"ESAM4","Station_Nam":"ESCANABA","Latitude":"45.74380","Longitude":"-87.04060","Snowdepth":"4.000","Units":"in","Rept_Date":"2020-03-23 11"},"coordinates":[2393,5422]},{"type":"Point","properties":{"Station_ID":"EGNI2","Station_Nam":"ELGIN","Latitude":"42.02590","Longitude":"-88.28860","Snowdepth":"4.000","Units":"in","Rept_Date":"2020-03-23 13"},"coordinates":[2101,2578]},{"type":"Point","properties":{"Station_ID":"COPN6","Station_Nam":"COOPERSTOWN","Latitude":"42.71660","Longitude":"-74.92660","Snowdepth":"4.000","Units":"in","Rept_Date":"2020-03-24 04"},"coordinates":[5236,3107]},{"type":"Point","properties":{"Station_ID":"APXM4","Station_Nam":"GAYLORD 9SSW","Latitude":"44.90720","Longitude":"-84.71880","Snowdepth":"4.000","Units":"in","Rept_Date":"2020-03-24 06"},"coordinates":[2938,4782]},{"type":"Point","properties":{"Station_ID":"IN-JS-37","Station_Nam":"DE MOTTE 0.8 NNW, IN","Latitude":"41.21043","Longitude":"-87.20540","Snowdepth":"3.900","Units":"in","Rept_Date":"2020-03-23 12"},"coordinates":[2355,1955]},{"type":"Point","properties":{"Station_ID":"CAN-NS-163","Station_Nam":"SYDNEY MINES 2.2 WNW, CAN","Latitude":"46.24851","Longitude":"-60.25161","Snowdepth":"3.900","Units":"in","Rept_Date":"2020-03-23 12"},"coordinates":[8681,5808]},{"type":"Point","properties":{"Station_ID":"IN-LK-91","Station_Nam":"MUNSTER 1.5 NNW, IN","Latitude":"41.56798","Longitude":"-87.51072","Snowdepth":"3.800","Units":"in","Rept_Date":"2020-03-23 14"},"coordinates":[2283,2228]},{"type":"Point","properties":{"Station_ID":"IL-WL-26","Station_Nam":"MANHATTAN 0.8 ESE, IL","Latitude":"41.42127","Longitude":"-87.97490","Snowdepth":"3.800","Units":"in","Rept_Date":"2020-03-23 14"},"coordinates":[2174,2116]},{"type":"Point","properties":{"Station_ID":"IL-CK-50","Station_Nam":"PALOS PARK 1.3 SW, IL","Latitude":"41.65281","Longitude":"-87.86310","Snowdepth":"3.800","Units":"in","Rept_Date":"2020-03-23 13"},"coordinates":[2200,2293]},{"type":"Point","properties":{"Station_ID":"MI-JC-13","Station_Nam":"HANOVER 3.8 W, MI","Latitude":"42.10700","Longitude":"-84.62600","Snowdepth":"3.500","Units":"in","Rept_Date":"2020-03-23 13"},"coordinates":[2960,2640]},{"type":"Point","properties":{"Station_ID":"IN-SJ-28","Station_Nam":"SOUTH BEND 4.6 SE, IN","Latitude":"41.62090","Longitude":"-86.21520","Snowdepth":"3.500","Units":"in","Rept_Date":"2020-03-23 12"},"coordinates":[2587,2269]},{"type":"Point","properties":{"Station_ID":"IN-LP-2","Station_Nam":"WANATAH 4.4 ESE, IN","Latitude":"41.40870","Longitude":"-86.80960","Snowdepth":"3.500","Units":"in","Rept_Date":"2020-03-23 14"},"coordinates":[2448,2106]},{"type":"Point","properties":{"Station_ID":"IN-LK-46","Station_Nam":"ST. JOHN 0.2 WSW, IN","Latitude":"41.44627","Longitude":"-87.48020","Snowdepth":"3.500","Units":"in","Rept_Date":"2020-03-23 12"},"coordinates":[2290,2135]},{"type":"Point","properties":{"Station_ID":"IN-LK-15","Station_Nam":"DYER 1.0 WNW, IN","Latitude":"41.50669","Longitude":"-87.52480","Snowdepth":"3.500","Units":"in","Rept_Date":"2020-03-23 12"},"coordinates":[2280,2181]},{"type":"Point","properties":{"Station_ID":"IL-WL-153","Station_Nam":"BOLINGBROOK 3.0 WSW, IL","Latitude":"41.67888","Longitude":"-88.12666","Snowdepth":"3.500","Units":"in","Rept_Date":"2020-03-23 13"},"coordinates":[2139,2313]},{"type":"Point","properties":{"Station_ID":"IL-LS-57","Station_Nam":"MENDOTA 0.4 ENE, IL","Latitude":"41.55336","Longitude":"-89.11380","Snowdepth":"3.500","Units":"in","Rept_Date":"2020-03-23 13"},"coordinates":[1907,2217]},{"type":"Point","properties":{"Station_ID":"IL-LK-69","Station_Nam":"HIGHWOOD 0.9 S, IL","Latitude":"42.19841","Longitude":"-87.81400","Snowdepth":"3.500","Units":"in","Rept_Date":"2020-03-23 12"},"coordinates":[2212,2710]},{"type":"Point","properties":{"Station_ID":"IL-KN-95","Station_Nam":"ELGIN 2.5 W, IL","Latitude":"42.04041","Longitude":"-88.33660","Snowdepth":"3.500","Units":"in","Rept_Date":"2020-03-23 13"},"coordinates":[2089,2589]},{"type":"Point","properties":{"Station_ID":"IL-KN-9","Station_Nam":"ELGIN 1.0 S, IL","Latitude":"42.02560","Longitude":"-88.28850","Snowdepth":"3.500","Units":"in","Rept_Date":"2020-03-23 14"},"coordinates":[2101,2578]},{"type":"Point","properties":{"Station_ID":"IL-KN-33","Station_Nam":"NORTH AURORA 1.5 NE, IL","Latitude":"41.81629","Longitude":"-88.30680","Snowdepth":"3.500","Units":"in","Rept_Date":"2020-03-23 13"},"coordinates":[2096,2418]},{"type":"Point","properties":{"Station_ID":"IL-KN-118","Station_Nam":"SLEEPY HOLLOW 0.7 W, IL","Latitude":"42.09500","Longitude":"-88.32790","Snowdepth":"3.500","Units":"in","Rept_Date":"2020-03-23 13"},"coordinates":[2091,2631]},{"type":"Point","properties":{"Station_ID":"IL-KK-39","Station_Nam":"HERSCHER 3.3 E, IL","Latitude":"41.05460","Longitude":"-88.03780","Snowdepth":"3.500","Units":"in","Rept_Date":"2020-03-23 13"},"coordinates":[2159,1835]},{"type":"Point","properties":{"Station_ID":"IL-KD-5","Station_Nam":"MONTGOMERY 0.8 SSE, IL","Latitude":"41.72023","Longitude":"-88.33400","Snowdepth":"3.500","Units":"in","Rept_Date":"2020-03-23 13"},"coordinates":[2090,2345]},{"type":"Point","properties":{"Station_ID":"IL-KD-24","Station_Nam":"OSWEGO 5.0 SSE, IL","Latitude":"41.62933","Longitude":"-88.29910","Snowdepth":"3.500","Units":"in","Rept_Date":"2020-03-23 13"},"coordinates":[2098,2275]},{"type":"Point","properties":{"Station_ID":"IL-DP-79","Station_Nam":"BURR RIDGE 1.9 SW, IL","Latitude":"41.73194","Longitude":"-87.94860","Snowdepth":"3.500","Units":"in","Rept_Date":"2020-03-23 13"},"coordinates":[2180,2354]},{"type":"Point","properties":{"Station_ID":"IL-CK-320","Station_Nam":"PARK FOREST 0.7 WNW, IL","Latitude":"41.48579","Longitude":"-87.69962","Snowdepth":"3.500","Units":"in","Rept_Date":"2020-03-23 14"},"coordinates":[2239,2165]},{"type":"Point","properties":{"Station_ID":"IL-CK-294","Station_Nam":"PALATINE 1.4 NNE, IL","Latitude":"42.12987","Longitude":"-88.02803","Snowdepth":"3.500","Units":"in","Rept_Date":"2020-03-23 13"},"coordinates":[2162,2658]},{"type":"Point","properties":{"Station_ID":"IA-ST-48","Station_Nam":"BETTENDORF 1.6 W, IA","Latitude":"41.56502","Longitude":"-90.50767","Snowdepth":"3.500","Units":"in","Rept_Date":"2020-03-23 13"},"coordinates":[1580,2226]},{"type":"Point","properties":{"Station_ID":"CAN-NB-98","Station_Nam":"HOYT 4.2 S, CAN","Latitude":"45.54763","Longitude":"-66.55440","Snowdepth":"3.500","Units":"in","Rept_Date":"2020-03-23 11"},"coordinates":[7201,5272]},{"type":"Point","properties":{"Station_ID":"IL-KN-5","Station_Nam":"BATAVIA 0.7 WSW, IL","Latitude":"41.84815","Longitude":"-88.31440","Snowdepth":"3.400","Units":"in","Rept_Date":"2020-03-23 12"},"coordinates":[2094,2442]},{"type":"Point","properties":{"Station_ID":"IL-DP-155","Station_Nam":"MEDINAH 1.0 SSW, IL","Latitude":"41.96360","Longitude":"-88.06590","Snowdepth":"3.400","Units":"in","Rept_Date":"2020-03-23 14"},"coordinates":[2153,2531]},{"type":"Point","properties":{"Station_ID":"IN-SJ-58","Station_Nam":"SOUTH BEND 4.5 SE, IN","Latitude":"41.62246","Longitude":"-86.21630","Snowdepth":"3.300","Units":"in","Rept_Date":"2020-03-23 12"},"coordinates":[2587,2270]},{"type":"Point","properties":{"Station_ID":"IL-CK-12","Station_Nam":"BRIDGEVIEW 1.3 NNW, IL","Latitude":"41.75502","Longitude":"-87.81730","Snowdepth":"3.200","Units":"in","Rept_Date":"2020-03-23 13"},"coordinates":[2211,2371]},{"type":"Point","properties":{"Station_ID":"IA-ST-1","Station_Nam":"LE CLAIRE 1.8 NNE, IA","Latitude":"41.62355","Longitude":"-90.35140","Snowdepth":"3.200","Units":"in","Rept_Date":"2020-03-23 14"},"coordinates":[1616,2271]},{"type":"Point","properties":{"Station_ID":"WSKW3","Station_Nam":"WAUSAUKEE","Latitude":"45.38020","Longitude":"-87.95660","Snowdepth":"3.000","Units":"in","Rept_Date":"2020-03-23 13"},"coordinates":[2178,5144]},{"type":"Point","properties":{"Station_ID":"WJWI2","Station_Nam":"WESTMONT,IL","Latitude":"41.80000","Longitude":"-87.95000","Snowdepth":"3.000","Units":"in","Rept_Date":"2020-03-23 12"},"coordinates":[2180,2406]},{"type":"Point","properties":{"Station_ID":"WI-SC-21","Station_Nam":"CLEAR LAKE 4.0 S, WI","Latitude":"45.19250","Longitude":"-92.27860","Snowdepth":"3.000","Units":"in","Rept_Date":"2020-03-23 13"},"coordinates":[1164,5001]},{"type":"Point","properties":{"Station_ID":"WI-PR-8","Station_Nam":"PHILLIPS 0.4 SSW, WI","Latitude":"45.69086","Longitude":"-90.40200","Snowdepth":"3.000","Units":"in","Rept_Date":"2020-03-23 13"},"coordinates":[1605,5382]},{"type":"Point","properties":{"Station_ID":"WI-MT-14","Station_Nam":"MOSINEE 2.7 WSW, WI","Latitude":"44.77240","Longitude":"-89.73441","Snowdepth":"3.000","Units":"in","Rept_Date":"2020-03-23 13"},"coordinates":[1761,4679]},{"type":"Point","properties":{"Station_ID":"WANI3","Station_Nam":"WANATAH,IN","Latitude":"41.43330","Longitude":"-86.93330","Snowdepth":"3.000","Units":"in","Rept_Date":"2020-03-23 12"},"coordinates":[2419,2125]},{"type":"Point","properties":{"Station_ID":"VT-WR-2","Station_Nam":"POMFRET 2.6 N, VT","Latitude":"43.74230","Longitude":"-72.52550","Snowdepth":"3.000","Units":"in","Rept_Date":"2020-03-23 12"},"coordinates":[5800,3891]},{"type":"Point","properties":{"Station_ID":"TRVM4","Station_Nam":"THREE RIVERS,MI","Latitude":"41.93330","Longitude":"-85.63330","Snowdepth":"3.000","Units":"in","Rept_Date":"2020-03-23 11"},"coordinates":[2724,2508]},{"type":"Point","properties":{"Station_ID":"SAAI2","Station_Nam":"ST ANNE","Latitude":"41.02280","Longitude":"-87.71750","Snowdepth":"3.000","Units":"in","Rept_Date":"2020-03-23 12"},"coordinates":[2235,1811]},{"type":"Point","properties":{"Station_ID":"ROBW3","Station_Nam":"ROBERTS WWTP","Latitude":"44.97070","Longitude":"-92.56200","Snowdepth":"3.000","Units":"in","Rept_Date":"2020-03-23 13"},"coordinates":[1098,4831]},{"type":"Point","properties":{"Station_ID":"RFDM1","Station_Nam":"RUMFORD 7SW","Latitude":"44.49470","Longitude":"-70.65640","Snowdepth":"3.000","Units":"in","Rept_Date":"2020-03-23 12"},"coordinates":[6239,4467]},{"type":"Point","properties":{"Station_ID":"PYMI3","Station_Nam":"PLYMOUTH","Latitude":"41.33920","Longitude":"-86.33580","Snowdepth":"3.000","Units":"in","Rept_Date":"2020-03-23 09"},"coordinates":[2559,2053]},{"type":"Point","properties":{"Station_ID":"PEKN6","Station_Nam":"PECK LAKE","Latitude":"43.11500","Longitude":"-74.42360","Snowdepth":"3.000","Units":"in","Rept_Date":"2020-03-23 11"},"coordinates":[5355,3411]},{"type":"Point","properties":{"Station_ID":"OSWN6","Station_Nam":"OSWEGO","Latitude":"43.44990","Longitude":"-76.53680","Snowdepth":"3.000","Units":"in","Rept_Date":"2020-03-23 21"},"coordinates":[4859,3668]},{"type":"Point","properties":{"Station_ID":"MUNI2","Station_Nam":"MUNDELEIN,IL","Latitude":"42.25530","Longitude":"-88.07690","Snowdepth":"3.000","Units":"in","Rept_Date":"2020-03-23 12"},"coordinates":[2150,2754]},{"type":"Point","properties":{"Station_ID":"MTQM4","Station_Nam":"MANISTIQUE WWTP","Latitude":"45.95120","Longitude":"-86.25130","Snowdepth":"3.000","Units":"in","Rept_Date":"2020-03-23 11"},"coordinates":[2579,5581]},{"type":"Point","properties":{"Station_ID":"MSTI4","Station_Nam":"MUSCATINE 2N","Latitude":"41.47130","Longitude":"-91.04630","Snowdepth":"3.000","Units":"in","Rept_Date":"2020-03-23 12"},"coordinates":[1453,2154]},{"type":"Point","properties":{"Station_ID":"MN-MR-4","Station_Nam":"LITTLE FALLS 1.2 SW, MN","Latitude":"45.96886","Longitude":"-94.37720","Snowdepth":"3.000","Units":"in","Rept_Date":"2020-03-23 13"},"coordinates":[672,5594]},{"type":"Point","properties":{"Station_ID":"MMCI2","Station_Nam":"MOMENCE 5ENE","Latitude":"41.18110","Longitude":"-87.57250","Snowdepth":"3.000","Units":"in","Rept_Date":"2020-03-23 13"},"coordinates":[2269,1932]},{"type":"Point","properties":{"Station_ID":"MI-KZ-1","Station_Nam":"KALAMAZOO 6.0 SW, MI","Latitude":"42.20613","Longitude":"-85.65900","Snowdepth":"3.000","Units":"in","Rept_Date":"2020-03-23 13"},"coordinates":[2718,2716]},{"type":"Point","properties":{"Station_ID":"MI-KN-43","Station_Nam":"CALEDONIA 4.4 WNW, MI","Latitude":"42.82526","Longitude":"-85.58940","Snowdepth":"3.000","Units":"in","Rept_Date":"2020-03-23 12"},"coordinates":[2734,3190]},{"type":"Point","properties":{"Station_ID":"MI-HL-4","Station_Nam":"JONESVILLE 5.9 ENE, MI","Latitude":"42.01472","Longitude":"-84.56190","Snowdepth":"3.000","Units":"in","Rept_Date":"2020-03-23 13"},"coordinates":[2975,2570]},{"type":"Point","properties":{"Station_ID":"MI-HL-1","Station_Nam":"LITCHFIELD 0.3 ENE, MI","Latitude":"42.04528","Longitude":"-84.75310","Snowdepth":"3.000","Units":"in","Rept_Date":"2020-03-23 12"},"coordinates":[2930,2593]},{"type":"Point","properties":{"Station_ID":"MCLN8","Station_Nam":"MC LEOD,ND","Latitude":"46.40250","Longitude":"-97.23810","Snowdepth":"3.000","Units":"in","Rept_Date":"2020-03-23 13"},"coordinates":[0,5926]},{"type":"Point","properties":{"Station_ID":"LNSI2","Station_Nam":"LANSING","Latitude":"41.54220","Longitude":"-87.54170","Snowdepth":"3.000","Units":"in","Rept_Date":"2020-03-23 12"},"coordinates":[2276,2208]},{"type":"Point","properties":{"Station_ID":"LNGM5","Station_Nam":"LONG PRAIRIE","Latitude":"45.96460","Longitude":"-94.88920","Snowdepth":"3.000","Units":"in","Rept_Date":"2020-03-23 11"},"coordinates":[551,5591]},{"type":"Point","properties":{"Station_ID":"LNCM1","Station_Nam":"LINCOLN WATER DISTRICT","Latitude":"45.32410","Longitude":"-68.58300","Snowdepth":"3.000","Units":"in","Rept_Date":"2020-03-23 11"},"coordinates":[6725,5101]},{"type":"Point","properties":{"Station_ID":"KNXI3","Station_Nam":"KNOX WWTP","Latitude":"41.30530","Longitude":"-86.62850","Snowdepth":"3.000","Units":"in","Rept_Date":"2020-03-23 12"},"coordinates":[2490,2027]},{"type":"Point","properties":{"Station_ID":"KGRR","Station_Nam":"GERALD R. FORD INTERNATIONAL","Latitude":"42.88333","Longitude":"-85.51666","Snowdepth":"3.000","Units":"in","Rept_Date":"2020-03-23 12"},"coordinates":[2751,3234]},{"type":"Point","properties":{"Station_ID":"KEWI2","Station_Nam":"KEWANEE 1 E","Latitude":"41.24290","Longitude":"-89.89970","Snowdepth":"3.000","Units":"in","Rept_Date":"2020-03-23 12"},"coordinates":[1722,1979]},{"type":"Point","properties":{"Station_ID":"IN-SJ-46","Station_Nam":"GRANGER 1.8 ENE, IN","Latitude":"41.74622","Longitude":"-86.10720","Snowdepth":"3.000","Units":"in","Rept_Date":"2020-03-23 12"},"coordinates":[2612,2364]},{"type":"Point","properties":{"Station_ID":"IN-SJ-17","Station_Nam":"WALKERTON 5.7 ENE, IN","Latitude":"41.50190","Longitude":"-86.38510","Snowdepth":"3.000","Units":"in","Rept_Date":"2020-03-23 12"},"coordinates":[2547,2178]},{"type":"Point","properties":{"Station_ID":"IN-PT-91","Station_Nam":"CHESTERTON 4.2 E, IN","Latitude":"41.59433","Longitude":"-86.97520","Snowdepth":"3.000","Units":"in","Rept_Date":"2020-03-23 13"},"coordinates":[2409,2248]},{"type":"Point","properties":{"Station_ID":"IN-PT-12","Station_Nam":"VALPARAISO 4.3 SW, IN","Latitude":"41.43454","Longitude":"-87.11240","Snowdepth":"3.000","Units":"in","Rept_Date":"2020-03-23 12"},"coordinates":[2377,2126]},{"type":"Point","properties":{"Station_ID":"IN-LP-7","Station_Nam":"LA PORTE 1.6 SW, IN","Latitude":"41.59040","Longitude":"-86.73430","Snowdepth":"3.000","Units":"in","Rept_Date":"2020-03-23 13"},"coordinates":[2465,2245]},{"type":"Point","properties":{"Station_ID":"IN-LK-99","Station_Nam":"ST. JOHN 2.8 SE, IN","Latitude":"41.41524","Longitude":"-87.44359","Snowdepth":"3.000","Units":"in","Rept_Date":"2020-03-23 13"},"coordinates":[2299,2111]},{"type":"Point","properties":{"Station_ID":"IN-JS-31","Station_Nam":"DE MOTTE 5.9 S, IN","Latitude":"41.11494","Longitude":"-87.19970","Snowdepth":"3.000","Units":"in","Rept_Date":"2020-03-23 13"},"coordinates":[2356,1882]},{"type":"Point","properties":{"Station_ID":"IL-WL-136","Station_Nam":"CRETE 3.3 ENE FRANKTUARY FARM, IL","Latitude":"41.46631","Longitude":"-87.55438","Snowdepth":"3.000","Units":"in","Rept_Date":"2020-03-23 13"},"coordinates":[2273,2150]},{"type":"Point","properties":{"Station_ID":"IL-MCH-30","Station_Nam":"WONDER LAKE 0.8 WNW, IL","Latitude":"42.38354","Longitude":"-88.37090","Snowdepth":"3.000","Units":"in","Rept_Date":"2020-03-23 13"},"coordinates":[2081,2852]},{"type":"Point","properties":{"Station_ID":"IL-LS-1","Station_Nam":"OTTAWA 1.3 NW, IL","Latitude":"41.36330","Longitude":"-88.85660","Snowdepth":"3.000","Units":"in","Rept_Date":"2020-03-23 12"},"coordinates":[1967,2072]},{"type":"Point","properties":{"Station_ID":"IL-LK-42","Station_Nam":"GURNEE 1.6 W, IL","Latitude":"42.37776","Longitude":"-87.96740","Snowdepth":"3.000","Units":"in","Rept_Date":"2020-03-23 13"},"coordinates":[2176,2848]},{"type":"Point","properties":{"Station_ID":"IL-LK-39","Station_Nam":"RIVERWOODS 0.4 ENE, IL","Latitude":"42.17264","Longitude":"-87.88840","Snowdepth":"3.000","Units":"in","Rept_Date":"2020-03-23 13"},"coordinates":[2194,2691]},{"type":"Point","properties":{"Station_ID":"IL-KN-78","Station_Nam":"GENEVA 1.3 SSW, IL","Latitude":"41.86442","Longitude":"-88.32320","Snowdepth":"3.000","Units":"in","Rept_Date":"2020-03-23 13"},"coordinates":[2092,2455]},{"type":"Point","properties":{"Station_ID":"IL-KN-64","Station_Nam":"ST. CHARLES 0.1 E, IL","Latitude":"41.92010","Longitude":"-88.29900","Snowdepth":"3.000","Units":"in","Rept_Date":"2020-03-23 14"},"coordinates":[2098,2497]},{"type":"Point","properties":{"Station_ID":"IL-KN-121","Station_Nam":"GENEVA 1.3 NW, IL","Latitude":"41.89380","Longitude":"-88.33500","Snowdepth":"3.000","Units":"in","Rept_Date":"2020-03-23 13"},"coordinates":[2090,2477]},{"type":"Point","properties":{"Station_ID":"IL-KD-102","Station_Nam":"OSWEGO 2.4 SSW, IL","Latitude":"41.66450","Longitude":"-88.34430","Snowdepth":"3.000","Units":"in","Rept_Date":"2020-03-23 13"},"coordinates":[2087,2302]},{"type":"Point","properties":{"Station_ID":"IL-DP-78","Station_Nam":"NAPERVILLE 2.4 SE, IL","Latitude":"41.74184","Longitude":"-88.11620","Snowdepth":"3.000","Units":"in","Rept_Date":"2020-03-23 13"},"coordinates":[2141,2361]},{"type":"Point","properties":{"Station_ID":"IL-DP-118","Station_Nam":"DARIEN 0.4 SSE, IL","Latitude":"41.74312","Longitude":"-87.97462","Snowdepth":"3.000","Units":"in","Rept_Date":"2020-03-23 14"},"coordinates":[2174,2362]},{"type":"Point","properties":{"Station_ID":"IL-DK-6","Station_Nam":"DE KALB 0.3 ENE, IL","Latitude":"41.93238","Longitude":"-88.74700","Snowdepth":"3.000","Units":"in","Rept_Date":"2020-03-23 13"},"coordinates":[1993,2507]},{"type":"Point","properties":{"Station_ID":"IL-DK-28","Station_Nam":"DE KALB 0.7 SW, IL","Latitude":"41.92269","Longitude":"-88.76072","Snowdepth":"3.000","Units":"in","Rept_Date":"2020-03-23 13"},"coordinates":[1990,2499]},{"type":"Point","properties":{"Station_ID":"IL-CP-21","Station_Nam":"BROADLANDS 0.1 SSW, IL","Latitude":"39.90723","Longitude":"-87.99610","Snowdepth":"3.000","Units":"in","Rept_Date":"2020-03-24 06"},"coordinates":[2169,958]},{"type":"Point","properties":{"Station_ID":"IL-CK-88","Station_Nam":"COUNTRYSIDE 0.8 ENE, IL","Latitude":"41.78231","Longitude":"-87.86220","Snowdepth":"3.000","Units":"in","Rept_Date":"2020-03-23 11"},"coordinates":[2201,2392]},{"type":"Point","properties":{"Station_ID":"IL-CK-75","Station_Nam":"ELK GROVE VILLAGE 2.2 WSW, IL","Latitude":"41.99526","Longitude":"-88.05270","Snowdepth":"3.000","Units":"in","Rept_Date":"2020-03-23 11"},"coordinates":[2156,2555]},{"type":"Point","properties":{"Station_ID":"IL-CK-42","Station_Nam":"MOUNT PROSPECT 3.0 NE, IL","Latitude":"42.09618","Longitude":"-87.89670","Snowdepth":"3.000","Units":"in","Rept_Date":"2020-03-23 13"},"coordinates":[2192,2632]},{"type":"Point","properties":{"Station_ID":"IL-CK-296","Station_Nam":"CHICAGO HEIGHTS 2.4 NNW, IL","Latitude":"41.54277","Longitude":"-87.65407","Snowdepth":"3.000","Units":"in","Rept_Date":"2020-03-23 14"},"coordinates":[2249,2209]},{"type":"Point","properties":{"Station_ID":"IL-CK-180","Station_Nam":"PARK RIDGE 0.5 SSW, IL","Latitude":"42.00443","Longitude":"-87.84600","Snowdepth":"3.000","Units":"in","Rept_Date":"2020-03-23 13"},"coordinates":[2204,2562]},{"type":"Point","properties":{"Station_ID":"IL-CK-131","Station_Nam":"SCHAUMBURG 2.0 E, IL","Latitude":"42.03028","Longitude":"-88.04400","Snowdepth":"3.000","Units":"in","Rept_Date":"2020-03-23 13"},"coordinates":[2158,2582]},{"type":"Point","properties":{"Station_ID":"IL-CK-121","Station_Nam":"PALATINE 1.3 E, IL","Latitude":"42.11385","Longitude":"-88.01780","Snowdepth":"3.000","Units":"in","Rept_Date":"2020-03-23 13"},"coordinates":[2164,2646]},{"type":"Point","properties":{"Station_ID":"IL-BU-9","Station_Nam":"LA MOILLE 0.2 NNE, IL","Latitude":"41.53266","Longitude":"-89.27880","Snowdepth":"3.000","Units":"in","Rept_Date":"2020-03-23 14"},"coordinates":[1868,2201]},{"type":"Point","properties":{"Station_ID":"IA-ST-30","Station_Nam":"ELDRIDGE 0.7 SSW, IA","Latitude":"41.64465","Longitude":"-90.58706","Snowdepth":"3.000","Units":"in","Rept_Date":"2020-03-23 14"},"coordinates":[1561,2287]},{"type":"Point","properties":{"Station_ID":"IA-ST-3","Station_Nam":"PARK VIEW 0.2 WSW, IA","Latitude":"41.68855","Longitude":"-90.54380","Snowdepth":"3.000","Units":"in","Rept_Date":"2020-03-23 13"},"coordinates":[1571,2320]},{"type":"Point","properties":{"Station_ID":"HUDI3","Station_Nam":"HUDSON 3SW","Latitude":"41.51150","Longitude":"-85.13190","Snowdepth":"3.000","Units":"in","Rept_Date":"2020-03-23 12"},"coordinates":[2841,2185]},{"type":"Point","properties":{"Station_ID":"GPDM4","Station_Nam":"44TH STREET","Latitude":"42.90000","Longitude":"-85.76670","Snowdepth":"3.000","Units":"in","Rept_Date":"2020-03-23 11"},"coordinates":[2692,3247]},{"type":"Point","properties":{"Station_ID":"ERVI2","Station_Nam":"EARLVILLE","Latitude":"41.55140","Longitude":"-88.91470","Snowdepth":"3.000","Units":"in","Rept_Date":"2020-03-23 11"},"coordinates":[1954,2215]},{"type":"Point","properties":{"Station_ID":"ELGI2","Station_Nam":"ELGIN","Latitude":"42.06280","Longitude":"-88.28610","Snowdepth":"3.000","Units":"in","Rept_Date":"2020-03-23 12"},"coordinates":[2101,2607]},{"type":"Point","properties":{"Station_ID":"DTVM4","Station_Nam":"DETOUR VILLAGE","Latitude":"45.99830","Longitude":"-83.90130","Snowdepth":"3.000","Units":"in","Rept_Date":"2020-03-23 12"},"coordinates":[3130,5617]},{"type":"Point","properties":{"Station_ID":"DEKI2","Station_Nam":"SOUTH BRANCH KISHWAUKEE RIVER AT DEKALB","Latitude":"41.93110","Longitude":"-88.75970","Snowdepth":"3.000","Units":"in","Rept_Date":"2020-03-23 12"},"coordinates":[1990,2506]},{"type":"Point","properties":{"Station_ID":"CRPI3","Station_Nam":"WASTE WATER FACILITY","Latitude":"41.43330","Longitude":"-87.35000","Snowdepth":"3.000","Units":"in","Rept_Date":"2020-03-23 12"},"coordinates":[2321,2125]},{"type":"Point","properties":{"Station_ID":"BATI2","Station_Nam":"BATAVIA","Latitude":"41.84830","Longitude":"-88.31190","Snowdepth":"3.000","Units":"in","Rept_Date":"2020-03-23 11"},"coordinates":[2095,2443]},{"type":"Point","properties":{"Station_ID":"ANTW3","Station_Nam":"ANTIGO,WI","Latitude":"45.13330","Longitude":"-89.15000","Snowdepth":"3.000","Units":"in","Rept_Date":"2020-03-23 13"},"coordinates":[1898,4955]},{"type":"Point","properties":{"Station_ID":"IL-KN-124","Station_Nam":"AURORA 3.1 WSW, IL","Latitude":"41.75647","Longitude":"-88.35182","Snowdepth":"2.900","Units":"in","Rept_Date":"2020-03-23 13"},"coordinates":[2086,2372]},{"type":"Point","properties":{"Station_ID":"IL-CK-98","Station_Nam":"LA GRANGE PARK 0.7 SSW, IL","Latitude":"41.82257","Longitude":"-87.87580","Snowdepth":"2.900","Units":"in","Rept_Date":"2020-03-23 13"},"coordinates":[2197,2423]},{"type":"Point","properties":{"Station_ID":"MI-BN-2","Station_Nam":"STEVENSVILLE 1.7 SSE, MI","Latitude":"41.99114","Longitude":"-86.50860","Snowdepth":"2.800","Units":"in","Rept_Date":"2020-03-23 12"},"coordinates":[2518,2552]},{"type":"Point","properties":{"Station_ID":"IN-LK-26","Station_Nam":"CROWN POINT 1.1 N, IN","Latitude":"41.43927","Longitude":"-87.35420","Snowdepth":"2.800","Units":"in","Rept_Date":"2020-03-23 14"},"coordinates":[2320,2130]},{"type":"Point","properties":{"Station_ID":"IL-DK-36","Station_Nam":"DE KALB 3.5 WSW, IL","Latitude":"41.91085","Longitude":"-88.81389","Snowdepth":"2.800","Units":"in","Rept_Date":"2020-03-23 13"},"coordinates":[1977,2490]},{"type":"Point","properties":{"Station_ID":"IL-CK-192","Station_Nam":"PARK RIDGE 0.7 WNW, IL","Latitude":"42.01676","Longitude":"-87.85570","Snowdepth":"2.800","Units":"in","Rept_Date":"2020-03-23 13"},"coordinates":[2202,2571]},{"type":"Point","properties":{"Station_ID":"IA-ST-37","Station_Nam":"DAVENPORT 0.9 WNW, IA","Latitude":"41.54450","Longitude":"-90.59100","Snowdepth":"2.800","Units":"in","Rept_Date":"2020-03-23 13"},"coordinates":[1560,2210]},{"type":"Point","properties":{"Station_ID":"IN-LK-63","Station_Nam":"GARY 4.8 ENE, IN","Latitude":"41.61695","Longitude":"-87.25460","Snowdepth":"2.600","Units":"in","Rept_Date":"2020-03-23 13"},"coordinates":[2343,2266]},{"type":"Point","properties":{"Station_ID":"IA-MC-13","Station_Nam":"MUSCATINE 2.1 N, IA","Latitude":"41.44808","Longitude":"-91.07428","Snowdepth":"2.600","Units":"in","Rept_Date":"2020-03-23 13"},"coordinates":[1447,2136]},{"type":"Point","properties":{"Station_ID":"WI-KN-6","Station_Nam":"KENOSHA 1.7 S, WI","Latitude":"42.55970","Longitude":"-87.85660","Snowdepth":"2.500","Units":"in","Rept_Date":"2020-03-23 12"},"coordinates":[2202,2987]},{"type":"Point","properties":{"Station_ID":"NH-CR-27","Station_Nam":"TAMWORTH 0.4 NNW, NH","Latitude":"43.86449","Longitude":"-71.26610","Snowdepth":"2.500","Units":"in","Rept_Date":"2020-03-23 12"},"coordinates":[6096,3985]},{"type":"Point","properties":{"Station_ID":"MI-VB-13","Station_Nam":"PAW PAW 2.0 NE, MI","Latitude":"42.23743","Longitude":"-85.86171","Snowdepth":"2.500","Units":"in","Rept_Date":"2020-03-23 12"},"coordinates":[2670,2740]},{"type":"Point","properties":{"Station_ID":"MI-OW-2","Station_Nam":"HOLLAND 3.9 NNE, MI","Latitude":"42.82296","Longitude":"-86.06780","Snowdepth":"2.500","Units":"in","Rept_Date":"2020-03-23 11"},"coordinates":[2622,3188]},{"type":"Point","properties":{"Station_ID":"MI-KN-14","Station_Nam":"GRANDVILLE 1.3 WSW, MI","Latitude":"42.89716","Longitude":"-85.77910","Snowdepth":"2.500","Units":"in","Rept_Date":"2020-03-23 14"},"coordinates":[2689,3245]},{"type":"Point","properties":{"Station_ID":"MI-JC-11","Station_Nam":"JACKSON 3.2 W, MI","Latitude":"42.24061","Longitude":"-84.46690","Snowdepth":"2.500","Units":"in","Rept_Date":"2020-03-23 13"},"coordinates":[2997,2743]},{"type":"Point","properties":{"Station_ID":"MI-BR-9","Station_Nam":"PLAINWELL 5.4 E, MI","Latitude":"42.45066","Longitude":"-85.53790","Snowdepth":"2.500","Units":"in","Rept_Date":"2020-03-23 13"},"coordinates":[2746,2903]},{"type":"Point","properties":{"Station_ID":"MI-BN-4","Station_Nam":"NILES 2.7 W, MI","Latitude":"41.83705","Longitude":"-86.30050","Snowdepth":"2.500","Units":"in","Rept_Date":"2020-03-23 13"},"coordinates":[2567,2434]},{"type":"Point","properties":{"Station_ID":"MI-BN-3","Station_Nam":"BUCHANAN 1.4 ESE, MI","Latitude":"41.81829","Longitude":"-86.34230","Snowdepth":"2.500","Units":"in","Rept_Date":"2020-03-23 12"},"coordinates":[2557,2420]},{"type":"Point","properties":{"Station_ID":"MI-AN-1","Station_Nam":"WAYLAND 2.0 W, MI","Latitude":"42.67323","Longitude":"-85.68010","Snowdepth":"2.500","Units":"in","Rept_Date":"2020-03-23 12"},"coordinates":[2713,3074]},{"type":"Point","properties":{"Station_ID":"IN-SN-9","Station_Nam":"ANGOLA 4.1 N, IN","Latitude":"41.70100","Longitude":"-84.98670","Snowdepth":"2.500","Units":"in","Rept_Date":"2020-03-23 11"},"coordinates":[2875,2330]},{"type":"Point","properties":{"Station_ID":"IN-SN-3","Station_Nam":"HUDSON 4.6 N, IN","Latitude":"41.59970","Longitude":"-85.08950","Snowdepth":"2.500","Units":"in","Rept_Date":"2020-03-23 13"},"coordinates":[2851,2252]},{"type":"Point","properties":{"Station_ID":"IN-SJ-26","Station_Nam":"MISHAWAKA 3.9 ENE, IN","Latitude":"41.68329","Longitude":"-86.09540","Snowdepth":"2.500","Units":"in","Rept_Date":"2020-03-23 13"},"coordinates":[2615,2316]},{"type":"Point","properties":{"Station_ID":"IN-PT-63","Station_Nam":"VALPARAISO 1.8 NW, IN","Latitude":"41.49775","Longitude":"-87.07300","Snowdepth":"2.500","Units":"in","Rept_Date":"2020-03-23 15"},"coordinates":[2386,2174]},{"type":"Point","properties":{"Station_ID":"IN-PT-157","Station_Nam":"PORTAGE 2.4 NNW, IN","Latitude":"41.61942","Longitude":"-87.19629","Snowdepth":"2.500","Units":"in","Rept_Date":"2020-03-23 13"},"coordinates":[2357,2267]},{"type":"Point","properties":{"Station_ID":"IN-NW-1","Station_Nam":"MOUNT AYR 1.6 NNE, IN","Latitude":"40.97330","Longitude":"-87.29050","Snowdepth":"2.500","Units":"in","Rept_Date":"2020-03-23 14"},"coordinates":[2335,1773]},{"type":"Point","properties":{"Station_ID":"IN-NB-11","Station_Nam":"ALBION 3.7 S, IN","Latitude":"41.34161","Longitude":"-85.41560","Snowdepth":"2.500","Units":"in","Rept_Date":"2020-03-23 14"},"coordinates":[2775,2055]},{"type":"Point","properties":{"Station_ID":"IN-EL-8","Station_Nam":"WAKARUSA 2.4 NNE, IN","Latitude":"41.56551","Longitude":"-85.99330","Snowdepth":"2.500","Units":"in","Rept_Date":"2020-03-23 12"},"coordinates":[2639,2226]},{"type":"Point","properties":{"Station_ID":"IN-EL-59","Station_Nam":"GOSHEN 1.2 SW, IN","Latitude":"41.56898","Longitude":"-85.85356","Snowdepth":"2.500","Units":"in","Rept_Date":"2020-03-23 12"},"coordinates":[2672,2229]},{"type":"Point","properties":{"Station_ID":"IL-LS-60","Station_Nam":"PERU 0.7 ENE, IL","Latitude":"41.34699","Longitude":"-89.11766","Snowdepth":"2.500","Units":"in","Rept_Date":"2020-03-23 13"},"coordinates":[1906,2059]},{"type":"Point","properties":{"Station_ID":"IL-LK-98","Station_Nam":"LINDENHURST 0.7 NNW, IL","Latitude":"42.42730","Longitude":"-88.03289","Snowdepth":"2.500","Units":"in","Rept_Date":"2020-03-23 13"},"coordinates":[2161,2885]},{"type":"Point","properties":{"Station_ID":"IL-LK-19","Station_Nam":"WAUKEGAN 2.2 N, IL","Latitude":"42.40241","Longitude":"-87.86360","Snowdepth":"2.500","Units":"in","Rept_Date":"2020-03-23 14"},"coordinates":[2200,2866]},{"type":"Point","properties":{"Station_ID":"IL-LE-22","Station_Nam":"AMBOY 0.5 SSW, IL","Latitude":"41.71016","Longitude":"-89.33695","Snowdepth":"2.500","Units":"in","Rept_Date":"2020-03-23 14"},"coordinates":[1854,2337]},{"type":"Point","properties":{"Station_ID":"IL-IR-14","Station_Nam":"WATSEKA 6.9 WNW, IL","Latitude":"40.80018","Longitude":"-87.85950","Snowdepth":"2.500","Units":"in","Rept_Date":"2020-03-23 12"},"coordinates":[2201,1641]},{"type":"Point","properties":{"Station_ID":"IL-DP-75","Station_Nam":"NAPERVILLE 1.1 NW, IL","Latitude":"41.77288","Longitude":"-88.17130","Snowdepth":"2.500","Units":"in","Rept_Date":"2020-03-23 15"},"coordinates":[2128,2385]},{"type":"Point","properties":{"Station_ID":"IL-DP-102","Station_Nam":"BOLINGBROOK 2.7 NE, IL","Latitude":"41.73019","Longitude":"-88.04479","Snowdepth":"2.500","Units":"in","Rept_Date":"2020-03-23 13"},"coordinates":[2158,2352]},{"type":"Point","properties":{"Station_ID":"IL-DP-101","Station_Nam":"AURORA 3.8 SE, IL","Latitude":"41.73035","Longitude":"-88.23760","Snowdepth":"2.500","Units":"in","Rept_Date":"2020-03-23 13"},"coordinates":[2112,2352]},{"type":"Point","properties":{"Station_ID":"IL-CK-285","Station_Nam":"HARWOOD HEIGHTS 0.4 NNE, IL","Latitude":"41.97154","Longitude":"-87.80325","Snowdepth":"2.500","Units":"in","Rept_Date":"2020-03-23 13"},"coordinates":[2214,2537]},{"type":"Point","properties":{"Station_ID":"IL-CK-145","Station_Nam":"OAK PARK 1.5 S, IL","Latitude":"41.86592","Longitude":"-87.79280","Snowdepth":"2.500","Units":"in","Rept_Date":"2020-03-23 12"},"coordinates":[2217,2456]},{"type":"Point","properties":{"Station_ID":"IA-WS-8","Station_Nam":"WASHINGTON 5.8 SW, IA","Latitude":"41.24109","Longitude":"-91.77151","Snowdepth":"2.500","Units":"in","Rept_Date":"2020-03-23 12"},"coordinates":[1283,1978]},{"type":"Point","properties":{"Station_ID":"IA-ST-8","Station_Nam":"BETTENDORF 2.2 SE, IA","Latitude":"41.54013","Longitude":"-90.44920","Snowdepth":"2.500","Units":"in","Rept_Date":"2020-03-23 12"},"coordinates":[1593,2207]},{"type":"Point","properties":{"Station_ID":"IA-ST-4","Station_Nam":"DAVENPORT 0.9 SSW, IA","Latitude":"41.52643","Longitude":"-90.58580","Snowdepth":"2.500","Units":"in","Rept_Date":"2020-03-23 12"},"coordinates":[1561,2196]},{"type":"Point","properties":{"Station_ID":"IA-IA-13","Station_Nam":"PARNELL 0.1 SSW, IA","Latitude":"41.58238","Longitude":"-92.00541","Snowdepth":"2.400","Units":"in","Rept_Date":"2020-03-23 12"},"coordinates":[1228,2239]},{"type":"Point","properties":{"Station_ID":"CAN-PE-10","Station_Nam":"NEW LONDON 1.6 ENE, CA","Latitude":"46.46985","Longitude":"-63.49200","Snowdepth":"2.400","Units":"in","Rept_Date":"2020-03-23 12"},"coordinates":[7920,5978]},{"type":"Point","properties":{"Station_ID":"WI-KN-14","Station_Nam":"PLEASANT PRAIRIE 2.1 E, WI","Latitude":"42.52250","Longitude":"-87.84053","Snowdepth":"2.300","Units":"in","Rept_Date":"2020-03-23 13"},"coordinates":[2206,2958]},{"type":"Point","properties":{"Station_ID":"IN-EL-57","Station_Nam":"GOSHEN 2.8 NW, IN","Latitude":"41.60298","Longitude":"-85.87781","Snowdepth":"2.250","Units":"in","Rept_Date":"2020-03-23 14"},"coordinates":[2666,2255]},{"type":"Point","properties":{"Station_ID":"IL-MCH-94","Station_Nam":"MCHENRY 2.4 E, IL","Latitude":"42.34702","Longitude":"-88.24601","Snowdepth":"2.200","Units":"in","Rept_Date":"2020-03-23 14"},"coordinates":[2111,2824]},