{"type":"Topology","objects":{"snowdepth_geo":{"type":"GeometryCollection","geometries":[{"type":"Point","coordinates":[-72.8154,44.5248],"properties":{"Station_ID":"MMNV1","Station_Nam":"MT. MANSFIELD","Latitude":"44.52480","Longitude":"-72.81540","Snowdepth":"80.000","Units":"in","Rept_Date":"2025-03-21 20"}},{"type":"Point","coordinates":[-86.62,46.4258],"properties":{"Station_ID":"PRKM4","Station_Nam":"MUNISING EAST","Latitude":"46.42580","Longitude":"-86.62000","Snowdepth":"76.500","Units":"in","Rept_Date":"2025-03-22 06"}},{"type":"Point","coordinates":[-86.6625,46.4121],"properties":{"Station_ID":"MNSM4","Station_Nam":"MUNISING","Latitude":"46.41210","Longitude":"-86.66250","Snowdepth":"39.000","Units":"in","Rept_Date":"2025-03-21 11"}},{"type":"Point","coordinates":[-69.6747,50.7925],"properties":{"Station_ID":"CQOU","Station_Nam":"CQOU","Latitude":"50.79250","Longitude":"-69.67470","Snowdepth":"33.976","Units":"in","Rept_Date":"2025-03-21 12"}},{"type":"Point","coordinates":[-75.1,50.7236],"properties":{"Station_ID":"CQLB","Station_Nam":"CQLB","Latitude":"50.72360","Longitude":"-75.10000","Snowdepth":"31.220","Units":"in","Rept_Date":"2025-03-21 12"}},{"type":"Point","coordinates":[-88.6717,47.0416],"properties":{"Station_ID":"PDLM4","Station_Nam":"PAINESDALE","Latitude":"47.04160","Longitude":"-88.67170","Snowdepth":"31.000","Units":"in","Rept_Date":"2025-03-21 12"}},{"type":"Point","coordinates":[-67.1394,51.1114],"properties":{"Station_ID":"CQGD","Station_Nam":"CQGD","Latitude":"51.11140","Longitude":"-67.13940","Snowdepth":"30.197","Units":"in","Rept_Date":"2025-03-21 12"}},{"type":"Point","coordinates":[-68.8236,50.6617],"properties":{"Station_ID":"CMLZ","Station_Nam":"CMLZ","Latitude":"50.66170","Longitude":"-68.82360","Snowdepth":"29.173","Units":"in","Rept_Date":"2025-03-21 12"}},{"type":"Point","coordinates":[-74.4039,50.8328],"properties":{"Station_ID":"CQFT","Station_Nam":"CQFT","Latitude":"50.83280","Longitude":"-74.40390","Snowdepth":"27.677","Units":"in","Rept_Date":"2025-03-21 12"}},{"type":"Point","coordinates":[-91.793,50.7787],"properties":{"Station_ID":"SOCQ6","Station_Nam":"SOCKET LAKE","Latitude":"50.77870","Longitude":"-91.79300","Snowdepth":"25.750","Units":"in","Rept_Date":"2025-03-22 06"}},{"type":"Point","coordinates":[-74.2064,48.855],"properties":{"Station_ID":"CQGO","Station_Nam":"CQGO","Latitude":"48.85500","Longitude":"-74.20640","Snowdepth":"24.961","Units":"in","Rept_Date":"2025-03-21 12"}},{"type":"Point","coordinates":[-82.5757,48.526],"properties":{"Station_ID":"AUDQ6","Station_Nam":"AUDEN","Latitude":"48.52600","Longitude":"-82.57570","Snowdepth":"24.880","Units":"in","Rept_Date":"2025-03-22 06"}},{"type":"Point","coordinates":[-86.6594,49.0695],"properties":{"Station_ID":"PTLQ6","Station_Nam":"PORTAGE LAKE","Latitude":"49.06950","Longitude":"-86.65940","Snowdepth":"24.610","Units":"in","Rept_Date":"2025-03-22 06"}},{"type":"Point","coordinates":[-87.2292,49.2288],"properties":{"Station_ID":"TRIQ6","Station_Nam":"TRIO LAKE","Latitude":"49.22880","Longitude":"-87.22920","Snowdepth":"24.130","Units":"in","Rept_Date":"2025-03-22 06"}},{"type":"Point","coordinates":[-71.7031,44.1382],"properties":{"Station_ID":"LLHN3","Station_Nam":"LONESOME LAKE HUT","Latitude":"44.13820","Longitude":"-71.70310","Snowdepth":"24.000","Units":"in","Rept_Date":"2025-03-21 11"}},{"type":"Point","coordinates":[-69.3569,49.66],"properties":{"Station_ID":"CQTV","Station_Nam":"CQTV","Latitude":"49.66000","Longitude":"-69.35690","Snowdepth":"23.937","Units":"in","Rept_Date":"2025-03-21 12"}},{"type":"Point","coordinates":[-70.0806,51.3283],"properties":{"Station_ID":"CQCX","Station_Nam":"CQCX","Latitude":"51.32830","Longitude":"-70.08060","Snowdepth":"23.543","Units":"in","Rept_Date":"2025-03-21 12"}},{"type":"Point","coordinates":[-91.8221,51.7269],"properties":{"Station_ID":"CATQ6","Station_Nam":"CAT LAKE","Latitude":"51.72690","Longitude":"-91.82210","Snowdepth":"22.440","Units":"in","Rept_Date":"2025-03-22 06"}},{"type":"Point","coordinates":[-71.1955,44.2594],"properties":{"Station_ID":"CRNN3","Station_Nam":"CARTER NOTCH","Latitude":"44.25940","Longitude":"-71.19550","Snowdepth":"22.000","Units":"in","Rept_Date":"2025-03-21 11"}},{"type":"Point","coordinates":[-87.7644,49.1989],"properties":{"Station_ID":"DVLQ6","Station_Nam":"DEVIOUS LAKE","Latitude":"49.19890","Longitude":"-87.76440","Snowdepth":"21.690","Units":"in","Rept_Date":"2025-03-22 06"}},{"type":"Point","coordinates":[-87.8582,50.7668],"properties":{"Station_ID":"OGIQ6","Station_Nam":"OGOKI CAMP","Latitude":"50.76680","Longitude":"-87.85820","Snowdepth":"21.300","Units":"in","Rept_Date":"2025-03-22 06"}},{"type":"Point","coordinates":[-67.6264,49.6472],"properties":{"Station_ID":"CQGT","Station_Nam":"CQGT","Latitude":"49.64720","Longitude":"-67.62640","Snowdepth":"20.787","Units":"in","Rept_Date":"2025-03-21 12"}},{"type":"Point","coordinates":[-76.5983,47.8275],"properties":{"Station_ID":"CQCU","Station_Nam":"CQCU","Latitude":"47.82750","Longitude":"-76.59830","Snowdepth":"20.709","Units":"in","Rept_Date":"2025-03-21 12"}},{"type":"Point","coordinates":[-72.5719,51.0578],"properties":{"Station_ID":"CQTM","Station_Nam":"CQTM","Latitude":"51.05780","Longitude":"-72.57190","Snowdepth":"20.236","Units":"in","Rept_Date":"2025-03-21 12"}},{"type":"Point","coordinates":[-90.6567,50.2873],"properties":{"Station_ID":"SVBQ6","Station_Nam":"SAVANT BASE","Latitude":"50.28730","Longitude":"-90.65670","Snowdepth":"20.120","Units":"in","Rept_Date":"2025-03-22 06"}},{"type":"Point","coordinates":[-88.5795,47.1364],"properties":{"Station_ID":"QNCM4","Station_Nam":"QUINCY HILL","Latitude":"47.13640","Longitude":"-88.57950","Snowdepth":"20.000","Units":"in","Rept_Date":"2025-03-21 11"}},{"type":"Point","coordinates":[-88.2077,46.5573],"properties":{"Station_ID":"MI-BG-3","Station_Nam":"THREE LAKES, MI","Latitude":"46.55730","Longitude":"-88.20770","Snowdepth":"20.000","Units":"in","Rept_Date":"2025-03-21 12"}},{"type":"Point","coordinates":[-75.5543,43.6051],"properties":{"Station_ID":"HGHN6","Station_Nam":"HIGHMARKET","Latitude":"43.60510","Longitude":"-75.55430","Snowdepth":"20.000","Units":"in","Rept_Date":"2025-03-21 10"}},{"type":"Point","coordinates":[-66.13279,47.90803],"properties":{"Station_ID":"CAN-NB-50","Station_Nam":"DOYLEVILLE 2.4 WNW, CAN","Latitude":"47.90803","Longitude":"-66.13279","Snowdepth":"19.500","Units":"in","Rept_Date":"2025-03-21 12"}},{"type":"Point","coordinates":[-74.8088,43.1626],"properties":{"Station_ID":"NY-HR-18","Station_Nam":"SALISBURY CENTER 1.8 NW, NY","Latitude":"43.16260","Longitude":"-74.80880","Snowdepth":"18.500","Units":"in","Rept_Date":"2025-03-21 11"}},{"type":"Point","coordinates":[-86.9375,50.6386],"properties":{"Station_ID":"ANAQ6","Station_Nam":"ANACONDA","Latitude":"50.63860","Longitude":"-86.93750","Snowdepth":"18.310","Units":"in","Rept_Date":"2025-03-22 01"}},{"type":"Point","coordinates":[-84.28515,46.50299],"properties":{"Station_ID":"CAN-ON-915","Station_Nam":"SAULT STE. MARIE 3.9 ESE, CAN","Latitude":"46.50299","Longitude":"-84.28515","Snowdepth":"18.100","Units":"in","Rept_Date":"2025-03-21 12"}},{"type":"Point","coordinates":[-94.2577,52.1145],"properties":{"Station_ID":"POPQ6","Station_Nam":"POPLAR HILL","Latitude":"52.11450","Longitude":"-94.25770","Snowdepth":"18.030","Units":"in","Rept_Date":"2025-03-22 06"}},{"type":"Point","coordinates":[-88.3333,46.65],"properties":{"Station_ID":"HERM4","Station_Nam":"HERMAN,MI","Latitude":"46.65000","Longitude":"-88.33330","Snowdepth":"18.000","Units":"in","Rept_Date":"2025-03-21 12"}},{"type":"Point","coordinates":[-72.2011,51.4528],"properties":{"Station_ID":"CQCO","Station_Nam":"CQCO","Latitude":"51.45280","Longitude":"-72.20110","Snowdepth":"17.874","Units":"in","Rept_Date":"2025-03-21 12"}},{"type":"Point","coordinates":[-84.4025,46.4866],"properties":{"Station_ID":"SSMM4","Station_Nam":"SAULT STE MARIE","Latitude":"46.48660","Longitude":"-84.40250","Snowdepth":"17.000","Units":"in","Rept_Date":"2025-03-21 11"}},{"type":"Point","coordinates":[-88.6926,47.13156],"properties":{"Station_ID":"MI-HG-21","Station_Nam":"ATLANTIC MINE 3.9 NW, MI","Latitude":"47.13156","Longitude":"-88.69260","Snowdepth":"17.000","Units":"in","Rept_Date":"2025-03-21 10"}},{"type":"Point","coordinates":[-84.31971,46.48933],"properties":{"Station_ID":"MI-CP-14","Station_Nam":"SAULT STE. MARIE 2.2 E, MI","Latitude":"46.48933","Longitude":"-84.31971","Snowdepth":"17.000","Units":"in","Rept_Date":"2025-03-21 11"}},{"type":"Point","coordinates":[-84.4026,46.4867],"properties":{"Station_ID":"ANJM4","Station_Nam":"SNOW PAID OBSERVER FOR KANJ","Latitude":"46.48670","Longitude":"-84.40260","Snowdepth":"17.000","Units":"in","Rept_Date":"2025-03-21 18"}},{"type":"Point","coordinates":[-70.4719,50.1033],"properties":{"Station_ID":"CQMA","Station_Nam":"CQMA","Latitude":"50.10330","Longitude":"-70.47190","Snowdepth":"16.024","Units":"in","Rept_Date":"2025-03-21 12"}},{"type":"Point","coordinates":[-71.4944,44.1959],"properties":{"Station_ID":"ZFHN3","Station_Nam":"ZEALAND FALLS HUT","Latitude":"44.19590","Longitude":"-71.49440","Snowdepth":"16.000","Units":"in","Rept_Date":"2025-03-21 11"}},{"type":"Point","coordinates":[-86.95857,46.5029],"properties":{"Station_ID":"MI-AG-8","Station_Nam":"AU TRAIN 7.8 NW, MI","Latitude":"46.50290","Longitude":"-86.95857","Snowdepth":"15.700","Units":"in","Rept_Date":"2025-03-21 12"}},{"type":"Point","coordinates":[-70.2528,48.9203],"properties":{"Station_ID":"CQLM","Station_Nam":"CQLM","Latitude":"48.92030","Longitude":"-70.25280","Snowdepth":"15.236","Units":"in","Rept_Date":"2025-03-21 12"}},{"type":"Point","coordinates":[-72.2824,44.1944],"properties":{"Station_ID":"VT-CL-3","Station_Nam":"GROTON 4.4 WSW, VT","Latitude":"44.19440","Longitude":"-72.28240","Snowdepth":"15.000","Units":"in","Rept_Date":"2025-03-21 10"}},{"type":"Point","coordinates":[-70.18007,44.73396],"properties":{"Station_ID":"ME-FR-22","Station_Nam":"FARMINGTON 4.8 NNW, ME","Latitude":"44.73396","Longitude":"-70.18007","Snowdepth":"15.000","Units":"in","Rept_Date":"2025-03-21 13"}},{"type":"Point","coordinates":[-87.9051,51.5582],"properties":{"Station_ID":"FTHQ6","Station_Nam":"FORT HOPE","Latitude":"51.55820","Longitude":"-87.90510","Snowdepth":"14.410","Units":"in","Rept_Date":"2025-03-22 06"}},{"type":"Point","coordinates":[-71.27124,46.76934],"properties":{"Station_ID":"CAN-QC-47","Station_Nam":"SAINTE-FOY 1.8 ENE, CAN","Latitude":"46.76934","Longitude":"-71.27124","Snowdepth":"13.800","Units":"in","Rept_Date":"2025-03-21 11"}},{"type":"Point","coordinates":[-68.8406,51.2833],"properties":{"Station_ID":"CMRL","Station_Nam":"CMRL","Latitude":"51.28330","Longitude":"-68.84060","Snowdepth":"13.504","Units":"in","Rept_Date":"2025-03-21 12"}},{"type":"Point","coordinates":[-66.9111,51.5217],"properties":{"Station_ID":"CMFU","Station_Nam":"CMFU","Latitude":"51.52170","Longitude":"-66.91110","Snowdepth":"13.307","Units":"in","Rept_Date":"2025-03-21 12"}},{"type":"Point","coordinates":[-72.8333,44.5333],"properties":{"Station_ID":"MMSV1","Station_Nam":"MOUNT MANSFIELD","Latitude":"44.53330","Longitude":"-72.83330","Snowdepth":"13.000","Units":"in","Rept_Date":"2025-03-22 06"}},{"type":"Point","coordinates":[-73.8067,47.8461],"properties":{"Station_ID":"CQWE","Station_Nam":"CQWE","Latitude":"47.84610","Longitude":"-73.80670","Snowdepth":"12.677","Units":"in","Rept_Date":"2025-03-21 12"}},{"type":"Point","coordinates":[-84.303,46.503],"properties":{"Station_ID":"CAN-ON-757","Station_Nam":"SAULT STE. MARIE 2.8 ESE - GLFC, CAN","Latitude":"46.50300","Longitude":"-84.30300","Snowdepth":"12.600","Units":"in","Rept_Date":"2025-03-21 12"}},{"type":"Point","coordinates":[-88.7038,49.19],"properties":{"Station_ID":"NONQ6","Station_Nam":"NONWATIN","Latitude":"49.19000","Longitude":"-88.70380","Snowdepth":"12.010","Units":"in","Rept_Date":"2025-03-22 06"}},{"type":"Point","coordinates":[-73.0333,43.05],"properties":{"Station_ID":"LBKV1","Station_Nam":"LYE BROOK","Latitude":"43.05000","Longitude":"-73.03330","Snowdepth":"12.000","Units":"in","Rept_Date":"2025-03-22 06"}},{"type":"Point","coordinates":[-88.417,47.2752],"properties":{"Station_ID":"KSGM4","Station_Nam":"KEARSARGE","Latitude":"47.27520","Longitude":"-88.41700","Snowdepth":"12.000","Units":"in","Rept_Date":"2025-03-21 12"}},{"type":"Point","coordinates":[-88.854,46.8944],"properties":{"Station_ID":"57011_MADIS","Station_Nam":"TWIN LAKES 0.2 SW, MI","Latitude":"46.89440","Longitude":"-88.85400","Snowdepth":"12.000","Units":"in","Rept_Date":"2025-03-21 12"}},{"type":"Point","coordinates":[-73.9228,50.2708],"properties":{"Station_ID":"CQLI","Station_Nam":"CQLI","Latitude":"50.27080","Longitude":"-73.92280","Snowdepth":"11.339","Units":"in","Rept_Date":"2025-03-21 12"}},{"type":"Point","coordinates":[-91.4716,48.7067],"properties":{"Station_ID":"ATIQ6","Station_Nam":"ATIKOKAN","Latitude":"48.70670","Longitude":"-91.47160","Snowdepth":"10.120","Units":"in","Rept_Date":"2025-03-22 06"}},{"type":"Point","coordinates":[-93.216,48.59631],"properties":{"Station_ID":"MN-KC-20","Station_Nam":"INTERNATIONAL FALLS 8.8 E, MN","Latitude":"48.59631","Longitude":"-93.21600","Snowdepth":"10.000","Units":"in","Rept_Date":"2025-03-21 12"}},{"type":"Point","coordinates":[-90.30508,47.8062],"properties":{"Station_ID":"MN-CK-29","Station_Nam":"GRAND MARAIS 3.8 NNE, MN","Latitude":"47.80620","Longitude":"-90.30508","Snowdepth":"10.000","Units":"in","Rept_Date":"2025-03-21 12"}},{"type":"Point","coordinates":[-79.81035,44.50564],"properties":{"Station_ID":"CAN-ON-245","Station_Nam":"PHELPSTON 3.1 ESE, CAN","Latitude":"44.50564","Longitude":"-79.81035","Snowdepth":"10.000","Units":"in","Rept_Date":"2025-03-21 11"}},{"type":"Point","coordinates":[-87.8816,46.7462],"properties":{"Station_ID":"BBEM4","Station_Nam":"BIG BAY 9SW","Latitude":"46.74620","Longitude":"-87.88160","Snowdepth":"10.000","Units":"in","Rept_Date":"2025-03-21 12"}},{"type":"Point","coordinates":[-75.845,49.2906],"properties":{"Station_ID":"CQMD","Station_Nam":"CQMD","Latitude":"49.29060","Longitude":"-75.84500","Snowdepth":"9.882","Units":"in","Rept_Date":"2025-03-21 12"}},{"type":"Point","coordinates":[-89.1799,49.5995],"properties":{"Station_ID":"KABQ6","Station_Nam":"CAB LAKE","Latitude":"49.59950","Longitude":"-89.17990","Snowdepth":"9.840","Units":"in","Rept_Date":"2025-03-22 06"}},{"type":"Point","coordinates":[-87.5492,46.5314],"properties":{"Station_ID":"MQT","Station_Nam":"MARQUETTE, MI","Latitude":"46.53140","Longitude":"-87.54920","Snowdepth":"9.000","Units":"in","Rept_Date":"2025-03-22 06"}},{"type":"Point","coordinates":[-85.195,40.9783],"properties":{"Station_ID":"FWA","Station_Nam":"FORT WAYNE INTL ARPT","Latitude":"40.97830","Longitude":"-85.19500","Snowdepth":"9.000","Units":"in","Rept_Date":"2025-03-22 06"}},{"type":"Point","coordinates":[-71.4127,44.2196],"properties":{"Station_ID":"CAWN3","Station_Nam":"CRAWFORD NOTCH","Latitude":"44.21960","Longitude":"-71.41270","Snowdepth":"9.000","Units":"in","Rept_Date":"2025-03-21 11"}},{"type":"Point","coordinates":[-88.3786,44.9958],"properties":{"Station_ID":"BREW3","Station_Nam":"SURING","Latitude":"44.99580","Longitude":"-88.37860","Snowdepth":"9.000","Units":"in","Rept_Date":"2025-03-21 12"}},{"type":"Point","coordinates":[-68.5431,49.8239],"properties":{"Station_ID":"CQIQ","Station_Nam":"CQIQ","Latitude":"49.82390","Longitude":"-68.54310","Snowdepth":"8.779","Units":"in","Rept_Date":"2025-03-21 12"}},{"type":"Point","coordinates":[-72.4435,44.8916],"properties":{"Station_ID":"VT-OL-1","Station_Nam":"WESTFIELD 0.7 WNW, VT","Latitude":"44.89160","Longitude":"-72.44350","Snowdepth":"8.000","Units":"in","Rept_Date":"2025-03-21 12"}},{"type":"Point","coordinates":[-91.86862,47.88254],"properties":{"Station_ID":"MN-SL-328","Station_Nam":"ELY 1.8 SSW, MN","Latitude":"47.88254","Longitude":"-91.86862","Snowdepth":"8.000","Units":"in","Rept_Date":"2025-03-21 13"}},{"type":"Point","coordinates":[-90.87444,48.14388],"properties":{"Station_ID":"MN-CK-56","Station_Nam":"GRAND MARAIS 36.2 NW, MN","Latitude":"48.14388","Longitude":"-90.87444","Snowdepth":"8.000","Units":"in","Rept_Date":"2025-03-21 12"}},{"type":"Point","coordinates":[-87.845,46.4991],"properties":{"Station_ID":"CLKM4","Station_Nam":"CLARKSBURG","Latitude":"46.49910","Longitude":"-87.84500","Snowdepth":"8.000","Units":"in","Rept_Date":"2025-03-21 11"}},{"type":"Point","coordinates":[-84.3239,46.1864],"properties":{"Station_ID":"PICM4","Station_Nam":"PICKFORD 3NE","Latitude":"46.18640","Longitude":"-84.32390","Snowdepth":"7.000","Units":"in","Rept_Date":"2025-03-21 22"}},{"type":"Point","coordinates":[-91.5027,43.6309],"properties":{"Station_ID":"CLDM5","Station_Nam":"CALEDONIA","Latitude":"43.63090","Longitude":"-91.50270","Snowdepth":"7.000","Units":"in","Rept_Date":"2025-03-21 11"}},{"type":"Point","coordinates":[-69.8119,45.6602],"properties":{"Station_ID":"BRAM1","Station_Nam":"BRASSUA DAM","Latitude":"45.66020","Longitude":"-69.81190","Snowdepth":"7.000","Units":"in","Rept_Date":"2025-03-21 11"}},{"type":"Point","coordinates":[-77.47853,46.09592],"properties":{"Station_ID":"CAN-ON-220","Station_Nam":"DEEP RIVER 1.5 SE - MNRF, CAN","Latitude":"46.09592","Longitude":"-77.47853","Snowdepth":"6.700","Units":"in","Rept_Date":"2025-03-21 12"}},{"type":"Point","coordinates":[-68.41194,47.28995],"properties":{"Station_ID":"CAN-NB-134","Station_Nam":"ST. HILAIRE 0.4 W - SAJESS, CAN","Latitude":"47.28995","Longitude":"-68.41194","Snowdepth":"6.600","Units":"in","Rept_Date":"2025-03-21 12"}},{"type":"Point","coordinates":[-90.58884,44.10386],"properties":{"Station_ID":"WI-MN-9","Station_Nam":"WARRENS 4.7 WSW, WI","Latitude":"44.10386","Longitude":"-90.58884","Snowdepth":"6.000","Units":"in","Rept_Date":"2025-03-21 12"}},{"type":"Point","coordinates":[-95.0653,42.8931],"properties":{"Station_ID":"SXRI4","Station_Nam":"SIOUX RAPIDS,IA","Latitude":"42.89310","Longitude":"-95.06530","Snowdepth":"6.000","Units":"in","Rept_Date":"2025-03-21 11"}},{"type":"Point","coordinates":[-69.7167,45.5833],"properties":{"Station_ID":"RKWM1","Station_Nam":"MOOSEHEAD LAKE","Latitude":"45.58330","Longitude":"-69.71670","Snowdepth":"6.000","Units":"in","Rept_Date":"2025-03-21 11"}},{"type":"Point","coordinates":[-72.9,43.2667],"properties":{"Station_ID":"PERV1","Station_Nam":"PERU","Latitude":"43.26670","Longitude":"-72.90000","Snowdepth":"6.000","Units":"in","Rept_Date":"2025-03-21 11"}},{"type":"Point","coordinates":[-71.90238,43.29531],"properties":{"Station_ID":"NH-MR-60","Station_Nam":"SOUTH SUTTON 1.3 SE, NH","Latitude":"43.29531","Longitude":"-71.90238","Snowdepth":"6.000","Units":"in","Rept_Date":"2025-03-21 12"}},{"type":"Point","coordinates":[-71.3415,43.80976],"properties":{"Station_ID":"NH-CR-26","Station_Nam":"CENTER SANDWICH 4.9 E, NH","Latitude":"43.80976","Longitude":"-71.34150","Snowdepth":"6.000","Units":"in","Rept_Date":"2025-03-21 11"}},{"type":"Point","coordinates":[-86.5485,45.89815],"properties":{"Station_ID":"MI-DL-1","Station_Nam":"GARDEN CORNERS 0.8 NW, MI","Latitude":"45.89815","Longitude":"-86.54850","Snowdepth":"6.000","Units":"in","Rept_Date":"2025-03-21 12"}},{"type":"Point","coordinates":[-91.7616,43.5241],"properties":{"Station_ID":"MABM5","Station_Nam":"MABEL","Latitude":"43.52410","Longitude":"-91.76160","Snowdepth":"6.000","Units":"in","Rept_Date":"2025-03-21 13"}},{"type":"Point","coordinates":[-96.4788,41.9377],"properties":{"Station_ID":"LYON1","Station_Nam":"LYONS","Latitude":"41.93770","Longitude":"-96.47880","Snowdepth":"6.000","Units":"in","Rept_Date":"2025-03-21 12"}},{"type":"Point","coordinates":[-93.9,48.6167],"properties":{"Station_ID":"INDM5","Station_Nam":"INDUS,MN","Latitude":"48.61670","Longitude":"-93.90000","Snowdepth":"6.000","Units":"in","Rept_Date":"2025-03-21 13"}},{"type":"Point","coordinates":[-86.5485,45.8983],"properties":{"Station_ID":"GDCM4","Station_Nam":"GARDEN CORNERS","Latitude":"45.89830","Longitude":"-86.54850","Snowdepth":"6.000","Units":"in","Rept_Date":"2025-03-21 12"}},{"type":"Point","coordinates":[-71.3425,43.8099],"properties":{"Station_ID":"ESDN3","Station_Nam":"EAST SANDWICH","Latitude":"43.80990","Longitude":"-71.34250","Snowdepth":"6.000","Units":"in","Rept_Date":"2025-03-21 10"}},{"type":"Point","coordinates":[-87.0406,45.7438],"properties":{"Station_ID":"ESAM4","Station_Nam":"ESCANABA","Latitude":"45.74380","Longitude":"-87.04060","Snowdepth":"6.000","Units":"in","Rept_Date":"2025-03-21 11"}},{"type":"Point","coordinates":[-58.6185,48.55436],"properties":{"Station_ID":"CAN-NL-65","Station_Nam":"KIPPENS 0.7 NE, CA","Latitude":"48.55436","Longitude":"-58.61850","Snowdepth":"6.000","Units":"in","Rept_Date":"2025-03-21 11"}},{"type":"Point","coordinates":[-94.3061,43.0667],"properties":{"Station_ID":"ALGI4","Station_Nam":"ALGONA,IA","Latitude":"43.06670","Longitude":"-94.30610","Snowdepth":"6.000","Units":"in","Rept_Date":"2025-03-21 12"}},{"type":"Point","coordinates":[-87.8119,45.4825],"properties":{"Station_ID":"ABGW3","Station_Nam":"AMBERG 9 E","Latitude":"45.48250","Longitude":"-87.81190","Snowdepth":"6.000","Units":"in","Rept_Date":"2025-03-21 13"}},{"type":"Point","coordinates":[-92.21656,43.87828],"properties":{"Station_ID":"MN-OL-79","Station_Nam":"CHATFIELD 2.7 NNW, MN","Latitude":"43.87828","Longitude":"-92.21656","Snowdepth":"5.900","Units":"in","Rept_Date":"2025-03-21 13"}},{"type":"Point","coordinates":[-73.7381,47.2564],"properties":{"Station_ID":"CQGA","Station_Nam":"CQGA","Latitude":"47.25640","Longitude":"-73.73810","Snowdepth":"5.787","Units":"in","Rept_Date":"2025-03-21 12"}},{"type":"Point","coordinates":[-91.34024,43.87973],"properties":{"Station_ID":"MN-WN-24","Station_Nam":"LA CRESCENT 4.0 NNW, MN","Latitude":"43.87973","Longitude":"-91.34024","Snowdepth":"5.500","Units":"in","Rept_Date":"2025-03-21 12"}},{"type":"Point","coordinates":[-86.28266,45.99042],"properties":{"Station_ID":"MI-SH-1","Station_Nam":"MANISTIQUE 2.7 NW, MI","Latitude":"45.99042","Longitude":"-86.28266","Snowdepth":"5.500","Units":"in","Rept_Date":"2025-03-21 10"}},{"type":"Point","coordinates":[-94.18397,42.53144],"properties":{"Station_ID":"IA-WB-17","Station_Nam":"FORT DODGE 1.7 NNW, IA","Latitude":"42.53144","Longitude":"-94.18397","Snowdepth":"5.100","Units":"in","Rept_Date":"2025-03-21 12"}},{"type":"Point","coordinates":[-94.2011,42.5061],"properties":{"Station_ID":"WMTI4","Station_Nam":"FORT DODGE,IA","Latitude":"42.50610","Longitude":"-94.20110","Snowdepth":"5.000","Units":"in","Rept_Date":"2025-03-21 12"}},{"type":"Point","coordinates":[-88.45639,45.184],"properties":{"Station_ID":"WI-OC-8","Station_Nam":"MOUNTAIN 0.9 E, WI","Latitude":"45.18400","Longitude":"-88.45639","Snowdepth":"5.000","Units":"in","Rept_Date":"2025-03-21 12"}},{"type":"Point","coordinates":[-88.1415,45.89369],"properties":{"Station_ID":"WI-FL-4","Station_Nam":"FLORENCE 5.6 ESE, WI","Latitude":"45.89369","Longitude":"-88.14150","Snowdepth":"5.000","Units":"in","Rept_Date":"2025-03-21 12"}},{"type":"Point","coordinates":[-87.11326,45.20296],"properties":{"Station_ID":"WI-DR-6","Station_Nam":"SISTER BAY 1.3 NNE, WI","Latitude":"45.20296","Longitude":"-87.11326","Snowdepth":"5.000","Units":"in","Rept_Date":"2025-03-21 11"}},{"type":"Point","coordinates":[-72.8326,43.29092],"properties":{"Station_ID":"VT-BN-3","Station_Nam":"LANDGROVE 1.1 NNE, VT","Latitude":"43.29092","Longitude":"-72.83260","Snowdepth":"5.000","Units":"in","Rept_Date":"2025-03-21 11"}},{"type":"Point","coordinates":[-89.306,44.6271],"properties":{"Station_ID":"RSTW3","Station_Nam":"ROSHOLT","Latitude":"44.62710","Longitude":"-89.30600","Snowdepth":"5.000","Units":"in","Rept_Date":"2025-03-21 14"}},{"type":"Point","coordinates":[-74.4236,43.115],"properties":{"Station_ID":"PEKN6","Station_Nam":"PECK LAKE","Latitude":"43.11500","Longitude":"-74.42360","Snowdepth":"5.000","Units":"in","Rept_Date":"2025-03-21 11"}},{"type":"Point","coordinates":[-85.5162,46.3515],"properties":{"Station_ID":"NCFM4","Station_Nam":"NEWBERRY-LUCE COUNTY ROAD COMMISSION","Latitude":"46.35150","Longitude":"-85.51620","Snowdepth":"5.000","Units":"in","Rept_Date":"2025-03-21 12"}},{"type":"Point","coordinates":[-94.10155,47.82442],"properties":{"Station_ID":"MN-IT-80","Station_Nam":"NORTHOME 8.4 ESE, MN","Latitude":"47.82442","Longitude":"-94.10155","Snowdepth":"5.000","Units":"in","Rept_Date":"2025-03-21 12"}},{"type":"Point","coordinates":[-89.8481,45.1781],"properties":{"Station_ID":"MLLW3","Station_Nam":"MERRILL 8W","Latitude":"45.17810","Longitude":"-89.84810","Snowdepth":"5.000","Units":"in","Rept_Date":"2025-03-21 11"}},{"type":"Point","coordinates":[-84.68467,44.96388],"properties":{"Station_ID":"MI-OT-17","Station_Nam":"GAYLORD 4.1 S, MI","Latitude":"44.96388","Longitude":"-84.68467","Snowdepth":"5.000","Units":"in","Rept_Date":"2025-03-21 11"}},{"type":"Point","coordinates":[-90.1333,44.6411],"properties":{"Station_ID":"MFDW3","Station_Nam":"MARSHFIELD EXP FARM","Latitude":"44.64110","Longitude":"-90.13330","Snowdepth":"5.000","Units":"in","Rept_Date":"2025-03-21 12"}},{"type":"Point","coordinates":[-96.0505,41.8263],"properties":{"Station_ID":"LSXI4","Station_Nam":"LITTLE SIOUX","Latitude":"41.82630","Longitude":"-96.05050","Snowdepth":"5.000","Units":"in","Rept_Date":"2025-03-21 12"}},{"type":"Point","coordinates":[-74.2756,43.755],"properties":{"Station_ID":"INDN6","Station_Nam":"INDIAN LAKE","Latitude":"43.75500","Longitude":"-74.27560","Snowdepth":"5.000","Units":"in","Rept_Date":"2025-03-21 12"}},{"type":"Point","coordinates":[-71.7167,43.9333],"properties":{"Station_ID":"HUBN3","Station_Nam":"HUBBARD BROOK","Latitude":"43.93330","Longitude":"-71.71670","Snowdepth":"5.000","Units":"in","Rept_Date":"2025-03-22 06"}},{"type":"Point","coordinates":[-92.5644,43.7074],"properties":{"Station_ID":"GMDM5","Station_Nam":"GRAND MEADOW","Latitude":"43.70740","Longitude":"-92.56440","Snowdepth":"5.000","Units":"in","Rept_Date":"2025-03-21 10"}},{"type":"Point","coordinates":[-87.1536,45.1708],"properties":{"Station_ID":"EPMW3","Station_Nam":"EPHRAIM-1 NE WWTP","Latitude":"45.17080","Longitude":"-87.15360","Snowdepth":"5.000","Units":"in","Rept_Date":"2025-03-21 12"}},{"type":"Point","coordinates":[-88.0575,45.425],"properties":{"Station_ID":"ASTW3","Station_Nam":"ATHELSTANE","Latitude":"45.42500","Longitude":"-88.05750","Snowdepth":"5.000","Units":"in","Rept_Date":"2025-03-21 11"}},{"type":"Point","coordinates":[-89.8482,45.17746],"properties":{"Station_ID":"WI-LN-2","Station_Nam":"MERRILL 7.0 W, WI","Latitude":"45.17746","Longitude":"-89.84820","Snowdepth":"4.500","Units":"in","Rept_Date":"2025-03-21 11"}},{"type":"Point","coordinates":[-87.24702,45.06007],"properties":{"Station_ID":"WI-DR-24","Station_Nam":"EGG HARBOR 2.4 ENE, WI","Latitude":"45.06007","Longitude":"-87.24702","Snowdepth":"4.500","Units":"in","Rept_Date":"2025-03-21 12"}},{"type":"Point","coordinates":[-71.21556,43.92648],"properties":{"Station_ID":"NH-CR-41","Station_Nam":"ALBANY 2.8 SW, NH","Latitude":"43.92648","Longitude":"-71.21556","Snowdepth":"4.500","Units":"in","Rept_Date":"2025-03-21 12"}},{"type":"Point","coordinates":[-88.6424,46.5266],"properties":{"Station_ID":"WTNM4","Station_Nam":"WATTON 2WSW","Latitude":"46.52660","Longitude":"-88.64240","Snowdepth":"4.000","Units":"in","Rept_Date":"2025-03-21 12"}},{"type":"Point","coordinates":[-91.0857,43.8967],"properties":{"Station_ID":"WSLW3","Station_Nam":"WEST SALEM","Latitude":"43.89670","Longitude":"-91.08570","Snowdepth":"4.000","Units":"in","Rept_Date":"2025-03-21 12"}},{"type":"Point","coordinates":[-88.7416,45.1452],"properties":{"Station_ID":"WLKW3","Station_Nam":"WHITE LAKE 1 SE","Latitude":"45.14520","Longitude":"-88.74160","Snowdepth":"4.000","Units":"in","Rept_Date":"2025-03-21 13"}},{"type":"Point","coordinates":[-89.93526,44.26305],"properties":{"Station_ID":"WI-WD-7","Station_Nam":"NEKOOSA 3.7 SSW, WI","Latitude":"44.26305","Longitude":"-89.93526","Snowdepth":"4.000","Units":"in","Rept_Date":"2025-03-21 12"}},{"type":"Point","coordinates":[-89.782,44.33823],"properties":{"Station_ID":"WI-WD-2","Station_Nam":"WISCONSIN RAPIDS 4.6 SSE, WI","Latitude":"44.33823","Longitude":"-89.78200","Snowdepth":"4.000","Units":"in","Rept_Date":"2025-03-21 13"}},{"type":"Point","coordinates":[-89.54716,44.44225],"properties":{"Station_ID":"WI-PT-23","Station_Nam":"PLOVER 1.4 S, WI","Latitude":"44.44225","Longitude":"-89.54716","Snowdepth":"4.000","Units":"in","Rept_Date":"2025-03-21 12"}},{"type":"Point","coordinates":[-91.1815,43.8919],"properties":{"Station_ID":"WI-LC-30","Station_Nam":"ONALASKA 1.9 E, WI","Latitude":"43.89190","Longitude":"-91.18150","Snowdepth":"4.000","Units":"in","Rept_Date":"2025-03-21 12"}},{"type":"Point","coordinates":[-91.09633,43.89634],"properties":{"Station_ID":"WI-LC-1","Station_Nam":"WEST SALEM 0.7 W, WI","Latitude":"43.89634","Longitude":"-91.09633","Snowdepth":"4.000","Units":"in","Rept_Date":"2025-03-21 12"}},{"type":"Point","coordinates":[-90.27013,46.41555],"properties":{"Station_ID":"WI-IR-3","Station_Nam":"PENCE 0.1 E, WI","Latitude":"46.41555","Longitude":"-90.27013","Snowdepth":"4.000","Units":"in","Rept_Date":"2025-03-21 12"}},{"type":"Point","coordinates":[-72.56234,44.87663],"properties":{"Station_ID":"VT-FR-30","Station_Nam":"MONTGOMERY 4.1 ESE, VT","Latitude":"44.87663","Longitude":"-72.56234","Snowdepth":"4.000","Units":"in","Rept_Date":"2025-03-21 11"}},{"type":"Point","coordinates":[-88.6183,44.7631],"properties":{"Station_ID":"SHHW3","Station_Nam":"SHAWANO 2SSW","Latitude":"44.76310","Longitude":"-88.61830","Snowdepth":"4.000","Units":"in","Rept_Date":"2025-03-21 13"}},{"type":"Point","coordinates":[-94.9908,42.4239],"properties":{"Station_ID":"SACI4","Station_Nam":"SAC CITY,IA","Latitude":"42.42390","Longitude":"-94.99080","Snowdepth":"4.000","Units":"in","Rept_Date":"2025-03-21 11"}},{"type":"Point","coordinates":[-94.6167,42.4],"properties":{"Station_ID":"RKWI4","Station_Nam":"ROCKWELL CITY,IA","Latitude":"42.40000","Longitude":"-94.61670","Snowdepth":"4.000","Units":"in","Rept_Date":"2025-03-21 13"}},{"type":"Point","coordinates":[-87.7356,45.0281],"properties":{"Station_ID":"PSHW3","Station_Nam":"PESHTIGO","Latitude":"45.02810","Longitude":"-87.73560","Snowdepth":"4.000","Units":"in","Rept_Date":"2025-03-21 12"}},{"type":"Point","coordinates":[-89.5453,44.4428],"properties":{"Station_ID":"PLOW3","Station_Nam":"PLOVER","Latitude":"44.44280","Longitude":"-89.54530","Snowdepth":"4.000","Units":"in","Rept_Date":"2025-03-21 12"}},{"type":"Point","coordinates":[-89.0752,46.0663],"properties":{"Station_ID":"PHEW3","Station_Nam":"PHELPS","Latitude":"46.06630","Longitude":"-89.07520","Snowdepth":"4.000","Units":"in","Rept_Date":"2025-03-21 12"}},{"type":"Point","coordinates":[-74.45287,43.4549],"properties":{"Station_ID":"NY-HM-10","Station_Nam":"LAKE PLEASANT 2.3 WSW, NY","Latitude":"43.45490","Longitude":"-74.45287","Snowdepth":"4.000","Units":"in","Rept_Date":"2025-03-21 11"}},{"type":"Point","coordinates":[-96.14395,41.3175],"properties":{"Station_ID":"NE-DG-63","Station_Nam":"OMAHA 7.8 WNW, NE","Latitude":"41.31750","Longitude":"-96.14395","Snowdepth":"4.000","Units":"in","Rept_Date":"2025-03-21 12"}},{"type":"Point","coordinates":[-96.17473,41.32763],"properties":{"Station_ID":"NE-DG-35","Station_Nam":"BENNINGTON 2.9 SSW, NE","Latitude":"41.32763","Longitude":"-96.17473","Snowdepth":"4.000","Units":"in","Rept_Date":"2025-03-21 12"}},{"type":"Point","coordinates":[-96.2245,41.2878],"properties":{"Station_ID":"NE-DG-19","Station_Nam":"ELKHORN 0.7 ENE, NE","Latitude":"41.28780","Longitude":"-96.22450","Snowdepth":"4.000","Units":"in","Rept_Date":"2025-03-21 12"}},{"type":"Point","coordinates":[-96.241,41.29391],"properties":{"Station_ID":"NE-DG-18","Station_Nam":"ELKHORN 0.8 NNW, NE","Latitude":"41.29391","Longitude":"-96.24100","Snowdepth":"4.000","Units":"in","Rept_Date":"2025-03-21 12"}},{"type":"Point","coordinates":[-71.3,44.2667],"properties":{"Station_ID":"MWN","Station_Nam":"MOUNT WASHINGTON","Latitude":"44.26670","Longitude":"-71.30000","Snowdepth":"4.000","Units":"in","Rept_Date":"2025-03-21 12"}},{"type":"Point","coordinates":[-86.2513,45.9512],"properties":{"Station_ID":"MTQM4","Station_Nam":"MANISTIQUE WWTP","Latitude":"45.95120","Longitude":"-86.25130","Snowdepth":"4.000","Units":"in","Rept_Date":"2025-03-21 11"}},{"type":"Point","coordinates":[-88.08416,45.82719],"properties":{"Station_ID":"MI-DC-6","Station_Nam":"IRON MOUNTAIN 1.1 W, MI","Latitude":"45.82719","Longitude":"-88.08416","Snowdepth":"4.000","Units":"in","Rept_Date":"2025-03-21 12"}},{"type":"Point","coordinates":[-86.1065,44.53976],"properties":{"Station_ID":"MI-BZ-1","Station_Nam":"BENZONIA 5.3 S, MI","Latitude":"44.53976","Longitude":"-86.10650","Snowdepth":"4.000","Units":"in","Rept_Date":"2025-03-21 13"}},{"type":"Point","coordinates":[-70.0272,44.66582],"properties":{"Station_ID":"ME-FR-4","Station_Nam":"NEW SHARON 2.0 NW, ME","Latitude":"44.66582","Longitude":"-70.02720","Snowdepth":"4.000","Units":"in","Rept_Date":"2025-03-21 11"}},{"type":"Point","coordinates":[-71.3,44.26666],"properties":{"Station_ID":"KMWN","Station_Nam":"MOUNT WASHINGTON","Latitude":"44.26666","Longitude":"-71.30000","Snowdepth":"4.000","Units":"in","Rept_Date":"2025-03-22 06"}},{"type":"Point","coordinates":[-93.0484,48.4088],"properties":{"Station_ID":"KABM5","Station_Nam":"KABETOGAMA","Latitude":"48.40880","Longitude":"-93.04840","Snowdepth":"4.000","Units":"in","Rept_Date":"2025-03-21 12"}},{"type":"Point","coordinates":[-72.787,44.5843],"properties":{"Station_ID":"JEFV1","Station_Nam":"JEFFERSONVILLE","Latitude":"44.58430","Longitude":"-72.78700","Snowdepth":"4.000","Units":"in","Rept_Date":"2025-03-21 11"}},{"type":"Point","coordinates":[-87.3547,46.4908],"properties":{"Station_ID":"HRVM4","Station_Nam":"HARVEY","Latitude":"46.49080","Longitude":"-87.35470","Snowdepth":"4.000","Units":"in","Rept_Date":"2025-03-21 11"}},{"type":"Point","coordinates":[-87.0391,45.8433],"properties":{"Station_ID":"GLDM4","Station_Nam":"GLADSTONE NO. 2","Latitude":"45.84330","Longitude":"-87.03910","Snowdepth":"4.000","Units":"in","Rept_Date":"2025-03-21 11"}},{"type":"Point","coordinates":[-87.2292,45.1242],"properties":{"Station_ID":"FISW3","Station_Nam":"FISH CREEK 1 E WWTP","Latitude":"45.12420","Longitude":"-87.22920","Snowdepth":"4.000","Units":"in","Rept_Date":"2025-03-21 14"}},{"type":"Point","coordinates":[-90.7952,43.786],"properties":{"Station_ID":"CTNW3","Station_Nam":"CASHTON 3NNW","Latitude":"43.78600","Longitude":"-90.79520","Snowdepth":"4.000","Units":"in","Rept_Date":"2025-03-21 13"}},{"type":"Point","coordinates":[-88.9044,44.87],"properties":{"Station_ID":"BOWW3","Station_Nam":"STOCKBRIDGE-MUNSEE RESERVATION","Latitude":"44.87000","Longitude":"-88.90440","Snowdepth":"4.000","Units":"in","Rept_Date":"2025-03-21 12"}},{"type":"Point","coordinates":[-91.4486,47.9719],"properties":{"Station_ID":"BNDM5","Station_Nam":"ELY 25E","Latitude":"47.97190","Longitude":"-91.44860","Snowdepth":"4.000","Units":"in","Rept_Date":"2025-03-21 13"}},{"type":"Point","coordinates":[-88.0856,45.78378],"properties":{"Station_ID":"62681_MADIS","Station_Nam":"AURORA 0.7 E, WI","Latitude":"45.78378","Longitude":"-88.08560","Snowdepth":"4.000","Units":"in","Rept_Date":"2025-03-21 11"}},{"type":"Point","coordinates":[-90.9531,43.69991],"properties":{"Station_ID":"53911_MADIS","Station_Nam":"WESTBY 5.8 NW, WI","Latitude":"43.69991","Longitude":"-90.95310","Snowdepth":"3.800","Units":"in","Rept_Date":"2025-03-21 12"}},{"type":"Point","coordinates":[-87.7349,43.7356],"properties":{"Station_ID":"WI-SB-19","Station_Nam":"SHEBOYGAN 0.7 SSW, WI","Latitude":"43.73560","Longitude":"-87.73490","Snowdepth":"3.500","Units":"in","Rept_Date":"2025-03-21 13"}},{"type":"Point","coordinates":[-91.06834,44.12945],"properties":{"Station_ID":"WI-JK-4","Station_Nam":"MELROSE 3.6 W, WI","Latitude":"44.12945","Longitude":"-91.06834","Snowdepth":"3.500","Units":"in","Rept_Date":"2025-03-21 12"}},{"type":"Point","coordinates":[-97.08981,40.91689],"properties":{"Station_ID":"NE-SW-7","Station_Nam":"SEWARD 0.5 NE, NE","Latitude":"40.91689","Longitude":"-97.08981","Snowdepth":"3.500","Units":"in","Rept_Date":"2025-03-21 12"}},{"type":"Point","coordinates":[-92.39991,43.69875],"properties":{"Station_ID":"MN-FM-24","Station_Nam":"SPRING VALLEY 0.9 NNW, MN","Latitude":"43.69875","Longitude":"-92.39991","Snowdepth":"3.500","Units":"in","Rept_Date":"2025-03-21 12"}},{"type":"Point","coordinates":[-89.6169,44.9731],"properties":{"Station_ID":"WUNW3","Station_Nam":"WAUSAU-NORTHEAST","Latitude":"44.97310","Longitude":"-89.61690","Snowdepth":"3.000","Units":"in","Rept_Date":"2025-03-21 11"}},{"type":"Point","coordinates":[-89.78677,44.52553],"properties":{"Station_ID":"WI-PT-8","Station_Nam":"RUDOLPH 2.1 NNE, WI","Latitude":"44.52553","Longitude":"-89.78677","Snowdepth":"3.000","Units":"in","Rept_Date":"2025-03-21 10"}},{"type":"Point","coordinates":[-89.71167,44.28201],"properties":{"Station_ID":"WI-PT-25","Station_Nam":"WISCONSIN RAPIDS 9.8 SE, WI","Latitude":"44.28201","Longitude":"-89.71167","Snowdepth":"3.000","Units":"in","Rept_Date":"2025-03-21 12"}},{"type":"Point","coordinates":[-72.28,44.631],"properties":{"Station_ID":"VT-OL-12","Station_Nam":"GREENSBORO 3.9 NNE, VT","Latitude":"44.63100","Longitude":"-72.28000","Snowdepth":"3.000","Units":"in","Rept_Date":"2025-03-21 10"}},{"type":"Point","coordinates":[-73.02,42.82],"properties":{"Station_ID":"VT-BN-12","Station_Nam":"STAMFORD 5.0 NNE, VT","Latitude":"42.82000","Longitude":"-73.02000","Snowdepth":"3.000","Units":"in","Rept_Date":"2025-03-21 20"}},{"type":"Point","coordinates":[-90.8756,43.5597],"properties":{"Station_ID":"VQAW3","Station_Nam":"VIROQUA","Latitude":"43.55970","Longitude":"-90.87560","Snowdepth":"3.000","Units":"in","Rept_Date":"2025-03-21 12"}},{"type":"Point","coordinates":[-71.2661,43.8639],"properties":{"Station_ID":"TMWN3","Station_Nam":"TAMWORTH 4","Latitude":"43.86390","Longitude":"-71.26610","Snowdepth":"3.000","Units":"in","Rept_Date":"2025-03-21 11"}},{"type":"Point","coordinates":[-89.5855,44.5113],"properties":{"Station_ID":"STPW3","Station_Nam":"STEVENS POINT","Latitude":"44.51130","Longitude":"-89.58550","Snowdepth":"3.000","Units":"in","Rept_Date":"2025-03-21 12"}},{"type":"Point","coordinates":[-79.9952,38.4013],"properties":{"Station_ID":"SNOW2","Station_Nam":"SNOWSHOE","Latitude":"38.40130","Longitude":"-79.99520","Snowdepth":"3.000","Units":"in","Rept_Date":"2025-03-21 12"}},{"type":"Point","coordinates":[-97.0898,40.9169],"properties":{"Station_ID":"SEWN1","Station_Nam":"SEWARD","Latitude":"40.91690","Longitude":"-97.08980","Snowdepth":"3.000","Units":"in","Rept_Date":"2025-03-21 12"}},{"type":"Point","coordinates":[-87.3333,44.8667],"properties":{"Station_ID":"SBEW3","Station_Nam":"EXP. FARM","Latitude":"44.86670","Longitude":"-87.33330","Snowdepth":"3.000","Units":"in","Rept_Date":"2025-03-21 12"}},{"type":"Point","coordinates":[-90.1317,44.4369],"properties":{"Station_ID":"PITW3","Station_Nam":"PITTSVILLE-WWTP","Latitude":"44.43690","Longitude":"-90.13170","Snowdepth":"3.000","Units":"in","Rept_Date":"2025-03-21 12"}},{"type":"Point","coordinates":[-85.6752,44.883],"properties":{"Station_ID":"NWFM4","Station_Nam":"NW MICHIGAN RESEARCH FARM","Latitude":"44.88300","Longitude":"-85.67520","Snowdepth":"3.000","Units":"in","Rept_Date":"2025-03-21 12"}},{"type":"Point","coordinates":[-71.9767,43.4189],"properties":{"Station_ID":"NLNN3","Station_Nam":"NEW LONDON","Latitude":"43.41890","Longitude":"-71.97670","Snowdepth":"3.000","Units":"in","Rept_Date":"2025-03-21 11"}},{"type":"Point","coordinates":[-71.2661,43.86449],"properties":{"Station_ID":"NH-CR-27","Station_Nam":"TAMWORTH 0.4 NNW, NH","Latitude":"43.86449","Longitude":"-71.26610","Snowdepth":"3.000","Units":"in","Rept_Date":"2025-03-21 11"}},{"type":"Point","coordinates":[-90.535,44.5378],"properties":{"Station_ID":"NELW3","Station_Nam":"NEILLSVILLE 3ESE","Latitude":"44.53780","Longitude":"-90.53500","Snowdepth":"3.000","Units":"in","Rept_Date":"2025-03-21 12"}},{"type":"Point","coordinates":[-91.42908,43.79527],"properties":{"Station_ID":"MN-HS-15","Station_Nam":"LA CRESCENT 6.8 WSW, MN","Latitude":"43.79527","Longitude":"-91.42908","Snowdepth":"3.000","Units":"in","Rept_Date":"2025-03-21 12"}},{"type":"Point","coordinates":[-92.3065,43.7434],"properties":{"Station_ID":"MN-FM-10","Station_Nam":"WYKOFF 3.1 NW, MN","Latitude":"43.74340","Longitude":"-92.30650","Snowdepth":"3.000","Units":"in","Rept_Date":"2025-03-21 12"}},{"type":"Point","coordinates":[-84.9754,45.4345],"properties":{"Station_ID":"MI-EM-5","Station_Nam":"HARBOR SPRINGS 0.7 ENE, MI","Latitude":"45.43450","Longitude":"-84.97540","Snowdepth":"3.000","Units":"in","Rept_Date":"2025-03-21 11"}},{"type":"Point","coordinates":[-91.2666,43.8622],"properties":{"Station_ID":"LSNW3","Station_Nam":"LA CROSSE SNOW","Latitude":"43.86220","Longitude":"-91.26660","Snowdepth":"3.000","Units":"in","Rept_Date":"2025-03-21 18"}},{"type":"Point","coordinates":[-87.505,44.4628],"properties":{"Station_ID":"KKKW3","Station_Nam":"KEWAUNEE","Latitude":"44.46280","Longitude":"-87.50500","Snowdepth":"3.000","Units":"in","Rept_Date":"2025-03-21 11"}},{"type":"Point","coordinates":[-93.3964,48.5778],"properties":{"Station_ID":"IFSM5","Station_Nam":"INTL FALLS SNOW","Latitude":"48.57780","Longitude":"-93.39640","Snowdepth":"3.000","Units":"in","Rept_Date":"2025-03-21 12"}},{"type":"Point","coordinates":[-91.4269,43.7953],"properties":{"Station_ID":"HOKM5","Station_Nam":"HOKAH 4NW","Latitude":"43.79530","Longitude":"-91.42690","Snowdepth":"3.000","Units":"in","Rept_Date":"2025-03-21 12"}},{"type":"Point","coordinates":[-97.2208,40.6558],"properties":{"Station_ID":"FNDN1","Station_Nam":"FRIEND","Latitude":"40.65580","Longitude":"-97.22080","Snowdepth":"3.000","Units":"in","Rept_Date":"2025-03-21 12"}},{"type":"Point","coordinates":[-94.2228,47.2467],"properties":{"Station_ID":"FEDM5","Station_Nam":"LEECH LAKE DAM","Latitude":"47.24670","Longitude":"-94.22280","Snowdepth":"3.000","Units":"in","Rept_Date":"2025-03-21 13"}},{"type":"Point","coordinates":[-88.0136,45.2353],"properties":{"Station_ID":"CVZW3","Station_Nam":"WISCONSIN PUBLIC SERVICE","Latitude":"45.23530","Longitude":"-88.01360","Snowdepth":"3.000","Units":"in","Rept_Date":"2025-03-21 12"}},{"type":"Point","coordinates":[-92.6925,47.8506],"properties":{"Station_ID":"COKM5","Station_Nam":"COOK","Latitude":"47.85060","Longitude":"-92.69250","Snowdepth":"3.000","Units":"in","Rept_Date":"2025-03-21 10"}},{"type":"Point","coordinates":[-85.2672,45.3172],"properties":{"Station_ID":"CHRM4","Station_Nam":"CHARLEVOIX","Latitude":"45.31720","Longitude":"-85.26720","Snowdepth":"3.000","Units":"in","Rept_Date":"2025-03-21 12"}},{"type":"Point","coordinates":[-86.9167,46.3333],"properties":{"Station_ID":"CEFM4","Station_Nam":"EXPERIMENT FARM #2","Latitude":"46.33330","Longitude":"-86.91670","Snowdepth":"3.000","Units":"in","Rept_Date":"2025-03-21 12"}},{"type":"Point","coordinates":[-89.1133,44.6398],"properties":{"Station_ID":"BFSW3","Station_Nam":"BIG FALLS-5 NW","Latitude":"44.63980","Longitude":"-89.11330","Snowdepth":"3.000","Units":"in","Rept_Date":"2025-03-21 12"}},{"type":"Point","coordinates":[-91.1919,43.8228],"properties":{"Station_ID":"ARX","Station_Nam":"LA CROSSE, WI","Latitude":"43.82280","Longitude":"-91.19190","Snowdepth":"3.000","Units":"in","Rept_Date":"2025-03-22 05"}},{"type":"Point","coordinates":[-89.2639,44.4128],"properties":{"Station_ID":"AMHW3","Station_Nam":"AMHERST-3 SE","Latitude":"44.41280","Longitude":"-89.26390","Snowdepth":"3.000","Units":"in","Rept_Date":"2025-03-21 12"}},{"type":"Point","coordinates":[-74.091,44.40915],"properties":{"Station_ID":"58111_MADIS","Station_Nam":"BLOOMINGDALE 0.2 NW, NY","Latitude":"44.40915","Longitude":"-74.09100","Snowdepth":"3.000","Units":"in","Rept_Date":"2025-03-21 13"}},{"type":"Point","coordinates":[-89.6159,44.97329],"properties":{"Station_ID":"55131_MADIS","Station_Nam":"WAUSAU 1.6 ENE, WI","Latitude":"44.97329","Longitude":"-89.61590","Snowdepth":"3.000","Units":"in","Rept_Date":"2025-03-21 11"}},{"type":"Point","coordinates":[-88.3437,44.2452],"properties":{"Station_ID":"WI-OG-36","Station_Nam":"APPLETON 3.0 ESE, WI","Latitude":"44.24520","Longitude":"-88.34370","Snowdepth":"2.500","Units":"in","Rept_Date":"2025-03-21 12"}},{"type":"Point","coordinates":[-94.71496,48.52328],"properties":{"Station_ID":"MN-LW-3","Station_Nam":"BAUDETTE 14.3 SSW, MN","Latitude":"48.52328","Longitude":"-94.71496","Snowdepth":"2.500","Units":"in","Rept_Date":"2025-03-21 13"}},{"type":"Point","coordinates":[-85.51189,44.7337],"properties":{"Station_ID":"MI-GT-25","Station_Nam":"TRAVERSE CITY 4.7 ESE, MI","Latitude":"44.73370","Longitude":"-85.51189","Snowdepth":"2.500","Units":"in","Rept_Date":"2025-03-21 11"}},{"type":"Point","coordinates":[-65.5069,46.99343],"properties":{"Station_ID":"CAN-NB-11","Station_Nam":"MIRAMICHI 3.3 S, CAN","Latitude":"46.99343","Longitude":"-65.50690","Snowdepth":"2.500","Units":"in","Rept_Date":"2025-03-21 11"}},{"type":"Point","coordinates":[-73.4594,48.4889],"properties":{"Station_ID":"CQWG","Station_Nam":"CQWG","Latitude":"48.48890","Longitude":"-73.45940","Snowdepth":"2.480","Units":"in","Rept_Date":"2025-03-21 12"}},{"type":"Point","coordinates":[-76.8431,38.59709],"properties":{"Station_ID":"010MD_MADIS","Station_Nam":"WALDORF 4 ESE","Latitude":"38.59709","Longitude":"-76.84310","Snowdepth":"2.360","Units":"in","Rept_Date":"2025-03-22 06"}},{"type":"Point","coordinates":[-72.70871,45.06024],"properties":{"Station_ID":"CAN-QC-69","Station_Nam":"FRELIGHSBURG 10.3 E - MOUNT PINNACLE LAND TRUST, CAN","Latitude":"45.06024","Longitude":"-72.70871","Snowdepth":"2.200","Units":"in","Rept_Date":"2025-03-21 12"}},{"type":"Point","coordinates":[-96.9093,40.9982],"properties":{"Station_ID":"NE-LA-22","Station_Nam":"RAYMOND 7.3 WNW, NE","Latitude":"40.99820","Longitude":"-96.90930","Snowdepth":"2.100","Units":"in","Rept_Date":"2025-03-21 13"}},{"type":"Point","coordinates":[-88.4513,44.1737],"properties":{"Station_ID":"WI-WN-9","Station_Nam":"NEENAH 1.1 ENE, WI","Latitude":"44.17370","Longitude":"-88.45130","Snowdepth":"2.000","Units":"in","Rept_Date":"2025-03-21 12"}},{"type":"Point","coordinates":[-89.23812,44.17764],"properties":{"Station_ID":"WI-WH-7","Station_Nam":"WILD ROSE 0.5 E, WI","Latitude":"44.17764","Longitude":"-89.23812","Snowdepth":"2.000","Units":"in","Rept_Date":"2025-03-21 10"}},{"type":"Point","coordinates":[-89.8305,44.3994],"properties":{"Station_ID":"WIRW3","Station_Nam":"WIS RAPIDS GRAND AV B","Latitude":"44.39940","Longitude":"-89.83050","Snowdepth":"2.000","Units":"in","Rept_Date":"2025-03-21 12"}},{"type":"Point","coordinates":[-88.4899,45.17239],"properties":{"Station_ID":"WI-OC-1","Station_Nam":"MOUNTAIN 1.1 SW, WI","Latitude":"45.17239","Longitude":"-88.48990","Snowdepth":"2.000","Units":"in","Rept_Date":"2025-03-22 01"}},{"type":"Point","coordinates":[-91.2449,43.9344],"properties":{"Station_ID":"WI-LC-22","Station_Nam":"HOLMEN 1.7 SSE, WI","Latitude":"43.93440","Longitude":"-91.24490","Snowdepth":"2.000","Units":"in","Rept_Date":"2025-03-21 12"}},{"type":"Point","coordinates":[-90.42463,44.87209],"properties":{"Station_ID":"WI-CK-3","Station_Nam":"COLBY 5.9 WSW, WI","Latitude":"44.87209","Longitude":"-90.42463","Snowdepth":"2.000","Units":"in","Rept_Date":"2025-03-22 00"}},{"type":"Point","coordinates":[-93.8,42.4667],"properties":{"Station_ID":"WEBI4","Station_Nam":"WEBSTER CITY,IA","Latitude":"42.46670","Longitude":"-93.80000","Snowdepth":"2.000","Units":"in","Rept_Date":"2025-03-21 12"}},{"type":"Point","coordinates":[-72.84167,44.62722],"properties":{"Station_ID":"VT-LM-23","Station_Nam":"JEFFERSONVILLE 1.3 SSW, VT","Latitude":"44.62722","Longitude":"-72.84167","Snowdepth":"2.000","Units":"in","Rept_Date":"2025-03-21 11"}},{"type":"Point","coordinates":[-73.1034,44.6888],"properties":{"Station_ID":"VT-FR-21","Station_Nam":"FAIRFAX 4.9 WNW, VT","Latitude":"44.68880","Longitude":"-73.10340","Snowdepth":"2.000","Units":"in","Rept_Date":"2025-03-21 13"}},{"type":"Point","coordinates":[-72.9225,44.58774],"properties":{"Station_ID":"VT-CH-4","Station_Nam":"UNDERHILL 4.4 NNE, VT","Latitude":"44.58774","Longitude":"-72.92250","Snowdepth":"2.000","Units":"in","Rept_Date":"2025-03-21 11"}},{"type":"Point","coordinates":[-73.07154,44.43669],"properties":{"Station_ID":"VT-CH-38","Station_Nam":"WILLISTON 0.2 WSW, VT","Latitude":"44.43669","Longitude":"-73.07154","Snowdepth":"2.000","Units":"in","Rept_Date":"2025-03-21 11"}},{"type":"Point","coordinates":[-72.9188,44.59811],"properties":{"Station_ID":"VT-CH-11","Station_Nam":"UNDERHILL 5.1 NNE, VT","Latitude":"44.59811","Longitude":"-72.91880","Snowdepth":"2.000","Units":"in","Rept_Date":"2025-03-21 12"}},{"type":"Point","coordinates":[-72.97085,44.24461],"properties":{"Station_ID":"VT-AD-32","Station_Nam":"STARKSBORO 4.4 ENE, VT","Latitude":"44.24461","Longitude":"-72.97085","Snowdepth":"2.000","Units":"in","Rept_Date":"2025-03-21 13"}},{"type":"Point","coordinates":[-91.4378,43.9994],"properties":{"Station_ID":"TREW3","Station_Nam":"DAM 6","Latitude":"43.99940","Longitude":"-91.43780","Snowdepth":"2.000","Units":"in","Rept_Date":"2025-03-21 13"}},{"type":"Point","coordinates":[-85.512,44.7338],"properties":{"Station_ID":"TCEM4","Station_Nam":"TRAVERSE CITY 4.7ESE","Latitude":"44.73380","Longitude":"-85.51200","Snowdepth":"2.000","Units":"in","Rept_Date":"2025-03-21 11"}},{"type":"Point","coordinates":[-96.36,42.4053],"properties":{"Station_ID":"SUXI4","Station_Nam":"SNOW PAID FOR KSUX","Latitude":"42.40530","Longitude":"-96.36000","Snowdepth":"2.000","Units":"in","Rept_Date":"2025-03-21 11"}},{"type":"Point","coordinates":[-89.6222,44.9463],"properties":{"Station_ID":"SAUW3","Station_Nam":"WAUSAU WSAW TV","Latitude":"44.94630","Longitude":"-89.62220","Snowdepth":"2.000","Units":"in","Rept_Date":"2025-03-22 04"}},{"type":"Point","coordinates":[-92.9232,43.3817],"properties":{"Station_ID":"SANI4","Station_Nam":"ST ANSGAR","Latitude":"43.38170","Longitude":"-92.92320","Snowdepth":"2.000","Units":"in","Rept_Date":"2025-03-21 11"}},{"type":"Point","coordinates":[-92.4758,43.9281],"properties":{"Station_ID":"RSRM5","Station_Nam":"ROCHESTER AP 2NE","Latitude":"43.92810","Longitude":"-92.47580","Snowdepth":"2.000","Units":"in","Rept_Date":"2025-03-21 12"}},{"type":"Point","coordinates":[-89.6617,45.1786],"properties":{"Station_ID":"RRLW3","Station_Nam":"MERRILL,WI","Latitude":"45.17860","Longitude":"-89.66170","Snowdepth":"2.000","Units":"in","Rept_Date":"2025-03-21 13"}},{"type":"Point","coordinates":[-82.0952,36.1638],"properties":{"Station_ID":"RNMT1","Station_Nam":"ROAN MOUNTAIN STATE PARK","Latitude":"36.16380","Longitude":"-82.09520","Snowdepth":"2.000","Units":"in","Rept_Date":"2025-03-21 12"}},{"type":"Point","coordinates":[-84.9511,45.3612],"properties":{"Station_ID":"PTYM4","Station_Nam":"PETOSKEY NCMC","Latitude":"45.36120","Longitude":"-84.95110","Snowdepth":"2.000","Units":"in","Rept_Date":"2025-03-21 12"}},{"type":"Point","coordinates":[-86.4011,45.7961],"properties":{"Station_ID":"PARM4","Station_Nam":"PARENT BAY","Latitude":"45.79610","Longitude":"-86.40110","Snowdepth":"2.000","Units":"in","Rept_Date":"2025-03-21 17"}},{"type":"Point","coordinates":[-88.5556,44.0333],"properties":{"Station_ID":"OKHW3","Station_Nam":"OSHKOSH,WI","Latitude":"44.03330","Longitude":"-88.55560","Snowdepth":"2.000","Units":"in","Rept_Date":"2025-03-21 12"}},{"type":"Point","coordinates":[-73.8786,43.12684],"properties":{"Station_ID":"NY-SR-22","Station_Nam":"GREENFIELD CENTER 1.6 W, NY","Latitude":"43.12684","Longitude":"-73.87860","Snowdepth":"2.000","Units":"in","Rept_Date":"2025-03-21 12"}},{"type":"Point","coordinates":[-74.222,43.9707],"properties":{"Station_ID":"NCBN6","Station_Nam":"NEWCOMB","Latitude":"43.97070","Longitude":"-74.22200","Snowdepth":"2.000","Units":"in","Rept_Date":"2025-03-21 11"}},{"type":"Point","coordinates":[-83.4411,35.655],"properties":{"Station_ID":"MTLT1","Station_Nam":"GATLINBURG,TN","Latitude":"35.65500","Longitude":"-83.44110","Snowdepth":"2.000","Units":"in","Rept_Date":"2025-03-21 11"}},{"type":"Point","coordinates":[-88.4939,45.1722],"properties":{"Station_ID":"MOUW3","Station_Nam":"MOUNTAIN 1 SW","Latitude":"45.17220","Longitude":"-88.49390","Snowdepth":"2.000","Units":"in","Rept_Date":"2025-03-22 01"}},{"type":"Point","coordinates":[-91.955,47.875],"properties":{"Station_ID":"MN-SL-323","Station_Nam":"ELY 5.2 WSW, MN","Latitude":"47.87500","Longitude":"-91.95500","Snowdepth":"2.000","Units":"in","Rept_Date":"2025-03-21 12"}},{"type":"Point","coordinates":[-90.4376,47.74865],"properties":{"Station_ID":"MN-CK-6","Station_Nam":"GRAND MARAIS 4.4 W, MN","Latitude":"47.74865","Longitude":"-90.43760","Snowdepth":"2.000","Units":"in","Rept_Date":"2025-03-21 12"}},{"type":"Point","coordinates":[-87.21344,46.33748],"properties":{"Station_ID":"MI-MQ-34","Station_Nam":"SKANDIA 3.0 SSE, MI","Latitude":"46.33748","Longitude":"-87.21344","Snowdepth":"2.000","Units":"in","Rept_Date":"2025-03-21 11"}},{"type":"Point","coordinates":[-85.1475,45.18639],"properties":{"Station_ID":"MI-CX-7","Station_Nam":"EAST JORDAN 2.1 NNW, MI","Latitude":"45.18639","Longitude":"-85.14750","Snowdepth":"2.000","Units":"in","Rept_Date":"2025-03-21 20"}},{"type":"Point","coordinates":[-87.6117,45.111],"properties":{"Station_ID":"MENM4","Station_Nam":"MENOMINEE NO.2","Latitude":"45.11100","Longitude":"-87.61170","Snowdepth":"2.000","Units":"in","Rept_Date":"2025-03-21 13"}},{"type":"Point","coordinates":[-68.1439,47.0108],"properties":{"Station_ID":"ME-AR-18","Station_Nam":"NEW SWEDEN 4.9 NNW, ME","Latitude":"47.01080","Longitude":"-68.14390","Snowdepth":"2.000","Units":"in","Rept_Date":"2025-03-21 11"}},{"type":"Point","coordinates":[-93.1925,43.15],"properties":{"Station_ID":"MCWI4","Station_Nam":"WINNEBAGO RIVER","Latitude":"43.15000","Longitude":"-93.19250","Snowdepth":"2.000","Units":"in","Rept_Date":"2025-03-21 12"}},{"type":"Point","coordinates":[-91.2725,43.8669],"properties":{"Station_ID":"LCFW3","Station_Nam":"LA CROSSE 4NNW","Latitude":"43.86690","Longitude":"-91.27250","Snowdepth":"2.000","Units":"in","Rept_Date":"2025-03-21 12"}},{"type":"Point","coordinates":[-88.0403,45.8758],"properties":{"Station_ID":"IMNM4","Station_Nam":"IRON MOUTAIN 5N","Latitude":"45.87580","Longitude":"-88.04030","Snowdepth":"2.000","Units":"in","Rept_Date":"2025-03-21 12"}},{"type":"Point","coordinates":[-93.2,42.75],"properties":{"Station_ID":"HPTI4","Station_Nam":"HAMPTON,IA","Latitude":"42.75000","Longitude":"-93.20000","Snowdepth":"2.000","Units":"in","Rept_Date":"2025-03-21 12"}},{"type":"Point","coordinates":[-90.3792,43.6341],"properties":{"Station_ID":"HLBW3","Station_Nam":"HILLSBORO 2SW","Latitude":"43.63410","Longitude":"-90.37920","Snowdepth":"2.000","Units":"in","Rept_Date":"2025-03-21 12"}},{"type":"Point","coordinates":[-89.8308,43.975],"properties":{"Station_ID":"FRSW3","Station_Nam":"FRIENDSHIP","Latitude":"43.97500","Longitude":"-89.83080","Snowdepth":"2.000","Units":"in","Rept_Date":"2025-03-21 12"}},{"type":"Point","coordinates":[-86.21,44.648],"properties":{"Station_ID":"FRKM4","Station_Nam":"FRANKFORT 2NE","Latitude":"44.64800","Longitude":"-86.21000","Snowdepth":"2.000","Units":"in","Rept_Date":"2025-03-21 22"}},{"type":"Point","coordinates":[-87.3969,44.6978],"properties":{"Station_ID":"FORW3","Station_Nam":"FORESTVILLE-4E","Latitude":"44.69780","Longitude":"-87.39690","Snowdepth":"2.000","Units":"in","Rept_Date":"2025-03-21 12"}},{"type":"Point","coordinates":[-70.1564,44.6893],"properties":{"Station_ID":"FARM1","Station_Nam":"FARMINGTON","Latitude":"44.68930","Longitude":"-70.15640","Snowdepth":"2.000","Units":"in","Rept_Date":"2025-03-21 11"}},{"type":"Point","coordinates":[-88.9147,41.5513],"properties":{"Station_ID":"ERVI2","Station_Nam":"EARLVILLE 3S","Latitude":"41.55130","Longitude":"-88.91470","Snowdepth":"2.000","Units":"in","Rept_Date":"2025-03-21 11"}},{"type":"Point","coordinates":[-85.1477,45.1863],"properties":{"Station_ID":"EJNM4","Station_Nam":"EAST JORDAN 2NW","Latitude":"45.18630","Longitude":"-85.14770","Snowdepth":"2.000","Units":"in","Rept_Date":"2025-03-21 20"}},{"type":"Point","coordinates":[-83.9013,45.9983],"properties":{"Station_ID":"DTVM4","Station_Nam":"DETOUR VILLAGE","Latitude":"45.99830","Longitude":"-83.90130","Snowdepth":"2.000","Units":"in","Rept_Date":"2025-03-21 12"}},{"type":"Point","coordinates":[-95.9927,41.2658],"properties":{"Station_ID":"DOUG006","Station_Nam":"OMAHA 2.9 W, NE","Latitude":"41.26580","Longitude":"-95.99270","Snowdepth":"2.000","Units":"in","Rept_Date":"2025-03-21 12"}},{"type":"Point","coordinates":[-87.8119,44.3513],"properties":{"Station_ID":"DENW3","Station_Nam":"DENMARK WWTP","Latitude":"44.35130","Longitude":"-87.81190","Snowdepth":"2.000","Units":"in","Rept_Date":"2025-03-21 13"}},{"type":"Point","coordinates":[-95.5378,42.7572],"properties":{"Station_ID":"CKPI4","Station_Nam":"CHEROKEE,IA","Latitude":"42.75720","Longitude":"-95.53780","Snowdepth":"2.000","Units":"in","Rept_Date":"2025-03-21 13"}},{"type":"Point","coordinates":[-67.32532,46.98305],"properties":{"Station_ID":"CAN-NB-105","Station_Nam":"SISSON BROOK 3.8 E, CAN","Latitude":"46.98305","Longitude":"-67.32532","Snowdepth":"2.000","Units":"in","Rept_Date":"2025-03-21 11"}},{"type":"Point","coordinates":[-94.0947,43.6237],"properties":{"Station_ID":"BTHM5","Station_Nam":"BLUE EARTH 1S","Latitude":"43.62370","Longitude":"-94.09470","Snowdepth":"2.000","Units":"in","Rept_Date":"2025-03-21 13"}},{"type":"Point","coordinates":[-91.8624,47.2472],"properties":{"Station_ID":"BRMM5","Station_Nam":"BRIMSON 2S","Latitude":"47.24720","Longitude":"-91.86240","Snowdepth":"2.000","Units":"in","Rept_Date":"2025-03-21 12"}},{"type":"Point","coordinates":[-79.4319,39.0983],"properties":{"Station_ID":"BKBW2","Station_Nam":"DAVIS.","Latitude":"39.09830","Longitude":"-79.43190","Snowdepth":"2.000","Units":"in","Rept_Date":"2025-03-21 11"}},{"type":"Point","coordinates":[-88.4377,44.2769],"properties":{"Station_ID":"APPW3","Station_Nam":"APPLETON","Latitude":"44.27690","Longitude":"-88.43770","Snowdepth":"2.000","Units":"in","Rept_Date":"2025-03-21 10"}},{"type":"Point","coordinates":[-89.3464,44.3083],"properties":{"Station_ID":"AMDW3","Station_Nam":"ALMOND-5 NE","Latitude":"44.30830","Longitude":"-89.34640","Snowdepth":"2.000","Units":"in","Rept_Date":"2025-03-21 13"}},{"type":"Point","coordinates":[-93.3019,43.6064],"properties":{"Station_ID":"ALBM5","Station_Nam":"ALBERT LEA 3 SE","Latitude":"43.60640","Longitude":"-93.30190","Snowdepth":"2.000","Units":"in","Rept_Date":"2025-03-21 13"}},{"type":"Point","coordinates":[-75.6147,48.8722],"properties":{"Station_ID":"CQYR","Station_Nam":"CQYR","Latitude":"48.87220","Longitude":"-75.61470","Snowdepth":"1.890","Units":"in","Rept_Date":"2025-03-21 12"}},{"type":"Point","coordinates":[-75.6992,38.17779],"properties":{"Station_ID":"011MD_MADIS","Station_Nam":"PRINCESS ANNE 2 S","Latitude":"38.17779","Longitude":"-75.69920","Snowdepth":"1.690","Units":"in","Rept_Date":"2025-03-22 06"}},{"type":"Point","coordinates":[-87.98594,43.74648],"properties":{"Station_ID":"WI-SB-45","Station_Nam":"PLYMOUTH 0.7 W, WI","Latitude":"43.74648","Longitude":"-87.98594","Snowdepth":"1.500","Units":"in","Rept_Date":"2025-03-21 13"}},{"type":"Point","coordinates":[-88.47802,44.88591],"properties":{"Station_ID":"WI-OC-23","Station_Nam":"GILLETT 8.4 W, WI","Latitude":"44.88591","Longitude":"-88.47802","Snowdepth":"1.500","Units":"in","Rept_Date":"2025-03-21 13"}},{"type":"Point","coordinates":[-87.94202,44.03991],"properties":{"Station_ID":"WI-MC-15","Station_Nam":"VALDERS 3.3 WSW, WI","Latitude":"44.03991","Longitude":"-87.94202","Snowdepth":"1.500","Units":"in","Rept_Date":"2025-03-21 12"}},{"type":"Point","coordinates":[-91.22913,43.88511],"properties":{"Station_ID":"WI-LC-38","Station_Nam":"ONALASKA 0.5 WSW, WI","Latitude":"43.88511","Longitude":"-91.22913","Snowdepth":"1.500","Units":"in","Rept_Date":"2025-03-21 12"}},{"type":"Point","coordinates":[-72.9657,44.32488],"properties":{"Station_ID":"VT-CH-7","Station_Nam":"HUNTINGTON 1.1 E, VT","Latitude":"44.32488","Longitude":"-72.96570","Snowdepth":"1.500","Units":"in","Rept_Date":"2025-03-21 11"}},{"type":"Point","coordinates":[-72.964,44.36084],"properties":{"Station_ID":"VT-CH-13","Station_Nam":"RICHMOND 3.4 SSE, VT","Latitude":"44.36084","Longitude":"-72.96400","Snowdepth":"1.500","Units":"in","Rept_Date":"2025-03-21 11"}},{"type":"Point","coordinates":[-73.5698,42.6391],"properties":{"Station_ID":"NY-RN-1","Station_Nam":"AVERILL PARK 0.9 WNW, NY","Latitude":"42.63910","Longitude":"-73.56980","Snowdepth":"1.500","Units":"in","Rept_Date":"2025-03-21 12"}},{"type":"Point","coordinates":[-81.7877,36.14607],"properties":{"Station_ID":"NC-WT-11","Station_Nam":"FOSCOE 1.2 WSW, NC","Latitude":"36.14607","Longitude":"-81.78770","Snowdepth":"1.500","Units":"in","Rept_Date":"2025-03-21 11"}},{"type":"Point","coordinates":[-63.50039,46.25244],"properties":{"Station_ID":"CAN-PE-79","Station_Nam":"CRAPAUD 1.3 N, CAN","Latitude":"46.25244","Longitude":"-63.50039","Snowdepth":"1.400","Units":"in","Rept_Date":"2025-03-21 10"}},{"type":"Point","coordinates":[-72.61218,45.13119],"properties":{"Station_ID":"CAN-QC-56","Station_Nam":"SUTTON 2.6 N, CAN","Latitude":"45.13119","Longitude":"-72.61218","Snowdepth":"1.200","Units":"in","Rept_Date":"2025-03-21 11"}},{"type":"Point","coordinates":[-76.6234,39.39474],"properties":{"Station_ID":"013MD_MADIS","Station_Nam":"TOWSON 1 WSW","Latitude":"39.39474","Longitude":"-76.62340","Snowdepth":"1.060","Units":"in","Rept_Date":"2025-03-22 06"}},{"type":"Point","coordinates":[-80.6452,38.33698],"properties":{"Station_ID":"WV-NC-4","Station_Nam":"CRAIGSVILLE 0.6 NE, WV","Latitude":"38.33698","Longitude":"-80.64520","Snowdepth":"1.000","Units":"in","Rept_Date":"2025-03-21 11"}},{"type":"Point","coordinates":[-72.5822,44.3747],"properties":{"Station_ID":"WORV1","Station_Nam":"WORCESTER 2 W","Latitude":"44.37470","Longitude":"-72.58220","Snowdepth":"1.000","Units":"in","Rept_Date":"2025-03-21 11"}},{"type":"Point","coordinates":[-91.1973,47.3824],"properties":{"Station_ID":"WLFM5","Station_Nam":"WOLF RIDGE ENVIRON LEARNING CENTER","Latitude":"47.38240","Longitude":"-91.19730","Snowdepth":"1.000","Units":"in","Rept_Date":"2025-03-21 12"}},{"type":"Point","coordinates":[-89.4579,46.19023],"properties":{"Station_ID":"WI-VL-9","Station_Nam":"LAND O' LAKES 11.7 W, WI","Latitude":"46.19023","Longitude":"-89.45790","Snowdepth":"1.000","Units":"in","Rept_Date":"2025-03-21 12"}},{"type":"Point","coordinates":[-87.80851,43.72198],"properties":{"Station_ID":"WI-SB-41","Station_Nam":"SHEBOYGAN FALLS 0.9 SE, WI","Latitude":"43.72198","Longitude":"-87.80851","Snowdepth":"1.000","Units":"in","Rept_Date":"2025-03-21 12"}},{"type":"Point","coordinates":[-89.52332,43.97269],"properties":{"Station_ID":"WI-MQ-7","Station_Nam":"WESTFIELD 6.3 NNW, WI","Latitude":"43.97269","Longitude":"-89.52332","Snowdepth":"1.000","Units":"in","Rept_Date":"2025-03-21 13"}},{"type":"Point","coordinates":[-87.9735,44.46772],"properties":{"Station_ID":"WI-BN-14","Station_Nam":"GREEN BAY 3.8 SSE, WI","Latitude":"44.46772","Longitude":"-87.97350","Snowdepth":"1.000","Units":"in","Rept_Date":"2025-03-21 12"}},{"type":"Point","coordinates":[-73.8589,44.3931],"properties":{"Station_ID":"WHFN6","Station_Nam":"WILMINGTON 2W","Latitude":"44.39310","Longitude":"-73.85890","Snowdepth":"1.000","Units":"in","Rept_Date":"2025-03-21 12"}},{"type":"Point","coordinates":[-91.4532,43.3155],"properties":{"Station_ID":"WAUI4","Station_Nam":"WAUKON","Latitude":"43.31550","Longitude":"-91.45320","Snowdepth":"1.000","Units":"in","Rept_Date":"2025-03-21 13"}},{"type":"Point","coordinates":[-72.8077,44.3606],"properties":{"Station_ID":"VT-WS-19","Station_Nam":"WATERBURY 3.0 NW, VT","Latitude":"44.36060","Longitude":"-72.80770","Snowdepth":"1.000","Units":"in","Rept_Date":"2025-03-21 10"}},{"type":"Point","coordinates":[-72.7483,43.9357],"properties":{"Station_ID":"VT-OG-10","Station_Nam":"BRAINTREE 2.8 SW, VT","Latitude":"43.93570","Longitude":"-72.74830","Snowdepth":"1.000","Units":"in","Rept_Date":"2025-03-21 09"}},{"type":"Point","coordinates":[-72.7969,44.9447],"properties":{"Station_ID":"VT-FR-26","Station_Nam":"ENOSBURG FALLS 2.5 N, VT","Latitude":"44.94470","Longitude":"-72.79690","Snowdepth":"1.000","Units":"in","Rept_Date":"2025-03-21 11"}},{"type":"Point","coordinates":[-73.19114,44.4221],"properties":{"Station_ID":"VT-CH-47","Station_Nam":"SOUTH BURLINGTON 2.6 SSW, VT","Latitude":"44.42210","Longitude":"-73.19114","Snowdepth":"1.000","Units":"in","Rept_Date":"2025-03-21 11"}},{"type":"Point","coordinates":[-88.3495,43.8378],"properties":{"Station_ID":"TAHW3","Station_Nam":"TAYCHEEDAH","Latitude":"43.83780","Longitude":"-88.34950","Snowdepth":"1.000","Units":"in","Rept_Date":"2025-03-21 12"}},{"type":"Point","coordinates":[-95.9753,42.8105],"properties":{"Station_ID":"RMSI4","Station_Nam":"REMSEN NO. 2","Latitude":"42.81050","Longitude":"-95.97530","Snowdepth":"1.000","Units":"in","Rept_Date":"2025-03-21 12"}},{"type":"Point","coordinates":[-97.2386,48.9742],"properties":{"Station_ID":"PBAN8","Station_Nam":"SITE 1-3MI.N","Latitude":"48.97420","Longitude":"-97.23860","Snowdepth":"1.000","Units":"in","Rept_Date":"2025-03-21 11"}},{"type":"Point","coordinates":[-90.5301,43.7194],"properties":{"Station_ID":"OTRW3","Station_Nam":"ONTARIO 3E","Latitude":"43.71940","Longitude":"-90.53010","Snowdepth":"1.000","Units":"in","Rept_Date":"2025-03-21 12"}},{"type":"Point","coordinates":[-87.7996,43.6309],"properties":{"Station_ID":"OOTW3","Station_Nam":"OOSTBURG WWTP","Latitude":"43.63090","Longitude":"-87.79960","Snowdepth":"1.000","Units":"in","Rept_Date":"2025-03-21 12"}},{"type":"Point","coordinates":[-95.3799,46.5092],"properties":{"Station_ID":"NYMM5","Station_Nam":"NEW YORK MILLS","Latitude":"46.50920","Longitude":"-95.37990","Snowdepth":"1.000","Units":"in","Rept_Date":"2025-03-21 12"}},{"type":"Point","coordinates":[-74.15211,44.41359],"properties":{"Station_ID":"NY-FK-7","Station_Nam":"SARANAC LAKE 6.2 N, NY","Latitude":"44.41359","Longitude":"-74.15211","Snowdepth":"1.000","Units":"in","Rept_Date":"2025-03-21 10"}},{"type":"Point","coordinates":[-73.73848,44.6398],"properties":{"Station_ID":"NY-CL-12","Station_Nam":"SARANAC 0.8 SSE, NY","Latitude":"44.63980","Longitude":"-73.73848","Snowdepth":"1.000","Units":"in","Rept_Date":"2025-03-21 11"}},{"type":"Point","coordinates":[-72.9264,44.4497],"properties":{"Station_ID":"NVLV1","Station_Nam":"NASHVILLE","Latitude":"44.44970","Longitude":"-72.92640","Snowdepth":"1.000","Units":"in","Rept_Date":"2025-03-21 11"}},{"type":"Point","coordinates":[-82.3214,37.0156],"properties":{"Station_ID":"NORV2","Station_Nam":"NORA 4 SSE","Latitude":"37.01560","Longitude":"-82.32140","Snowdepth":"1.000","Units":"in","Rept_Date":"2025-03-21 11"}},{"type":"Point","coordinates":[-88.7522,44.3906],"properties":{"Station_ID":"NLDW3","Station_Nam":"NEW LONDON-WWTP","Latitude":"44.39060","Longitude":"-88.75220","Snowdepth":"1.000","Units":"in","Rept_Date":"2025-03-21 12"}},{"type":"Point","coordinates":[-71.1401,44.03556],"properties":{"Station_ID":"NH-CR-11","Station_Nam":"NORTH CONWAY 1.4 SSW, NH","Latitude":"44.03556","Longitude":"-71.14010","Snowdepth":"1.000","Units":"in","Rept_Date":"2025-03-21 11"}},{"type":"Point","coordinates":[-96.21984,41.17831],"properties":{"Station_ID":"NE-SY-25","Station_Nam":"GRETNA 2.9 NNE, NE","Latitude":"41.17831","Longitude":"-96.21984","Snowdepth":"1.000","Units":"in","Rept_Date":"2025-03-21 13"}},{"type":"Point","coordinates":[-81.9133,36.2525],"properties":{"Station_ID":"NC-AV-1","Station_Nam":"FLAT SPRINGS 1.2 E, NC","Latitude":"36.25250","Longitude":"-81.91330","Snowdepth":"1.000","Units":"in","Rept_Date":"2025-03-21 11"}},{"type":"Point","coordinates":[-95.0522,46.9286],"properties":{"Station_ID":"MN-HB-40","Station_Nam":"PARK RAPIDS 1.0 NNE, MN","Latitude":"46.92860","Longitude":"-95.05220","Snowdepth":"1.000","Units":"in","Rept_Date":"2025-03-21 12"}},{"type":"Point","coordinates":[-90.761,47.62394],"properties":{"Station_ID":"MN-CK-3","Station_Nam":"TOFTE 4.9 NE, MN","Latitude":"47.62394","Longitude":"-90.76100","Snowdepth":"1.000","Units":"in","Rept_Date":"2025-03-21 12"}},{"type":"Point","coordinates":[-89.28143,46.85396],"properties":{"Station_ID":"MI-ON-4","Station_Nam":"ONTONAGON 1.8 ESE, MI","Latitude":"46.85396","Longitude":"-89.28143","Snowdepth":"1.000","Units":"in","Rept_Date":"2025-03-21 12"}},{"type":"Point","coordinates":[-84.97319,43.37974],"properties":{"Station_ID":"MI-MT-8","Station_Nam":"EDMORE 3.8 ESE, MI","Latitude":"43.37974","Longitude":"-84.97319","Snowdepth":"1.000","Units":"in","Rept_Date":"2025-03-21 13"}},{"type":"Point","coordinates":[-87.7567,46.4055],"properties":{"Station_ID":"MI-MQ-19","Station_Nam":"ISHPEMING 7.2 SW, MI","Latitude":"46.40550","Longitude":"-87.75670","Snowdepth":"1.000","Units":"in","Rept_Date":"2025-03-21 10"}},{"type":"Point","coordinates":[-85.70346,44.64622],"properties":{"Station_ID":"MI-GT-28","Station_Nam":"GRAWN 1.3 SSW, MI","Latitude":"44.64622","Longitude":"-85.70346","Snowdepth":"1.000","Units":"in","Rept_Date":"2025-03-21 11"}},{"type":"Point","coordinates":[-85.48426,44.59871],"properties":{"Station_ID":"MI-GT-21","Station_Nam":"KINGSLEY 2.7 ENE, MI","Latitude":"44.59871","Longitude":"-85.48426","Snowdepth":"1.000","Units":"in","Rept_Date":"2025-03-21 12"}},{"type":"Point","coordinates":[-80.6989,38.0585],"properties":{"Station_ID":"MCRW2","Station_Nam":"QUINWOOD","Latitude":"38.05850","Longitude":"-80.69890","Snowdepth":"1.000","Units":"in","Rept_Date":"2025-03-21 12"}},{"type":"Point","coordinates":[-90.0597,43.7899],"properties":{"Station_ID":"MAUW3","Station_Nam":"MAUSTON 1SE","Latitude":"43.78990","Longitude":"-90.05970","Snowdepth":"1.000","Units":"in","Rept_Date":"2025-03-21 11"}},{"type":"Point","coordinates":[-85.8352,44.855],"properties":{"Station_ID":"MAPM4","Station_Nam":"MAPLE CITY 1E","Latitude":"44.85500","Longitude":"-85.83520","Snowdepth":"1.000","Units":"in","Rept_Date":"2025-03-21 22"}},{"type":"Point","coordinates":[-95.806,41.65],"properties":{"Station_ID":"LOGI4","Station_Nam":"LOGAN 1 WNW","Latitude":"41.65000","Longitude":"-95.80600","Snowdepth":"1.000","Units":"in","Rept_Date":"2025-03-21 12"}},{"type":"Point","coordinates":[-89.457,46.19],"properties":{"Station_ID":"LNOW3","Station_Nam":"LAND O LAKES","Latitude":"46.19000","Longitude":"-89.45700","Snowdepth":"1.000","Units":"in","Rept_Date":"2025-03-21 12"}},{"type":"Point","coordinates":[-85.56666,44.73333],"properties":{"Station_ID":"KTVC","Station_Nam":"CHERRY CAPITAL AIRPORT","Latitude":"44.73333","Longitude":"-85.56666","Snowdepth":"1.000","Units":"in","Rept_Date":"2025-03-21 12"}},{"type":"Point","coordinates":[-73.15,44.46666],"properties":{"Station_ID":"KBTV","Station_Nam":"BURLINGTON INTERNATIONAL","Latitude":"44.46666","Longitude":"-73.15000","Snowdepth":"1.000","Units":"in","Rept_Date":"2025-03-21 12"}},{"type":"Point","coordinates":[-72.6786,44.658],"properties":{"Station_ID":"JOHV1","Station_Nam":"JOHNSON 2 N","Latitude":"44.65800","Longitude":"-72.67860","Snowdepth":"1.000","Units":"in","Rept_Date":"2025-03-21 11"}},{"type":"Point","coordinates":[-91.6443,43.34391],"properties":{"Station_ID":"IA-WH-1","Station_Nam":"DECORAH 7.9 ENE, IA","Latitude":"43.34391","Longitude":"-91.64430","Snowdepth":"1.000","Units":"in","Rept_Date":"2025-03-21 13"}},{"type":"Point","coordinates":[-95.2531,41.7181],"properties":{"Station_ID":"IA-SH-6","Station_Nam":"KIRKMAN 1.0 SE, IA","Latitude":"41.71810","Longitude":"-95.25310","Snowdepth":"1.000","Units":"in","Rept_Date":"2025-03-21 12"}},{"type":"Point","coordinates":[-95.80577,41.65],"properties":{"Station_ID":"IA-HR-16","Station_Nam":"LOGAN 0.8 WNW, IA","Latitude":"41.65000","Longitude":"-95.80577","Snowdepth":"1.000","Units":"in","Rept_Date":"2025-03-21 12"}},{"type":"Point","coordinates":[-80.3821,38.6195],"properties":{"Station_ID":"HVAW2","Station_Nam":"HACKER VALLEY","Latitude":"38.61950","Longitude":"-80.38210","Snowdepth":"1.000","Units":"in","Rept_Date":"2025-03-21 11"}},{"type":"Point","coordinates":[-83.2958,44.6497],"properties":{"Station_ID":"HRSM4","Station_Nam":"HARRISVILLE STATE PARK","Latitude":"44.64970","Longitude":"-83.29580","Snowdepth":"1.000","Units":"in","Rept_Date":"2025-03-21 12"}},{"type":"Point","coordinates":[-96.058,42.2839],"properties":{"Station_ID":"HLYI4","Station_Nam":"HORNICK 4 NNE","Latitude":"42.28390","Longitude":"-96.05800","Snowdepth":"1.000","Units":"in","Rept_Date":"2025-03-21 12"}},{"type":"Point","coordinates":[-96.2474,41.1271],"properties":{"Station_ID":"GRAN1","Station_Nam":"GRETNA","Latitude":"41.12710","Longitude":"-96.24740","Snowdepth":"1.000","Units":"in","Rept_Date":"2025-03-21 13"}},{"type":"Point","coordinates":[-96.2667,47.7167],"properties":{"Station_ID":"GLRM5","Station_Nam":"GLACIAL RIDGE","Latitude":"47.71670","Longitude":"-96.26670","Snowdepth":"1.000","Units":"in","Rept_Date":"2025-03-22 06"}},{"type":"Point","coordinates":[-81.9136,36.2527],"properties":{"Station_ID":"FTSN7","Station_Nam":"FLAT SPRINGS 1E","Latitude":"36.25270","Longitude":"-81.91360","Snowdepth":"1.000","Units":"in","Rept_Date":"2025-03-21 11"}},{"type":"Point","coordinates":[-85.3653,44.5848],"properties":{"Station_ID":"FLAM4","Station_Nam":"FIFE LAKE 2WNW","Latitude":"44.58480","Longitude":"-85.36530","Snowdepth":"1.000","Units":"in","Rept_Date":"2025-03-21 11"}},{"type":"Point","coordinates":[-72.8679,42.5741],"properties":{"Station_ID":"EHYM3","Station_Nam":"EAST HAWLEY","Latitude":"42.57410","Longitude":"-72.86790","Snowdepth":"1.000","Units":"in","Rept_Date":"2025-03-21 12"}},{"type":"Point","coordinates":[-89.7634,43.6072],"properties":{"Station_ID":"DLLW3","Station_Nam":"WISCONSIN DELLS WWTP","Latitude":"43.60720","Longitude":"-89.76340","Snowdepth":"1.000","Units":"in","Rept_Date":"2025-03-21 12"}},{"type":"Point","coordinates":[-69.1841,45.1872],"properties":{"Station_ID":"DFXM1","Station_Nam":"DOVER-FOXCROFT","Latitude":"45.18720","Longitude":"-69.18410","Snowdepth":"1.000","Units":"in","Rept_Date":"2025-03-21 11"}},{"type":"Point","coordinates":[-72.3194,44.0069],"properties":{"Station_ID":"CORV1","Station_Nam":"CORINTH","Latitude":"44.00690","Longitude":"-72.31940","Snowdepth":"1.000","Units":"in","Rept_Date":"2025-03-21 11"}},{"type":"Point","coordinates":[-88.15,44.0333],"properties":{"Station_ID":"CHIW3","Station_Nam":"CHILTON,WI","Latitude":"44.03330","Longitude":"-88.15000","Snowdepth":"1.000","Units":"in","Rept_Date":"2025-03-21 12"}},{"type":"Point","coordinates":[-79.4403,39.0589],"properties":{"Station_ID":"CAAW2","Station_Nam":"CANAAN VALLEY","Latitude":"39.05890","Longitude":"-79.44030","Snowdepth":"1.000","Units":"in","Rept_Date":"2025-03-21 13"}},{"type":"Point","coordinates":[-81.3358,37.0925],"properties":{"Station_ID":"BURV2","Station_Nam":"BURKES GARDEN","Latitude":"37.09250","Longitude":"-81.33580","Snowdepth":"1.000","Units":"in","Rept_Date":"2025-03-21 11"}},{"type":"Point","coordinates":[-73.1533,44.4719],"properties":{"Station_ID":"BTV","Station_Nam":"BURLINGTON, VT","Latitude":"44.47190","Longitude":"-73.15330","Snowdepth":"1.000","Units":"in","Rept_Date":"2025-03-21 12"}},{"type":"Point","coordinates":[-73.4325,42.9361],"properties":{"Station_ID":"BSKN6","Station_Nam":"BUSKIRK","Latitude":"42.93610","Longitude":"-73.43250","Snowdepth":"1.000","Units":"in","Rept_Date":"2025-03-21 12"}},{"type":"Point","coordinates":[-75.3697,43.4361],"properties":{"Station_ID":"BOON6","Station_Nam":"BOONVILLE 4 SSW","Latitude":"43.43610","Longitude":"-75.36970","Snowdepth":"1.000","Units":"in","Rept_Date":"2025-03-21 11"}},{"type":"Point","coordinates":[-88.0972,44.5317],"properties":{"Station_ID":"BGGW3","Station_Nam":"GREEN BAY,WI","Latitude":"44.53170","Longitude":"-88.09720","Snowdepth":"1.000","Units":"in","Rept_Date":"2025-03-21 13"}},{"type":"Point","coordinates":[-86.1311,44.5316],"properties":{"Station_ID":"BEUM4","Station_Nam":"BEULAH 7SSW","Latitude":"44.53160","Longitude":"-86.13110","Snowdepth":"1.000","Units":"in","Rept_Date":"2025-03-21 12"}},{"type":"Point","coordinates":[-83,43.8167],"properties":{"Station_ID":"BDAM4","Station_Nam":"BAD AXE,MI","Latitude":"43.81670","Longitude":"-83.00000","Snowdepth":"1.000","Units":"in","Rept_Date":"2025-03-21 11"}},{"type":"Point","coordinates":[-81.8736,36.1878],"properties":{"Station_ID":"BCHN7","Station_Nam":"BEECH MOUNTAIN","Latitude":"36.18780","Longitude":"-81.87360","Snowdepth":"1.000","Units":"in","Rept_Date":"2025-03-21 11"}},{"type":"Point","coordinates":[-89.7269,43.4582],"properties":{"Station_ID":"BAAW3","Station_Nam":"BARABOO WWTP","Latitude":"43.45820","Longitude":"-89.72690","Snowdepth":"1.000","Units":"in","Rept_Date":"2025-03-21 12"}},{"type":"Point","coordinates":[-92.9739,43.6542],"properties":{"Station_ID":"ASTM5","Station_Nam":"AUSTIN WASTE WATER TREATMENT FACILITY","Latitude":"43.65420","Longitude":"-92.97390","Snowdepth":"1.000","Units":"in","Rept_Date":"2025-03-21 12"}},{"type":"Point","coordinates":[-88.3644,44.2511],"properties":{"Station_ID":"APLW3","Station_Nam":"APPLETON WHBY RADIO","Latitude":"44.25110","Longitude":"-88.36440","Snowdepth":"1.000","Units":"in","Rept_Date":"2025-03-21 13"}},{"type":"Point","coordinates":[-91.1356,44.6825],"properties":{"Station_ID":"AGSW3","Station_Nam":"AUGUSTA RANGER STATION","Latitude":"44.68250","Longitude":"-91.13560","Snowdepth":"1.000","Units":"in","Rept_Date":"2025-03-21 13"}},{"type":"Point","coordinates":[-96.227,41.14341],"properties":{"Station_ID":"60671_MADIS","Station_Nam":"GRETNA 0.9 ENE, NE","Latitude":"41.14341","Longitude":"-96.22700","Snowdepth":"1.000","Units":"in","Rept_Date":"2025-03-21 21"}}]}},"arcs":[],"bbox":[-97.2386,35.655,-58.6185,52.1145]}
