{"type":"Topology","objects":{"snowdepth_geo":{"type":"GeometryCollection","name":"snowdepth","crs":{"type":"name","properties":{"name":"urn:ogc:def:crs:OGC:1.3:CRS84"}},"geometries":[{"type":"Point","properties":{"Station_ID":"PRKM4","Station_Nam":"MUNISING EAST","Latitude":"46.42580","Longitude":"-86.62000","Snowdepth":"76.500","Units":"in","Rept_Date":"2021-02-10 06"},"coordinates":[2426,6855]},{"type":"Point","properties":{"Station_ID":"PDLM4","Station_Nam":"PAINESDALE","Latitude":"47.04160","Longitude":"-88.67170","Snowdepth":"47.000","Units":"in","Rept_Date":"2021-02-09 13"},"coordinates":[1957,7220]},{"type":"Point","properties":{"Station_ID":"MMNV1","Station_Nam":"MT. MANSFIELD","Latitude":"44.52480","Longitude":"-72.81540","Snowdepth":"47.000","Units":"in","Rept_Date":"2021-02-09 21"},"coordinates":[5580,5728]},{"type":"Point","properties":{"Station_ID":"HTLN3","Station_Nam":"HERMIT LAKE SNOWPLOT","Latitude":"44.26130","Longitude":"-71.28330","Snowdepth":"45.000","Units":"in","Rept_Date":"2021-02-09 10"},"coordinates":[5930,5572]},{"type":"Point","properties":{"Station_ID":"HLSN3","Station_Nam":"HERMIT LAKE SNOTEL","Latitude":"44.26130","Longitude":"-71.28320","Snowdepth":"42.320","Units":"in","Rept_Date":"2021-02-10 06"},"coordinates":[5930,5572]},{"type":"Point","properties":{"Station_ID":"CLUM4","Station_Nam":"CALUMET-TAMARACK","Latitude":"47.24550","Longitude":"-88.46790","Snowdepth":"41.000","Units":"in","Rept_Date":"2021-02-09 14"},"coordinates":[2004,7341]},{"type":"Point","properties":{"Station_ID":"HGHN6","Station_Nam":"HIGHMARKET","Latitude":"43.60510","Longitude":"-75.55430","Snowdepth":"40.000","Units":"in","Rept_Date":"2021-02-09 11"},"coordinates":[4954,5182]},{"type":"Point","properties":{"Station_ID":"RDFN6","Station_Nam":"REDFIELD 8N","Latitude":"43.64130","Longitude":"-75.88400","Snowdepth":"38.000","Units":"in","Rept_Date":"2021-02-09 12"},"coordinates":[4879,5204]},{"type":"Point","properties":{"Station_ID":"QNCM4","Station_Nam":"QUINCY HILL","Latitude":"47.13640","Longitude":"-88.57950","Snowdepth":"35.000","Units":"in","Rept_Date":"2021-02-09 12"},"coordinates":[1978,7277]},{"type":"Point","properties":{"Station_ID":"MI-HG-20","Station_Nam":"CALUMET 1.1 SSW, MI","Latitude":"47.23165","Longitude":"-88.45823","Snowdepth":"33.000","Units":"in","Rept_Date":"2021-02-09 11"},"coordinates":[2006,7333]},{"type":"Point","properties":{"Station_ID":"KSGM4","Station_Nam":"KEARSARGE","Latitude":"47.27520","Longitude":"-88.41700","Snowdepth":"33.000","Units":"in","Rept_Date":"2021-02-09 13"},"coordinates":[2015,7359]},{"type":"Point","properties":{"Station_ID":"PTLQ6","Station_Nam":"PORTAGE LAKE","Latitude":"49.06950","Longitude":"-86.65940","Snowdepth":"32.130","Units":"in","Rept_Date":"2021-02-10 06"},"coordinates":[2417,8423]},{"type":"Point","properties":{"Station_ID":"GNLM4","Station_Nam":"GREENLAND 6N","Latitude":"46.87360","Longitude":"-89.10060","Snowdepth":"31.000","Units":"in","Rept_Date":"2021-02-09 13"},"coordinates":[1859,7121]},{"type":"Point","properties":{"Station_ID":"VT-BN-12","Station_Nam":"STAMFORD 5.0 NNE, VT","Latitude":"42.82000","Longitude":"-73.02000","Snowdepth":"30.000","Units":"in","Rept_Date":"2021-02-09 22"},"coordinates":[5533,4717]},{"type":"Point","properties":{"Station_ID":"NH-CS-10","Station_Nam":"RANDOLPH 1.4 NE, NH","Latitude":"44.38824","Longitude":"-71.26950","Snowdepth":"29.500","Units":"in","Rept_Date":"2021-02-09 12"},"coordinates":[5933,5647]},{"type":"Point","properties":{"Station_ID":"LBKV1","Station_Nam":"LYE BROOK","Latitude":"43.05000","Longitude":"-73.03330","Snowdepth":"28.000","Units":"in","Rept_Date":"2021-02-10 06"},"coordinates":[5530,4853]},{"type":"Point","properties":{"Station_ID":"BOON6","Station_Nam":"BOONVILLE 4 SSW","Latitude":"43.43610","Longitude":"-75.36970","Snowdepth":"28.000","Units":"in","Rept_Date":"2021-02-09 12"},"coordinates":[4996,5082]},{"type":"Point","properties":{"Station_ID":"DVLQ6","Station_Nam":"DEVIOUS LAKE","Latitude":"49.19890","Longitude":"-87.76440","Snowdepth":"27.950","Units":"in","Rept_Date":"2021-02-10 06"},"coordinates":[2165,8500]},{"type":"Point","properties":{"Station_ID":"IL-CK-288","Station_Nam":"ROSELLE 0.8 N, IL","Latitude":"41.99255","Longitude":"-88.08422","Snowdepth":"27.200","Units":"in","Rept_Date":"2021-02-09 13"},"coordinates":[2091,4226]},{"type":"Point","properties":{"Station_ID":"TRIQ6","Station_Nam":"TRIO LAKE","Latitude":"49.22880","Longitude":"-87.22920","Snowdepth":"27.170","Units":"in","Rept_Date":"2021-02-10 06"},"coordinates":[2287,8518]},{"type":"Point","properties":{"Station_ID":"PERV1","Station_Nam":"PERU","Latitude":"43.26670","Longitude":"-72.90000","Snowdepth":"27.000","Units":"in","Rept_Date":"2021-02-09 12"},"coordinates":[5560,4982]},{"type":"Point","properties":{"Station_ID":"NY-HR-18","Station_Nam":"SALISBURY CENTER 1.8 NW, NY","Latitude":"43.16260","Longitude":"-74.80880","Snowdepth":"26.000","Units":"in","Rept_Date":"2021-02-09 10"},"coordinates":[5124,4920]},{"type":"Point","properties":{"Station_ID":"MI-KW-2","Station_Nam":"DELAWARE 5.2 SW, MI","Latitude":"47.36928","Longitude":"-88.17919","Snowdepth":"26.000","Units":"in","Rept_Date":"2021-02-09 09"},"coordinates":[2070,7415]},{"type":"Point","properties":{"Station_ID":"BERM4","Station_Nam":"BERGLAND DAM","Latitude":"46.58690","Longitude":"-89.54750","Snowdepth":"26.000","Units":"in","Rept_Date":"2021-02-09 13"},"coordinates":[1757,6951]},{"type":"Point","properties":{"Station_ID":"AUDQ6","Station_Nam":"AUDEN","Latitude":"48.52600","Longitude":"-82.57570","Snowdepth":"25.040","Units":"in","Rept_Date":"2021-02-10 06"},"coordinates":[3350,8101]},{"type":"Point","properties":{"Station_ID":"WHFN6","Station_Nam":"WILMINGTON 2W","Latitude":"44.39310","Longitude":"-73.85890","Snowdepth":"25.000","Units":"in","Rept_Date":"2021-02-09 13"},"coordinates":[5341,5650]},{"type":"Point","properties":{"Station_ID":"VT-BN-3","Station_Nam":"LANDGROVE 1.1 NNE, VT","Latitude":"43.29092","Longitude":"-72.83260","Snowdepth":"25.000","Units":"in","Rept_Date":"2021-02-09 13"},"coordinates":[5576,4996]},{"type":"Point","properties":{"Station_ID":"ROWM3","Station_Nam":"ROWE 3NE","Latitude":"42.73500","Longitude":"-72.86920","Snowdepth":"25.000","Units":"in","Rept_Date":"2021-02-09 12"},"coordinates":[5568,4666]},{"type":"Point","properties":{"Station_ID":"ME-FR-2","Station_Nam":"TEMPLE 1.8 W, ME","Latitude":"44.68329","Longitude":"-70.26420","Snowdepth":"25.000","Units":"in","Rept_Date":"2021-02-09 12"},"coordinates":[6163,5822]},{"type":"Point","properties":{"Station_ID":"JEFV1","Station_Nam":"JEFFERSONVILLE","Latitude":"44.58430","Longitude":"-72.78700","Snowdepth":"25.000","Units":"in","Rept_Date":"2021-02-09 12"},"coordinates":[5586,5763]},{"type":"Point","properties":{"Station_ID":"EHYM3","Station_Nam":"EAST HAWLEY","Latitude":"42.57410","Longitude":"-72.86790","Snowdepth":"25.000","Units":"in","Rept_Date":"2021-02-09 13"},"coordinates":[5568,4571]},{"type":"Point","properties":{"Station_ID":"DGVW3","Station_Nam":"DODGEVILLE","Latitude":"42.96670","Longitude":"-90.11670","Snowdepth":"25.000","Units":"in","Rept_Date":"2021-02-09 13"},"coordinates":[1627,4804]},{"type":"Point","properties":{"Station_ID":"BRAM1","Station_Nam":"BRASSUA DAM","Latitude":"45.66020","Longitude":"-69.81190","Snowdepth":"25.000","Units":"in","Rept_Date":"2021-02-09 12"},"coordinates":[6266,6401]},{"type":"Point","properties":{"Station_ID":"VT-WR-17","Station_Nam":"ROCHESTER 2.3 NE, VT","Latitude":"43.89418","Longitude":"-72.76992","Snowdepth":"24.500","Units":"in","Rept_Date":"2021-02-09 12"},"coordinates":[5590,5354]},{"type":"Point","properties":{"Station_ID":"QGO","Station_Nam":"QGO","Latitude":"48.85500","Longitude":"-74.20640","Snowdepth":"24.409","Units":"in","Rept_Date":"2021-02-09 12"},"coordinates":[5262,8296]},{"type":"Point","properties":{"Station_ID":"OCON6","Station_Nam":"OSCEOLA","Latitude":"43.50370","Longitude":"-75.72170","Snowdepth":"24.000","Units":"in","Rept_Date":"2021-02-09 13"},"coordinates":[4916,5122]},{"type":"Point","properties":{"Station_ID":"NY-GR-14","Station_Nam":"LEXINGTON 1.5 N, NY","Latitude":"42.26024","Longitude":"-74.35875","Snowdepth":"24.000","Units":"in","Rept_Date":"2021-02-09 12"},"coordinates":[5227,4385]},{"type":"Point","properties":{"Station_ID":"MI-HG-1","Station_Nam":"HOUGHTON 1.6 ESE, MI","Latitude":"47.10774","Longitude":"-88.52940","Snowdepth":"24.000","Units":"in","Rept_Date":"2021-02-09 13"},"coordinates":[1990,7260]},{"type":"Point","properties":{"Station_ID":"LPLN6","Station_Nam":"LAKE PLACID 2 S","Latitude":"44.30420","Longitude":"-73.98390","Snowdepth":"24.000","Units":"in","Rept_Date":"2021-02-09 13"},"coordinates":[5313,5597]},{"type":"Point","properties":{"Station_ID":"HERM4","Station_Nam":"HERMAN,MI","Latitude":"46.65000","Longitude":"-88.33330","Snowdepth":"24.000","Units":"in","Rept_Date":"2021-02-09 13"},"coordinates":[2035,6988]},{"type":"Point","properties":{"Station_ID":"GHMN3","Station_Nam":"PINKHAM NOTCH","Latitude":"44.25800","Longitude":"-71.25250","Snowdepth":"24.000","Units":"in","Rept_Date":"2021-02-09 10"},"coordinates":[5937,5570]},{"type":"Point","properties":{"Station_ID":"CAN-QC-56","Station_Nam":"SUTTON 2.6 N, CAN","Latitude":"45.13119","Longitude":"-72.61218","Snowdepth":"24.000","Units":"in","Rept_Date":"2021-02-09 12"},"coordinates":[5626,6087]},{"type":"Point","properties":{"Station_ID":"NY-LW-12","Station_Nam":"CHASES LAKE COOP, NY","Latitude":"43.75924","Longitude":"-75.29982","Snowdepth":"23.500","Units":"in","Rept_Date":"2021-02-09 11"},"coordinates":[5012,5274]},{"type":"Point","properties":{"Station_ID":"QLB","Station_Nam":"QLB","Latitude":"50.72360","Longitude":"-75.10000","Snowdepth":"23.425","Units":"in","Rept_Date":"2021-02-09 12"},"coordinates":[5058,9404]},{"type":"Point","properties":{"Station_ID":"VT-WS-33","Station_Nam":"WAITSFIELD 3.5 WNW, VT","Latitude":"44.20052","Longitude":"-72.89421","Snowdepth":"23.000","Units":"in","Rept_Date":"2021-02-09 13"},"coordinates":[5562,5535]},{"type":"Point","properties":{"Station_ID":"VT-OL-12","Station_Nam":"GREENSBORO 3.9 NNE, VT","Latitude":"44.63100","Longitude":"-72.28000","Snowdepth":"23.000","Units":"in","Rept_Date":"2021-02-09 13"},"coordinates":[5702,5791]},{"type":"Point","properties":{"Station_ID":"RFDM1","Station_Nam":"RUMFORD 7SW","Latitude":"44.49470","Longitude":"-70.65640","Snowdepth":"23.000","Units":"in","Rept_Date":"2021-02-09 11"},"coordinates":[6073,5710]},{"type":"Point","properties":{"Station_ID":"PTBN3","Station_Nam":"PITTSBURG RESERVOIR","Latitude":"45.04690","Longitude":"-71.38300","Snowdepth":"23.000","Units":"in","Rept_Date":"2021-02-09 12"},"coordinates":[5907,6037]},{"type":"Point","properties":{"Station_ID":"PLEP1","Station_Nam":"PLEASANT MOUNT 1 W","Latitude":"41.73940","Longitude":"-75.44650","Snowdepth":"23.000","Units":"in","Rept_Date":"2021-02-09 20"},"coordinates":[4979,4076]},{"type":"Point","properties":{"Station_ID":"NY-SL-6","Station_Nam":"HANNAWA FALLS 0.1 SW, NY","Latitude":"44.61154","Longitude":"-74.97190","Snowdepth":"23.000","Units":"in","Rept_Date":"2021-02-09 12"},"coordinates":[5087,5779]},{"type":"Point","properties":{"Station_ID":"NY-HM-10","Station_Nam":"LAKE PLEASANT 2.3 WSW, NY","Latitude":"43.45490","Longitude":"-74.45287","Snowdepth":"23.000","Units":"in","Rept_Date":"2021-02-09 12"},"coordinates":[5206,5093]},{"type":"Point","properties":{"Station_ID":"NY-FK-9","Station_Nam":"GABRIELS 1.3 SE, NY","Latitude":"44.41934","Longitude":"-74.16194","Snowdepth":"23.000","Units":"in","Rept_Date":"2021-02-09 12"},"coordinates":[5272,5665]},{"type":"Point","properties":{"Station_ID":"NJ-SS-54","Station_Nam":"SPARTA TWP 3.6 SSW, NJ","Latitude":"41.00503","Longitude":"-74.66358","Snowdepth":"23.000","Units":"in","Rept_Date":"2021-02-09 12"},"coordinates":[5158,3640]},{"type":"Point","properties":{"Station_ID":"NCBN6","Station_Nam":"NEWCOMB","Latitude":"43.97070","Longitude":"-74.22200","Snowdepth":"23.000","Units":"in","Rept_Date":"2021-02-09 12"},"coordinates":[5258,5399]},{"type":"Point","properties":{"Station_ID":"MALN6","Station_Nam":"MALONE","Latitude":"44.84180","Longitude":"-74.30600","Snowdepth":"23.000","Units":"in","Rept_Date":"2021-02-09 12"},"coordinates":[5239,5916]},{"type":"Point","properties":{"Station_ID":"LVDW3","Station_Nam":"LAC VIEUX DESERT","Latitude":"46.12110","Longitude":"-89.07580","Snowdepth":"23.000","Units":"in","Rept_Date":"2021-02-09 13"},"coordinates":[1865,6674]},{"type":"Point","properties":{"Station_ID":"GFDN6","Station_Nam":"CHASES LAKE","Latitude":"43.75920","Longitude":"-75.29980","Snowdepth":"23.000","Units":"in","Rept_Date":"2021-02-09 11"},"coordinates":[5012,5274]},{"type":"Point","properties":{"Station_ID":"FISM1","Station_Nam":"FORT KENT COOP","Latitude":"47.23850","Longitude":"-68.61240","Snowdepth":"23.000","Units":"in","Rept_Date":"2021-02-09 12"},"coordinates":[6540,7337]},{"type":"Point","properties":{"Station_ID":"NY-ES-11","Station_Nam":"VERMONTVILLE 2.8 S, NY","Latitude":"44.41205","Longitude":"-74.06760","Snowdepth":"22.500","Units":"in","Rept_Date":"2021-02-09 12"},"coordinates":[5294,5661]},{"type":"Point","properties":{"Station_ID":"IL-DP-155","Station_Nam":"MEDINAH 1.0 SSW, IL","Latitude":"41.96360","Longitude":"-88.06590","Snowdepth":"22.500","Units":"in","Rept_Date":"2021-02-09 11"},"coordinates":[2096,4209]},{"type":"Point","properties":{"Station_ID":"WNDP1","Station_Nam":"WINDBER COUNTY CLUB","Latitude":"40.28780","Longitude":"-78.77530","Snowdepth":"22.000","Units":"in","Rept_Date":"2021-02-09 12"},"coordinates":[4218,3215]},{"type":"Point","properties":{"Station_ID":"WLFM5","Station_Nam":"WOLF RIDGE ENVIRON LEARNING CENTER","Latitude":"47.38240","Longitude":"-91.19730","Snowdepth":"22.000","Units":"in","Rept_Date":"2021-02-09 13"},"coordinates":[1380,7422]},{"type":"Point","properties":{"Station_ID":"VT-WH-19","Station_Nam":"EAST DOVER 1.8 N, VT","Latitude":"42.97658","Longitude":"-72.77637","Snowdepth":"22.000","Units":"in","Rept_Date":"2021-02-09 13"},"coordinates":[5589,4810]},{"type":"Point","properties":{"Station_ID":"PROP1","Station_Nam":"PROMPTON DAM","Latitude":"41.58900","Longitude":"-75.33030","Snowdepth":"22.000","Units":"in","Rept_Date":"2021-02-09 12"},"coordinates":[5005,3987]},{"type":"Point","properties":{"Station_ID":"NY-OD-2","Station_Nam":"POINT ROCK 0.6 SE, NY","Latitude":"43.37335","Longitude":"-75.53840","Snowdepth":"22.000","Units":"in","Rept_Date":"2021-02-09 13"},"coordinates":[4958,5045]},{"type":"Point","properties":{"Station_ID":"NY-FK-7","Station_Nam":"SARANAC LAKE 6.2 N, NY","Latitude":"44.41359","Longitude":"-74.15211","Snowdepth":"22.000","Units":"in","Rept_Date":"2021-02-09 12"},"coordinates":[5274,5662]},{"type":"Point","properties":{"Station_ID":"HRTM1","Station_Nam":"HARTFORD","Latitude":"44.37440","Longitude":"-70.31620","Snowdepth":"22.000","Units":"in","Rept_Date":"2021-02-09 12"},"coordinates":[6151,5639]},{"type":"Point","properties":{"Station_ID":"NH-CS-19","Station_Nam":"CARROLL 4.6 NE, NH","Latitude":"44.33765","Longitude":"-71.46461","Snowdepth":"21.500","Units":"in","Rept_Date":"2021-02-09 12"},"coordinates":[5888,5617]},{"type":"Point","properties":{"Station_ID":"WPFN6","Station_Nam":"MARIPOSA 1NNW SNOW","Latitude":"42.73330","Longitude":"-75.81670","Snowdepth":"21.000","Units":"in","Rept_Date":"2021-02-09 13"},"coordinates":[4894,4665]},{"type":"Point","properties":{"Station_ID":"WAIV1","Station_Nam":"WAITSFIELD","Latitude":"44.17560","Longitude":"-72.79610","Snowdepth":"21.000","Units":"in","Rept_Date":"2021-02-09 12"},"coordinates":[5584,5521]},{"type":"Point","properties":{"Station_ID":"VT-WS-11","Station_Nam":"WAITSFIELD 1.8 SE, VT","Latitude":"44.17551","Longitude":"-72.79540","Snowdepth":"21.000","Units":"in","Rept_Date":"2021-02-09 12"},"coordinates":[5584,5521]},{"type":"Point","properties":{"Station_ID":"VT-WR-2","Station_Nam":"POMFRET 2.6 N, VT","Latitude":"43.74230","Longitude":"-72.52550","Snowdepth":"21.000","Units":"in","Rept_Date":"2021-02-09 12"},"coordinates":[5646,5264]},{"type":"Point","properties":{"Station_ID":"VT-WH-30","Station_Nam":"MARLBORO 2.0 NNE, VT","Latitude":"42.88484","Longitude":"-72.70935","Snowdepth":"21.000","Units":"in","Rept_Date":"2021-02-09 13"},"coordinates":[5604,4755]},{"type":"Point","properties":{"Station_ID":"VT-OL-1","Station_Nam":"WESTFIELD 0.7 WNW, VT","Latitude":"44.89160","Longitude":"-72.44350","Snowdepth":"21.000","Units":"in","Rept_Date":"2021-02-09 12"},"coordinates":[5665,5945]},{"type":"Point","properties":{"Station_ID":"RKWM1","Station_Nam":"MOOSEHEAD LAKE","Latitude":"45.58330","Longitude":"-69.71670","Snowdepth":"21.000","Units":"in","Rept_Date":"2021-02-09 12"},"coordinates":[6288,6356]},{"type":"Point","properties":{"Station_ID":"MRLV1","Station_Nam":"MARLBORO","Latitude":"42.86000","Longitude":"-72.72000","Snowdepth":"21.000","Units":"in","Rept_Date":"2021-02-09 13"},"coordinates":[5602,4740]},{"type":"Point","properties":{"Station_ID":"MNSM4","Station_Nam":"MUNISING","Latitude":"46.41210","Longitude":"-86.66250","Snowdepth":"21.000","Units":"in","Rept_Date":"2021-02-09 11"},"coordinates":[2416,6847]},{"type":"Point","properties":{"Station_ID":"MI-EM-8","Station_Nam":"PETOSKEY 1.7 SSW, MI","Latitude":"45.34209","Longitude":"-84.96530","Snowdepth":"21.000","Units":"in","Rept_Date":"2021-02-09 17"},"coordinates":[2804,6212]},{"type":"Point","properties":{"Station_ID":"LVRM1","Station_Nam":"LIVERMORE FALLS 1 E","Latitude":"44.47160","Longitude":"-70.15940","Snowdepth":"21.000","Units":"in","Rept_Date":"2021-02-09 12"},"coordinates":[6187,5696]},{"type":"Point","properties":{"Station_ID":"QTM","Station_Nam":"QTM","Latitude":"51.05780","Longitude":"-72.57190","Snowdepth":"20.905","Units":"in","Rept_Date":"2021-02-09 12"},"coordinates":[5635,9602]},{"type":"Point","properties":{"Station_ID":"VT-CH-4","Station_Nam":"UNDERHILL 4.4 NNE, VT","Latitude":"44.58774","Longitude":"-72.92250","Snowdepth":"20.500","Units":"in","Rept_Date":"2021-02-09 12"},"coordinates":[5555,5765]},{"type":"Point","properties":{"Station_ID":"NY-ES-6","Station_Nam":"OLMSTEDVILLE 4.6 NNE, NY","Latitude":"43.83350","Longitude":"-73.89780","Snowdepth":"20.500","Units":"in","Rept_Date":"2021-02-09 13"},"coordinates":[5333,5318]},{"type":"Point","properties":{"Station_ID":"NH-MR-41","Station_Nam":"NEWBURY 1.6 NW, NH","Latitude":"43.33667","Longitude":"-72.06060","Snowdepth":"20.500","Units":"in","Rept_Date":"2021-02-09 12"},"coordinates":[5752,5023]},{"type":"Point","properties":{"Station_ID":"MI-BG-3","Station_Nam":"THREE LAKES, MI","Latitude":"46.55730","Longitude":"-88.20770","Snowdepth":"20.500","Units":"in","Rept_Date":"2021-02-09 13"},"coordinates":[2063,6933]},{"type":"Point","properties":{"Station_ID":"MA-HS-7","Station_Nam":"PLAINFIELD 2.2 SW, MA","Latitude":"42.49272","Longitude":"-72.94540","Snowdepth":"20.500","Units":"in","Rept_Date":"2021-02-09 13"},"coordinates":[5550,4523]},{"type":"Point","properties":{"Station_ID":"WI-VL-9","Station_Nam":"LAND O' LAKES 11.7 W, WI","Latitude":"46.19023","Longitude":"-89.45790","Snowdepth":"20.000","Units":"in","Rept_Date":"2021-02-09 13"},"coordinates":[1778,6715]},{"type":"Point","properties":{"Station_ID":"VT-WS-30","Station_Nam":"WOODBURY 3.4 NNW, VT","Latitude":"44.48825","Longitude":"-72.43258","Snowdepth":"20.000","Units":"in","Rept_Date":"2021-02-09 12"},"coordinates":[5667,5706]},{"type":"Point","properties":{"Station_ID":"VT-WS-19","Station_Nam":"WATERBURY 3.0 NW, VT","Latitude":"44.36060","Longitude":"-72.80770","Snowdepth":"20.000","Units":"in","Rept_Date":"2021-02-09 11"},"coordinates":[5582,5630]},{"type":"Point","properties":{"Station_ID":"TOPN6","Station_Nam":"TUPPER LAKE SUNMOUNT","Latitude":"44.23070","Longitude":"-74.43820","Snowdepth":"20.000","Units":"in","Rept_Date":"2021-02-09 12"},"coordinates":[5209,5553]},{"type":"Point","properties":{"Station_ID":"THEP1","Station_Nam":"MORRIS RUN SNOW","Latitude":"41.68330","Longitude":"-76.93330","Snowdepth":"20.000","Units":"in","Rept_Date":"2021-02-09 16"},"coordinates":[4639,4043]},{"type":"Point","properties":{"Station_ID":"SSMM4","Station_Nam":"SAULT STE MARIE","Latitude":"46.48660","Longitude":"-84.40250","Snowdepth":"20.000","Units":"in","Rept_Date":"2021-02-09 13"},"coordinates":[2933,6891]},{"type":"Point","properties":{"Station_ID":"SPRP1","Station_Nam":"SPRINGTOWN 1 NNE","Latitude":"40.57110","Longitude":"-75.27810","Snowdepth":"20.000","Units":"in","Rept_Date":"2021-02-09 12"},"coordinates":[5017,3383]},{"type":"Point","properties":{"Station_ID":"RKHN6","Station_Nam":"ROCK HILL 3 SW","Latitude":"41.59170","Longitude":"-74.61410","Snowdepth":"20.000","Units":"in","Rept_Date":"2021-02-09 12"},"coordinates":[5169,3988]},{"type":"Point","properties":{"Station_ID":"PHON6","Station_Nam":"PHOENICIA 2SW","Latitude":"42.06420","Longitude":"-74.34080","Snowdepth":"20.000","Units":"in","Rept_Date":"2021-02-09 12"},"coordinates":[5231,4269]},{"type":"Point","properties":{"Station_ID":"NY-ER-56","Station_Nam":"COLDEN 1.4 NNW, NY","Latitude":"42.64740","Longitude":"-78.71120","Snowdepth":"20.000","Units":"in","Rept_Date":"2021-02-09 12"},"coordinates":[4233,4614]},{"type":"Point","properties":{"Station_ID":"NH-CS-4","Station_Nam":"PITTSBURG 6.1 NE, NH","Latitude":"45.11060","Longitude":"-71.29760","Snowdepth":"20.000","Units":"in","Rept_Date":"2021-02-09 12"},"coordinates":[5927,6075]},{"type":"Point","properties":{"Station_ID":"NH-CR-26","Station_Nam":"CENTER SANDWICH 4.9 E, NH","Latitude":"43.80976","Longitude":"-71.34150","Snowdepth":"20.000","Units":"in","Rept_Date":"2021-02-09 12"},"coordinates":[5917,5304]},{"type":"Point","properties":{"Station_ID":"MONW3","Station_Nam":"MONROE,WI","Latitude":"42.60000","Longitude":"-89.66670","Snowdepth":"20.000","Units":"in","Rept_Date":"2021-02-09 13"},"coordinates":[1730,4586]},{"type":"Point","properties":{"Station_ID":"LNOW3","Station_Nam":"LAND O LAKES","Latitude":"46.19000","Longitude":"-89.45700","Snowdepth":"20.000","Units":"in","Rept_Date":"2021-02-09 13"},"coordinates":[1778,6715]},{"type":"Point","properties":{"Station_ID":"KGTB","Station_Nam":"FORT DRUM / WHEELER-SACK U. S. ARMY AIRFIELD","Latitude":"44.05000","Longitude":"-75.73333","Snowdepth":"20.000","Units":"in","Rept_Date":"2021-02-10 06"},"coordinates":[4913,5446]},{"type":"Point","properties":{"Station_ID":"JCBM4","Station_Nam":"JACOBSVILLE","Latitude":"47.00830","Longitude":"-88.43180","Snowdepth":"20.000","Units":"in","Rept_Date":"2021-02-09 12"},"coordinates":[2012,7201]},{"type":"Point","properties":{"Station_ID":"IWOM4","Station_Nam":"IRONWOOD#2","Latitude":"46.46520","Longitude":"-90.13820","Snowdepth":"20.000","Units":"in","Rept_Date":"2021-02-09 13"},"coordinates":[1622,6879]},{"type":"Point","properties":{"Station_ID":"HURW3","Station_Nam":"HURLEY","Latitude":"46.46250","Longitude":"-90.19550","Snowdepth":"20.000","Units":"in","Rept_Date":"2021-02-09 14"},"coordinates":[1609,6877]},{"type":"Point","properties":{"Station_ID":"FVLN6","Station_Nam":"FREEVILLE,NY","Latitude":"42.51670","Longitude":"-76.33330","Snowdepth":"20.000","Units":"in","Rept_Date":"2021-02-09 13"},"coordinates":[4776,4537]},{"type":"Point","properties":{"Station_ID":"ESDN3","Station_Nam":"EAST SANDWICH","Latitude":"43.80990","Longitude":"-71.34250","Snowdepth":"20.000","Units":"in","Rept_Date":"2021-02-09 11"},"coordinates":[5916,5304]},{"type":"Point","properties":{"Station_ID":"CT-NH-72","Station_Nam":"NORTHFORD 0.8 SW, CT","Latitude":"41.38554","Longitude":"-72.80240","Snowdepth":"20.000","Units":"in","Rept_Date":"2021-02-09 12"},"coordinates":[5583,3866]},{"type":"Point","properties":{"Station_ID":"CODN6","Station_Nam":"COLDEN","Latitude":"42.64720","Longitude":"-78.71110","Snowdepth":"20.000","Units":"in","Rept_Date":"2021-02-09 12"},"coordinates":[4233,4614]},{"type":"Point","properties":{"Station_ID":"CAN-NB-11","Station_Nam":"MIRAMICHI 3.3 S, CAN","Latitude":"46.99343","Longitude":"-65.50690","Snowdepth":"20.000","Units":"in","Rept_Date":"2021-02-09 12"},"coordinates":[7250,7192]},{"type":"Point","properties":{"Station_ID":"ANJ","Station_Nam":"SAULT STE MARIE","Latitude":"46.46670","Longitude":"-84.36670","Snowdepth":"20.000","Units":"in","Rept_Date":"2021-02-10 00"},"coordinates":[2941,6879]},{"type":"Point","properties":{"Station_ID":"VT-WS-23","Station_Nam":"CABOT 2.3 E, VT","Latitude":"44.39807","Longitude":"-72.26570","Snowdepth":"19.500","Units":"in","Rept_Date":"2021-02-09 12"},"coordinates":[5705,5653]},{"type":"Point","properties":{"Station_ID":"PA-BR-7","Station_Nam":"FLEETWOOD 2.0 ESE, PA","Latitude":"40.44292","Longitude":"-75.78720","Snowdepth":"19.500","Units":"in","Rept_Date":"2021-02-09 13"},"coordinates":[4901,3307]},{"type":"Point","properties":{"Station_ID":"NY-ER-166","Station_Nam":"BOSTON 2.5 NE, NY","Latitude":"42.65480","Longitude":"-78.70300","Snowdepth":"19.500","Units":"in","Rept_Date":"2021-02-09 12"},"coordinates":[4235,4619]},{"type":"Point","properties":{"Station_ID":"NY-BM-21","Station_Nam":"WINDSOR 8.0 SE, NY","Latitude":"42.00992","Longitude":"-75.51420","Snowdepth":"19.500","Units":"in","Rept_Date":"2021-02-09 12"},"coordinates":[4963,4236]},{"type":"Point","properties":{"Station_ID":"NJ-SS-1","Station_Nam":"ANDOVER TWP 1.7 W, NJ","Latitude":"41.01974","Longitude":"-74.76110","Snowdepth":"19.500","Units":"in","Rept_Date":"2021-02-09 12"},"coordinates":[5135,3649]},{"type":"Point","properties":{"Station_ID":"NJ-MS-94","Station_Nam":"JEFFERSON TWP 4.4 SW, NJ","Latitude":"40.96404","Longitude":"-74.62162","Snowdepth":"19.500","Units":"in","Rept_Date":"2021-02-09 12"},"coordinates":[5167,3616]},{"type":"Point","properties":{"Station_ID":"WTNM4","Station_Nam":"WATTON 2WSW","Latitude":"46.52660","Longitude":"-88.64240","Snowdepth":"19.000","Units":"in","Rept_Date":"2021-02-09 13"},"coordinates":[1964,6915]},{"type":"Point","properties":{"Station_ID":"PEKN6","Station_Nam":"PECK LAKE","Latitude":"43.11500","Longitude":"-74.42360","Snowdepth":"19.000","Units":"in","Rept_Date":"2021-02-09 12"},"coordinates":[5212,4892]},{"type":"Point","properties":{"Station_ID":"PA-MN-16","Station_Nam":"MOUNT POCONO 0.7 N, PA","Latitude":"41.13190","Longitude":"-75.35804","Snowdepth":"19.000","Units":"in","Rept_Date":"2021-02-09 12"},"coordinates":[4999,3716]},{"type":"Point","properties":{"Station_ID":"NY-ER-65","Station_Nam":"BOSTON 1.5 NE, NY","Latitude":"42.65470","Longitude":"-78.72010","Snowdepth":"19.000","Units":"in","Rept_Date":"2021-02-09 12"},"coordinates":[4231,4619]},{"type":"Point","properties":{"Station_ID":"MQT","Station_Nam":"MARQUETTE, MI","Latitude":"46.53140","Longitude":"-87.54920","Snowdepth":"19.000","Units":"in","Rept_Date":"2021-02-10 06"},"coordinates":[2214,6918]},{"type":"Point","properties":{"Station_ID":"MIEM4","Station_Nam":"MICHIGAMME 3WNW","Latitude":"46.54530","Longitude":"-88.18000","Snowdepth":"19.000","Units":"in","Rept_Date":"2021-02-09 13"},"coordinates":[2070,6926]},{"type":"Point","properties":{"Station_ID":"MA-ES-48","Station_Nam":"ANDOVER 0.6 E, MA","Latitude":"42.65659","Longitude":"-71.13048","Snowdepth":"19.000","Units":"in","Rept_Date":"2021-02-09 10"},"coordinates":[5965,4620]},{"type":"Point","properties":{"Station_ID":"LOWN6","Station_Nam":"LOWVILLE","Latitude":"43.79280","Longitude":"-75.48290","Snowdepth":"19.000","Units":"in","Rept_Date":"2021-02-09 12"},"coordinates":[4970,5294]},{"type":"Point","properties":{"Station_ID":"JOHV1","Station_Nam":"JOHNSON 2 N","Latitude":"44.65790","Longitude":"-72.67850","Snowdepth":"19.000","Units":"in","Rept_Date":"2021-02-09 12"},"coordinates":[5611,5807]},{"type":"Point","properties":{"Station_ID":"IL-SP-27","Station_Nam":"DAVIS 2.7 N, IL","Latitude":"42.46110","Longitude":"-89.40890","Snowdepth":"19.000","Units":"in","Rept_Date":"2021-02-09 13"},"coordinates":[1789,4504]},{"type":"Point","properties":{"Station_ID":"HUBN3","Station_Nam":"HUBBARD BROOK","Latitude":"43.93330","Longitude":"-71.71670","Snowdepth":"19.000","Units":"in","Rept_Date":"2021-02-10 06"},"coordinates":[5831,5377]},{"type":"Point","properties":{"Station_ID":"EJNM4","Station_Nam":"EAST JORDAN 2NW","Latitude":"45.18630","Longitude":"-85.14770","Snowdepth":"19.000","Units":"in","Rept_Date":"2021-02-09 13"},"coordinates":[2762,6120]},{"type":"Point","properties":{"Station_ID":"BKBW2","Station_Nam":"DAVIS.","Latitude":"39.09830","Longitude":"-79.43190","Snowdepth":"19.000","Units":"in","Rept_Date":"2021-02-09 12"},"coordinates":[4068,2510]},{"type":"Point","properties":{"Station_ID":"ANJM4","Station_Nam":"SNOW PAID OBSERVER FOR KANJ","Latitude":"46.48670","Longitude":"-84.40260","Snowdepth":"19.000","Units":"in","Rept_Date":"2021-02-09 18"},"coordinates":[2933,6891]},{"type":"Point","properties":{"Station_ID":"QFT","Station_Nam":"QFT","Latitude":"50.83280","Longitude":"-74.40390","Snowdepth":"18.937","Units":"in","Rept_Date":"2021-02-09 12"},"coordinates":[5217,9469]},{"type":"Point","properties":{"Station_ID":"CAN-ON-757","Station_Nam":"SAULT STE. MARIE 2.8 ESE - GLFC, CAN","Latitude":"46.50300","Longitude":"-84.30300","Snowdepth":"18.900","Units":"in","Rept_Date":"2021-02-09 13"},"coordinates":[2955,6901]},{"type":"Point","properties":{"Station_ID":"IL-CK-193","Station_Nam":"WINNETKA 0.8 ESE, IL","Latitude":"42.10164","Longitude":"-87.72900","Snowdepth":"18.600","Units":"in","Rept_Date":"2021-02-09 14"},"coordinates":[2173,4291]},{"type":"Point","properties":{"Station_ID":"OGIQ6","Station_Nam":"OGOKI CAMP","Latitude":"50.76680","Longitude":"-87.85820","Snowdepth":"18.540","Units":"in","Rept_Date":"2021-02-10 06"},"coordinates":[2143,9430]},{"type":"Point","properties":{"Station_ID":"WI-BY-29","Station_Nam":"BAYFIELD 5.1 NNW, WI","Latitude":"46.88063","Longitude":"-90.85854","Snowdepth":"18.500","Units":"in","Rept_Date":"2021-02-09 14"},"coordinates":[1458,7125]},{"type":"Point","properties":{"Station_ID":"VT-WS-10","Station_Nam":"NORTHFIELD 1.5 N, VT","Latitude":"44.16986","Longitude":"-72.65200","Snowdepth":"18.500","Units":"in","Rept_Date":"2021-02-09 12"},"coordinates":[5617,5517]},{"type":"Point","properties":{"Station_ID":"PA-PK-22","Station_Nam":"MILFORD 8.7 NW, PA","Latitude":"41.42018","Longitude":"-74.90953","Snowdepth":"18.500","Units":"in","Rept_Date":"2021-02-09 12"},"coordinates":[5101,3887]},{"type":"Point","properties":{"Station_ID":"NY-MD-10","Station_Nam":"CAZENOVIA 2.9 SE, NY","Latitude":"42.90003","Longitude":"-75.81140","Snowdepth":"18.500","Units":"in","Rept_Date":"2021-02-09 12"},"coordinates":[4895,4764]},{"type":"Point","properties":{"Station_ID":"NJ-SS-7","Station_Nam":"HARDYSTON TWP 3.2 SE, NJ","Latitude":"41.08903","Longitude":"-74.53990","Snowdepth":"18.500","Units":"in","Rept_Date":"2021-02-09 13"},"coordinates":[5186,3690]},{"type":"Point","properties":{"Station_ID":"MI-OW-2","Station_Nam":"HOLLAND 3.9 NNE, MI","Latitude":"42.82296","Longitude":"-86.06780","Snowdepth":"18.500","Units":"in","Rept_Date":"2021-02-09 11"},"coordinates":[2552,4719]},{"type":"Point","properties":{"Station_ID":"MI-CX-7","Station_Nam":"EAST JORDAN 2.1 NNW, MI","Latitude":"45.18639","Longitude":"-85.14750","Snowdepth":"18.500","Units":"in","Rept_Date":"2021-02-09 13"},"coordinates":[2762,6120]},{"type":"Point","properties":{"Station_ID":"CAN-ON-245","Station_Nam":"PHELPSTON 3.1 ESE, CAN","Latitude":"44.50564","Longitude":"-79.81035","Snowdepth":"18.500","Units":"in","Rept_Date":"2021-02-09 14"},"coordinates":[3982,5716]},{"type":"Point","properties":{"Station_ID":"SOCQ6","Station_Nam":"SOCKET LAKE","Latitude":"50.77870","Longitude":"-91.79300","Snowdepth":"18.310","Units":"in","Rept_Date":"2021-02-10 06"},"coordinates":[1244,9437]},{"type":"Point","properties":{"Station_ID":"WPHN6","Station_Nam":"GEORGETOWN SNOW","Latitude":"42.76670","Longitude":"-75.70000","Snowdepth":"18.000","Units":"in","Rept_Date":"2021-02-09 13"},"coordinates":[4921,4685]},{"type":"Point","properties":{"Station_ID":"WPGN6","Station_Nam":"GEORGETOWN 2SE SNOW","Latitude":"42.75000","Longitude":"-75.70000","Snowdepth":"18.000","Units":"in","Rept_Date":"2021-02-09 13"},"coordinates":[4921,4675]},{"type":"Point","properties":{"Station_ID":"WI-IR-3","Station_Nam":"PENCE 0.1 E, WI","Latitude":"46.41555","Longitude":"-90.27013","Snowdepth":"18.000","Units":"in","Rept_Date":"2021-02-09 13"},"coordinates":[1592,6849]},{"type":"Point","properties":{"Station_ID":"VT-CH-11","Station_Nam":"UNDERHILL 5.1 NNE, VT","Latitude":"44.59811","Longitude":"-72.91880","Snowdepth":"18.000","Units":"in","Rept_Date":"2021-02-09 13"},"coordinates":[5556,5771]},{"type":"Point","properties":{"Station_ID":"VT-AD-20","Station_Nam":"HANCOCK 0.3 S, VT","Latitude":"43.92166","Longitude":"-72.84042","Snowdepth":"18.000","Units":"in","Rept_Date":"2021-02-09 12"},"coordinates":[5574,5370]},{"type":"Point","properties":{"Station_ID":"THFP1","Station_Nam":"FALL BROOK SNOW","Latitude":"41.70000","Longitude":"-76.86670","Snowdepth":"18.000","Units":"in","Rept_Date":"2021-02-09 16"},"coordinates":[4654,4053]},{"type":"Point","properties":{"Station_ID":"STOI2","Station_Nam":"STOCKTON 3 NNE","Latitude":"42.40050","Longitude":"-89.99580","Snowdepth":"18.000","Units":"in","Rept_Date":"2021-02-10 03"},"coordinates":[1655,4468]},{"type":"Point","properties":{"Station_ID":"SNYI4","Station_Nam":"STANLEY","Latitude":"42.63330","Longitude":"-91.86320","Snowdepth":"18.000","Units":"in","Rept_Date":"2021-02-09 13"},"coordinates":[1228,4606]},{"type":"Point","properties":{"Station_ID":"SNOW2","Station_Nam":"SNOWSHOE","Latitude":"38.39900","Longitude":"-79.99490","Snowdepth":"18.000","Units":"in","Rept_Date":"2021-02-09 11"},"coordinates":[3940,2095]},{"type":"Point","properties":{"Station_ID":"RGNM1","Station_Nam":"RANGELEY 2NW","Latitude":"44.98940","Longitude":"-70.67220","Snowdepth":"18.000","Units":"in","Rept_Date":"2021-02-09 11"},"coordinates":[6069,6003]},{"type":"Point","properties":{"Station_ID":"RANM1","Station_Nam":"RANGELEY","Latitude":"44.98910","Longitude":"-70.67190","Snowdepth":"18.000","Units":"in","Rept_Date":"2021-02-09 11"},"coordinates":[6070,6003]},{"type":"Point","properties":{"Station_ID":"PRDM4","Station_Nam":"PARADISE","Latitude":"46.60380","Longitude":"-85.03960","Snowdepth":"18.000","Units":"in","Rept_Date":"2021-02-09 11"},"coordinates":[2787,6961]},{"type":"Point","properties":{"Station_ID":"PA-CB-33","Station_Nam":"LAKE HARMONY 2.4 WNW, PA","Latitude":"41.07333","Longitude":"-75.63317","Snowdepth":"18.000","Units":"in","Rept_Date":"2021-02-09 12"},"coordinates":[4936,3681]},{"type":"Point","properties":{"Station_ID":"NY-OR-2","Station_Nam":"CORNWALL ON HUDSON 0.6 NNW, NY","Latitude":"41.44687","Longitude":"-74.02140","Snowdepth":"18.000","Units":"in","Rept_Date":"2021-02-10 00"},"coordinates":[5304,3902]},{"type":"Point","properties":{"Station_ID":"NY-ER-195","Station_Nam":"SPRINGVILLE 0.4 NE, NY","Latitude":"42.51351","Longitude":"-78.66492","Snowdepth":"18.000","Units":"in","Rept_Date":"2021-02-10 05"},"coordinates":[4243,4535]},{"type":"Point","properties":{"Station_ID":"NJ-MS-98","Station_Nam":"HARDING TWP 2.4 W, NJ","Latitude":"40.74165","Longitude":"-74.54592","Snowdepth":"18.000","Units":"in","Rept_Date":"2021-02-09 12"},"coordinates":[5184,3484]},{"type":"Point","properties":{"Station_ID":"NJ-MS-87","Station_Nam":"MOUNT ARLINGTON 0.8 S, NJ","Latitude":"40.90789","Longitude":"-74.64077","Snowdepth":"18.000","Units":"in","Rept_Date":"2021-02-09 13"},"coordinates":[5163,3583]},{"type":"Point","properties":{"Station_ID":"NJ-MS-6","Station_Nam":"ROCKAWAY 0.4 NNW, NJ","Latitude":"40.90184","Longitude":"-74.51890","Snowdepth":"18.000","Units":"in","Rept_Date":"2021-02-09 13"},"coordinates":[5191,3579]},{"type":"Point","properties":{"Station_ID":"NJ-MS-4","Station_Nam":"ROCKAWAY TWP 0.7 NE, NJ","Latitude":"40.96583","Longitude":"-74.48780","Snowdepth":"18.000","Units":"in","Rept_Date":"2021-02-09 14"},"coordinates":[5198,3617]},{"type":"Point","properties":{"Station_ID":"NH-CH-20","Station_Nam":"RINDGE 3.2 ESE, NH","Latitude":"42.73100","Longitude":"-71.95200","Snowdepth":"18.000","Units":"in","Rept_Date":"2021-02-09 12"},"coordinates":[5777,4664]},{"type":"Point","properties":{"Station_ID":"MSRN3","Station_Nam":"MASCOMA RIVER","Latitude":"43.78330","Longitude":"-72.03330","Snowdepth":"18.000","Units":"in","Rept_Date":"2021-02-10 05"},"coordinates":[5758,5288]},{"type":"Point","properties":{"Station_ID":"MN-IS-18","Station_Nam":"BRAHAM 0.7 SW, MN","Latitude":"45.71379","Longitude":"-93.18095","Snowdepth":"18.000","Units":"in","Rept_Date":"2021-02-09 14"},"coordinates":[927,6433]},{"type":"Point","properties":{"Station_ID":"ME-AR-18","Station_Nam":"NEW SWEDEN 4.9 NNW, ME","Latitude":"47.01080","Longitude":"-68.14390","Snowdepth":"18.000","Units":"in","Rept_Date":"2021-02-09 12"},"coordinates":[6647,7202]},{"type":"Point","properties":{"Station_ID":"MAPM4","Station_Nam":"MAPLE CITY 1E","Latitude":"44.85500","Longitude":"-85.83520","Snowdepth":"18.000","Units":"in","Rept_Date":"2021-02-09 23"},"coordinates":[2605,5924]},{"type":"Point","properties":{"Station_ID":"MA-WR-88","Station_Nam":"LEICESTER 2.5 WSW, MA","Latitude":"42.23742","Longitude":"-71.94612","Snowdepth":"18.000","Units":"in","Rept_Date":"2021-02-09 12"},"coordinates":[5778,4371]},{"type":"Point","properties":{"Station_ID":"LAUP1","Station_Nam":"1.5MI S OF RT 30 ON SMIT (LAUREL RIDGE)","Latitude":"40.05000","Longitude":"-79.22060","Snowdepth":"18.000","Units":"in","Rept_Date":"2021-02-09 12"},"coordinates":[4116,3074]},{"type":"Point","properties":{"Station_ID":"INDN6","Station_Nam":"INDIAN LAKE","Latitude":"43.75500","Longitude":"-74.27560","Snowdepth":"18.000","Units":"in","Rept_Date":"2021-02-09 13"},"coordinates":[5246,5271]},{"type":"Point","properties":{"Station_ID":"IL-JD-8","Station_Nam":"STOCKTON 3.4 NNE, IL","Latitude":"42.39960","Longitude":"-89.99020","Snowdepth":"18.000","Units":"in","Rept_Date":"2021-02-09 13"},"coordinates":[1656,4467]},{"type":"Point","properties":{"Station_ID":"HGHN4","Station_Nam":"HIGHLAND LAKES 1SW","Latitude":"41.16330","Longitude":"-74.45930","Snowdepth":"18.000","Units":"in","Rept_Date":"2021-02-09 11"},"coordinates":[5204,3734]},{"type":"Point","properties":{"Station_ID":"GERW3","Station_Nam":"GERMANTOWN,WI","Latitude":"43.21670","Longitude":"-88.11670","Snowdepth":"18.000","Units":"in","Rept_Date":"2021-02-09 13"},"coordinates":[2084,4952]},{"type":"Point","properties":{"Station_ID":"CT-FR-78","Station_Nam":"REDDING 1.4 E, CT","Latitude":"41.30682","Longitude":"-73.36586","Snowdepth":"18.000","Units":"in","Rept_Date":"2021-02-09 12"},"coordinates":[5454,3819]},{"type":"Point","properties":{"Station_ID":"CLQM5","Station_Nam":"CLOQUET","Latitude":"46.70470","Longitude":"-92.52530","Snowdepth":"18.000","Units":"in","Rept_Date":"2021-02-09 14"},"coordinates":[1077,7021]},{"type":"Point","properties":{"Station_ID":"CHAN4","Station_Nam":"CHARLOTTEBURG RESERVOIR","Latitude":"41.02990","Longitude":"-74.42470","Snowdepth":"18.000","Units":"in","Rept_Date":"2021-02-09 12"},"coordinates":[5212,3655]},{"type":"Point","properties":{"Station_ID":"CAN-QC-62","Station_Nam":"SAINT-LUC-DE-BELLECHASSE 2.2 SE, CAN","Latitude":"46.49532","Longitude":"-70.46313","Snowdepth":"18.000","Units":"in","Rept_Date":"2021-02-09 12"},"coordinates":[6117,6896]},{"type":"Point","properties":{"Station_ID":"CAN-NB-18","Station_Nam":"MCLEOD HILL 1.1 ENE, CA","Latitude":"46.02725","Longitude":"-66.67460","Snowdepth":"18.000","Units":"in","Rept_Date":"2021-02-09 12"},"coordinates":[6983,6619]},{"type":"Point","properties":{"Station_ID":"CAN-NB-13","Station_Nam":"BATHURST 3.8 NW, CAN","Latitude":"47.64212","Longitude":"-65.68756","Snowdepth":"18.000","Units":"in","Rept_Date":"2021-02-09 11"},"coordinates":[7208,7577]},{"type":"Point","properties":{"Station_ID":"BBEM4","Station_Nam":"BIG BAY 9SW","Latitude":"46.74620","Longitude":"-87.88160","Snowdepth":"18.000","Units":"in","Rept_Date":"2021-02-09 13"},"coordinates":[2138,7045]},{"type":"Point","properties":{"Station_ID":"AVLV1","Station_Nam":"AVERILL","Latitude":"45.00570","Longitude":"-71.69030","Snowdepth":"18.000","Units":"in","Rept_Date":"2021-02-09 13"},"coordinates":[5837,6013]},{"type":"Point","properties":{"Station_ID":"KABQ6","Station_Nam":"CAB LAKE","Latitude":"49.59950","Longitude":"-89.17990","Snowdepth":"17.870","Units":"in","Rept_Date":"2021-02-10 06"},"coordinates":[1841,8737]},{"type":"Point","properties":{"Station_ID":"QWE","Station_Nam":"QWE","Latitude":"47.84610","Longitude":"-73.80670","Snowdepth":"17.716","Units":"in","Rept_Date":"2021-02-09 12"},"coordinates":[5353,7697]},{"type":"Point","properties":{"Station_ID":"WI-BY-14","Station_Nam":"ASHLAND 9.8 W, WI","Latitude":"46.59742","Longitude":"-91.07856","Snowdepth":"17.500","Units":"in","Rept_Date":"2021-02-09 12"},"coordinates":[1407,6957]},{"type":"Point","properties":{"Station_ID":"NY-TM-45","Station_Nam":"NEWFIELD HAMLET 4.3 S, NY","Latitude":"42.29650","Longitude":"-76.60676","Snowdepth":"17.500","Units":"in","Rept_Date":"2021-02-09 14"},"coordinates":[4714,4406]},{"type":"Point","properties":{"Station_ID":"NY-ES-7","Station_Nam":"KEESEVILLE 0.8 SE, NY","Latitude":"44.49504","Longitude":"-73.47109","Snowdepth":"17.500","Units":"in","Rept_Date":"2021-02-09 12"},"coordinates":[5430,5710]},{"type":"Point","properties":{"Station_ID":"NY-ER-194","Station_Nam":"GLENWOOD 1.0 SE, NY","Latitude":"42.60740","Longitude":"-78.64610","Snowdepth":"17.500","Units":"in","Rept_Date":"2021-02-09 12"},"coordinates":[4248,4591]},{"type":"Point","properties":{"Station_ID":"NJ-PS-14","Station_Nam":"HAWTHORNE 1.0 SSE, NJ","Latitude":"40.94364","Longitude":"-74.15230","Snowdepth":"17.500","Units":"in","Rept_Date":"2021-02-09 12"},"coordinates":[5274,3604]},{"type":"Point","properties":{"Station_ID":"NH-CR-41","Station_Nam":"ALBANY 2.8 SW, NH","Latitude":"43.92648","Longitude":"-71.21556","Snowdepth":"17.500","Units":"in","Rept_Date":"2021-02-09 13"},"coordinates":[5945,5373]},{"type":"Point","properties":{"Station_ID":"IL-SP-26","Station_Nam":"FREEPORT 2.9 WSW, IL","Latitude":"42.26779","Longitude":"-89.68323","Snowdepth":"17.400","Units":"in","Rept_Date":"2021-02-09 15"},"coordinates":[1726,4389]},{"type":"Point","properties":{"Station_ID":"QOU","Station_Nam":"QOU","Latitude":"50.79250","Longitude":"-69.67470","Snowdepth":"17.323","Units":"in","Rept_Date":"2021-02-09 12"},"coordinates":[6297,9445]},{"type":"Point","properties":{"Station_ID":"CAN-QC-51","Station_Nam":"BELOEIL 0.7 NW, CAN","Latitude":"45.58049","Longitude":"-73.21218","Snowdepth":"17.300","Units":"in","Rept_Date":"2021-02-09 12"},"coordinates":[5489,6354]},{"type":"Point","properties":{"Station_ID":"CAN-QC-47","Station_Nam":"SAINTE-FOY 1.8 ENE, CAN","Latitude":"46.76934","Longitude":"-71.27124","Snowdepth":"17.300","Units":"in","Rept_Date":"2021-02-09 12"},"coordinates":[5933,7059]},{"type":"Point","properties":{"Station_ID":"SVBQ6","Station_Nam":"SAVANT BASE","Latitude":"50.28730","Longitude":"-90.65670","Snowdepth":"17.280","Units":"in","Rept_Date":"2021-02-10 06"},"coordinates":[1504,9145]},{"type":"Point","properties":{"Station_ID":"CAN-PE-47","Station_Nam":"LONG CREEK 0.3 NNW, CAN","Latitude":"46.17420","Longitude":"-63.27320","Snowdepth":"17.100","Units":"in","Rept_Date":"2021-02-09 12"},"coordinates":[7760,6706]},{"type":"Point","properties":{"Station_ID":"WV-PR-10","Station_Nam":"TERRA ALTA 4.9 NNE, WV","Latitude":"39.51024","Longitude":"-79.51024","Snowdepth":"17.000","Units":"in","Rept_Date":"2021-02-09 13"},"coordinates":[4050,2754]},{"type":"Point","properties":{"Station_ID":"WTRM4","Station_Nam":"WATERSMEET 12WSW","Latitude":"46.22310","Longitude":"-89.40850","Snowdepth":"17.000","Units":"in","Rept_Date":"2021-02-09 12"},"coordinates":[1789,6735]},{"type":"Point","properties":{"Station_ID":"WPEN6","Station_Nam":"SOUTH OTSELIC 2NNW SNOW","Latitude":"42.66670","Longitude":"-75.80000","Snowdepth":"17.000","Units":"in","Rept_Date":"2021-02-09 13"},"coordinates":[4898,4626]},{"type":"Point","properties":{"Station_ID":"WORV1","Station_Nam":"WORCESTER 2 W","Latitude":"44.37470","Longitude":"-72.58220","Snowdepth":"17.000","Units":"in","Rept_Date":"2021-02-09 12"},"coordinates":[5633,5639]},{"type":"Point","properties":{"Station_ID":"WI-WB-2","Station_Nam":"STONE LAKE 2.0 NW, WI","Latitude":"45.85960","Longitude":"-91.57710","Snowdepth":"17.000","Units":"in","Rept_Date":"2021-02-09 13"},"coordinates":[1293,6519]},{"type":"Point","properties":{"Station_ID":"WELM4","Station_Nam":"WELLSTON TIPPY DAM","Latitude":"44.25860","Longitude":"-85.93940","Snowdepth":"17.000","Units":"in","Rept_Date":"2021-02-09 13"},"coordinates":[2581,5570]},{"type":"Point","properties":{"Station_ID":"VT-OL-9","Station_Nam":"GREENSBORO 2.1 NNW, VT","Latitude":"44.60528","Longitude":"-72.30940","Snowdepth":"17.000","Units":"in","Rept_Date":"2021-02-09 12"},"coordinates":[5695,5776]},{"type":"Point","properties":{"Station_ID":"VT-FR-21","Station_Nam":"FAIRFAX 4.9 WNW, VT","Latitude":"44.68880","Longitude":"-73.10340","Snowdepth":"17.000","Units":"in","Rept_Date":"2021-02-09 14"},"coordinates":[5514,5825]},{"type":"Point","properties":{"Station_ID":"VT-ES-3","Station_Nam":"LUNENBURG 2.3 NNW, VT","Latitude":"44.49324","Longitude":"-71.70446","Snowdepth":"17.000","Units":"in","Rept_Date":"2021-02-09 11"},"coordinates":[5834,5709]},{"type":"Point","properties":{"Station_ID":"VT-CH-7","Station_Nam":"HUNTINGTON 1.1 E, VT","Latitude":"44.32488","Longitude":"-72.96570","Snowdepth":"17.000","Units":"in","Rept_Date":"2021-02-09 12"},"coordinates":[5545,5609]},{"type":"Point","properties":{"Station_ID":"SUXN4","Station_Nam":"SUSSEX 1 NW","Latitude":"41.21840","Longitude":"-74.62070","Snowdepth":"17.000","Units":"in","Rept_Date":"2021-02-09 12"},"coordinates":[5167,3767]},{"type":"Point","properties":{"Station_ID":"SUAW3","Station_Nam":"SUAMICO","Latitude":"44.60190","Longitude":"-88.09780","Snowdepth":"17.000","Units":"in","Rept_Date":"2021-02-09 12"},"coordinates":[2088,5774]},{"type":"Point","properties":{"Station_ID":"STMM4","Station_Nam":"STAMBAUGH 2SSE","Latitude":"46.05550","Longitude":"-88.62780","Snowdepth":"17.000","Units":"in","Rept_Date":"2021-02-09 13"},"coordinates":[1967,6636]},{"type":"Point","properties":{"Station_ID":"SPTI4","Station_Nam":"STRAWBERRY POINT","Latitude":"42.68530","Longitude":"-91.53300","Snowdepth":"17.000","Units":"in","Rept_Date":"2021-02-09 13"},"coordinates":[1304,4637]},{"type":"Point","properties":{"Station_ID":"RLKW3","Station_Nam":"REST LAKE","Latitude":"46.12220","Longitude":"-89.87720","Snowdepth":"17.000","Units":"in","Rept_Date":"2021-02-09 14"},"coordinates":[1682,6675]},{"type":"Point","properties":{"Station_ID":"PDGM4","Station_Nam":"PAULDING","Latitude":"46.39760","Longitude":"-89.17940","Snowdepth":"17.000","Units":"in","Rept_Date":"2021-02-09 12"},"coordinates":[1841,6838]},{"type":"Point","properties":{"Station_ID":"PA-MN-7","Station_Nam":"STROUDSBURG 5.1 W, PA","Latitude":"40.98869","Longitude":"-75.29590","Snowdepth":"17.000","Units":"in","Rept_Date":"2021-02-09 13"},"coordinates":[5013,3631]},{"type":"Point","properties":{"Station_ID":"NY-ER-63","Station_Nam":"GLENWOOD 1.5 SE, NY","Latitude":"42.60195","Longitude":"-78.63910","Snowdepth":"17.000","Units":"in","Rept_Date":"2021-02-09 14"},"coordinates":[4249,4587]},{"type":"Point","properties":{"Station_ID":"NY-DL-28","Station_Nam":"FLEISCHMANNS 5.7 N, NY","Latitude":"42.23779","Longitude":"-74.52335","Snowdepth":"17.000","Units":"in","Rept_Date":"2021-02-09 12"},"coordinates":[5190,4371]},{"type":"Point","properties":{"Station_ID":"NVLV1","Station_Nam":"NASHVILLE","Latitude":"44.44970","Longitude":"-72.92640","Snowdepth":"17.000","Units":"in","Rept_Date":"2021-02-09 12"},"coordinates":[5554,5683]},{"type":"Point","properties":{"Station_ID":"NJ-WR-1","Station_Nam":"GREENWICH TWP 1.6 S, NJ","Latitude":"40.65545","Longitude":"-75.11670","Snowdepth":"17.000","Units":"in","Rept_Date":"2021-02-09 12"},"coordinates":[5054,3433]},{"type":"Point","properties":{"Station_ID":"NJ-MS-71","Station_Nam":"DENVILLE TWP 1.5 ESE, NJ","Latitude":"40.88053","Longitude":"-74.46310","Snowdepth":"17.000","Units":"in","Rept_Date":"2021-02-09 12"},"coordinates":[5203,3567]},{"type":"Point","properties":{"Station_ID":"NJ-BG-23","Station_Nam":"OAKLAND 0.9 SSE, NJ","Latitude":"41.01905","Longitude":"-74.23340","Snowdepth":"17.000","Units":"in","Rept_Date":"2021-02-09 13"},"coordinates":[5256,3649]},{"type":"Point","properties":{"Station_ID":"NFKC3","Station_Nam":"NORFOLK","Latitude":"41.97250","Longitude":"-73.22080","Snowdepth":"17.000","Units":"in","Rept_Date":"2021-02-09 13"},"coordinates":[5487,4214]},{"type":"Point","properties":{"Station_ID":"MXON6","Station_Nam":"MEXICO","Latitude":"43.43830","Longitude":"-76.26560","Snowdepth":"17.000","Units":"in","Rept_Date":"2021-02-09 12"},"coordinates":[4792,5083]},{"type":"Point","properties":{"Station_ID":"MI-CP-14","Station_Nam":"SAULT STE. MARIE 2.2 E, MI","Latitude":"46.48933","Longitude":"-84.31971","Snowdepth":"17.000","Units":"in","Rept_Date":"2021-02-09 12"},"coordinates":[2951,6893]},{"type":"Point","properties":{"Station_ID":"MHRI4","Station_Nam":"MANCHESTER #2","Latitude":"42.47320","Longitude":"-91.45160","Snowdepth":"17.000","Units":"in","Rept_Date":"2021-02-09 13"},"coordinates":[1322,4511]},{"type":"Point","properties":{"Station_ID":"ME-WS-31","Station_Nam":"EASTPORT 1.4 ESE, ME","Latitude":"44.91044","Longitude":"-66.98572","Snowdepth":"17.000","Units":"in","Rept_Date":"2021-02-09 12"},"coordinates":[6912,5956]},{"type":"Point","properties":{"Station_ID":"ME-FR-22","Station_Nam":"FARMINGTON 4.8 NNW, ME","Latitude":"44.73396","Longitude":"-70.18007","Snowdepth":"17.000","Units":"in","Rept_Date":"2021-02-09 14"},"coordinates":[6182,5852]},{"type":"Point","properties":{"Station_ID":"ME-AR-15","Station_Nam":"PRESQUE ISLE 1.3 WSW, ME","Latitude":"46.67960","Longitude":"-68.01270","Snowdepth":"17.000","Units":"in","Rept_Date":"2021-02-09 12"},"coordinates":[6677,7006]},{"type":"Point","properties":{"Station_ID":"MA-MD-125","Station_Nam":"TEWKSBURY 3.6 SSE, MA","Latitude":"42.57083","Longitude":"-71.19813","Snowdepth":"17.000","Units":"in","Rept_Date":"2021-02-09 12"},"coordinates":[5949,4569]},{"type":"Point","properties":{"Station_ID":"KINM1","Station_Nam":"KINGFIELD","Latitude":"44.95950","Longitude":"-70.17530","Snowdepth":"17.000","Units":"in","Rept_Date":"2021-02-09 13"},"coordinates":[6183,5986]},{"type":"Point","properties":{"Station_ID":"KABM5","Station_Nam":"KABETOGAMA LAKE VISITOR CTR","Latitude":"48.40880","Longitude":"-93.04840","Snowdepth":"17.000","Units":"in","Rept_Date":"2021-02-09 13"},"coordinates":[957,8031]},{"type":"Point","properties":{"Station_ID":"IRMM4","Station_Nam":"WWTP","Latitude":"46.46670","Longitude":"-90.18330","Snowdepth":"17.000","Units":"in","Rept_Date":"2021-02-09 13"},"coordinates":[1612,6879]},{"type":"Point","properties":{"Station_ID":"IL-DP-87","Station_Nam":"ROSELLE 1.2 ESE, IL","Latitude":"41.97664","Longitude":"-88.05980","Snowdepth":"17.000","Units":"in","Rept_Date":"2021-02-09 15"},"coordinates":[2097,4217]},{"type":"Point","properties":{"Station_ID":"IL-DP-157","Station_Nam":"WEST CHICAGO 3.5 NNE, IL","Latitude":"41.93718","Longitude":"-88.19884","Snowdepth":"17.000","Units":"in","Rept_Date":"2021-02-09 13"},"coordinates":[2065,4193]},{"type":"Point","properties":{"Station_ID":"IA-ST-3","Station_Nam":"PARK VIEW 0.2 WSW, IA","Latitude":"41.68855","Longitude":"-90.54380","Snowdepth":"17.000","Units":"in","Rept_Date":"2021-02-09 13"},"coordinates":[1530,4046]},{"type":"Point","properties":{"Station_ID":"HVJP1","Station_Nam":"HIDDEN VALLEY COOP","Latitude":"40.04200","Longitude":"-79.25660","Snowdepth":"17.000","Units":"in","Rept_Date":"2021-02-09 13"},"coordinates":[4108,3069]},{"type":"Point","properties":{"Station_ID":"EVRW3","Station_Nam":"EAGLE RIVER-4 E","Latitude":"45.91890","Longitude":"-89.15280","Snowdepth":"17.000","Units":"in","Rept_Date":"2021-02-09 12"},"coordinates":[1847,6555]},{"type":"Point","properties":{"Station_ID":"DLDI4","Station_Nam":"MISSISSIPPI RIVER","Latitude":"42.51670","Longitude":"-90.65000","Snowdepth":"17.000","Units":"in","Rept_Date":"2021-02-09 12"},"coordinates":[1505,4537]},{"type":"Point","properties":{"Station_ID":"CT-NH-75","Station_Nam":"MERIDEN 2.8 WSW, CT","Latitude":"41.52584","Longitude":"-72.84698","Snowdepth":"17.000","Units":"in","Rept_Date":"2021-02-09 12"},"coordinates":[5573,3949]},{"type":"Point","properties":{"Station_ID":"CLKM4","Station_Nam":"CLARKSBURG","Latitude":"46.49910","Longitude":"-87.84500","Snowdepth":"17.000","Units":"in","Rept_Date":"2021-02-09 12"},"coordinates":[2146,6899]},{"type":"Point","properties":{"Station_ID":"CHRM4","Station_Nam":"CHARLEVOIX","Latitude":"45.31720","Longitude":"-85.26720","Snowdepth":"17.000","Units":"in","Rept_Date":"2021-02-09 13"},"coordinates":[2735,6198]},{"type":"Point","properties":{"Station_ID":"CAN-ON-5","Station_Nam":"OWEN SOUND 1.5 NW - GSCA, CAN","Latitude":"44.57837","Longitude":"-80.95461","Snowdepth":"17.000","Units":"in","Rept_Date":"2021-02-09 13"},"coordinates":[3720,5760]},{"type":"Point","properties":{"Station_ID":"CAN-NB-64","Station_Nam":"KESWICK RIDGE 4.0 SE, CAN","Latitude":"45.97014","Longitude":"-66.85538","Snowdepth":"17.000","Units":"in","Rept_Date":"2021-02-09 13"},"coordinates":[6941,6585]},{"type":"Point","properties":{"Station_ID":"BEAW3","Station_Nam":"BEAVER DAM,WI","Latitude":"43.45000","Longitude":"-88.85000","Snowdepth":"17.000","Units":"in","Rept_Date":"2021-02-09 13"},"coordinates":[1916,5090]},{"type":"Point","properties":{"Station_ID":"BARI2","Station_Nam":"CRABTREE NATURE CENTER","Latitude":"42.11530","Longitude":"-88.16390","Snowdepth":"17.000","Units":"in","Rept_Date":"2021-02-09 14"},"coordinates":[2073,4299]},{"type":"Point","properties":{"Station_ID":"AMAM4","Station_Nam":"AMASA 1W","Latitude":"46.23470","Longitude":"-88.45440","Snowdepth":"17.000","Units":"in","Rept_Date":"2021-02-09 14"},"coordinates":[2007,6742]},{"type":"Point","properties":{"Station_ID":"AGNW3","Station_Nam":"ARGONNE-1.5 NW","Latitude":"45.67360","Longitude":"-88.90380","Snowdepth":"17.000","Units":"in","Rept_Date":"2021-02-09 13"},"coordinates":[1904,6409]},{"type":"Point","properties":{"Station_ID":"WI-PR-2","Station_Nam":"BUTTERNUT 5.9 SW, WI","Latitude":"45.96501","Longitude":"-90.59750","Snowdepth":"16.500","Units":"in","Rept_Date":"2021-02-09 12"},"coordinates":[1517,6582]},{"type":"Point","properties":{"Station_ID":"VT-WR-10","Station_Nam":"WEST WINDSOR 1.7 S, VT","Latitude":"43.46164","Longitude":"-72.49197","Snowdepth":"16.500","Units":"in","Rept_Date":"2021-02-09 12"},"coordinates":[5654,5097]},{"type":"Point","properties":{"Station_ID":"NY-TM-42","Station_Nam":"ITHACA 6.4 E, NY","Latitude":"42.43350","Longitude":"-76.37860","Snowdepth":"16.500","Units":"in","Rept_Date":"2021-02-09 12"},"coordinates":[4766,4488]},{"type":"Point","properties":{"Station_ID":"NY-OS-38","Station_Nam":"MEXICO COOP, NY","Latitude":"43.43830","Longitude":"-76.26570","Snowdepth":"16.500","Units":"in","Rept_Date":"2021-02-09 12"},"coordinates":[4792,5083]},{"type":"Point","properties":{"Station_ID":"NJ-MS-42","Station_Nam":"RANDOLPH TWP 2.0 E, NJ","Latitude":"40.83980","Longitude":"-74.54320","Snowdepth":"16.500","Units":"in","Rept_Date":"2021-02-09 13"},"coordinates":[5185,3542]},{"type":"Point","properties":{"Station_ID":"NH-MR-60","Station_Nam":"SOUTH SUTTON 1.3 SE, NH","Latitude":"43.29531","Longitude":"-71.90238","Snowdepth":"16.500","Units":"in","Rept_Date":"2021-02-09 13"},"coordinates":[5788,4999]},{"type":"Point","properties":{"Station_ID":"MI-AG-6","Station_Nam":"MUNISING 11.1 SSW, MI","Latitude":"46.27805","Longitude":"-86.75747","Snowdepth":"16.500","Units":"in","Rept_Date":"2021-02-09 12"},"coordinates":[2395,6768]},{"type":"Point","properties":{"Station_ID":"IL-LK-69","Station_Nam":"HIGHWOOD 0.9 S, IL","Latitude":"42.19841","Longitude":"-87.81400","Snowdepth":"16.500","Units":"in","Rept_Date":"2021-02-09 13"},"coordinates":[2153,4348]},{"type":"Point","properties":{"Station_ID":"WI-RK-6","Station_Nam":"EVANSVILLE 0.4 E, WI","Latitude":"42.77913","Longitude":"-89.29020","Snowdepth":"16.100","Units":"in","Rept_Date":"2021-02-09 12"},"coordinates":[1816,4693]},{"type":"Point","properties":{"Station_ID":"MI-AN-20","Station_Nam":"HOLLAND 5.3 WSW, MI","Latitude":"42.74900","Longitude":"-86.20200","Snowdepth":"16.100","Units":"in","Rept_Date":"2021-02-09 13"},"coordinates":[2521,4675]},{"type":"Point","properties":{"Station_ID":"CAN-ON-342","Station_Nam":"LURGAN BEACH 1.4 NNE - LHCC, CAN","Latitude":"44.09777","Longitude":"-81.72765","Snowdepth":"16.100","Units":"in","Rept_Date":"2021-02-09 12"},"coordinates":[3544,5475]},{"type":"Point","properties":{"Station_ID":"CAN-NL-82","Station_Nam":"GANDER 2.7 NW, CAN","Latitude":"48.97737","Longitude":"-54.63396","Snowdepth":"16.100","Units":"in","Rept_Date":"2021-02-09 10"},"coordinates":[9734,8368]},{"type":"Point","properties":{"Station_ID":"WSFW3","Station_Nam":"TOWN OF WESTFORD","Latitude":"43.47190","Longitude":"-88.88250","Snowdepth":"16.000","Units":"in","Rept_Date":"2021-02-09 13"},"coordinates":[1909,5103]},{"type":"Point","properties":{"Station_ID":"WRSN6","Station_Nam":"WARSAW 6SW","Latitude":"42.68550","Longitude":"-78.22020","Snowdepth":"16.000","Units":"in","Rept_Date":"2021-02-09 12"},"coordinates":[4345,4637]},{"type":"Point","properties":{"Station_ID":"WPDN6","Station_Nam":"CINCINNATUS 2NW SNOW","Latitude":"42.55000","Longitude":"-75.93330","Snowdepth":"16.000","Units":"in","Rept_Date":"2021-02-09 13"},"coordinates":[4867,4557]},{"type":"Point","properties":{"Station_ID":"WI-RK-12","Station_Nam":"JANESVILLE 3.1 W, WI","Latitude":"42.67576","Longitude":"-89.07614","Snowdepth":"16.000","Units":"in","Rept_Date":"2021-02-09 13"},"coordinates":[1865,4631]},{"type":"Point","properties":{"Station_ID":"WI-PR-6","Station_Nam":"PHILLIPS 1.3 S, WI","Latitude":"45.67677","Longitude":"-90.39543","Snowdepth":"16.000","Units":"in","Rept_Date":"2021-02-09 12"},"coordinates":[1563,6411]},{"type":"Point","properties":{"Station_ID":"WI-IW-3","Station_Nam":"MINERAL POINT 7.3 ENE, WI","Latitude":"42.91400","Longitude":"-90.05700","Snowdepth":"16.000","Units":"in","Rept_Date":"2021-02-09 13"},"coordinates":[1641,4773]},{"type":"Point","properties":{"Station_ID":"WI-DD-16","Station_Nam":"BEAVER DAM 2.4 WNW, WI","Latitude":"43.47210","Longitude":"-88.88280","Snowdepth":"16.000","Units":"in","Rept_Date":"2021-02-09 13"},"coordinates":[1909,5103]},{"type":"Point","properties":{"Station_ID":"WI-DA-35","Station_Nam":"MADISON 5.5 N, WI","Latitude":"43.15858","Longitude":"-89.37280","Snowdepth":"16.000","Units":"in","Rept_Date":"2021-02-09 14"},"coordinates":[1797,4918]},{"type":"Point","properties":{"Station_ID":"WI-CB-5","Station_Nam":"PORTAGE 7.2 SW, WI","Latitude":"43.47933","Longitude":"-89.57370","Snowdepth":"16.000","Units":"in","Rept_Date":"2021-02-09 13"},"coordinates":[1751,5108]},{"type":"Point","properties":{"Station_ID":"SWHI4","Station_Nam":"SWISHER #2","Latitude":"41.84970","Longitude":"-91.67650","Snowdepth":"16.000","Units":"in","Rept_Date":"2021-02-09 14"},"coordinates":[1271,4141]},{"type":"Point","properties":{"Station_ID":"SUTV1","Station_Nam":"SUTTON","Latitude":"44.61220","Longitude":"-72.04810","Snowdepth":"16.000","Units":"in","Rept_Date":"2021-02-09 12"},"coordinates":[5755,5780]},{"type":"Point","properties":{"Station_ID":"SLNV1","Station_Nam":"SOUTH LINCOLN","Latitude":"44.07460","Longitude":"-72.97180","Snowdepth":"16.000","Units":"in","Rept_Date":"2021-02-09 12"},"coordinates":[5544,5461]},{"type":"Point","properties":{"Station_ID":"RCHW3","Station_Nam":"RICHRIELD,WI","Latitude":"43.21080","Longitude":"-88.20940","Snowdepth":"16.000","Units":"in","Rept_Date":"2021-02-09 12"},"coordinates":[2063,4949]},{"type":"Point","properties":{"Station_ID":"NY-WC-11","Station_Nam":"PEEKSKILL 0.4 N, NY","Latitude":"41.29442","Longitude":"-73.92290","Snowdepth":"16.000","Units":"in","Rept_Date":"2021-02-09 13"},"coordinates":[5327,3812]},{"type":"Point","properties":{"Station_ID":"NY-SR-22","Station_Nam":"GREENFIELD CENTER 1.6 W, NY","Latitude":"43.12684","Longitude":"-73.87860","Snowdepth":"16.000","Units":"in","Rept_Date":"2021-02-09 12"},"coordinates":[5337,4899]},{"type":"Point","properties":{"Station_ID":"NY-OT-31","Station_Nam":"MARYLAND 1.8 W, NY","Latitude":"42.53310","Longitude":"-74.92090","Snowdepth":"16.000","Units":"in","Rept_Date":"2021-02-09 13"},"coordinates":[5099,4547]},{"type":"Point","properties":{"Station_ID":"NY-OR-19","Station_Nam":"GREENWOOD LAKE 3.0 SW, NY","Latitude":"41.18900","Longitude":"-74.32650","Snowdepth":"16.000","Units":"in","Rept_Date":"2021-02-09 13"},"coordinates":[5235,3749]},{"type":"Point","properties":{"Station_ID":"NY-CR-1","Station_Nam":"FREETOWN 1.0 NE, NY","Latitude":"42.53299","Longitude":"-76.02111","Snowdepth":"16.000","Units":"in","Rept_Date":"2021-02-09 12"},"coordinates":[4847,4547]},{"type":"Point","properties":{"Station_ID":"NJ-UN-10","Station_Nam":"NEW PROVIDENCE 0.8 ESE, NJ","Latitude":"40.69450","Longitude":"-74.38980","Snowdepth":"16.000","Units":"in","Rept_Date":"2021-02-09 12"},"coordinates":[5220,3456]},{"type":"Point","properties":{"Station_ID":"NJ-SS-39","Station_Nam":"WANTAGE TWP 1.6 SE, NJ","Latitude":"41.22830","Longitude":"-74.60330","Snowdepth":"16.000","Units":"in","Rept_Date":"2021-02-09 12"},"coordinates":[5171,3773]},{"type":"Point","properties":{"Station_ID":"NJ-SS-3","Station_Nam":"VERNON TWP 1.7 N, NJ","Latitude":"41.22151","Longitude":"-74.48800","Snowdepth":"16.000","Units":"in","Rept_Date":"2021-02-09 12"},"coordinates":[5198,3769]},{"type":"Point","properties":{"Station_ID":"NJ-SM-4","Station_Nam":"BERNARDS TWP 0.6 NNW, NJ","Latitude":"40.68340","Longitude":"-74.57310","Snowdepth":"16.000","Units":"in","Rept_Date":"2021-02-09 12"},"coordinates":[5178,3450]},{"type":"Point","properties":{"Station_ID":"NJ-SM-26","Station_Nam":"FRANKLIN TWP 3.1 NE, NJ","Latitude":"40.51233","Longitude":"-74.51740","Snowdepth":"16.000","Units":"in","Rept_Date":"2021-02-09 11"},"coordinates":[5191,3348]},{"type":"Point","properties":{"Station_ID":"NJ-PS-12","Station_Nam":"LITTLE FALLS TWP 0.5 WNW, NJ","Latitude":"40.87963","Longitude":"-74.22700","Snowdepth":"16.000","Units":"in","Rept_Date":"2021-02-09 12"},"coordinates":[5257,3566]},{"type":"Point","properties":{"Station_ID":"NJ-MS-108","Station_Nam":"MONTVILLE TWP 0.4 E, NJ","Latitude":"40.91267","Longitude":"-74.35163","Snowdepth":"16.000","Units":"in","Rept_Date":"2021-02-09 13"},"coordinates":[5229,3586]},{"type":"Point","properties":{"Station_ID":"NJ-ES-31","Station_Nam":"MONTCLAIR 0.7 N, NJ","Latitude":"40.83534","Longitude":"-74.20896","Snowdepth":"16.000","Units":"in","Rept_Date":"2021-02-09 13"},"coordinates":[5261,3540]},{"type":"Point","properties":{"Station_ID":"NE-LA-52","Station_Nam":"LINCOLN 1.2 ENE, NE","Latitude":"40.82411","Longitude":"-96.66780","Snowdepth":"16.000","Units":"in","Rept_Date":"2021-02-09 13"},"coordinates":[130,3533]},{"type":"Point","properties":{"Station_ID":"ME-SM-4","Station_Nam":"SOLON 3.9 ESE, ME","Latitude":"44.94705","Longitude":"-69.77790","Snowdepth":"16.000","Units":"in","Rept_Date":"2021-02-09 12"},"coordinates":[6274,5978]},{"type":"Point","properties":{"Station_ID":"ME-FR-4","Station_Nam":"NEW SHARON 2.0 NW, ME","Latitude":"44.66582","Longitude":"-70.02720","Snowdepth":"16.000","Units":"in","Rept_Date":"2021-02-09 12"},"coordinates":[6217,5811]},{"type":"Point","properties":{"Station_ID":"LODW3","Station_Nam":"LODI","Latitude":"43.32170","Longitude":"-89.53110","Snowdepth":"16.000","Units":"in","Rept_Date":"2021-02-09 13"},"coordinates":[1761,5014]},{"type":"Point","properties":{"Station_ID":"IL-LE-22","Station_Nam":"AMBOY 0.5 SSW, IL","Latitude":"41.71016","Longitude":"-89.33695","Snowdepth":"16.000","Units":"in","Rept_Date":"2021-02-09 12"},"coordinates":[1805,4059]},{"type":"Point","properties":{"Station_ID":"IL-CK-285","Station_Nam":"HARWOOD HEIGHTS 0.4 NNE, IL","Latitude":"41.97154","Longitude":"-87.80325","Snowdepth":"16.000","Units":"in","Rept_Date":"2021-02-09 13"},"coordinates":[2156,4214]},{"type":"Point","properties":{"Station_ID":"IL-CK-180","Station_Nam":"PARK RIDGE 0.5 SSW, IL","Latitude":"42.00443","Longitude":"-87.84600","Snowdepth":"16.000","Units":"in","Rept_Date":"2021-02-09 13"},"coordinates":[2146,4233]},{"type":"Point","properties":{"Station_ID":"IL-CK-145","Station_Nam":"OAK PARK 1.5 S, IL","Latitude":"41.86592","Longitude":"-87.79280","Snowdepth":"16.000","Units":"in","Rept_Date":"2021-02-09 12"},"coordinates":[2158,4151]},{"type":"Point","properties":{"Station_ID":"IL-BN-19","Station_Nam":"BELVIDERE 5.0 NNW, IL","Latitude":"42.32071","Longitude":"-88.88282","Snowdepth":"16.000","Units":"in","Rept_Date":"2021-02-09 13"},"coordinates":[1909,4421]},{"type":"Point","properties":{"Station_ID":"IA-ST-1","Station_Nam":"LE CLAIRE 1.8 NNE, IA","Latitude":"41.62355","Longitude":"-90.35140","Snowdepth":"16.000","Units":"in","Rept_Date":"2021-02-09 14"},"coordinates":[1573,4007]},{"type":"Point","properties":{"Station_ID":"IA-JH-14","Station_Nam":"SWISHER 0.4 NNE, IA","Latitude":"41.84830","Longitude":"-91.69210","Snowdepth":"16.000","Units":"in","Rept_Date":"2021-02-09 14"},"coordinates":[1267,4140]},{"type":"Point","properties":{"Station_ID":"HINW3","Station_Nam":"HINGHAM","Latitude":"43.64060","Longitude":"-87.91060","Snowdepth":"16.000","Units":"in","Rept_Date":"2021-02-09 13"},"coordinates":[2131,5203]},{"type":"Point","properties":{"Station_ID":"GLEI2","Station_Nam":"GLEN ELLYN 4S","Latitude":"41.82670","Longitude":"-88.05810","Snowdepth":"16.000","Units":"in","Rept_Date":"2021-02-09 18"},"coordinates":[2097,4128]},{"type":"Point","properties":{"Station_ID":"EGRW3","Station_Nam":"EAGLE RIVER-SOUTH","Latitude":"45.91360","Longitude":"-89.24360","Snowdepth":"16.000","Units":"in","Rept_Date":"2021-02-09 13"},"coordinates":[1827,6551]},{"type":"Point","properties":{"Station_ID":"EAHV1","Station_Nam":"EAST HAVEN","Latitude":"44.64250","Longitude":"-71.89120","Snowdepth":"16.000","Units":"in","Rept_Date":"2021-02-09 12"},"coordinates":[5791,5798]},{"type":"Point","properties":{"Station_ID":"DXNI2","Station_Nam":"DIXON,IL","Latitude":"41.83330","Longitude":"-89.51670","Snowdepth":"16.000","Units":"in","Rept_Date":"2021-02-09 14"},"coordinates":[1764,4132]},{"type":"Point","properties":{"Station_ID":"DUBI4","Station_Nam":"DUBUQUE #3","Latitude":"42.40870","Longitude":"-90.73250","Snowdepth":"16.000","Units":"in","Rept_Date":"2021-02-09 18"},"coordinates":[1486,4473]},{"type":"Point","properties":{"Station_ID":"DEKI2","Station_Nam":"SOUTH BRANCH KISHWAUKEE RIVER AT DEKALB","Latitude":"41.93110","Longitude":"-88.75970","Snowdepth":"16.000","Units":"in","Rept_Date":"2021-02-09 13"},"coordinates":[1937,4190]},{"type":"Point","properties":{"Station_ID":"DBQ","Station_Nam":"DUBUQUE REGIONAL AIRPORT","Latitude":"42.40310","Longitude":"-90.70920","Snowdepth":"16.000","Units":"in","Rept_Date":"2021-02-10 00"},"coordinates":[1492,4470]},{"type":"Point","properties":{"Station_ID":"CNDP1","Station_Nam":"CANADENSIS","Latitude":"41.18980","Longitude":"-75.23830","Snowdepth":"16.000","Units":"in","Rept_Date":"2021-02-09 12"},"coordinates":[5026,3750]},{"type":"Point","properties":{"Station_ID":"CLUI4","Station_Nam":"CLUTIER,IA","Latitude":"42.08330","Longitude":"-92.40000","Snowdepth":"16.000","Units":"in","Rept_Date":"2021-02-09 13"},"coordinates":[1105,4280]},{"type":"Point","properties":{"Station_ID":"CAN-ON-42","Station_Nam":"VANKLEEK HILL 3.4 S, CA","Latitude":"45.48987","Longitude":"-74.64570","Snowdepth":"16.000","Units":"in","Rept_Date":"2021-02-09 12"},"coordinates":[5162,6300]},{"type":"Point","properties":{"Station_ID":"BRLN3","Station_Nam":"BERLIN","Latitude":"44.45350","Longitude":"-71.18540","Snowdepth":"16.000","Units":"in","Rept_Date":"2021-02-09 12"},"coordinates":[5952,5686]},{"type":"Point","properties":{"Station_ID":"BDMW3","Station_Nam":"BEAVER DAM 1 N","Latitude":"43.46860","Longitude":"-88.83970","Snowdepth":"16.000","Units":"in","Rept_Date":"2021-02-09 13"},"coordinates":[1919,5101]},{"type":"Point","properties":{"Station_ID":"42.1173_079.8962","Station_Nam":"4 W Colt Station  Trained Spotter (CLE0298)","Latitude":"42.11734","Longitude":"-79.89615","Snowdepth":"16.000","Units":"in","Rept_Date":"2021-02-10 02"},"coordinates":[3962,4300]},{"type":"Point","properties":{"Station_ID":"CAN-NB-105","Station_Nam":"SISSON BROOK 3.8 E, CAN","Latitude":"46.98305","Longitude":"-67.32532","Snowdepth":"15.900","Units":"in","Rept_Date":"2021-02-09 12"},"coordinates":[6834,7186]},{"type":"Point","properties":{"Station_ID":"MA-MD-89","Station_Nam":"SUDBURY 3.6 W, MA","Latitude":"42.36394","Longitude":"-71.47012","Snowdepth":"15.700","Units":"in","Rept_Date":"2021-02-09 12"},"coordinates":[5887,4446]},{"type":"Point","properties":{"Station_ID":"CAN-NB-98","Station_Nam":"HOYT 4.2 S, CAN","Latitude":"45.54763","Longitude":"-66.55440","Snowdepth":"15.700","Units":"in","Rept_Date":"2021-02-09 11"},"coordinates":[7010,6334]},{"type":"Point","properties":{"Station_ID":"CAN-MB-368","Station_Nam":"WHITESHELL 1.3 NE, CAN","Latitude":"49.74405","Longitude":"-95.19123","Snowdepth":"15.700","Units":"in","Rept_Date":"2021-02-09 14"},"coordinates":[468,8823]},{"type":"Point","properties":{"Station_ID":"IL-WL-63","Station_Nam":"NEW LENOX 1.8 SE, IL","Latitude":"41.49964","Longitude":"-87.96030","Snowdepth":"15.600","Units":"in","Rept_Date":"2021-02-09 13"},"coordinates":[2120,3934]},{"type":"Point","properties":{"Station_ID":"CAN-ON-791","Station_Nam":"METCALFE 4.4 NNW, CAN","Latitude":"45.27286","Longitude":"-75.48952","Snowdepth":"15.600","Units":"in","Rept_Date":"2021-02-09 11"},"coordinates":[4969,6171]},{"type":"Point","properties":{"Station_ID":"WI-WW-12","Station_Nam":"ELKHORN 0.4 ESE, WI","Latitude":"42.66970","Longitude":"-88.53170","Snowdepth":"15.500","Units":"in","Rept_Date":"2021-02-09 11"},"coordinates":[1989,4628]},{"type":"Point","properties":{"Station_ID":"WI-VL-14","Station_Nam":"BOULDER JUNCTION 1.4 NE, WI","Latitude":"46.12840","Longitude":"-89.62470","Snowdepth":"15.500","Units":"in","Rept_Date":"2021-02-09 13"},"coordinates":[1739,6679]},{"type":"Point","properties":{"Station_ID":"WI-SR-1","Station_Nam":"HAYWARD 9.2 NNE, WI","Latitude":"46.13255","Longitude":"-91.40500","Snowdepth":"15.500","Units":"in","Rept_Date":"2021-02-09 12"},"coordinates":[1333,6681]},{"type":"Point","properties":{"Station_ID":"VT-CL-18","Station_Nam":"WHEELOCK 1.6 S, VT","Latitude":"44.56491","Longitude":"-72.08830","Snowdepth":"15.500","Units":"in","Rept_Date":"2021-02-09 12"},"coordinates":[5746,5752]},{"type":"Point","properties":{"Station_ID":"NJ-WR-42","Station_Nam":"KNOWLTON TWP 1.7 S, NJ","Latitude":"40.90560","Longitude":"-75.05880","Snowdepth":"15.500","Units":"in","Rept_Date":"2021-02-09 13"},"coordinates":[5067,3581]},{"type":"Point","properties":{"Station_ID":"NJ-SM-56","Station_Nam":"FRANKLIN TWP 5.9 SW, NJ","Latitude":"40.40787","Longitude":"-74.61990","Snowdepth":"15.500","Units":"in","Rept_Date":"2021-02-09 13"},"coordinates":[5168,3286]},{"type":"Point","properties":{"Station_ID":"NJ-BG-17","Station_Nam":"GLEN ROCK 0.7 SSE, NJ","Latitude":"40.95109","Longitude":"-74.11830","Snowdepth":"15.500","Units":"in","Rept_Date":"2021-02-09 12"},"coordinates":[5282,3608]},{"type":"Point","properties":{"Station_ID":"NH-CR-11","Station_Nam":"NORTH CONWAY 1.4 SSW, NH","Latitude":"44.03556","Longitude":"-71.14010","Snowdepth":"15.500","Units":"in","Rept_Date":"2021-02-09 12"},"coordinates":[5963,5438]},{"type":"Point","properties":{"Station_ID":"ME-OX-29","Station_Nam":"SUMNER 1.1 N, ME","Latitude":"44.40840","Longitude":"-70.44010","Snowdepth":"15.500","Units":"in","Rept_Date":"2021-02-09 12"},"coordinates":[6122,5659]},{"type":"Point","properties":{"Station_ID":"IL-SP-25","Station_Nam":"FREEPORT 1.7 NW, IL","Latitude":"42.30427","Longitude":"-89.66285","Snowdepth":"15.500","Units":"in","Rept_Date":"2021-02-09 13"},"coordinates":[1731,4411]},{"type":"Point","properties":{"Station_ID":"IL-MCH-95","Station_Nam":"CARY 0.5 SSW, IL","Latitude":"42.20235","Longitude":"-88.25224","Snowdepth":"15.500","Units":"in","Rept_Date":"2021-02-09 13"},"coordinates":[2053,4350]},{"type":"Point","properties":{"Station_ID":"IL-KN-5","Station_Nam":"BATAVIA 0.7 WSW, IL","Latitude":"41.84815","Longitude":"-88.31440","Snowdepth":"15.500","Units":"in","Rept_Date":"2021-02-09 12"},"coordinates":[2039,4140]},{"type":"Point","properties":{"Station_ID":"IL-DK-28","Station_Nam":"DE KALB 0.7 SW, IL","Latitude":"41.92269","Longitude":"-88.76072","Snowdepth":"15.500","Units":"in","Rept_Date":"2021-02-09 13"},"coordinates":[1937,4185]},{"type":"Point","properties":{"Station_ID":"IL-DK-24","Station_Nam":"SOMONAUK 1.9 NE, IL","Latitude":"41.65063","Longitude":"-88.65663","Snowdepth":"15.500","Units":"in","Rept_Date":"2021-02-09 08"},"coordinates":[1961,4023]},{"type":"Point","properties":{"Station_ID":"IL-CK-75","Station_Nam":"ELK GROVE VILLAGE 2.2 WSW, IL","Latitude":"41.99526","Longitude":"-88.05270","Snowdepth":"15.500","Units":"in","Rept_Date":"2021-02-09 13"},"coordinates":[2099,4228]},{"type":"Point","properties":{"Station_ID":"IL-CK-50","Station_Nam":"PALOS PARK 1.3 SW, IL","Latitude":"41.65281","Longitude":"-87.86310","Snowdepth":"15.500","Units":"in","Rept_Date":"2021-02-09 13"},"coordinates":[2142,4025]},{"type":"Point","properties":{"Station_ID":"IL-CK-211","Station_Nam":"OAK LAWN 1.6 WNW, IL","Latitude":"41.72686","Longitude":"-87.77770","Snowdepth":"15.500","Units":"in","Rept_Date":"2021-02-09 14"},"coordinates":[2161,4068]},{"type":"Point","properties":{"Station_ID":"IL-CK-152","Station_Nam":"CHICAGO RIDGE 0.2 WSW, IL","Latitude":"41.70177","Longitude":"-87.78200","Snowdepth":"15.500","Units":"in","Rept_Date":"2021-02-09 13"},"coordinates":[2160,4054]},{"type":"Point","properties":{"Station_ID":"IA-JH-20","Station_Nam":"CORALVILLE 1.4 S, IA","Latitude":"41.67016","Longitude":"-91.60296","Snowdepth":"15.500","Units":"in","Rept_Date":"2021-02-09 14"},"coordinates":[1288,4035]},{"type":"Point","properties":{"Station_ID":"CAN-NS-103","Station_Nam":"TRAFALGAR 4.9 WSW, CAN","Latitude":"45.26217","Longitude":"-62.72285","Snowdepth":"15.500","Units":"in","Rept_Date":"2021-02-09 12"},"coordinates":[7886,6165]},{"type":"Point","properties":{"Station_ID":"RI-PR-50","Station_Nam":"HARRISVILLE 1.2 SSE, RI","Latitude":"41.95128","Longitude":"-71.67171","Snowdepth":"15.200","Units":"in","Rept_Date":"2021-02-09 12"},"coordinates":[5841,4202]},{"type":"Point","properties":{"Station_ID":"IL-MCH-80","Station_Nam":"HUNTLEY 0.1 SSE, IL","Latitude":"42.16628","Longitude":"-88.42308","Snowdepth":"15.200","Units":"in","Rept_Date":"2021-02-09 13"},"coordinates":[2014,4329]},{"type":"Point","properties":{"Station_ID":"QTV","Station_Nam":"QTV","Latitude":"49.66000","Longitude":"-69.35690","Snowdepth":"15.118","Units":"in","Rept_Date":"2021-02-09 12"},"coordinates":[6370,8773]},{"type":"Point","properties":{"Station_ID":"IL-CK-347","Station_Nam":"STREAMWOOD 1.1 WSW, IL","Latitude":"42.01288","Longitude":"-88.19227","Snowdepth":"15.100","Units":"in","Rept_Date":"2021-02-09 13"},"coordinates":[2067,4238]},{"type":"Point","properties":{"Station_ID":"WLLI2","Station_Nam":"WILLOW SPRINGS","Latitude":"41.70910","Longitude":"-87.95940","Snowdepth":"15.000","Units":"in","Rept_Date":"2021-02-09 14"},"coordinates":[2120,4058]},{"type":"Point","properties":{"Station_ID":"WILW3","Station_Nam":"RESERVOIR","Latitude":"45.70000","Longitude":"-89.83330","Snowdepth":"15.000","Units":"in","Rept_Date":"2021-02-09 12"},"coordinates":[1692,6425]},{"type":"Point","properties":{"Station_ID":"WI-WK-34","Station_Nam":"MUKWONAGO 5.3 W, WI","Latitude":"42.85380","Longitude":"-88.43550","Snowdepth":"15.000","Units":"in","Rept_Date":"2021-02-09 13"},"coordinates":[2011,4737]},{"type":"Point","properties":{"Station_ID":"WI-RC-3","Station_Nam":"RACINE 2.3 WSW, WI","Latitude":"42.71124","Longitude":"-87.84570","Snowdepth":"15.000","Units":"in","Rept_Date":"2021-02-09 13"},"coordinates":[2146,4652]},{"type":"Point","properties":{"Station_ID":"WI-DD-4","Station_Nam":"BEAVER DAM 1.4 SSW, WI","Latitude":"43.44719","Longitude":"-88.85260","Snowdepth":"15.000","Units":"in","Rept_Date":"2021-02-09 14"},"coordinates":[1916,5089]},{"type":"Point","properties":{"Station_ID":"WI-DA-99","Station_Nam":"FITCHBURG 1.1 NW, WI","Latitude":"42.99740","Longitude":"-89.44046","Snowdepth":"15.000","Units":"in","Rept_Date":"2021-02-09 13"},"coordinates":[1782,4822]},{"type":"Point","properties":{"Station_ID":"WI-CB-4","Station_Nam":"PORTAGE 5.7 WSW, WI","Latitude":"43.51411","Longitude":"-89.56910","Snowdepth":"15.000","Units":"in","Rept_Date":"2021-02-09 12"},"coordinates":[1752,5128]},{"type":"Point","properties":{"Station_ID":"WI-BY-2","Station_Nam":"MELLEN 18.6 SW, WI","Latitude":"46.16937","Longitude":"-90.98090","Snowdepth":"15.000","Units":"in","Rept_Date":"2021-02-09 13"},"coordinates":[1430,6703]},{"type":"Point","properties":{"Station_ID":"WDSV1","Station_Nam":"WOODSTOCK","Latitude":"43.63030","Longitude":"-72.50720","Snowdepth":"15.000","Units":"in","Rept_Date":"2021-02-09 13"},"coordinates":[5650,5197]},{"type":"Point","properties":{"Station_ID":"VT-WS-15","Station_Nam":"EAST CALAIS 1.5 SW, VT","Latitude":"44.35523","Longitude":"-72.45540","Snowdepth":"15.000","Units":"in","Rept_Date":"2021-02-09 12"},"coordinates":[5662,5627]},{"type":"Point","properties":{"Station_ID":"VT-OL-2","Station_Nam":"BARTON 3.0 ENE, VT","Latitude":"44.75863","Longitude":"-72.11680","Snowdepth":"15.000","Units":"in","Rept_Date":"2021-02-09 12"},"coordinates":[5739,5866]},{"type":"Point","properties":{"Station_ID":"VT-LM-1","Station_Nam":"STOWE 0.2 SW, VT","Latitude":"44.46399","Longitude":"-72.69070","Snowdepth":"15.000","Units":"in","Rept_Date":"2021-02-09 12"},"coordinates":[5608,5692]},{"type":"Point","properties":{"Station_ID":"VQAW3","Station_Nam":"VIROQUA","Latitude":"43.55970","Longitude":"-90.87560","Snowdepth":"15.000","Units":"in","Rept_Date":"2021-02-09 13"},"coordinates":[1454,5155]},{"type":"Point","properties":{"Station_ID":"VNTI4","Station_Nam":"VINTON","Latitude":"42.17020","Longitude":"-92.00770","Snowdepth":"15.000","Units":"in","Rept_Date":"2021-02-09 13"},"coordinates":[1195,4331]},{"type":"Point","properties":{"Station_ID":"TOPM1","Station_Nam":"TOPSFIELD","Latitude":"45.43470","Longitude":"-67.72020","Snowdepth":"15.000","Units":"in","Rept_Date":"2021-02-09 12"},"coordinates":[6744,6267]},{"type":"Point","properties":{"Station_ID":"TMWN3","Station_Nam":"TAMWORTH 4","Latitude":"43.86390","Longitude":"-71.26610","Snowdepth":"15.000","Units":"in","Rept_Date":"2021-02-09 12"},"coordinates":[5934,5336]},{"type":"Point","properties":{"Station_ID":"THJP1","Station_Nam":"OSGOOD HOLLOWN SNOW","Latitude":"41.86670","Longitude":"-77.31670","Snowdepth":"15.000","Units":"in","Rept_Date":"2021-02-09 16"},"coordinates":[4551,4151]},{"type":"Point","properties":{"Station_ID":"THDP1","Station_Nam":"HILLSIDE GUN CLUB SNOW","Latitude":"41.66670","Longitude":"-77.03330","Snowdepth":"15.000","Units":"in","Rept_Date":"2021-02-09 16"},"coordinates":[4616,4033]},{"type":"Point","properties":{"Station_ID":"STOW3","Station_Nam":"STOUGHTON,WI","Latitude":"42.91670","Longitude":"-89.21670","Snowdepth":"15.000","Units":"in","Rept_Date":"2021-02-09 13"},"coordinates":[1833,4774]},{"type":"Point","properties":{"Station_ID":"STGW3","Station_Nam":"ST GERMAIN","Latitude":"45.91550","Longitude":"-89.48940","Snowdepth":"15.000","Units":"in","Rept_Date":"2021-02-09 12"},"coordinates":[1770,6553]},{"type":"Point","properties":{"Station_ID":"SRAW3","Station_Nam":"SARONA","Latitude":"45.80250","Longitude":"-91.86700","Snowdepth":"15.000","Units":"in","Rept_Date":"2021-02-09 14"},"coordinates":[1227,6486]},{"type":"Point","properties":{"Station_ID":"SHHN6","Station_Nam":"SCHOHARIE VILLAGE","Latitude":"42.66500","Longitude":"-74.30360","Snowdepth":"15.000","Units":"in","Rept_Date":"2021-02-09 12"},"coordinates":[5240,4625]},{"type":"Point","properties":{"Station_ID":"SGVN6","Station_Nam":"SPRINGVILLE","Latitude":"42.54970","Longitude":"-78.57670","Snowdepth":"15.000","Units":"in","Rept_Date":"2021-02-09 23"},"coordinates":[4264,4556]},{"type":"Point","properties":{"Station_ID":"RHRW3","Station_Nam":"RHINELANDER WJFW TV-12","Latitude":"45.62220","Longitude":"-89.41000","Snowdepth":"15.000","Units":"in","Rept_Date":"2021-02-10 04"},"coordinates":[1789,6379]},{"type":"Point","properties":{"Station_ID":"RHLW3","Station_Nam":"RHINELANDER 4NE","Latitude":"45.65270","Longitude":"-89.30740","Snowdepth":"15.000","Units":"in","Rept_Date":"2021-02-09 12"},"coordinates":[1812,6397]},{"type":"Point","properties":{"Station_ID":"RHIW3","Station_Nam":"RHINELANDER","Latitude":"45.59860","Longitude":"-89.45080","Snowdepth":"15.000","Units":"in","Rept_Date":"2021-02-09 13"},"coordinates":[1779,6365]},{"type":"Point","properties":{"Station_ID":"RHI","Station_Nam":"RHINELANDER-ONEIDA COUNTY AIRPORT","Latitude":"45.63080","Longitude":"-89.46530","Snowdepth":"15.000","Units":"in","Rept_Date":"2021-02-09 12"},"coordinates":[1776,6384]},{"type":"Point","properties":{"Station_ID":"OKLM2","Station_Nam":"SINES DEEP CREEK LAKE","Latitude":"39.52270","Longitude":"-79.41310","Snowdepth":"15.000","Units":"in","Rept_Date":"2021-02-09 12"},"coordinates":[4072,2761]},{"type":"Point","properties":{"Station_ID":"NY-RL-8","Station_Nam":"STONY POINT 0.7 NW, NY","Latitude":"41.23490","Longitude":"-74.00790","Snowdepth":"15.000","Units":"in","Rept_Date":"2021-02-09 12"},"coordinates":[5307,3777]},{"type":"Point","properties":{"Station_ID":"NY-ER-158","Station_Nam":"EAST AURORA 2.7 SSE, NY","Latitude":"42.72936","Longitude":"-78.60561","Snowdepth":"15.000","Units":"in","Rept_Date":"2021-02-09 13"},"coordinates":[4257,4663]},{"type":"Point","properties":{"Station_ID":"NY-DL-23","Station_Nam":"LONG EDDY 6.5 NNE, NY","Latitude":"41.93510","Longitude":"-75.07840","Snowdepth":"15.000","Units":"in","Rept_Date":"2021-02-09 13"},"coordinates":[5063,4192]},{"type":"Point","properties":{"Station_ID":"NWSM1","Station_Nam":"NEW SHARON","Latitude":"44.63520","Longitude":"-70.00020","Snowdepth":"15.000","Units":"in","Rept_Date":"2021-02-09 12"},"coordinates":[6223,5793]},{"type":"Point","properties":{"Station_ID":"NPTV1","Station_Nam":"NEWPORT","Latitude":"44.94900","Longitude":"-72.19120","Snowdepth":"15.000","Units":"in","Rept_Date":"2021-02-09 12"},"coordinates":[5722,5979]},{"type":"Point","properties":{"Station_ID":"NJ-WR-5","Station_Nam":"HACKETTSTOWN 0.8 W, NJ","Latitude":"40.85155","Longitude":"-74.84030","Snowdepth":"15.000","Units":"in","Rept_Date":"2021-02-09 12"},"coordinates":[5117,3549]},{"type":"Point","properties":{"Station_ID":"NJ-UN-37","Station_Nam":"ELIZABETH 2.3 W, NJ","Latitude":"40.66234","Longitude":"-74.23562","Snowdepth":"15.000","Units":"in","Rept_Date":"2021-02-09 12"},"coordinates":[5255,3437]},{"type":"Point","properties":{"Station_ID":"NJ-SM-67","Station_Nam":"FRANKLIN TWP 2.4 ENE, NJ","Latitude":"40.49170","Longitude":"-74.51077","Snowdepth":"15.000","Units":"in","Rept_Date":"2021-02-09 12"},"coordinates":[5192,3336]},{"type":"Point","properties":{"Station_ID":"NJ-SM-11","Station_Nam":"BEDMINSTER TWP 2.9 ESE, NJ","Latitude":"40.65634","Longitude":"-74.63050","Snowdepth":"15.000","Units":"in","Rept_Date":"2021-02-09 11"},"coordinates":[5165,3434]},{"type":"Point","properties":{"Station_ID":"NJ-HN-9","Station_Nam":"FRANKLIN TWP 0.4 W, NJ","Latitude":"40.56633","Longitude":"-74.94430","Snowdepth":"15.000","Units":"in","Rept_Date":"2021-02-09 12"},"coordinates":[5093,3380]},{"type":"Point","properties":{"Station_ID":"NJ-HN-31","Station_Nam":"FRENCHTOWN 0.5 N, NJ","Latitude":"40.53420","Longitude":"-75.05590","Snowdepth":"15.000","Units":"in","Rept_Date":"2021-02-09 12"},"coordinates":[5068,3361]},{"type":"Point","properties":{"Station_ID":"NH-CR-27","Station_Nam":"TAMWORTH 0.4 NNW, NH","Latitude":"43.86449","Longitude":"-71.26610","Snowdepth":"15.000","Units":"in","Rept_Date":"2021-02-09 12"},"coordinates":[5934,5336]},{"type":"Point","properties":{"Station_ID":"NEWN3","Station_Nam":"NEWPORT","Latitude":"43.37720","Longitude":"-72.18120","Snowdepth":"15.000","Units":"in","Rept_Date":"2021-02-09 12"},"coordinates":[5725,5047]},{"type":"Point","properties":{"Station_ID":"NCON3","Station_Nam":"NORTH CONWAY","Latitude":"44.05620","Longitude":"-71.12970","Snowdepth":"15.000","Units":"in","Rept_Date":"2021-02-09 13"},"coordinates":[5965,5450]},{"type":"Point","properties":{"Station_ID":"MZUI4","Station_Nam":"MONTEZUMA,IA","Latitude":"41.58330","Longitude":"-92.53330","Snowdepth":"15.000","Units":"in","Rept_Date":"2021-02-09 13"},"coordinates":[1075,3983]},{"type":"Point","properties":{"Station_ID":"MWOW3","Station_Nam":"MUKWONAGO","Latitude":"42.85380","Longitude":"-88.43550","Snowdepth":"15.000","Units":"in","Rept_Date":"2021-02-09 13"},"coordinates":[2011,4737]},{"type":"Point","properties":{"Station_ID":"MTCI2","Station_Nam":"MOUNT CARROLL","Latitude":"42.09800","Longitude":"-89.98410","Snowdepth":"15.000","Units":"in","Rept_Date":"2021-02-09 14"},"coordinates":[1657,4289]},{"type":"Point","properties":{"Station_ID":"MI-OT-17","Station_Nam":"GAYLORD 4.1 S, MI","Latitude":"44.96388","Longitude":"-84.68467","Snowdepth":"15.000","Units":"in","Rept_Date":"2021-02-09 12"},"coordinates":[2868,5988]},{"type":"Point","properties":{"Station_ID":"MI-MQ-28","Station_Nam":"CARLSHEND, MI","Latitude":"46.31638","Longitude":"-87.19944","Snowdepth":"15.000","Units":"in","Rept_Date":"2021-02-09 13"},"coordinates":[2294,6790]},{"type":"Point","properties":{"Station_ID":"MHYI2","Station_Nam":"MCHENRY -WG STRATTON L&D","Latitude":"42.30910","Longitude":"-88.25330","Snowdepth":"15.000","Units":"in","Rept_Date":"2021-02-09 14"},"coordinates":[2053,4414]},{"type":"Point","properties":{"Station_ID":"MA-MD-51","Station_Nam":"MAYNARD 0.7 ESE, MA","Latitude":"42.42027","Longitude":"-71.44484","Snowdepth":"15.000","Units":"in","Rept_Date":"2021-02-09 12"},"coordinates":[5893,4480]},{"type":"Point","properties":{"Station_ID":"MA-MD-156","Station_Nam":"MARLBOROUGH 2.8 ENE, MA","Latitude":"42.37021","Longitude":"-71.50011","Snowdepth":"15.000","Units":"in","Rept_Date":"2021-02-09 11"},"coordinates":[5880,4450]},{"type":"Point","properties":{"Station_ID":"LNCM1","Station_Nam":"LINCOLN WATER DISTRICT","Latitude":"45.32410","Longitude":"-68.58300","Snowdepth":"15.000","Units":"in","Rept_Date":"2021-02-09 13"},"coordinates":[6547,6202]},{"type":"Point","properties":{"Station_ID":"LGEW3","Station_Nam":"LAKE GENEVA, WI","Latitude":"42.60000","Longitude":"-88.43440","Snowdepth":"15.000","Units":"in","Rept_Date":"2021-02-09 13"},"coordinates":[2011,4586]},{"type":"Point","properties":{"Station_ID":"KISM4","Station_Nam":"K.I. SAWYER WWTP","Latitude":"46.33410","Longitude":"-87.37790","Snowdepth":"15.000","Units":"in","Rept_Date":"2021-02-09 13"},"coordinates":[2253,6801]},{"type":"Point","properties":{"Station_ID":"ISLV1","Station_Nam":"ISLAND POND","Latitude":"44.81280","Longitude":"-71.89020","Snowdepth":"15.000","Units":"in","Rept_Date":"2021-02-09 13"},"coordinates":[5791,5899]},{"type":"Point","properties":{"Station_ID":"IL-SP-6","Station_Nam":"FREEPORT 2.0 NW, IL","Latitude":"42.30955","Longitude":"-89.66370","Snowdepth":"15.000","Units":"in","Rept_Date":"2021-02-09 13"},"coordinates":[1731,4414]},{"type":"Point","properties":{"Station_ID":"IL-MCH-43","Station_Nam":"ALGONQUIN 0.7 N, IL","Latitude":"42.17392","Longitude":"-88.29930","Snowdepth":"15.000","Units":"in","Rept_Date":"2021-02-09 12"},"coordinates":[2042,4334]},{"type":"Point","properties":{"Station_ID":"IL-MCH-13","Station_Nam":"BULL VALLEY 2.5 WNW, IL","Latitude":"42.32455","Longitude":"-88.39460","Snowdepth":"15.000","Units":"in","Rept_Date":"2021-02-09 14"},"coordinates":[2021,4423]},{"type":"Point","properties":{"Station_ID":"IL-LE-23","Station_Nam":"SUBLETTE 3.1 WNW, IL","Latitude":"41.65939","Longitude":"-89.28867","Snowdepth":"15.000","Units":"in","Rept_Date":"2021-02-09 13"},"coordinates":[1816,4028]},{"type":"Point","properties":{"Station_ID":"IL-KN-64","Station_Nam":"ST. CHARLES 0.1 E, IL","Latitude":"41.92010","Longitude":"-88.29900","Snowdepth":"15.000","Units":"in","Rept_Date":"2021-02-09 14"},"coordinates":[2042,4183]},{"type":"Point","properties":{"Station_ID":"IL-DP-109","Station_Nam":"ELMHURST 0.8 ESE, IL","Latitude":"41.89287","Longitude":"-87.92960","Snowdepth":"15.000","Units":"in","Rept_Date":"2021-02-09 13"},"coordinates":[2127,4167]},{"type":"Point","properties":{"Station_ID":"IL-CP-135","Station_Nam":"URBANA 2.2 SE, IL","Latitude":"40.09061","Longitude":"-88.17101","Snowdepth":"15.000","Units":"in","Rept_Date":"2021-02-09 13"},"coordinates":[2072,3098]},{"type":"Point","properties":{"Station_ID":"IL-CK-64","Station_Nam":"HOMEWOOD 0.1 ESE, IL","Latitude":"41.55769","Longitude":"-87.65940","Snowdepth":"15.000","Units":"in","Rept_Date":"2021-02-09 13"},"coordinates":[2188,3968]},{"type":"Point","properties":{"Station_ID":"IL-CK-12","Station_Nam":"BRIDGEVIEW 1.3 NNW, IL","Latitude":"41.75502","Longitude":"-87.81730","Snowdepth":"15.000","Units":"in","Rept_Date":"2021-02-09 13"},"coordinates":[2152,4085]},{"type":"Point","properties":{"Station_ID":"IA-ST-48","Station_Nam":"BETTENDORF 1.6 W, IA","Latitude":"41.56502","Longitude":"-90.50767","Snowdepth":"15.000","Units":"in","Rept_Date":"2021-02-09 13"},"coordinates":[1538,3972]},{"type":"Point","properties":{"Station_ID":"GTTI4","Station_Nam":"LOCK & DAM 10","Latitude":"42.78580","Longitude":"-91.09970","Snowdepth":"15.000","Units":"in","Rept_Date":"2021-02-09 14"},"coordinates":[1403,4696]},{"type":"Point","properties":{"Station_ID":"GRWI4","Station_Nam":"GARWIN,IA","Latitude":"42.10000","Longitude":"-92.66670","Snowdepth":"15.000","Units":"in","Rept_Date":"2021-02-09 12"},"coordinates":[1045,4290]},{"type":"Point","properties":{"Station_ID":"GNFM5","Station_Nam":"GUNFLINT LAKE","Latitude":"48.16670","Longitude":"-90.88750","Snowdepth":"15.000","Units":"in","Rept_Date":"2021-02-09 13"},"coordinates":[1451,7888]},{"type":"Point","properties":{"Station_ID":"FLNW3","Station_Nam":"FLORENCE","Latitude":"45.93360","Longitude":"-88.25830","Snowdepth":"15.000","Units":"in","Rept_Date":"2021-02-09 13"},"coordinates":[2052,6563]},{"type":"Point","properties":{"Station_ID":"ENFV1","Station_Nam":"ENOSBURG FALLS 2","Latitude":"44.90960","Longitude":"-72.81370","Snowdepth":"15.000","Units":"in","Rept_Date":"2021-02-09 10"},"coordinates":[5580,5956]},{"type":"Point","properties":{"Station_ID":"CT-NH-43","Station_Nam":"WALLINGFORD CENTER 3.3 NNW, CT","Latitude":"41.49109","Longitude":"-72.85065","Snowdepth":"15.000","Units":"in","Rept_Date":"2021-02-09 13"},"coordinates":[5572,3929]},{"type":"Point","properties":{"Station_ID":"CT-FR-85","Station_Nam":"DANBURY 3.0 W, CT","Latitude":"41.39710","Longitude":"-73.52960","Snowdepth":"15.000","Units":"in","Rept_Date":"2021-02-09 13"},"coordinates":[5417,3873]},{"type":"Point","properties":{"Station_ID":"CMKW3","Station_Nam":"CLAM LAKE 4W","Latitude":"46.16940","Longitude":"-90.98080","Snowdepth":"15.000","Units":"in","Rept_Date":"2021-02-09 13"},"coordinates":[1430,6703]},{"type":"Point","properties":{"Station_ID":"CLNI4","Station_Nam":"CLINTON NO 1","Latitude":"41.79470","Longitude":"-90.26390","Snowdepth":"15.000","Units":"in","Rept_Date":"2021-02-10 00"},"coordinates":[1593,4109]},{"type":"Point","properties":{"Station_ID":"CARN6","Station_Nam":"CARMEL 4N","Latitude":"41.47250","Longitude":"-73.65500","Snowdepth":"15.000","Units":"in","Rept_Date":"2021-02-09 13"},"coordinates":[5388,3918]},{"type":"Point","properties":{"Station_ID":"CAN-PE-19","Station_Nam":"CHARLOTTETOWN 6.5 NNW, CAN","Latitude":"46.29235","Longitude":"-63.17271","Snowdepth":"15.000","Units":"in","Rept_Date":"2021-02-09 12"},"coordinates":[7783,6776]},{"type":"Point","properties":{"Station_ID":"CAN-NS-39","Station_Nam":"ST. ANNS 2.8 NW, CA","Latitude":"46.25082","Longitude":"-60.64340","Snowdepth":"15.000","Units":"in","Rept_Date":"2021-02-09 11"},"coordinates":[8361,6751]},{"type":"Point","properties":{"Station_ID":"CAN-NB-57","Station_Nam":"JOLICURE 2.8 NE, CAN","Latitude":"45.96081","Longitude":"-64.18848","Snowdepth":"15.000","Units":"in","Rept_Date":"2021-02-09 13"},"coordinates":[7551,6579]},{"type":"Point","properties":{"Station_ID":"CAN-NB-16","Station_Nam":"DORCHESTER 1.0 SSE, CAN","Latitude":"45.89160","Longitude":"-64.51269","Snowdepth":"15.000","Units":"in","Rept_Date":"2021-02-09 11"},"coordinates":[7477,6538]},{"type":"Point","properties":{"Station_ID":"CAAW2","Station_Nam":"CANAAN VALLEY","Latitude":"39.05890","Longitude":"-79.44030","Snowdepth":"15.000","Units":"in","Rept_Date":"2021-02-09 14"},"coordinates":[4066,2486]},{"type":"Point","properties":{"Station_ID":"BROW3","Station_Nam":"BRODHEAD,WI","Latitude":"42.61720","Longitude":"-89.38970","Snowdepth":"15.000","Units":"in","Rept_Date":"2021-02-09 13"},"coordinates":[1793,4596]},{"type":"Point","properties":{"Station_ID":"BLHM3","Station_Nam":"BLUE HILL COOP","Latitude":"42.21230","Longitude":"-71.11370","Snowdepth":"15.000","Units":"in","Rept_Date":"2021-02-09 12"},"coordinates":[5969,4356]},{"type":"Point","properties":{"Station_ID":"BETM1","Station_Nam":"BETHEL 6 SSE","Latitude":"44.32000","Longitude":"-70.75680","Snowdepth":"15.000","Units":"in","Rept_Date":"2021-02-09 12"},"coordinates":[6050,5606]},{"type":"Point","properties":{"Station_ID":"ADEN6","Station_Nam":"WEST ALMOND 1E SNOW","Latitude":"42.30000","Longitude":"-77.86670","Snowdepth":"15.000","Units":"in","Rept_Date":"2021-02-09 19"},"coordinates":[4426,4408]},{"type":"Point","properties":{"Station_ID":"42.0800_080.0143","Station_Nam":"ERIE 5SE  SNOW SPOTTER (X4210800)","Latitude":"42.08000","Longitude":"-80.01430","Snowdepth":"15.000","Units":"in","Rept_Date":"2021-02-10 00"},"coordinates":[3935,4278]},{"type":"Point","properties":{"Station_ID":"QMD","Station_Nam":"QMD","Latitude":"49.29060","Longitude":"-75.84500","Snowdepth":"14.803","Units":"in","Rept_Date":"2021-02-09 12"},"coordinates":[4888,8554]},{"type":"Point","properties":{"Station_ID":"CAN-ON-451","Station_Nam":"OWEN SOUND 1.2 N - GSCA, CAN","Latitude":"44.58092","Longitude":"-80.93025","Snowdepth":"14.600","Units":"in","Rept_Date":"2021-02-09 13"},"coordinates":[3726,5761]},{"type":"Point","properties":{"Station_ID":"WI-WW-2","Station_Nam":"LAKE GENEVA 0.6 ENE, WI","Latitude":"42.59169","Longitude":"-88.41770","Snowdepth":"14.500","Units":"in","Rept_Date":"2021-02-09 13"},"coordinates":[2015,4581]},{"type":"Point","properties":{"Station_ID":"WI-OZ-12","Station_Nam":"PORT WASHINGTON 0.5 S, WI","Latitude":"43.38610","Longitude":"-87.87900","Snowdepth":"14.500","Units":"in","Rept_Date":"2021-02-09 13"},"coordinates":[2138,5052]},{"type":"Point","properties":{"Station_ID":"PA-CB-12","Station_Nam":"BOWMANSTOWN 3.0 WSW, PA","Latitude":"40.77897","Longitude":"-75.71130","Snowdepth":"14.500","Units":"in","Rept_Date":"2021-02-09 18"},"coordinates":[4918,3506]},{"type":"Point","properties":{"Station_ID":"NY-WC-18","Station_Nam":"ARMONK 0.3 SE, NY","Latitude":"41.12996","Longitude":"-73.70816","Snowdepth":"14.500","Units":"in","Rept_Date":"2021-02-09 13"},"coordinates":[5376,3714]},{"type":"Point","properties":{"Station_ID":"NY-TM-18","Station_Nam":"EAST ITHACA 4.7 E, NY","Latitude":"42.41910","Longitude":"-76.37330","Snowdepth":"14.500","Units":"in","Rept_Date":"2021-02-09 12"},"coordinates":[4767,4479]},{"type":"Point","properties":{"Station_ID":"NY-PT-2","Station_Nam":"BEACON 4.2 ESE, NY","Latitude":"41.48070","Longitude":"-73.89110","Snowdepth":"14.500","Units":"in","Rept_Date":"2021-02-09 12"},"coordinates":[5334,3922]},{"type":"Point","properties":{"Station_ID":"NJ-SM-86","Station_Nam":"BRIDGEWATER TWP 3.1 SW, NJ","Latitude":"40.56607","Longitude":"-74.65406","Snowdepth":"14.500","Units":"in","Rept_Date":"2021-02-09 12"},"coordinates":[5160,3380]},{"type":"Point","properties":{"Station_ID":"NJ-SM-5","Station_Nam":"BRIDGEWATER TWP 3.3 NW, NJ","Latitude":"40.62625","Longitude":"-74.65350","Snowdepth":"14.500","Units":"in","Rept_Date":"2021-02-09 12"},"coordinates":[5160,3416]},{"type":"Point","properties":{"Station_ID":"MI-BZ-1","Station_Nam":"BENZONIA 5.3 S, MI","Latitude":"44.53976","Longitude":"-86.10650","Snowdepth":"14.500","Units":"in","Rept_Date":"2021-02-09 13"},"coordinates":[2543,5737]},{"type":"Point","properties":{"Station_ID":"MA-WR-89","Station_Nam":"HOLDEN 0.9 SSE, MA","Latitude":"42.33809","Longitude":"-71.85686","Snowdepth":"14.500","Units":"in","Rept_Date":"2021-02-09 12"},"coordinates":[5799,4431]},{"type":"Point","properties":{"Station_ID":"MA-WR-41","Station_Nam":"AUBURN 2.6 SW, MA","Latitude":"42.17336","Longitude":"-71.86869","Snowdepth":"14.500","Units":"in","Rept_Date":"2021-02-09 13"},"coordinates":[5796,4333]},{"type":"Point","properties":{"Station_ID":"IL-WL-166","Station_Nam":"NAPERVILLE 3.6 SE, IL","Latitude":"41.72312","Longitude":"-88.10876","Snowdepth":"14.500","Units":"in","Rept_Date":"2021-02-09 15"},"coordinates":[2086,4066]},{"type":"Point","properties":{"Station_ID":"IL-WL-131","Station_Nam":"HOMER GLEN 0.7 NNE, IL","Latitude":"41.60842","Longitude":"-87.93270","Snowdepth":"14.500","Units":"in","Rept_Date":"2021-02-09 13"},"coordinates":[2126,3998]},{"type":"Point","properties":{"Station_ID":"IL-KN-23","Station_Nam":"BATAVIA 1.5 WNW, IL","Latitude":"41.85937","Longitude":"-88.32750","Snowdepth":"14.500","Units":"in","Rept_Date":"2021-02-09 13"},"coordinates":[2036,4147]},{"type":"Point","properties":{"Station_ID":"IL-DP-118","Station_Nam":"DARIEN 0.4 SSE, IL","Latitude":"41.74312","Longitude":"-87.97462","Snowdepth":"14.500","Units":"in","Rept_Date":"2021-02-09 14"},"coordinates":[2116,4078]},{"type":"Point","properties":{"Station_ID":"IL-CK-149","Station_Nam":"OAK LAWN 0.5 SSW, IL","Latitude":"41.70845","Longitude":"-87.75390","Snowdepth":"14.500","Units":"in","Rept_Date":"2021-02-09 14"},"coordinates":[2167,4058]},{"type":"Point","properties":{"Station_ID":"IA-BT-16","Station_Nam":"SHELLSBURG 2.9 S, IA","Latitude":"42.05091","Longitude":"-91.87008","Snowdepth":"14.500","Units":"in","Rept_Date":"2021-02-09 13"},"coordinates":[1227,4261]},{"type":"Point","properties":{"Station_ID":"IA-BT-12","Station_Nam":"FAIRFAX 4.0 NW, IA","Latitude":"41.96223","Longitude":"-91.83675","Snowdepth":"14.500","Units":"in","Rept_Date":"2021-02-09 13"},"coordinates":[1234,4208]},{"type":"Point","properties":{"Station_ID":"F8114_MADIS","Station_Nam":"FW8114 BRIDGEWATER","Latitude":"40.62650","Longitude":"-74.65470","Snowdepth":"14.500","Units":"in","Rept_Date":"2021-02-09 12"},"coordinates":[5160,3416]},{"type":"Point","properties":{"Station_ID":"NJ-MS-59","Station_Nam":"MADISON 0.8 WSW, NJ","Latitude":"40.75239","Longitude":"-74.42972","Snowdepth":"14.300","Units":"in","Rept_Date":"2021-02-09 12"},"coordinates":[5211,3491]},{"type":"Point","properties":{"Station_ID":"IL-SP-14","Station_Nam":"FREEPORT 1.7 ESE, IL","Latitude":"42.28257","Longitude":"-89.60360","Snowdepth":"14.200","Units":"in","Rept_Date":"2021-02-09 13"},"coordinates":[1744,4398]},{"type":"Point","properties":{"Station_ID":"CAN-ON-526","Station_Nam":"HILTON BEACH 0.7 SW - MNRF, CAN","Latitude":"46.25357","Longitude":"-83.90014","Snowdepth":"14.200","Units":"in","Rept_Date":"2021-02-09 12"},"coordinates":[3047,6753]},{"type":"Point","properties":{"Station_ID":"CAN-NS-166","Station_Nam":"PORT MORIEN 5.7 SSE, CAN","Latitude":"46.08367","Longitude":"-59.85858","Snowdepth":"14.200","Units":"in","Rept_Date":"2021-02-09 10"},"coordinates":[8540,6652]},{"type":"Point","properties":{"Station_ID":"QGD","Station_Nam":"QGD","Latitude":"51.11140","Longitude":"-67.13940","Snowdepth":"14.016","Units":"in","Rept_Date":"2021-02-09 12"},"coordinates":[6877,9634]},{"type":"Point","properties":{"Station_ID":"WRSM5","Station_Nam":"WRENSHALL","Latitude":"46.61550","Longitude":"-92.38380","Snowdepth":"14.000","Units":"in","Rept_Date":"2021-02-09 14"},"coordinates":[1109,6968]},