{"type":"Topology","objects":{"snowdepth_geo":{"type":"GeometryCollection","name":"snowdepth","crs":{"type":"name","properties":{"name":"urn:ogc:def:crs:OGC:1.3:CRS84"}},"geometries":[{"type":"Point","properties":{"Station_ID":"PRKM4","Station_Nam":"MUNISING EAST","Latitude":"46.42580","Longitude":"-86.62000","Snowdepth":"76.500","Units":"in","Rept_Date":"2021-01-16 06"},"coordinates":[2426,6783]},{"type":"Point","properties":{"Station_ID":"QCO","Station_Nam":"QCO","Latitude":"51.45280","Longitude":"-72.20110","Snowdepth":"20.394","Units":"in","Rept_Date":"2021-01-15 12"},"coordinates":[5720,9833]},{"type":"Point","properties":{"Station_ID":"QLB","Station_Nam":"QLB","Latitude":"50.72360","Longitude":"-75.10000","Snowdepth":"20.039","Units":"in","Rept_Date":"2021-01-15 12"},"coordinates":[5058,9390]},{"type":"Point","properties":{"Station_ID":"QGO","Station_Nam":"QGO","Latitude":"48.85500","Longitude":"-74.20640","Snowdepth":"19.803","Units":"in","Rept_Date":"2021-01-15 12"},"coordinates":[5262,8257]},{"type":"Point","properties":{"Station_ID":"TRIQ6","Station_Nam":"TRIO LAKE","Latitude":"49.22880","Longitude":"-87.22920","Snowdepth":"19.410","Units":"in","Rept_Date":"2021-01-16 06"},"coordinates":[2287,8483]},{"type":"Point","properties":{"Station_ID":"QTM","Station_Nam":"QTM","Latitude":"51.05780","Longitude":"-72.57190","Snowdepth":"18.937","Units":"in","Rept_Date":"2021-01-15 12"},"coordinates":[5635,9593]},{"type":"Point","properties":{"Station_ID":"PTLQ6","Station_Nam":"PORTAGE LAKE","Latitude":"49.06950","Longitude":"-86.65940","Snowdepth":"18.580","Units":"in","Rept_Date":"2021-01-16 06"},"coordinates":[2417,8387]},{"type":"Point","properties":{"Station_ID":"AUDQ6","Station_Nam":"AUDEN","Latitude":"48.52600","Longitude":"-82.57570","Snowdepth":"17.910","Units":"in","Rept_Date":"2021-01-16 06"},"coordinates":[3350,8057]},{"type":"Point","properties":{"Station_ID":"QFT","Station_Nam":"QFT","Latitude":"50.83280","Longitude":"-74.40390","Snowdepth":"17.008","Units":"in","Rept_Date":"2021-01-15 12"},"coordinates":[5217,9457]},{"type":"Point","properties":{"Station_ID":"DVLQ6","Station_Nam":"DEVIOUS LAKE","Latitude":"49.19890","Longitude":"-87.76440","Snowdepth":"16.460","Units":"in","Rept_Date":"2021-01-16 06"},"coordinates":[2165,8465]},{"type":"Point","properties":{"Station_ID":"PDLM4","Station_Nam":"PAINESDALE","Latitude":"47.04160","Longitude":"-88.67170","Snowdepth":"16.000","Units":"in","Rept_Date":"2021-01-15 13"},"coordinates":[1957,7157]},{"type":"Point","properties":{"Station_ID":"IWOM4","Station_Nam":"IRONWOOD#2","Latitude":"46.46520","Longitude":"-90.13820","Snowdepth":"16.000","Units":"in","Rept_Date":"2021-01-15 13"},"coordinates":[1622,6807]},{"type":"Point","properties":{"Station_ID":"IA-PT-13","Station_Nam":"COUNCIL BLUFFS 2.1 SSE, IA","Latitude":"41.21159","Longitude":"-95.84800","Snowdepth":"15.000","Units":"in","Rept_Date":"2021-01-15 14"},"coordinates":[318,3620]},{"type":"Point","properties":{"Station_ID":"HURW3","Station_Nam":"HURLEY","Latitude":"46.46250","Longitude":"-90.19550","Snowdepth":"15.000","Units":"in","Rept_Date":"2021-01-15 14"},"coordinates":[1609,6805]},{"type":"Point","properties":{"Station_ID":"HTLN3","Station_Nam":"HERMIT LAKE SNOWPLOT","Latitude":"44.26130","Longitude":"-71.28330","Snowdepth":"15.000","Units":"in","Rept_Date":"2021-01-15 10"},"coordinates":[5930,5470]},{"type":"Point","properties":{"Station_ID":"CLQM5","Station_Nam":"CLOQUET","Latitude":"46.70470","Longitude":"-92.52530","Snowdepth":"15.000","Units":"in","Rept_Date":"2021-01-15 14"},"coordinates":[1077,6952]},{"type":"Point","properties":{"Station_ID":"MMNV1","Station_Nam":"MT. MANSFIELD","Latitude":"44.52480","Longitude":"-72.81540","Snowdepth":"14.000","Units":"in","Rept_Date":"2021-01-15 21"},"coordinates":[5580,5630]},{"type":"Point","properties":{"Station_ID":"CAN-ON-245","Station_Nam":"PHELPSTON 3.1 ESE, CAN","Latitude":"44.50564","Longitude":"-79.81035","Snowdepth":"14.000","Units":"in","Rept_Date":"2021-01-15 13"},"coordinates":[3982,5618]},{"type":"Point","properties":{"Station_ID":"QOU","Station_Nam":"QOU","Latitude":"50.79250","Longitude":"-69.67470","Snowdepth":"13.622","Units":"in","Rept_Date":"2021-01-15 12"},"coordinates":[6297,9432]},{"type":"Point","properties":{"Station_ID":"WI-BY-14","Station_Nam":"ASHLAND 9.8 W, WI","Latitude":"46.59742","Longitude":"-91.07856","Snowdepth":"13.500","Units":"in","Rept_Date":"2021-01-15 12"},"coordinates":[1407,6887]},{"type":"Point","properties":{"Station_ID":"WLFM5","Station_Nam":"WOLF RIDGE ENVIRON LEARNING CENTER","Latitude":"47.38240","Longitude":"-91.19730","Snowdepth":"13.000","Units":"in","Rept_Date":"2021-01-15 13"},"coordinates":[1380,7363]},{"type":"Point","properties":{"Station_ID":"MN-IT-7","Station_Nam":"GRAND RAPIDS 6.2 SSW, MN","Latitude":"47.13687","Longitude":"-93.56660","Snowdepth":"13.000","Units":"in","Rept_Date":"2021-01-15 12"},"coordinates":[839,7214]},{"type":"Point","properties":{"Station_ID":"OGIQ6","Station_Nam":"OGOKI CAMP","Latitude":"50.76680","Longitude":"-87.85820","Snowdepth":"12.720","Units":"in","Rept_Date":"2021-01-16 06"},"coordinates":[2143,9417]},{"type":"Point","properties":{"Station_ID":"MN-IS-18","Station_Nam":"BRAHAM 0.7 SW, MN","Latitude":"45.71379","Longitude":"-93.18095","Snowdepth":"12.500","Units":"in","Rept_Date":"2021-01-15 14"},"coordinates":[927,6351]},{"type":"Point","properties":{"Station_ID":"HLSN3","Station_Nam":"HERMIT LAKE SNOTEL","Latitude":"44.26130","Longitude":"-71.28320","Snowdepth":"12.010","Units":"in","Rept_Date":"2021-01-16 06"},"coordinates":[5930,5470]},{"type":"Point","properties":{"Station_ID":"MN-SL-15","Station_Nam":"CHISHOLM 0.4 WSW, MN","Latitude":"47.48557","Longitude":"-92.88690","Snowdepth":"12.000","Units":"in","Rept_Date":"2021-01-15 13"},"coordinates":[994,7426]},{"type":"Point","properties":{"Station_ID":"LNCM1","Station_Nam":"LINCOLN WATER DISTRICT","Latitude":"45.32410","Longitude":"-68.58300","Snowdepth":"12.000","Units":"in","Rept_Date":"2021-01-15 12"},"coordinates":[6547,6115]},{"type":"Point","properties":{"Station_ID":"INDM5","Station_Nam":"INDUS,MN","Latitude":"48.61670","Longitude":"-93.90000","Snowdepth":"12.000","Units":"in","Rept_Date":"2021-01-15 14"},"coordinates":[763,8112]},{"type":"Point","properties":{"Station_ID":"HERM4","Station_Nam":"HERMAN,MI","Latitude":"46.65000","Longitude":"-88.33330","Snowdepth":"12.000","Units":"in","Rept_Date":"2021-01-15 15"},"coordinates":[2035,6919]},{"type":"Point","properties":{"Station_ID":"BERM4","Station_Nam":"BERGLAND DAM","Latitude":"46.58690","Longitude":"-89.54750","Snowdepth":"12.000","Units":"in","Rept_Date":"2021-01-15 13"},"coordinates":[1757,6881]},{"type":"Point","properties":{"Station_ID":"QMD","Station_Nam":"QMD","Latitude":"49.29060","Longitude":"-75.84500","Snowdepth":"11.929","Units":"in","Rept_Date":"2021-01-15 12"},"coordinates":[4888,8521]},{"type":"Point","properties":{"Station_ID":"QLI","Station_Nam":"QLI","Latitude":"50.27080","Longitude":"-73.92280","Snowdepth":"11.850","Units":"in","Rept_Date":"2021-01-15 12"},"coordinates":[5327,9116]},{"type":"Point","properties":{"Station_ID":"KABQ6","Station_Nam":"CAB LAKE","Latitude":"49.59950","Longitude":"-89.17990","Snowdepth":"11.770","Units":"in","Rept_Date":"2021-01-16 06"},"coordinates":[1841,8708]},{"type":"Point","properties":{"Station_ID":"QWE","Station_Nam":"QWE","Latitude":"47.84610","Longitude":"-73.80670","Snowdepth":"11.378","Units":"in","Rept_Date":"2021-01-15 12"},"coordinates":[5353,7645]},{"type":"Point","properties":{"Station_ID":"SVBQ6","Station_Nam":"SAVANT BASE","Latitude":"50.28730","Longitude":"-90.65670","Snowdepth":"11.220","Units":"in","Rept_Date":"2021-01-16 06"},"coordinates":[1504,9126]},{"type":"Point","properties":{"Station_ID":"WRSM5","Station_Nam":"WRENSHALL","Latitude":"46.61550","Longitude":"-92.38380","Snowdepth":"11.000","Units":"in","Rept_Date":"2021-01-15 15"},"coordinates":[1109,6898]},{"type":"Point","properties":{"Station_ID":"WNBM5","Station_Nam":"DAM","Latitude":"47.43060","Longitude":"-94.05000","Snowdepth":"11.000","Units":"in","Rept_Date":"2021-01-15 14"},"coordinates":[728,7393]},{"type":"Point","properties":{"Station_ID":"QNCM4","Station_Nam":"QUINCY HILL","Latitude":"47.13640","Longitude":"-88.57950","Snowdepth":"11.000","Units":"in","Rept_Date":"2021-01-15 12"},"coordinates":[1978,7214]},{"type":"Point","properties":{"Station_ID":"PKGM5","Station_Nam":"POKEGANA LK DAM","Latitude":"47.25080","Longitude":"-93.58610","Snowdepth":"11.000","Units":"in","Rept_Date":"2021-01-15 14"},"coordinates":[834,7283]},{"type":"Point","properties":{"Station_ID":"ONMM5","Station_Nam":"ONAMIA RANGER STATION","Latitude":"46.06770","Longitude":"-93.66660","Snowdepth":"11.000","Units":"in","Rept_Date":"2021-01-15 15"},"coordinates":[816,6566]},{"type":"Point","properties":{"Station_ID":"MQT","Station_Nam":"MARQUETTE, MI","Latitude":"46.53140","Longitude":"-87.54920","Snowdepth":"11.000","Units":"in","Rept_Date":"2021-01-16 06"},"coordinates":[2214,6847]},{"type":"Point","properties":{"Station_ID":"MN-SL-18","Station_Nam":"DULUTH 1.4 NNW, MN","Latitude":"46.80321","Longitude":"-92.11240","Snowdepth":"11.000","Units":"in","Rept_Date":"2021-01-15 14"},"coordinates":[1171,7012]},{"type":"Point","properties":{"Station_ID":"MN-SE-2","Station_Nam":"OWATONNA 0.8 E, MN","Latitude":"44.09170","Longitude":"-93.21380","Snowdepth":"11.000","Units":"in","Rept_Date":"2021-01-15 13"},"coordinates":[920,5367]},{"type":"Point","properties":{"Station_ID":"MN-GH-28","Station_Nam":"CANNON FALLS 0.5 SE, MN","Latitude":"44.50866","Longitude":"-92.89526","Snowdepth":"11.000","Units":"in","Rept_Date":"2021-01-15 14"},"coordinates":[992,5620]},{"type":"Point","properties":{"Station_ID":"MN-AA-76","Station_Nam":"NOWTHEN 2.9 SSE, MN","Latitude":"45.30360","Longitude":"-93.42620","Snowdepth":"11.000","Units":"in","Rept_Date":"2021-01-15 13"},"coordinates":[871,6102]},{"type":"Point","properties":{"Station_ID":"KSGM4","Station_Nam":"KEARSARGE","Latitude":"47.27520","Longitude":"-88.41700","Snowdepth":"11.000","Units":"in","Rept_Date":"2021-01-15 13"},"coordinates":[2015,7298]},{"type":"Point","properties":{"Station_ID":"KABM5","Station_Nam":"KABETOGAMA LAKE VISITOR CTR","Latitude":"48.40880","Longitude":"-93.04840","Snowdepth":"11.000","Units":"in","Rept_Date":"2021-01-15 13"},"coordinates":[957,7986]},{"type":"Point","properties":{"Station_ID":"HGHN6","Station_Nam":"HIGHMARKET","Latitude":"43.60510","Longitude":"-75.55430","Snowdepth":"11.000","Units":"in","Rept_Date":"2021-01-15 11"},"coordinates":[4954,5072]},{"type":"Point","properties":{"Station_ID":"CMKW3","Station_Nam":"CLAM LAKE 4W","Latitude":"46.16940","Longitude":"-90.98080","Snowdepth":"11.000","Units":"in","Rept_Date":"2021-01-15 13"},"coordinates":[1430,6627]},{"type":"Point","properties":{"Station_ID":"CAN-MB-32","Station_Nam":"PINAWA 1.0 SW, CA","Latitude":"50.14747","Longitude":"-95.89020","Snowdepth":"11.000","Units":"in","Rept_Date":"2021-01-15 13"},"coordinates":[308,9041]},{"type":"Point","properties":{"Station_ID":"SOCQ6","Station_Nam":"SOCKET LAKE","Latitude":"50.77870","Longitude":"-91.79300","Snowdepth":"10.910","Units":"in","Rept_Date":"2021-01-16 06"},"coordinates":[1244,9424]},{"type":"Point","properties":{"Station_ID":"WI-BY-2","Station_Nam":"MELLEN 18.6 SW, WI","Latitude":"46.16937","Longitude":"-90.98090","Snowdepth":"10.700","Units":"in","Rept_Date":"2021-01-15 13"},"coordinates":[1430,6627]},{"type":"Point","properties":{"Station_ID":"WI-SR-1","Station_Nam":"HAYWARD 9.2 NNE, WI","Latitude":"46.13255","Longitude":"-91.40500","Snowdepth":"10.500","Units":"in","Rept_Date":"2021-01-15 12"},"coordinates":[1333,6605]},{"type":"Point","properties":{"Station_ID":"WI-IR-2","Station_Nam":"MERCER 2.0 SE, WI","Latitude":"46.14749","Longitude":"-90.03097","Snowdepth":"10.500","Units":"in","Rept_Date":"2021-01-15 13"},"coordinates":[1647,6614]},{"type":"Point","properties":{"Station_ID":"MN-IT-19","Station_Nam":"COHASSET 7.6 NNW, MN","Latitude":"47.34204","Longitude":"-93.69765","Snowdepth":"10.500","Units":"in","Rept_Date":"2021-01-15 13"},"coordinates":[809,7339]},{"type":"Point","properties":{"Station_ID":"CAN-MB-368","Station_Nam":"WHITESHELL 1.3 NE, CAN","Latitude":"49.74405","Longitude":"-95.19123","Snowdepth":"10.400","Units":"in","Rept_Date":"2021-01-15 14"},"coordinates":[468,8796]},{"type":"Point","properties":{"Station_ID":"WI-WB-2","Station_Nam":"STONE LAKE 2.0 NW, WI","Latitude":"45.85960","Longitude":"-91.57710","Snowdepth":"10.000","Units":"in","Rept_Date":"2021-01-15 13"},"coordinates":[1293,6439]},{"type":"Point","properties":{"Station_ID":"WI-SC-21","Station_Nam":"CLEAR LAKE 4.0 S, WI","Latitude":"45.19250","Longitude":"-92.27860","Snowdepth":"10.000","Units":"in","Rept_Date":"2021-01-15 14"},"coordinates":[1133,6035]},{"type":"Point","properties":{"Station_ID":"WI-IR-3","Station_Nam":"PENCE 0.1 E, WI","Latitude":"46.41555","Longitude":"-90.27013","Snowdepth":"10.000","Units":"in","Rept_Date":"2021-01-15 13"},"coordinates":[1592,6777]},{"type":"Point","properties":{"Station_ID":"WI-DG-20","Station_Nam":"SOLON SPRINGS 1.2 W, WI","Latitude":"46.35217","Longitude":"-91.84405","Snowdepth":"10.000","Units":"in","Rept_Date":"2021-01-15 13"},"coordinates":[1232,6738]},{"type":"Point","properties":{"Station_ID":"MWN","Station_Nam":"MOUNT WASHINGTON","Latitude":"44.26670","Longitude":"-71.30000","Snowdepth":"10.000","Units":"in","Rept_Date":"2021-01-15 12"},"coordinates":[5926,5473]},{"type":"Point","properties":{"Station_ID":"MN-SL-108","Station_Nam":"IRON JUNCTION 3.4 NNW, MN","Latitude":"47.46150","Longitude":"-92.63130","Snowdepth":"10.000","Units":"in","Rept_Date":"2021-01-15 13"},"coordinates":[1053,7411]},{"type":"Point","properties":{"Station_ID":"MN-SL-105","Station_Nam":"DULUTH 11.8 NNE, MN","Latitude":"46.94680","Longitude":"-92.03925","Snowdepth":"10.000","Units":"in","Rept_Date":"2021-01-15 14"},"coordinates":[1188,7099]},{"type":"Point","properties":{"Station_ID":"MN-RC-40","Station_Nam":"FARIBAULT 3.5 ESE, MN","Latitude":"44.27958","Longitude":"-93.21301","Snowdepth":"10.000","Units":"in","Rept_Date":"2021-01-15 13"},"coordinates":[920,5481]},{"type":"Point","properties":{"Station_ID":"MN-CW-8","Station_Nam":"BRAINERD 11.5 E, MN","Latitude":"46.38556","Longitude":"-93.95720","Snowdepth":"10.000","Units":"in","Rept_Date":"2021-01-15 14"},"coordinates":[750,6759]},{"type":"Point","properties":{"Station_ID":"MN-CW-44","Station_Nam":"CROSBY 1.1 SW, MN","Latitude":"46.47772","Longitude":"-93.97293","Snowdepth":"10.000","Units":"in","Rept_Date":"2021-01-15 13"},"coordinates":[746,6814]},{"type":"Point","properties":{"Station_ID":"MN-CV-40","Station_Nam":"EXCELSIOR 0.8 S, MN","Latitude":"44.88996","Longitude":"-93.56646","Snowdepth":"10.000","Units":"in","Rept_Date":"2021-01-15 13"},"coordinates":[839,5851]},{"type":"Point","properties":{"Station_ID":"MN-CN-36","Station_Nam":"CLOQUET 3.4 ENE, MN","Latitude":"46.74146","Longitude":"-92.42698","Snowdepth":"10.000","Units":"in","Rept_Date":"2021-01-15 13"},"coordinates":[1099,6974]},{"type":"Point","properties":{"Station_ID":"MN-CG-16","Station_Nam":"NORTH BRANCH 1.3 NNW, MN","Latitude":"45.53121","Longitude":"-92.97110","Snowdepth":"10.000","Units":"in","Rept_Date":"2021-01-15 12"},"coordinates":[975,6240]},{"type":"Point","properties":{"Station_ID":"MI-BG-3","Station_Nam":"THREE LAKES, MI","Latitude":"46.55730","Longitude":"-88.20770","Snowdepth":"10.000","Units":"in","Rept_Date":"2021-01-15 13"},"coordinates":[2063,6863]},{"type":"Point","properties":{"Station_ID":"LEIM5","Station_Nam":"ORR 3E","Latitude":"48.05810","Longitude":"-92.75220","Snowdepth":"10.000","Units":"in","Rept_Date":"2021-01-15 12"},"coordinates":[1025,7773]},{"type":"Point","properties":{"Station_ID":"KMWN","Station_Nam":"MOUNT WASHINGTON","Latitude":"44.26666","Longitude":"-71.30000","Snowdepth":"10.000","Units":"in","Rept_Date":"2021-01-16 06"},"coordinates":[5926,5473]},{"type":"Point","properties":{"Station_ID":"INL","Station_Nam":"FALLS INTERNATIONAL ARPT","Latitude":"48.56640","Longitude":"-93.40310","Snowdepth":"10.000","Units":"in","Rept_Date":"2021-01-16 00"},"coordinates":[876,8082]},{"type":"Point","properties":{"Station_ID":"IFSM5","Station_Nam":"INTERNATIONAL FALLS SNOW","Latitude":"48.57780","Longitude":"-93.39640","Snowdepth":"10.000","Units":"in","Rept_Date":"2021-01-16 06"},"coordinates":[878,8089]},{"type":"Point","properties":{"Station_ID":"CSLM5","Station_Nam":"CASS LAKE,MN","Latitude":"47.38470","Longitude":"-94.61470","Snowdepth":"10.000","Units":"in","Rept_Date":"2021-01-15 14"},"coordinates":[599,7365]},{"type":"Point","properties":{"Station_ID":"COTM5","Station_Nam":"COTTON","Latitude":"47.16870","Longitude":"-92.46290","Snowdepth":"10.000","Units":"in","Rept_Date":"2021-01-15 13"},"coordinates":[1091,7234]},{"type":"Point","properties":{"Station_ID":"BNDM5","Station_Nam":"ELY 25E","Latitude":"47.97190","Longitude":"-91.44860","Snowdepth":"10.000","Units":"in","Rept_Date":"2021-01-15 13"},"coordinates":[1323,7721]},{"type":"Point","properties":{"Station_ID":"ADXI4","Station_Nam":"ADEL 2SE","Latitude":"41.59360","Longitude":"-93.97930","Snowdepth":"10.000","Units":"in","Rept_Date":"2021-01-15 13"},"coordinates":[745,3851]},{"type":"Point","properties":{"Station_ID":"WI-PR-2","Station_Nam":"BUTTERNUT 5.9 SW, WI","Latitude":"45.96501","Longitude":"-90.59750","Snowdepth":"9.500","Units":"in","Rept_Date":"2021-01-15 12"},"coordinates":[1517,6503]},{"type":"Point","properties":{"Station_ID":"WI-PK-33","Station_Nam":"FREDERIC 4.8 NE, WI","Latitude":"45.70970","Longitude":"-92.39950","Snowdepth":"9.500","Units":"in","Rept_Date":"2021-01-15 13"},"coordinates":[1106,6348]},{"type":"Point","properties":{"Station_ID":"MN-AA-56","Station_Nam":"BLAINE 2.2 NNW, MN","Latitude":"45.19838","Longitude":"-93.22812","Snowdepth":"9.500","Units":"in","Rept_Date":"2021-01-15 16"},"coordinates":[916,6038]},{"type":"Point","properties":{"Station_ID":"WI-BY-30","Station_Nam":"WASHBURN 1.1 NW, WI","Latitude":"46.68430","Longitude":"-90.91057","Snowdepth":"9.000","Units":"in","Rept_Date":"2021-01-15 13"},"coordinates":[1446,6940]},{"type":"Point","properties":{"Station_ID":"WI-BY-29","Station_Nam":"BAYFIELD 5.1 NNW, WI","Latitude":"46.88063","Longitude":"-90.85854","Snowdepth":"9.000","Units":"in","Rept_Date":"2021-01-15 14"},"coordinates":[1458,7059]},{"type":"Point","properties":{"Station_ID":"WELM5","Station_Nam":"WELLS","Latitude":"43.74680","Longitude":"-93.73680","Snowdepth":"9.000","Units":"in","Rept_Date":"2021-01-15 14"},"coordinates":[800,5158]},{"type":"Point","properties":{"Station_ID":"TOGM5","Station_Nam":"CELINA 2E","Latitude":"47.86630","Longitude":"-93.02660","Snowdepth":"9.000","Units":"in","Rept_Date":"2021-01-15 15"},"coordinates":[962,7657]},{"type":"Point","properties":{"Station_ID":"SUAW3","Station_Nam":"SUAMICO","Latitude":"44.60190","Longitude":"-88.09780","Snowdepth":"9.000","Units":"in","Rept_Date":"2021-01-15 12"},"coordinates":[2088,5676]},{"type":"Point","properties":{"Station_ID":"STOI2","Station_Nam":"STOCKTON 3 NNE","Latitude":"42.40050","Longitude":"-89.99580","Snowdepth":"9.000","Units":"in","Rept_Date":"2021-01-16 03"},"coordinates":[1655,4341]},{"type":"Point","properties":{"Station_ID":"MSP","Station_Nam":"MINNEAPOLIS-ST PAUL INTL AP","Latitude":"44.88310","Longitude":"-93.22890","Snowdepth":"9.000","Units":"in","Rept_Date":"2021-01-15 12"},"coordinates":[916,5847]},{"type":"Point","properties":{"Station_ID":"MRAM5","Station_Nam":"MORA","Latitude":"45.87760","Longitude":"-93.31470","Snowdepth":"9.000","Units":"in","Rept_Date":"2021-01-15 13"},"coordinates":[896,6450]},{"type":"Point","properties":{"Station_ID":"MN-IT-23","Station_Nam":"BOVEY 13.4 N, MN","Latitude":"47.48855","Longitude":"-93.43497","Snowdepth":"9.000","Units":"in","Rept_Date":"2021-01-15 13"},"coordinates":[869,7428]},{"type":"Point","properties":{"Station_ID":"MN-IT-1","Station_Nam":"GRAND RAPIDS 2.0 E, MN","Latitude":"47.22266","Longitude":"-93.49600","Snowdepth":"9.000","Units":"in","Rept_Date":"2021-01-15 13"},"coordinates":[855,7266]},{"type":"Point","properties":{"Station_ID":"MN-GH-4","Station_Nam":"NERSTRAND 4.2 E, MN","Latitude":"44.34247","Longitude":"-92.97920","Snowdepth":"9.000","Units":"in","Rept_Date":"2021-01-15 13"},"coordinates":[973,5519]},{"type":"Point","properties":{"Station_ID":"MN-CV-22","Station_Nam":"VICTORIA 1.6 WSW, MN","Latitude":"44.85670","Longitude":"-93.68640","Snowdepth":"9.000","Units":"in","Rept_Date":"2021-01-15 13"},"coordinates":[812,5831]},{"type":"Point","properties":{"Station_ID":"ISEM5","Station_Nam":"ISLE 12N","Latitude":"46.31970","Longitude":"-93.50140","Snowdepth":"9.000","Units":"in","Rept_Date":"2021-01-15 13"},"coordinates":[854,6719]},{"type":"Point","properties":{"Station_ID":"IL-SP-7","Station_Nam":"DAVIS 0.5 N, IL","Latitude":"42.42919","Longitude":"-89.41730","Snowdepth":"9.000","Units":"in","Rept_Date":"2021-01-15 14"},"coordinates":[1787,4358]},{"type":"Point","properties":{"Station_ID":"IL-SP-27","Station_Nam":"DAVIS 2.7 N, IL","Latitude":"42.46110","Longitude":"-89.40890","Snowdepth":"9.000","Units":"in","Rept_Date":"2021-01-15 13"},"coordinates":[1789,4378]},{"type":"Point","properties":{"Station_ID":"IL-JD-8","Station_Nam":"STOCKTON 3.4 NNE, IL","Latitude":"42.39960","Longitude":"-89.99020","Snowdepth":"9.000","Units":"in","Rept_Date":"2021-01-15 13"},"coordinates":[1656,4340]},{"type":"Point","properties":{"Station_ID":"HTLM4","Station_Nam":"SNOW PAID OBSERVER FOR KHTL","Latitude":"44.34470","Longitude":"-84.67730","Snowdepth":"9.000","Units":"in","Rept_Date":"2021-01-16 06"},"coordinates":[2870,5520]},{"type":"Point","properties":{"Station_ID":"ELYM5","Station_Nam":"ELY","Latitude":"47.90560","Longitude":"-91.82830","Snowdepth":"9.000","Units":"in","Rept_Date":"2021-01-15 14"},"coordinates":[1236,7681]},{"type":"Point","properties":{"Station_ID":"ELKM5","Station_Nam":"ELK RIVER","Latitude":"45.30470","Longitude":"-93.58420","Snowdepth":"9.000","Units":"in","Rept_Date":"2021-01-15 13"},"coordinates":[835,6103]},{"type":"Point","properties":{"Station_ID":"DLHM5","Station_Nam":"DULUTH NWS","Latitude":"46.83680","Longitude":"-92.21080","Snowdepth":"9.000","Units":"in","Rept_Date":"2021-01-16 06"},"coordinates":[1149,7032]},{"type":"Point","properties":{"Station_ID":"DLH","Station_Nam":"DULUTH, MN","Latitude":"46.83690","Longitude":"-92.21030","Snowdepth":"9.000","Units":"in","Rept_Date":"2021-01-16 00"},"coordinates":[1149,7032]},{"type":"Point","properties":{"Station_ID":"DGVW3","Station_Nam":"DODGEVILLE","Latitude":"42.96670","Longitude":"-90.11670","Snowdepth":"9.000","Units":"in","Rept_Date":"2021-01-15 13"},"coordinates":[1627,4684]},{"type":"Point","properties":{"Station_ID":"CRLM5","Station_Nam":"CROSS LAKE DAM","Latitude":"46.66930","Longitude":"-94.11060","Snowdepth":"9.000","Units":"in","Rept_Date":"2021-01-15 14"},"coordinates":[715,6931]},{"type":"Point","properties":{"Station_ID":"CATQ6","Station_Nam":"CAT LAKE","Latitude":"51.72690","Longitude":"-91.82210","Snowdepth":"8.980","Units":"in","Rept_Date":"2021-01-16 06"},"coordinates":[1237,9999]},{"type":"Point","properties":{"Station_ID":"WI-VL-9","Station_Nam":"LAND O' LAKES 11.7 W, WI","Latitude":"46.19023","Longitude":"-89.45790","Snowdepth":"8.500","Units":"in","Rept_Date":"2021-01-15 13"},"coordinates":[1778,6640]},{"type":"Point","properties":{"Station_ID":"NY-FK-9","Station_Nam":"GABRIELS 1.3 SE, NY","Latitude":"44.41934","Longitude":"-74.16194","Snowdepth":"8.500","Units":"in","Rept_Date":"2021-01-15 12"},"coordinates":[5272,5566]},{"type":"Point","properties":{"Station_ID":"NH-MR-60","Station_Nam":"SOUTH SUTTON 1.3 SE, NH","Latitude":"43.29531","Longitude":"-71.90238","Snowdepth":"8.500","Units":"in","Rept_Date":"2021-01-15 13"},"coordinates":[5788,4884]},{"type":"Point","properties":{"Station_ID":"MN-IT-17","Station_Nam":"GRAND RAPIDS 6.1 N, MN","Latitude":"47.31165","Longitude":"-93.55036","Snowdepth":"8.500","Units":"in","Rept_Date":"2021-01-15 13"},"coordinates":[843,7320]},{"type":"Point","properties":{"Station_ID":"MN-CW-54","Station_Nam":"AITKIN 9.6 W, MN","Latitude":"46.53711","Longitude":"-93.90688","Snowdepth":"8.500","Units":"in","Rept_Date":"2021-01-15 14"},"coordinates":[761,6850]},{"type":"Point","properties":{"Station_ID":"MN-AT-5","Station_Nam":"TAMARACK 1.4 SW, MN","Latitude":"46.63760","Longitude":"-93.14554","Snowdepth":"8.500","Units":"in","Rept_Date":"2021-01-15 13"},"coordinates":[935,6911]},{"type":"Point","properties":{"Station_ID":"IA-DL-31","Station_Nam":"DALLAS CENTER 1.5 E, IA","Latitude":"41.68151","Longitude":"-93.95534","Snowdepth":"8.500","Units":"in","Rept_Date":"2021-01-15 14"},"coordinates":[750,3905]},{"type":"Point","properties":{"Station_ID":"IA-BH-3","Station_Nam":"CEDAR FALLS 0.4 WNW, IA","Latitude":"42.52318","Longitude":"-92.45961","Snowdepth":"8.300","Units":"in","Rept_Date":"2021-01-15 13"},"coordinates":[1092,4415]},{"type":"Point","properties":{"Station_ID":"VT-WS-23","Station_Nam":"CABOT 2.3 E, VT","Latitude":"44.39807","Longitude":"-72.26570","Snowdepth":"8.100","Units":"in","Rept_Date":"2021-01-15 12"},"coordinates":[5705,5553]},{"type":"Point","properties":{"Station_ID":"WTNM4","Station_Nam":"WATTON 2WSW","Latitude":"46.52660","Longitude":"-88.64240","Snowdepth":"8.000","Units":"in","Rept_Date":"2021-01-15 13"},"coordinates":[1964,6844]},{"type":"Point","properties":{"Station_ID":"WI-PK-4","Station_Nam":"DRESSER 6.1 ESE, WI","Latitude":"45.32436","Longitude":"-92.52080","Snowdepth":"8.000","Units":"in","Rept_Date":"2021-01-15 14"},"coordinates":[1078,6115]},{"type":"Point","properties":{"Station_ID":"WI-BY-6","Station_Nam":"BARNES 2.2 S, WI","Latitude":"46.30264","Longitude":"-91.50320","Snowdepth":"8.000","Units":"in","Rept_Date":"2021-01-15 13"},"coordinates":[1310,6708]},{"type":"Point","properties":{"Station_ID":"WI-BT-14","Station_Nam":"OAKLAND 9.0 ENE, WI","Latitude":"45.95184","Longitude":"-92.21653","Snowdepth":"8.000","Units":"in","Rept_Date":"2021-01-15 13"},"coordinates":[1147,6495]},{"type":"Point","properties":{"Station_ID":"WAUI4","Station_Nam":"WAUKON","Latitude":"43.27410","Longitude":"-91.47110","Snowdepth":"8.000","Units":"in","Rept_Date":"2021-01-15 12"},"coordinates":[1318,4871]},{"type":"Point","properties":{"Station_ID":"VT-OL-1","Station_Nam":"WESTFIELD 0.7 WNW, VT","Latitude":"44.89160","Longitude":"-72.44350","Snowdepth":"8.000","Units":"in","Rept_Date":"2021-01-15 12"},"coordinates":[5665,5852]},{"type":"Point","properties":{"Station_ID":"VQAW3","Station_Nam":"VIROQUA","Latitude":"43.55970","Longitude":"-90.87560","Snowdepth":"8.000","Units":"in","Rept_Date":"2021-01-15 13"},"coordinates":[1454,5044]},{"type":"Point","properties":{"Station_ID":"SUTV1","Station_Nam":"SUTTON","Latitude":"44.61220","Longitude":"-72.04810","Snowdepth":"8.000","Units":"in","Rept_Date":"2021-01-15 13"},"coordinates":[5755,5683]},{"type":"Point","properties":{"Station_ID":"SPTI4","Station_Nam":"STRAWBERRY POINT","Latitude":"42.68530","Longitude":"-91.53300","Snowdepth":"8.000","Units":"in","Rept_Date":"2021-01-15 13"},"coordinates":[1304,4514]},{"type":"Point","properties":{"Station_ID":"RLKW3","Station_Nam":"REST LAKE","Latitude":"46.12220","Longitude":"-89.87720","Snowdepth":"8.000","Units":"in","Rept_Date":"2021-01-15 14"},"coordinates":[1682,6599]},{"type":"Point","properties":{"Station_ID":"RANM1","Station_Nam":"RANGELEY","Latitude":"44.98910","Longitude":"-70.67190","Snowdepth":"8.000","Units":"in","Rept_Date":"2021-01-15 11"},"coordinates":[6070,5911]},{"type":"Point","properties":{"Station_ID":"OLNI4","Station_Nam":"OELWEIN 1E","Latitude":"42.68010","Longitude":"-91.87510","Snowdepth":"8.000","Units":"in","Rept_Date":"2021-01-15 12"},"coordinates":[1225,4510]},{"type":"Point","properties":{"Station_ID":"NY-SR-22","Station_Nam":"GREENFIELD CENTER 1.6 W, NY","Latitude":"43.12684","Longitude":"-73.87860","Snowdepth":"8.000","Units":"in","Rept_Date":"2021-01-15 12"},"coordinates":[5337,4782]},{"type":"Point","properties":{"Station_ID":"NY-FK-7","Station_Nam":"SARANAC LAKE 6.2 N, NY","Latitude":"44.41359","Longitude":"-74.15211","Snowdepth":"8.000","Units":"in","Rept_Date":"2021-01-15 12"},"coordinates":[5274,5562]},{"type":"Point","properties":{"Station_ID":"NCBN6","Station_Nam":"NEWCOMB","Latitude":"43.97070","Longitude":"-74.22200","Snowdepth":"8.000","Units":"in","Rept_Date":"2021-01-15 12"},"coordinates":[5258,5293]},{"type":"Point","properties":{"Station_ID":"MN-SL-115","Station_Nam":"COTTON 5.7 ESE, MN","Latitude":"47.15142","Longitude":"-92.35772","Snowdepth":"8.000","Units":"in","Rept_Date":"2021-01-15 14"},"coordinates":[1115,7223]},{"type":"Point","properties":{"Station_ID":"MN-RM-120","Station_Nam":"MAPLEWOOD 5.6 SSE, MN","Latitude":"44.90588","Longitude":"-92.99712","Snowdepth":"8.000","Units":"in","Rept_Date":"2021-01-15 15"},"coordinates":[969,5861]},{"type":"Point","properties":{"Station_ID":"MN-IS-21","Station_Nam":"ISANTI 5.0 SW, MN","Latitude":"45.43360","Longitude":"-93.30200","Snowdepth":"8.000","Units":"in","Rept_Date":"2021-01-15 14"},"coordinates":[899,6181]},{"type":"Point","properties":{"Station_ID":"MN-HN-298","Station_Nam":"EXCELSIOR 1.8 W, MN","Latitude":"44.89722","Longitude":"-93.60286","Snowdepth":"8.000","Units":"in","Rept_Date":"2021-01-15 13"},"coordinates":[831,5856]},{"type":"Point","properties":{"Station_ID":"MN-HN-240","Station_Nam":"BLOOMINGTON 3.1 E, MN","Latitude":"44.83704","Longitude":"-93.25318","Snowdepth":"8.000","Units":"in","Rept_Date":"2021-01-15 13"},"coordinates":[911,5819]},{"type":"Point","properties":{"Station_ID":"MN-HN-19","Station_Nam":"EDINA 1.3 SW, MN","Latitude":"44.87830","Longitude":"-93.37890","Snowdepth":"8.000","Units":"in","Rept_Date":"2021-01-15 13"},"coordinates":[882,5844]},{"type":"Point","properties":{"Station_ID":"MN-HN-134","Station_Nam":"BROOKLYN CENTER 1.1 E, MN","Latitude":"45.06744","Longitude":"-93.29334","Snowdepth":"8.000","Units":"in","Rept_Date":"2021-01-15 13"},"coordinates":[901,5959]},{"type":"Point","properties":{"Station_ID":"MN-HB-12","Station_Nam":"LAPORTE 1.8 N, MN","Latitude":"47.24130","Longitude":"-94.75792","Snowdepth":"8.000","Units":"in","Rept_Date":"2021-01-15 13"},"coordinates":[567,7278]},{"type":"Point","properties":{"Station_ID":"MN-DK-73","Station_Nam":"LAKEVILLE 2.6 NNE, MN","Latitude":"44.71250","Longitude":"-93.23043","Snowdepth":"8.000","Units":"in","Rept_Date":"2021-01-15 13"},"coordinates":[916,5744]},{"type":"Point","properties":{"Station_ID":"MN-DK-53","Station_Nam":"LAKEVILLE 3.8 ENE, MN","Latitude":"44.70423","Longitude":"-93.18460","Snowdepth":"8.000","Units":"in","Rept_Date":"2021-01-15 13"},"coordinates":[926,5738]},{"type":"Point","properties":{"Station_ID":"MN-CW-22","Station_Nam":"FORT RIPLEY 0.8 N, MN","Latitude":"46.18089","Longitude":"-94.36510","Snowdepth":"8.000","Units":"in","Rept_Date":"2021-01-15 13"},"coordinates":[656,6634]},{"type":"Point","properties":{"Station_ID":"MN-BK-6","Station_Nam":"LAKE PARK 6.0 S, MN","Latitude":"46.79850","Longitude":"-96.12180","Snowdepth":"8.000","Units":"in","Rept_Date":"2021-01-15 13"},"coordinates":[255,7009]},{"type":"Point","properties":{"Station_ID":"MLCM5","Station_Nam":"MILACA","Latitude":"45.75320","Longitude":"-93.66170","Snowdepth":"8.000","Units":"in","Rept_Date":"2021-01-15 14"},"coordinates":[817,6375]},{"type":"Point","properties":{"Station_ID":"MI-KW-2","Station_Nam":"DELAWARE 5.2 SW, MI","Latitude":"47.36928","Longitude":"-88.17919","Snowdepth":"8.000","Units":"in","Rept_Date":"2021-01-15 09"},"coordinates":[2070,7355]},{"type":"Point","properties":{"Station_ID":"LPLN6","Station_Nam":"LAKE PLACID 2 S","Latitude":"44.30420","Longitude":"-73.98390","Snowdepth":"8.000","Units":"in","Rept_Date":"2021-01-15 13"},"coordinates":[5313,5496]},{"type":"Point","properties":{"Station_ID":"LNOW3","Station_Nam":"LAND O LAKES","Latitude":"46.19000","Longitude":"-89.45700","Snowdepth":"8.000","Units":"in","Rept_Date":"2021-01-15 13"},"coordinates":[1778,6640]},{"type":"Point","properties":{"Station_ID":"IA-PW-4","Station_Nam":"GRINNELL 0.6 NW, IA","Latitude":"41.74647","Longitude":"-92.73100","Snowdepth":"8.000","Units":"in","Rept_Date":"2021-01-15 15"},"coordinates":[1030,3944]},{"type":"Point","properties":{"Station_ID":"IA-PK-3","Station_Nam":"DES MOINES 4.5 WNW, IA","Latitude":"41.60663","Longitude":"-93.69560","Snowdepth":"8.000","Units":"in","Rept_Date":"2021-01-15 13"},"coordinates":[809,3859]},{"type":"Point","properties":{"Station_ID":"IA-BH-6","Station_Nam":"WATERLOO 1.9 SSE, IA","Latitude":"42.46500","Longitude":"-92.34100","Snowdepth":"8.000","Units":"in","Rept_Date":"2021-01-15 13"},"coordinates":[1119,4380]},{"type":"Point","properties":{"Station_ID":"HUBN3","Station_Nam":"HUBBARD BROOK","Latitude":"43.93330","Longitude":"-71.71670","Snowdepth":"8.000","Units":"in","Rept_Date":"2021-01-16 06"},"coordinates":[5831,5271]},{"type":"Point","properties":{"Station_ID":"FORM5","Station_Nam":"FOREST LAKE 5NE","Latitude":"45.33170","Longitude":"-92.89820","Snowdepth":"8.000","Units":"in","Rept_Date":"2021-01-15 13"},"coordinates":[992,6119]},{"type":"Point","properties":{"Station_ID":"EMBM5","Station_Nam":"EMBARASS,MN","Latitude":"47.65810","Longitude":"-92.19580","Snowdepth":"8.000","Units":"in","Rept_Date":"2021-01-15 13"},"coordinates":[1152,7531]},{"type":"Point","properties":{"Station_ID":"COKM5","Station_Nam":"COOK","Latitude":"47.85060","Longitude":"-92.69250","Snowdepth":"8.000","Units":"in","Rept_Date":"2021-01-15 12"},"coordinates":[1039,7647]},{"type":"Point","properties":{"Station_ID":"CMBM5","Station_Nam":"CAMBRIDGE","Latitude":"45.55640","Longitude":"-93.23480","Snowdepth":"8.000","Units":"in","Rept_Date":"2021-01-15 14"},"coordinates":[915,6255]},{"type":"Point","properties":{"Station_ID":"CLDM5","Station_Nam":"CALEDONIA","Latitude":"43.63090","Longitude":"-91.50270","Snowdepth":"8.000","Units":"in","Rept_Date":"2021-01-15 13"},"coordinates":[1310,5087]},{"type":"Point","properties":{"Station_ID":"CBLW3","Station_Nam":"CUMBERLAND","Latitude":"45.53310","Longitude":"-92.02260","Snowdepth":"8.000","Units":"in","Rept_Date":"2021-01-15 13"},"coordinates":[1192,6241]},{"type":"Point","properties":{"Station_ID":"CAN-PE-3","Station_Nam":"WELLINGTON 1.6 NE, CA","Latitude":"46.46672","Longitude":"-63.98920","Snowdepth":"8.000","Units":"in","Rept_Date":"2021-01-15 11"},"coordinates":[7596,6808]},{"type":"Point","properties":{"Station_ID":"CAN-NS-103","Station_Nam":"TRAFALGAR 4.9 WSW, CAN","Latitude":"45.26217","Longitude":"-62.72285","Snowdepth":"8.000","Units":"in","Rept_Date":"2021-01-15 12"},"coordinates":[7886,6077]},{"type":"Point","properties":{"Station_ID":"CAN-NB-18","Station_Nam":"MCLEOD HILL 1.1 ENE, CA","Latitude":"46.02725","Longitude":"-66.67460","Snowdepth":"8.000","Units":"in","Rept_Date":"2021-01-15 12"},"coordinates":[6983,6541]},{"type":"Point","properties":{"Station_ID":"CAN-NB-11","Station_Nam":"MIRAMICHI 3.3 S, CAN","Latitude":"46.99343","Longitude":"-65.50690","Snowdepth":"8.000","Units":"in","Rept_Date":"2021-01-15 11"},"coordinates":[7250,7127]},{"type":"Point","properties":{"Station_ID":"AVLV1","Station_Nam":"AVERILL","Latitude":"45.00570","Longitude":"-71.69030","Snowdepth":"8.000","Units":"in","Rept_Date":"2021-01-15 13"},"coordinates":[5837,5921]},{"type":"Point","properties":{"Station_ID":"ALO","Station_Nam":"WATERLOO MUNICIPAL AIRPORT","Latitude":"42.55690","Longitude":"-92.40000","Snowdepth":"8.000","Units":"in","Rept_Date":"2021-01-15 12"},"coordinates":[1105,4436]},{"type":"Point","properties":{"Station_ID":"FTHQ6","Station_Nam":"FORT HOPE","Latitude":"51.55820","Longitude":"-87.90510","Snowdepth":"7.990","Units":"in","Rept_Date":"2021-01-15 07"},"coordinates":[2132,9897]},{"type":"Point","properties":{"Station_ID":"QLP","Station_Nam":"QLP","Latitude":"48.13920","Longitude":"-72.63830","Snowdepth":"7.913","Units":"in","Rept_Date":"2021-01-15 12"},"coordinates":[5620,7822]},{"type":"Point","properties":{"Station_ID":"CAN-NB-64","Station_Nam":"KESWICK RIDGE 4.0 SE, CAN","Latitude":"45.97014","Longitude":"-66.85538","Snowdepth":"7.800","Units":"in","Rept_Date":"2021-01-15 13"},"coordinates":[6941,6506]},{"type":"Point","properties":{"Station_ID":"QCX","Station_Nam":"QCX","Latitude":"51.32830","Longitude":"-70.08060","Snowdepth":"7.756","Units":"in","Rept_Date":"2021-01-15 12"},"coordinates":[6205,9757]},{"type":"Point","properties":{"Station_ID":"QLM","Station_Nam":"QLM","Latitude":"48.92030","Longitude":"-70.25280","Snowdepth":"7.638","Units":"in","Rept_Date":"2021-01-15 12"},"coordinates":[6165,8296]},{"type":"Point","properties":{"Station_ID":"WI-LF-6","Station_Nam":"SOUTH WAYNE 3.9 SSW, WI","Latitude":"42.51173","Longitude":"-89.89555","Snowdepth":"7.500","Units":"in","Rept_Date":"2021-01-15 10"},"coordinates":[1678,4408]},{"type":"Point","properties":{"Station_ID":"WI-DA-99","Station_Nam":"FITCHBURG 1.1 NW, WI","Latitude":"42.99740","Longitude":"-89.44046","Snowdepth":"7.500","Units":"in","Rept_Date":"2021-01-15 13"},"coordinates":[1782,4703]},{"type":"Point","properties":{"Station_ID":"NY-ES-11","Station_Nam":"VERMONTVILLE 2.8 S, NY","Latitude":"44.41205","Longitude":"-74.06760","Snowdepth":"7.500","Units":"in","Rept_Date":"2021-01-15 12"},"coordinates":[5294,5561]},{"type":"Point","properties":{"Station_ID":"MN-SL-139","Station_Nam":"DULUTH 1.2 SE, MN","Latitude":"46.77000","Longitude":"-92.08826","Snowdepth":"7.500","Units":"in","Rept_Date":"2021-01-15 12"},"coordinates":[1177,6992]},{"type":"Point","properties":{"Station_ID":"MN-IS-22","Station_Nam":"PRINCETON 6.6 E, MN","Latitude":"45.55762","Longitude":"-93.44595","Snowdepth":"7.500","Units":"in","Rept_Date":"2021-01-15 15"},"coordinates":[866,6256]},{"type":"Point","properties":{"Station_ID":"MN-HN-267","Station_Nam":"MINNEAPOLIS 2.5 SE, MN","Latitude":"44.93331","Longitude":"-93.23680","Snowdepth":"7.500","Units":"in","Rept_Date":"2021-01-15 13"},"coordinates":[914,5877]},{"type":"Point","properties":{"Station_ID":"MN-BM-15","Station_Nam":"BEMIDJI 7.8 ENE, MN","Latitude":"47.52043","Longitude":"-94.72121","Snowdepth":"7.500","Units":"in","Rept_Date":"2021-01-15 13"},"coordinates":[575,7447]},{"type":"Point","properties":{"Station_ID":"MI-HG-1","Station_Nam":"HOUGHTON 1.6 ESE, MI","Latitude":"47.10774","Longitude":"-88.52940","Snowdepth":"7.500","Units":"in","Rept_Date":"2021-01-15 13"},"coordinates":[1990,7197]},{"type":"Point","properties":{"Station_ID":"IL-SP-6","Station_Nam":"FREEPORT 2.0 NW, IL","Latitude":"42.30955","Longitude":"-89.66370","Snowdepth":"7.500","Units":"in","Rept_Date":"2021-01-15 13"},"coordinates":[1731,4286]},{"type":"Point","properties":{"Station_ID":"IL-SP-14","Station_Nam":"FREEPORT 1.7 ESE, IL","Latitude":"42.28257","Longitude":"-89.60360","Snowdepth":"7.500","Units":"in","Rept_Date":"2021-01-15 13"},"coordinates":[1744,4269]},{"type":"Point","properties":{"Station_ID":"IA-JH-20","Station_Nam":"CORALVILLE 1.4 S, IA","Latitude":"41.67016","Longitude":"-91.60296","Snowdepth":"7.500","Units":"in","Rept_Date":"2021-01-15 14"},"coordinates":[1288,3898]},{"type":"Point","properties":{"Station_ID":"IA-BH-17","Station_Nam":"GILBERTVILLE 1.0 NW, IA","Latitude":"42.43070","Longitude":"-92.22526","Snowdepth":"7.500","Units":"in","Rept_Date":"2021-01-15 14"},"coordinates":[1145,4359]},{"type":"Point","properties":{"Station_ID":"HPN04_MADIS","Station_Nam":"HANOVER","Latitude":"45.16770","Longitude":"-93.63430","Snowdepth":"7.500","Units":"in","Rept_Date":"2021-01-16 06"},"coordinates":[823,6020]},{"type":"Point","properties":{"Station_ID":"HPN02_MADIS","Station_Nam":"MAPLE GROVE","Latitude":"45.11820","Longitude":"-93.42830","Snowdepth":"7.500","Units":"in","Rept_Date":"2021-01-16 06"},"coordinates":[871,5990]},{"type":"Point","properties":{"Station_ID":"CAN-QC-47","Station_Nam":"SAINTE-FOY 1.8 ENE, CAN","Latitude":"46.76934","Longitude":"-71.27124","Snowdepth":"7.500","Units":"in","Rept_Date":"2021-01-15 12"},"coordinates":[5933,6991]},{"type":"Point","properties":{"Station_ID":"CAN-ON-771","Station_Nam":"KENORA 8.7 NNE - CANWARN, CAN","Latitude":"49.84171","Longitude":"-94.44386","Snowdepth":"7.500","Units":"in","Rept_Date":"2021-01-15 13"},"coordinates":[638,8855]},{"type":"Point","properties":{"Station_ID":"HPN08_MADIS","Station_Nam":"ORONO","Latitude":"44.93630","Longitude":"-93.62000","Snowdepth":"7.400","Units":"in","Rept_Date":"2021-01-16 06"},"coordinates":[827,5879]},{"type":"Point","properties":{"Station_ID":"CAN-NB-97","Station_Nam":"NEW MARYLAND 0.6 NW, CAN","Latitude":"45.90112","Longitude":"-66.68739","Snowdepth":"7.300","Units":"in","Rept_Date":"2021-01-15 12"},"coordinates":[6980,6465]},{"type":"Point","properties":{"Station_ID":"CAN-PE-19","Station_Nam":"CHARLOTTETOWN 6.5 NNW, CAN","Latitude":"46.29235","Longitude":"-63.17271","Snowdepth":"7.100","Units":"in","Rept_Date":"2021-01-15 12"},"coordinates":[7783,6702]},{"type":"Point","properties":{"Station_ID":"CAN-NB-98","Station_Nam":"HOYT 4.2 S, CAN","Latitude":"45.54763","Longitude":"-66.55440","Snowdepth":"7.100","Units":"in","Rept_Date":"2021-01-15 11"},"coordinates":[7010,6250]},{"type":"Point","properties":{"Station_ID":"WI-RK-12","Station_Nam":"JANESVILLE 3.1 W, WI","Latitude":"42.67576","Longitude":"-89.07614","Snowdepth":"7.000","Units":"in","Rept_Date":"2021-01-15 13"},"coordinates":[1865,4508]},{"type":"Point","properties":{"Station_ID":"WI-PC-5","Station_Nam":"RIVER FALLS 1.2 SSW, WI","Latitude":"44.84032","Longitude":"-92.63500","Snowdepth":"7.000","Units":"in","Rept_Date":"2021-01-15 13"},"coordinates":[1052,5821]},{"type":"Point","properties":{"Station_ID":"WHFN6","Station_Nam":"WILMINGTON 2W","Latitude":"44.39310","Longitude":"-73.85890","Snowdepth":"7.000","Units":"in","Rept_Date":"2021-01-15 13"},"coordinates":[5341,5550]},{"type":"Point","properties":{"Station_ID":"WDOM5","Station_Nam":"WINDOM","Latitude":"43.87700","Longitude":"-95.11590","Snowdepth":"7.000","Units":"in","Rept_Date":"2021-01-15 14"},"coordinates":[485,5237]},{"type":"Point","properties":{"Station_ID":"VT-WS-30","Station_Nam":"WOODBURY 3.4 NNW, VT","Latitude":"44.48825","Longitude":"-72.43258","Snowdepth":"7.000","Units":"in","Rept_Date":"2021-01-15 12"},"coordinates":[5667,5607]},{"type":"Point","properties":{"Station_ID":"VT-OL-2","Station_Nam":"BARTON 3.0 ENE, VT","Latitude":"44.75863","Longitude":"-72.11680","Snowdepth":"7.000","Units":"in","Rept_Date":"2021-01-15 12"},"coordinates":[5739,5771]},{"type":"Point","properties":{"Station_ID":"VT-ES-3","Station_Nam":"LUNENBURG 2.3 NNW, VT","Latitude":"44.49324","Longitude":"-71.70446","Snowdepth":"7.000","Units":"in","Rept_Date":"2021-01-15 12"},"coordinates":[5834,5610]},{"type":"Point","properties":{"Station_ID":"VT-CL-3","Station_Nam":"GROTON 4.4 WSW, VT","Latitude":"44.19440","Longitude":"-72.28240","Snowdepth":"7.000","Units":"in","Rept_Date":"2021-01-15 11"},"coordinates":[5702,5429]},{"type":"Point","properties":{"Station_ID":"VADM5","Station_Nam":"VADNAIS LAKE","Latitude":"45.04820","Longitude":"-93.09590","Snowdepth":"7.000","Units":"in","Rept_Date":"2021-01-15 20"},"coordinates":[946,5947]},{"type":"Point","properties":{"Station_ID":"TOWM5","Station_Nam":"TOWER,MN","Latitude":"47.75530","Longitude":"-92.28580","Snowdepth":"7.000","Units":"in","Rept_Date":"2021-01-15 13"},"coordinates":[1132,7590]},{"type":"Point","properties":{"Station_ID":"TOPM1","Station_Nam":"TOPSFIELD","Latitude":"45.43470","Longitude":"-67.72020","Snowdepth":"7.000","Units":"in","Rept_Date":"2021-01-15 12"},"coordinates":[6744,6182]},{"type":"Point","properties":{"Station_ID":"ROBW3","Station_Nam":"ROBERTS WWTP","Latitude":"44.97070","Longitude":"-92.56200","Snowdepth":"7.000","Units":"in","Rept_Date":"2021-01-15 14"},"coordinates":[1068,5900]},{"type":"Point","properties":{"Station_ID":"RGNM1","Station_Nam":"RANGELEY 2NW","Latitude":"44.98940","Longitude":"-70.67220","Snowdepth":"7.000","Units":"in","Rept_Date":"2021-01-15 11"},"coordinates":[6069,5911]},{"type":"Point","properties":{"Station_ID":"PTBN3","Station_Nam":"PITTSBURG RESERVOIR","Latitude":"45.04690","Longitude":"-71.38300","Snowdepth":"7.000","Units":"in","Rept_Date":"2021-01-15 12"},"coordinates":[5907,5946]},{"type":"Point","properties":{"Station_ID":"PHEW3","Station_Nam":"PHELPS","Latitude":"46.06630","Longitude":"-89.07520","Snowdepth":"7.000","Units":"in","Rept_Date":"2021-01-15 13"},"coordinates":[1865,6565]},{"type":"Point","properties":{"Station_ID":"PERI4","Station_Nam":"PERRY,IA","Latitude":"41.83810","Longitude":"-94.11110","Snowdepth":"7.000","Units":"in","Rept_Date":"2021-01-15 13"},"coordinates":[715,4000]},{"type":"Point","properties":{"Station_ID":"PDGM4","Station_Nam":"PAULDING","Latitude":"46.39760","Longitude":"-89.17940","Snowdepth":"7.000","Units":"in","Rept_Date":"2021-01-15 14"},"coordinates":[1841,6766]},{"type":"Point","properties":{"Station_ID":"OWAM5","Station_Nam":"OWATONNA","Latitude":"44.09760","Longitude":"-93.23180","Snowdepth":"7.000","Units":"in","Rept_Date":"2021-01-15 14"},"coordinates":[915,5370]},{"type":"Point","properties":{"Station_ID":"NH-CS-4","Station_Nam":"PITTSBURG 6.1 NE, NH","Latitude":"45.11060","Longitude":"-71.29760","Snowdepth":"7.000","Units":"in","Rept_Date":"2021-01-15 12"},"coordinates":[5927,5985]},{"type":"Point","properties":{"Station_ID":"MONW3","Station_Nam":"MONROE,WI","Latitude":"42.60000","Longitude":"-89.66670","Snowdepth":"7.000","Units":"in","Rept_Date":"2021-01-15 13"},"coordinates":[1730,4462]},{"type":"Point","properties":{"Station_ID":"MN-WG-74","Station_Nam":"OAKDALE 0.4 S, MN","Latitude":"44.98208","Longitude":"-92.96510","Snowdepth":"7.000","Units":"in","Rept_Date":"2021-01-15 13"},"coordinates":[976,5907]},{"type":"Point","properties":{"Station_ID":"MN-SH-10","Station_Nam":"BIG LAKE 5.6 NNE, MN","Latitude":"45.41409","Longitude":"-93.69190","Snowdepth":"7.000","Units":"in","Rept_Date":"2021-01-15 13"},"coordinates":[810,6169]},{"type":"Point","properties":{"Station_ID":"MN-SC-2","Station_Nam":"PRIOR LAKE 2.0 W, MN","Latitude":"44.71250","Longitude":"-93.46360","Snowdepth":"7.000","Units":"in","Rept_Date":"2021-01-15 13"},"coordinates":[862,5744]},{"type":"Point","properties":{"Station_ID":"MN-RM-63","Station_Nam":"NORTH SAINT PAUL 1.0 NW, MN","Latitude":"45.02410","Longitude":"-93.01400","Snowdepth":"7.000","Units":"in","Rept_Date":"2021-01-15 13"},"coordinates":[965,5933]},{"type":"Point","properties":{"Station_ID":"MN-RM-2","Station_Nam":"NORTH SAINT PAUL 1.0 NNW, MN","Latitude":"45.02629","Longitude":"-93.00790","Snowdepth":"7.000","Units":"in","Rept_Date":"2021-01-15 13"},"coordinates":[967,5934]},{"type":"Point","properties":{"Station_ID":"MN-RM-15","Station_Nam":"ROSEVILLE 2.1 NW, MN","Latitude":"45.03502","Longitude":"-93.18620","Snowdepth":"7.000","Units":"in","Rept_Date":"2021-01-15 12"},"coordinates":[926,5939]},{"type":"Point","properties":{"Station_ID":"MN-RM-101","Station_Nam":"FALCON HEIGHTS 0.4 NNW, MN","Latitude":"44.99563","Longitude":"-93.17928","Snowdepth":"7.000","Units":"in","Rept_Date":"2021-01-15 14"},"coordinates":[927,5915]},{"type":"Point","properties":{"Station_ID":"MN-KB-17","Station_Nam":"MORA 2.5 S, MN","Latitude":"45.84100","Longitude":"-93.29700","Snowdepth":"7.000","Units":"in","Rept_Date":"2021-01-15 13"},"coordinates":[901,6428]},{"type":"Point","properties":{"Station_ID":"MN-HN-6","Station_Nam":"LONG LAKE 0.2 WSW, MN","Latitude":"44.98290","Longitude":"-93.57360","Snowdepth":"7.000","Units":"in","Rept_Date":"2021-01-15 13"},"coordinates":[837,5908]},{"type":"Point","properties":{"Station_ID":"MN-HN-241","Station_Nam":"MAPLE GROVE 1.4 WSW, MN","Latitude":"45.10451","Longitude":"-93.48950","Snowdepth":"7.000","Units":"in","Rept_Date":"2021-01-15 13"},"coordinates":[857,5981]},{"type":"Point","properties":{"Station_ID":"MN-CW-16","Station_Nam":"TROMMALD 6.1 NW, MN","Latitude":"46.55849","Longitude":"-94.11723","Snowdepth":"7.000","Units":"in","Rept_Date":"2021-01-15 14"},"coordinates":[713,6863]},{"type":"Point","properties":{"Station_ID":"MN-CV-8","Station_Nam":"WATERTOWN 0.5 NNW, MN","Latitude":"44.96631","Longitude":"-93.84890","Snowdepth":"7.000","Units":"in","Rept_Date":"2021-01-15 10"},"coordinates":[774,5897]},{"type":"Point","properties":{"Station_ID":"MKX","Station_Nam":"MILWAUKEE, WI","Latitude":"42.96810","Longitude":"-88.54920","Snowdepth":"7.000","Units":"in","Rept_Date":"2021-01-16 06"},"coordinates":[1985,4685]},{"type":"Point","properties":{"Station_ID":"MIEM4","Station_Nam":"MICHIGAMME 3WNW","Latitude":"46.54530","Longitude":"-88.18000","Snowdepth":"7.000","Units":"in","Rept_Date":"2021-01-15 13"},"coordinates":[2070,6855]},{"type":"Point","properties":{"Station_ID":"LVDW3","Station_Nam":"LAC VIEUX DESERT","Latitude":"46.12110","Longitude":"-89.07580","Snowdepth":"7.000","Units":"in","Rept_Date":"2021-01-15 15"},"coordinates":[1865,6598]},{"type":"Point","properties":{"Station_ID":"KMSP","Station_Nam":"MINNEAPOLIS-ST PAUL INTERNATIONAL","Latitude":"44.86666","Longitude":"-93.21666","Snowdepth":"7.000","Units":"in","Rept_Date":"2021-01-16 06"},"coordinates":[919,5837]},{"type":"Point","properties":{"Station_ID":"JCBM4","Station_Nam":"JACOBSVILLE","Latitude":"47.00830","Longitude":"-88.43180","Snowdepth":"7.000","Units":"in","Rept_Date":"2021-01-15 12"},"coordinates":[2012,7136]},{"type":"Point","properties":{"Station_ID":"IL-SP-25","Station_Nam":"FREEPORT 1.7 NW, IL","Latitude":"42.30427","Longitude":"-89.66285","Snowdepth":"7.000","Units":"in","Rept_Date":"2021-01-15 13"},"coordinates":[1731,4282]},{"type":"Point","properties":{"Station_ID":"IA-PK-21","Station_Nam":"JOHNSTON 3.7 NNW, IA","Latitude":"41.73660","Longitude":"-93.72360","Snowdepth":"7.000","Units":"in","Rept_Date":"2021-01-15 13"},"coordinates":[803,3938]},{"type":"Point","properties":{"Station_ID":"IA-DK-6","Station_Nam":"LAKE PARK 0.2 N, IA","Latitude":"43.45163","Longitude":"-95.32506","Snowdepth":"7.000","Units":"in","Rept_Date":"2021-01-15 14"},"coordinates":[437,4979]},{"type":"Point","properties":{"Station_ID":"IA-AL-5","Station_Nam":"LANSING 4.1 NW, IA","Latitude":"43.40173","Longitude":"-91.28507","Snowdepth":"7.000","Units":"in","Rept_Date":"2021-01-15 13"},"coordinates":[1360,4948]},{"type":"Point","properties":{"Station_ID":"HTL","Station_Nam":"ROSCOMMON COUNTY AIRPORT","Latitude":"44.35000","Longitude":"-84.66670","Snowdepth":"7.000","Units":"in","Rept_Date":"2021-01-16 00"},"coordinates":[2872,5524]},{"type":"Point","properties":{"Station_ID":"HSTM5","Station_Nam":"HASTINGS DAM 2","Latitude":"44.75970","Longitude":"-92.86890","Snowdepth":"7.000","Units":"in","Rept_Date":"2021-01-15 13"},"coordinates":[998,5772]},{"type":"Point","properties":{"Station_ID":"GHMN3","Station_Nam":"PINKHAM NOTCH","Latitude":"44.25800","Longitude":"-71.25250","Snowdepth":"7.000","Units":"in","Rept_Date":"2021-01-15 10"},"coordinates":[5937,5468]},{"type":"Point","properties":{"Station_ID":"EVRW3","Station_Nam":"EAGLE RIVER-4 E","Latitude":"45.91890","Longitude":"-89.15280","Snowdepth":"7.000","Units":"in","Rept_Date":"2021-01-15 13"},"coordinates":[1847,6475]},{"type":"Point","properties":{"Station_ID":"COUW3","Station_Nam":"COUDERAY,WI","Latitude":"45.86670","Longitude":"-91.45000","Snowdepth":"7.000","Units":"in","Rept_Date":"2021-01-15 22"},"coordinates":[1322,6444]},{"type":"Point","properties":{"Station_ID":"CLKM4","Station_Nam":"CLARKSBURG","Latitude":"46.49910","Longitude":"-87.84500","Snowdepth":"7.000","Units":"in","Rept_Date":"2021-01-15 12"},"coordinates":[2146,6827]},{"type":"Point","properties":{"Station_ID":"CAN-ON-5","Station_Nam":"OWEN SOUND 1.5 NW - GSCA, CAN","Latitude":"44.57837","Longitude":"-80.95461","Snowdepth":"7.000","Units":"in","Rept_Date":"2021-01-15 13"},"coordinates":[3720,5662]},{"type":"Point","properties":{"Station_ID":"CAN-MB-56","Station_Nam":"WINNIPEG 7.6 ENE, CAN","Latitude":"49.93264","Longitude":"-97.04752","Snowdepth":"7.000","Units":"in","Rept_Date":"2021-01-15 15"},"coordinates":[44,8910]},{"type":"Point","properties":{"Station_ID":"BBEM4","Station_Nam":"BIG BAY 9SW","Latitude":"46.74620","Longitude":"-87.88160","Snowdepth":"7.000","Units":"in","Rept_Date":"2021-01-15 13"},"coordinates":[2138,6977]},{"type":"Point","properties":{"Station_ID":"ANJM4","Station_Nam":"SNOW PAID OBSERVER FOR KANJ","Latitude":"46.48670","Longitude":"-84.40260","Snowdepth":"7.000","Units":"in","Rept_Date":"2021-01-16 06"},"coordinates":[2933,6820]},{"type":"Point","properties":{"Station_ID":"ANJ","Station_Nam":"SAULT STE MARIE","Latitude":"46.46670","Longitude":"-84.36670","Snowdepth":"7.000","Units":"in","Rept_Date":"2021-01-16 00"},"coordinates":[2941,6808]},{"type":"Point","properties":{"Station_ID":"AKYI4","Station_Nam":"ANKENY,IA","Latitude":"41.68330","Longitude":"-93.60000","Snowdepth":"7.000","Units":"in","Rept_Date":"2021-01-15 14"},"coordinates":[831,3906]},{"type":"Point","properties":{"Station_ID":"IA-BH-24","Station_Nam":"CEDAR FALLS 3.7 SW, IA","Latitude":"42.47648","Longitude":"-92.49519","Snowdepth":"6.800","Units":"in","Rept_Date":"2021-01-15 13"},"coordinates":[1084,4387]},{"type":"Point","properties":{"Station_ID":"HPN20_MADIS","Station_Nam":"HOPKINS","Latitude":"44.95556","Longitude":"-93.41140","Snowdepth":"6.800","Units":"in","Rept_Date":"2021-01-16 06"},"coordinates":[874,5891]},{"type":"Point","properties":{"Station_ID":"IA-CL-4","Station_Nam":"MURRAY 1.7 W, IA","Latitude":"41.04128","Longitude":"-93.98046","Snowdepth":"6.700","Units":"in","Rept_Date":"2021-01-15 13"},"coordinates":[744,3516]},{"type":"Point","properties":{"Station_ID":"CAN-PE-47","Station_Nam":"LONG CREEK 0.3 NNW, CAN","Latitude":"46.17420","Longitude":"-63.27320","Snowdepth":"6.700","Units":"in","Rept_Date":"2021-01-15 12"},"coordinates":[7760,6630]},{"type":"Point","properties":{"Station_ID":"QIQ","Station_Nam":"QIQ","Latitude":"49.82390","Longitude":"-68.54310","Snowdepth":"6.575","Units":"in","Rept_Date":"2021-01-15 12"},"coordinates":[6556,8844]},{"type":"Point","properties":{"Station_ID":"WI-WB-16","Station_Nam":"SARONA 4.5 NNE, WI","Latitude":"45.77030","Longitude":"-91.76890","Snowdepth":"6.500","Units":"in","Rept_Date":"2021-01-15 13"},"coordinates":[1250,6385]},{"type":"Point","properties":{"Station_ID":"WI-AS-6","Station_Nam":"ODANAH 1.6 E, WI","Latitude":"46.60462","Longitude":"-90.64920","Snowdepth":"6.500","Units":"in","Rept_Date":"2021-01-15 13"},"coordinates":[1505,6891]},{"type":"Point","properties":{"Station_ID":"VT-CL-14","Station_Nam":"LYNDONVILLE 1.1 W, VT","Latitude":"44.53582","Longitude":"-72.02867","Snowdepth":"6.500","Units":"in","Rept_Date":"2021-01-15 13"},"coordinates":[5760,5636]},{"type":"Point","properties":{"Station_ID":"NY-HR-18","Station_Nam":"SALISBURY CENTER 1.8 NW, NY","Latitude":"43.16260","Longitude":"-74.80880","Snowdepth":"6.500","Units":"in","Rept_Date":"2021-01-15 11"},"coordinates":[5124,4803]},{"type":"Point","properties":{"Station_ID":"NY-ES-6","Station_Nam":"OLMSTEDVILLE 4.6 NNE, NY","Latitude":"43.83350","Longitude":"-73.89780","Snowdepth":"6.500","Units":"in","Rept_Date":"2021-01-15 13"},"coordinates":[5333,5210]},{"type":"Point","properties":{"Station_ID":"MN-RM-54","Station_Nam":"SAINT PAUL 5.1 SW, MN","Latitude":"44.90390","Longitude":"-93.18820","Snowdepth":"6.500","Units":"in","Rept_Date":"2021-01-15 13"},"coordinates":[925,5860]},{"type":"Point","properties":{"Station_ID":"MN-MS-8","Station_Nam":"NEWFOLDEN 0.2 W, MN","Latitude":"48.35613","Longitude":"-96.33460","Snowdepth":"6.500","Units":"in","Rept_Date":"2021-01-15 14"},"coordinates":[207,7954]},{"type":"Point","properties":{"Station_ID":"MN-HN-31","Station_Nam":"MAPLE GROVE 1.0 NNE, MN","Latitude":"45.12261","Longitude":"-93.45790","Snowdepth":"6.500","Units":"in","Rept_Date":"2021-01-15 16"},"coordinates":[864,5992]},{"type":"Point","properties":{"Station_ID":"MN-BK-16","Station_Nam":"PARK RAPIDS 15.3 NW, MN","Latitude":"47.08653","Longitude":"-95.26951","Snowdepth":"6.500","Units":"in","Rept_Date":"2021-01-15 14"},"coordinates":[450,7184]},{"type":"Point","properties":{"Station_ID":"IL-WN-26","Station_Nam":"ROCKFORD 1.5 ENE, IL","Latitude":"42.27775","Longitude":"-89.03590","Snowdepth":"6.500","Units":"in","Rept_Date":"2021-01-15 15"},"coordinates":[1874,4266]},{"type":"Point","properties":{"Station_ID":"IL-SP-26","Station_Nam":"FREEPORT 2.9 WSW, IL","Latitude":"42.26779","Longitude":"-89.68323","Snowdepth":"6.500","Units":"in","Rept_Date":"2021-01-15 14"},"coordinates":[1726,4260]},{"type":"Point","properties":{"Station_ID":"IA-WH-1","Station_Nam":"DECORAH 7.9 ENE, IA","Latitude":"43.34391","Longitude":"-91.64430","Snowdepth":"6.500","Units":"in","Rept_Date":"2021-01-15 14"},"coordinates":[1278,4913]},{"type":"Point","properties":{"Station_ID":"IA-SR-17","Station_Nam":"AMES 0.9 ENE, IA","Latitude":"42.02886","Longitude":"-93.60950","Snowdepth":"6.500","Units":"in","Rept_Date":"2021-01-15 13"},"coordinates":[829,4115]},{"type":"Point","properties":{"Station_ID":"IA-PK-89","Station_Nam":"ANKENY 3.7 NNE, IA","Latitude":"41.77305","Longitude":"-93.57635","Snowdepth":"6.500","Units":"in","Rept_Date":"2021-01-15 13"},"coordinates":[837,3960]},{"type":"Point","properties":{"Station_ID":"IA-JH-22","Station_Nam":"CORALVILLE 1.3 SE, IA","Latitude":"41.68066","Longitude":"-91.58000","Snowdepth":"6.500","Units":"in","Rept_Date":"2021-01-15 13"},"coordinates":[1293,3904]},{"type":"Point","properties":{"Station_ID":"IA-IA-13","Station_Nam":"PARNELL 0.1 SSW, IA","Latitude":"41.58238","Longitude":"-92.00541","Snowdepth":"6.500","Units":"in","Rept_Date":"2021-01-15 13"},"coordinates":[1196,3845]},{"type":"Point","properties":{"Station_ID":"IA-CL-3","Station_Nam":"MURRAY 0.5 N, IA","Latitude":"41.04831","Longitude":"-93.94960","Snowdepth":"6.500","Units":"in","Rept_Date":"2021-01-15 13"},"coordinates":[751,3521]},{"type":"Point","properties":{"Station_ID":"MFU","Station_Nam":"MFU","Latitude":"51.52170","Longitude":"-66.91110","Snowdepth":"6.339","Units":"in","Rept_Date":"2021-01-15 12"},"coordinates":[6929,9875]},{"type":"Point","properties":{"Station_ID":"MN-CW-29","Station_Nam":"BRAINERD 7.7 SSE, MN","Latitude":"46.24996","Longitude":"-94.14576","Snowdepth":"6.300","Units":"in","Rept_Date":"2021-01-15 13"},"coordinates":[707,6676]},{"type":"Point","properties":{"Station_ID":"CAN-QC-51","Station_Nam":"BELOEIL 0.7 NW, CAN","Latitude":"45.58049","Longitude":"-73.21218","Snowdepth":"6.300","Units":"in","Rept_Date":"2021-01-15 12"},"coordinates":[5489,6270]},{"type":"Point","properties":{"Station_ID":"CAN-ON-452","Station_Nam":"CHATSWORTH 1.8 ENE - GSCA, CAN","Latitude":"44.46118","Longitude":"-80.87506","Snowdepth":"6.300","Units":"in","Rept_Date":"2021-01-15 12"},"coordinates":[3738,5591]},{"type":"Point","properties":{"Station_ID":"QGA","Station_Nam":"QGA","Latitude":"47.25640","Longitude":"-73.73810","Snowdepth":"6.260","Units":"in","Rept_Date":"2021-01-15 12"},"coordinates":[5369,7287]},{"type":"Point","properties":{"Station_ID":"IA-WR-7","Station_Nam":"INDIANOLA 0.8 SSW, IA","Latitude":"41.35047","Longitude":"-93.57290","Snowdepth":"6.200","Units":"in","Rept_Date":"2021-01-15 13"},"coordinates":[837,3704]},{"type":"Point","properties":{"Station_ID":"HPN09_MADIS","Station_Nam":"PLYMOUTH","Latitude":"44.98992","Longitude":"-93.47910","Snowdepth":"6.100","Units":"in","Rept_Date":"2021-01-16 06"},"coordinates":[859,5912]},{"type":"Point","properties":{"Station_ID":"CAN-NB-1","Station_Nam":"FREDERICTON 4.0 SSE, CA","Latitude":"45.92897","Longitude":"-66.62830","Snowdepth":"6.100","Units":"in","Rept_Date":"2021-01-15 12"},"coordinates":[6993,6482]},{"type":"Point","properties":{"Station_ID":"HPN19_MADIS","Station_Nam":"GREENFIELD","Latitude":"45.20343","Longitude":"-93.69130","Snowdepth":"6.050","Units":"in","Rept_Date":"2021-01-16 06"},"coordinates":[810,6041]},{"type":"Point","properties":{"Station_ID":"WTBW3","Station_Nam":"WEST BEND PUBLIC WORKS","Latitude":"43.41110","Longitude":"-88.19380","Snowdepth":"6.000","Units":"in","Rept_Date":"2021-01-15 15"},"coordinates":[2066,4954]},{"type":"Point","properties":{"Station_ID":"WNNM5","Station_Nam":"WINNEBAGO","Latitude":"43.76920","Longitude":"-94.18730","Snowdepth":"6.000","Units":"in","Rept_Date":"2021-01-15 14"},"coordinates":[697,5171]},{"type":"Point","properties":{"Station_ID":"WNDP1","Station_Nam":"WINDBER COUNTY CLUB","Latitude":"40.28780","Longitude":"-78.77530","Snowdepth":"6.000","Units":"in","Rept_Date":"2021-01-15 12"},"coordinates":[4218,3059]},{"type":"Point","properties":{"Station_ID":"WI-WK-61","Station_Nam":"HARTLAND 5.0 NNE, WI","Latitude":"43.16351","Longitude":"-88.30400","Snowdepth":"6.000","Units":"in","Rept_Date":"2021-01-15 12"},"coordinates":[2041,4804]},{"type":"Point","properties":{"Station_ID":"WI-WK-55","Station_Nam":"HARTLAND 4.4 NNE, WI","Latitude":"43.15341","Longitude":"-88.30146","Snowdepth":"6.000","Units":"in","Rept_Date":"2021-01-15 13"},"coordinates":[2042,4798]},{"type":"Point","properties":{"Station_ID":"WI-WK-34","Station_Nam":"MUKWONAGO 5.3 W, WI","Latitude":"42.85380","Longitude":"-88.43550","Snowdepth":"6.000","Units":"in","Rept_Date":"2021-01-15 13"},"coordinates":[2011,4616]},{"type":"Point","properties":{"Station_ID":"WI-VL-14","Station_Nam":"BOULDER JUNCTION 1.4 NE, WI","Latitude":"46.12840","Longitude":"-89.62470","Snowdepth":"6.000","Units":"in","Rept_Date":"2021-01-15 13"},"coordinates":[1739,6603]},{"type":"Point","properties":{"Station_ID":"WI-PR-6","Station_Nam":"PHILLIPS 1.3 S, WI","Latitude":"45.67677","Longitude":"-90.39543","Snowdepth":"6.000","Units":"in","Rept_Date":"2021-01-15 12"},"coordinates":[1563,6329]},{"type":"Point","properties":{"Station_ID":"WI-PC-10","Station_Nam":"RIVER FALLS 1.4 S, WI","Latitude":"44.83580","Longitude":"-92.62100","Snowdepth":"6.000","Units":"in","Rept_Date":"2021-01-15 13"},"coordinates":[1055,5818]},{"type":"Point","properties":{"Station_ID":"WI-JF-10","Station_Nam":"PALMYRA 1.5 N, WI","Latitude":"42.90084","Longitude":"-88.58620","Snowdepth":"6.000","Units":"in","Rept_Date":"2021-01-15 13"},"coordinates":[1977,4644]},{"type":"Point","properties":{"Station_ID":"WI-IW-3","Station_Nam":"MINERAL POINT 7.3 ENE, WI","Latitude":"42.91400","Longitude":"-90.05700","Snowdepth":"6.000","Units":"in","Rept_Date":"2021-01-15 13"},"coordinates":[1641,4652]},{"type":"Point","properties":{"Station_ID":"WI-DN-1","Station_Nam":"BOYCEVILLE 3.3 N, WI","Latitude":"45.08913","Longitude":"-92.02760","Snowdepth":"6.000","Units":"in","Rept_Date":"2021-01-15 13"},"coordinates":[1191,5972]},{"type":"Point","properties":{"Station_ID":"WI-BY-1","Station_Nam":"BAYFIELD 8.8 N, WI","Latitude":"46.93855","Longitude":"-90.83490","Snowdepth":"6.000","Units":"in","Rept_Date":"2021-01-15 13"},"coordinates":[1463,7094]},{"type":"Point","properties":{"Station_ID":"WI-BR-2","Station_Nam":"CHETEK 2.0 SE, WI","Latitude":"45.29427","Longitude":"-91.62470","Snowdepth":"6.000","Units":"in","Rept_Date":"2021-01-15 13"},"coordinates":[1283,6096]},{"type":"Point","properties":{"Station_ID":"WI-AS-4","Station_Nam":"ASHLAND 0.5 WNW, WI","Latitude":"46.58240","Longitude":"-90.88390","Snowdepth":"6.000","Units":"in","Rept_Date":"2021-01-15 13"},"coordinates":[1452,6878]},{"type":"Point","properties":{"Station_ID":"WGCI4","Station_Nam":"WAVELAND","Latitude":"41.58330","Longitude":"-93.66670","Snowdepth":"6.000","Units":"in","Rept_Date":"2021-01-15 13"},"coordinates":[816,3845]},{"type":"Point","properties":{"Station_ID":"WASM5","Station_Nam":"WASECA SOUTHERN RESEARCH AND OUTREACH CENTER","Latitude":"44.07070","Longitude":"-93.52640","Snowdepth":"6.000","Units":"in","Rept_Date":"2021-01-15 14"},"coordinates":[848,5354]},{"type":"Point","properties":{"Station_ID":"VT-WS-19","Station_Nam":"WATERBURY 3.0 NW, VT","Latitude":"44.36060","Longitude":"-72.80770","Snowdepth":"6.000","Units":"in","Rept_Date":"2021-01-15 11"},"coordinates":[5582,5530]},{"type":"Point","properties":{"Station_ID":"VT-WS-10","Station_Nam":"NORTHFIELD 1.5 N, VT","Latitude":"44.16986","Longitude":"-72.65200","Snowdepth":"6.000","Units":"in","Rept_Date":"2021-01-15 12"},"coordinates":[5617,5414]},{"type":"Point","properties":{"Station_ID":"VT-OL-9","Station_Nam":"GREENSBORO 2.1 NNW, VT","Latitude":"44.60528","Longitude":"-72.30940","Snowdepth":"6.000","Units":"in","Rept_Date":"2021-01-15 12"},"coordinates":[5695,5678]},{"type":"Point","properties":{"Station_ID":"VT-BN-3","Station_Nam":"LANDGROVE 1.1 NNE, VT","Latitude":"43.29092","Longitude":"-72.83260","Snowdepth":"6.000","Units":"in","Rept_Date":"2021-01-15 13"},"coordinates":[5576,4881]},{"type":"Point","properties":{"Station_ID":"TRPI4","Station_Nam":"TRIPOLI,IA","Latitude":"42.81310","Longitude":"-92.25830","Snowdepth":"6.000","Units":"in","Rept_Date":"2021-01-15 13"},"coordinates":[1138,4591]},{"type":"Point","properties":{"Station_ID":"TOHM5","Station_Nam":"TWO HARBORS WWTP","Latitude":"47.01760","Longitude":"-91.66480","Snowdepth":"6.000","Units":"in","Rept_Date":"2021-01-15 13"},"coordinates":[1273,7142]},{"type":"Point","properties":{"Station_ID":"SWHI4","Station_Nam":"SWISHER #2","Latitude":"41.84970","Longitude":"-91.67650","Snowdepth":"6.000","Units":"in","Rept_Date":"2021-01-15 14"},"coordinates":[1271,4007]},{"type":"Point","properties":{"Station_ID":"STOW3","Station_Nam":"STOUGHTON,WI","Latitude":"42.91670","Longitude":"-89.21670","Snowdepth":"6.000","Units":"in","Rept_Date":"2021-01-15 13"},"coordinates":[1833,4654]},{"type":"Point","properties":{"Station_ID":"STMM4","Station_Nam":"STAMBAUGH 2SSE","Latitude":"46.05550","Longitude":"-88.62780","Snowdepth":"6.000","Units":"in","Rept_Date":"2021-01-15 13"},"coordinates":[1967,6558]},{"type":"Point","properties":{"Station_ID":"STIM5","Station_Nam":"STILLWATER 2SW","Latitude":"45.04540","Longitude":"-92.85220","Snowdepth":"6.000","Units":"in","Rept_Date":"2021-01-15 16"},"coordinates":[1002,5945]},{"type":"Point","properties":{"Station_ID":"SNYI4","Station_Nam":"STANLEY","Latitude":"42.63330","Longitude":"-91.86320","Snowdepth":"6.000","Units":"in","Rept_Date":"2021-01-15 13"},"coordinates":[1228,4482]},{"type":"Point","properties":{"Station_ID":"SACI4","Station_Nam":"SAC CITY,IA","Latitude":"42.42390","Longitude":"-94.99080","Snowdepth":"6.000","Units":"in","Rept_Date":"2021-01-15 12"},"coordinates":[514,4355]},{"type":"Point","properties":{"Station_ID":"RKWM1","Station_Nam":"MOOSEHEAD LAKE","Latitude":"45.58330","Longitude":"-69.71670","Snowdepth":"6.000","Units":"in","Rept_Date":"2021-01-15 12"},"coordinates":[6288,6272]},{"type":"Point","properties":{"Station_ID":"RKWI4","Station_Nam":"ROCKWELL CITY,IA","Latitude":"42.40000","Longitude":"-94.61670","Snowdepth":"6.000","Units":"in","Rept_Date":"2021-01-15 13"},"coordinates":[599,4341]},{"type":"Point","properties":{"Station_ID":"PRNW3","Station_Nam":"PRENTICE,WI","Latitude":"45.54780","Longitude":"-90.30000","Snowdepth":"6.000","Units":"in","Rept_Date":"2021-01-15 14"},"coordinates":[1585,6250]},{"type":"Point","properties":{"Station_ID":"POCI4","Station_Nam":"POCAHONTAS,IA","Latitude":"42.72920","Longitude":"-94.66060","Snowdepth":"6.000","Units":"in","Rept_Date":"2021-01-15 14"},"coordinates":[589,4540]},{"type":"Point","properties":{"Station_ID":"PERV1","Station_Nam":"PERU","Latitude":"43.26670","Longitude":"-72.90000","Snowdepth":"6.000","Units":"in","Rept_Date":"2021-01-15 12"},"coordinates":[5560,4866]},{"type":"Point","properties":{"Station_ID":"PEKN6","Station_Nam":"PECK LAKE","Latitude":"43.11500","Longitude":"-74.42360","Snowdepth":"6.000","Units":"in","Rept_Date":"2021-01-15 12"},"coordinates":[5212,4774]},{"type":"Point","properties":{"Station_ID":"PDCW3","Station_Nam":"PRAIRIE DU CHIEN","Latitude":"43.05150","Longitude":"-91.13490","Snowdepth":"6.000","Units":"in","Rept_Date":"2021-01-15 13"},"coordinates":[1394,4736]},{"type":"Point","properties":{"Station_ID":"NY-LW-12","Station_Nam":"CHASES LAKE COOP, NY","Latitude":"43.75924","Longitude":"-75.29982","Snowdepth":"6.000","Units":"in","Rept_Date":"2021-01-15 11"},"coordinates":[5012,5165]},{"type":"Point","properties":{"Station_ID":"NY-HM-10","Station_Nam":"LAKE PLEASANT 2.3 WSW, NY","Latitude":"43.45490","Longitude":"-74.45287","Snowdepth":"6.000","Units":"in","Rept_Date":"2021-01-15 12"},"coordinates":[5206,4981]},{"type":"Point","properties":{"Station_ID":"NY-CR-5","Station_Nam":"MARATHON 1.0 NW, NY","Latitude":"42.45161","Longitude":"-76.04370","Snowdepth":"6.000","Units":"in","Rept_Date":"2021-01-15 12"},"coordinates":[4842,4372]},{"type":"Point","properties":{"Station_ID":"NH-GR-47","Station_Nam":"LITTLETON 7.3 W, NH","Latitude":"44.31847","Longitude":"-71.91086","Snowdepth":"6.000","Units":"in","Rept_Date":"2021-01-15 13"},"coordinates":[5786,5504]},{"type":"Point","properties":{"Station_ID":"MWOW3","Station_Nam":"MUKWONAGO","Latitude":"42.85380","Longitude":"-88.43550","Snowdepth":"6.000","Units":"in","Rept_Date":"2021-01-15 13"},"coordinates":[2011,4616]},{"type":"Point","properties":{"Station_ID":"MSTI4","Station_Nam":"MUSCATINE 2N","Latitude":"41.47130","Longitude":"-91.04630","Snowdepth":"6.000","Units":"in","Rept_Date":"2021-01-15 13"},"coordinates":[1415,3777]},{"type":"Point","properties":{"Station_ID":"MPXM5","Station_Nam":"CHANHASSEN WSFO","Latitude":"44.84960","Longitude":"-93.56440","Snowdepth":"6.000","Units":"in","Rept_Date":"2021-01-16 06"},"coordinates":[839,5827]},{"type":"Point","properties":{"Station_ID":"MN-WR-40","Station_Nam":"CLEARWATER 5.4 SSE, MN","Latitude":"45.34795","Longitude":"-94.03374","Snowdepth":"6.000","Units":"in","Rept_Date":"2021-01-15 14"},"coordinates":[732,6129]},{"type":"Point","properties":{"Station_ID":"MN-SC-49","Station_Nam":"NEW PRAGUE 1.0 NNW, MN","Latitude":"44.55969","Longitude":"-93.58193","Snowdepth":"6.000","Units":"in","Rept_Date":"2021-01-15 13"},"coordinates":[835,5651]},{"type":"Point","properties":{"Station_ID":"MN-RC-38","Station_Nam":"FARIBAULT 1.6 S, MN","Latitude":"44.27639","Longitude":"-93.27306","Snowdepth":"6.000","Units":"in","Rept_Date":"2021-01-15 13"},"coordinates":[906,5479]},{"type":"Point","properties":{"Station_ID":"MN-OL-48","Station_Nam":"ROCHESTER 4.2 N, MN","Latitude":"44.07626","Longitude":"-92.48553","Snowdepth":"6.000","Units":"in","Rept_Date":"2021-01-15 14"},"coordinates":[1086,5358]},{"type":"Point","properties":{"Station_ID":"MN-MY-5","Station_Nam":"TRACY 7.8 SSW, MN","Latitude":"44.13486","Longitude":"-95.68073","Snowdepth":"6.000","Units":"in","Rept_Date":"2021-01-15 18"},"coordinates":[356,5393]},{"type":"Point","properties":{"Station_ID":"MN-MR-13","Station_Nam":"LITTLE FALLS 8.0 NE, MN","Latitude":"46.06785","Longitude":"-94.24789","Snowdepth":"6.000","Units":"in","Rept_Date":"2021-01-15 13"},"coordinates":[683,6566]},{"type":"Point","properties":{"Station_ID":"MN-HS-6","Station_Nam":"HOKAH 4.5 WSW, MN","Latitude":"43.74196","Longitude":"-91.43685","Snowdepth":"6.000","Units":"in","Rept_Date":"2021-01-15 15"},"coordinates":[1325,5155]},{"type":"Point","properties":{"Station_ID":"MN-HN-78","Station_Nam":"RICHFIELD 1.9 WNW, MN","Latitude":"44.89129","Longitude":"-93.31410","Snowdepth":"6.000","Units":"in","Rept_Date":"2021-01-15 10"},"coordinates":[897,5852]},{"type":"Point","properties":{"Station_ID":"MN-HN-272","Station_Nam":"RICHFIELD 1.1 WSW, MN","Latitude":"44.87052","Longitude":"-93.30394","Snowdepth":"6.000","Units":"in","Rept_Date":"2021-01-15 13"},"coordinates":[899,5839]},{"type":"Point","properties":{"Station_ID":"MN-HN-17","Station_Nam":"EDEN PRAIRIE 3.3 WSW, MN","Latitude":"44.82940","Longitude":"-93.52010","Snowdepth":"6.000","Units":"in","Rept_Date":"2021-01-15 14"},"coordinates":[850,5814]},{"type":"Point","properties":{"Station_ID":"MN-HN-110","Station_Nam":"EDINA 1.9 SSE, MN","Latitude":"44.86875","Longitude":"-93.33940","Snowdepth":"6.000","Units":"in","Rept_Date":"2021-01-15 13"},"coordinates":[891,5838]},{"type":"Point","properties":{"Station_ID":"MN-DK-134","Station_Nam":"INVER GROVE HEIGHTS 1.0 S, MN","Latitude":"44.81010","Longitude":"-93.06196","Snowdepth":"6.000","Units":"in","Rept_Date":"2021-01-15 13"},"coordinates":[954,5803]},{"type":"Point","properties":{"Station_ID":"MN-CV-1","Station_Nam":"CARVER 0.7 W, MN","Latitude":"44.75728","Longitude":"-93.64160","Snowdepth":"6.000","Units":"in","Rept_Date":"2021-01-15 13"},"coordinates":[822,5771]},{"type":"Point","properties":{"Station_ID":"MN-BU-37","Station_Nam":"MANKATO 3.3 SSW, MN","Latitude":"44.12777","Longitude":"-94.00596","Snowdepth":"6.000","Units":"in","Rept_Date":"2021-01-15 14"},"coordinates":[739,5389]},{"type":"Point","properties":{"Station_ID":"MN-BK-10","Station_Nam":"DETROIT LAKES 5.7 N, MN","Latitude":"46.88666","Longitude":"-95.84444","Snowdepth":"6.000","Units":"in","Rept_Date":"2021-01-15 10"},"coordinates":[319,7063]},{"type":"Point","properties":{"Station_ID":"MKTI4","Station_Nam":"MAQUOKETA","Latitude":"42.07710","Longitude":"-90.66470","Snowdepth":"6.000","Units":"in","Rept_Date":"2021-01-15 13"},"coordinates":[1502,4145]},{"type":"Point","properties":{"Station_ID":"MI-OT-17","Station_Nam":"GAYLORD 4.1 S, MI","Latitude":"44.96388","Longitude":"-84.68467","Snowdepth":"6.000","Units":"in","Rept_Date":"2021-01-15 12"},"coordinates":[2868,5896]},{"type":"Point","properties":{"Station_ID":"MI-OG-6","Station_Nam":"WEST BRANCH 2.1 SSW, MI","Latitude":"44.24814","Longitude":"-84.25089","Snowdepth":"6.000","Units":"in","Rept_Date":"2021-01-15 12"},"coordinates":[2967,5462]},{"type":"Point","properties":{"Station_ID":"MI-MQ-19","Station_Nam":"ISHPEMING 7.2 SW, MI","Latitude":"46.40550","Longitude":"-87.75670","Snowdepth":"6.000","Units":"in","Rept_Date":"2021-01-15 11"},"coordinates":[2166,6771]},{"type":"Point","properties":{"Station_ID":"MI-GG-4","Station_Nam":"WATERSMEET 5.0 SE, MI","Latitude":"46.20333","Longitude":"-89.13170","Snowdepth":"6.000","Units":"in","Rept_Date":"2021-01-15 14"},"coordinates":[1852,6648]},{"type":"Point","properties":{"Station_ID":"ME-AR-18","Station_Nam":"NEW SWEDEN 4.9 NNW, ME","Latitude":"47.01080","Longitude":"-68.14390","Snowdepth":"6.000","Units":"in","Rept_Date":"2021-01-15 12"},"coordinates":[6647,7138]},{"type":"Point","properties":{"Station_ID":"LNKM1","Station_Nam":"LINCOLN SANITARY DISTRICT/WTP","Latitude":"45.37520","Longitude":"-68.50820","Snowdepth":"6.000","Units":"in","Rept_Date":"2021-01-15 12"},"coordinates":[6564,6146]},{"type":"Point","properties":{"Station_ID":"LNGM5","Station_Nam":"LONG PRAIRIE","Latitude":"45.96460","Longitude":"-94.88920","Snowdepth":"6.000","Units":"in","Rept_Date":"2021-01-15 12"},"coordinates":[537,6503]},{"type":"Point","properties":{"Station_ID":"LBRM5","Station_Nam":"LAKE BRONSON DAM","Latitude":"48.72410","Longitude":"-96.62180","Snowdepth":"6.000","Units":"in","Rept_Date":"2021-01-15 14"},"coordinates":[141,8177]},{"type":"Point","properties":{"Station_ID":"LBKV1","Station_Nam":"LYE BROOK","Latitude":"43.05000","Longitude":"-73.03330","Snowdepth":"6.000","Units":"in","Rept_Date":"2021-01-16 06"},"coordinates":[5530,4735]},{"type":"Point","properties":{"Station_ID":"KMSN","Station_Nam":"MADISON DANE COUNTY RGNL","Latitude":"43.13333","Longitude":"-89.35000","Snowdepth":"6.000","Units":"in","Rept_Date":"2021-01-16 06"},"coordinates":[1802,4785]},{"type":"Point","properties":{"Station_ID":"KGTB","Station_Nam":"FORT DRUM / WHEELER-SACK U. S. ARMY AIRFIELD","Latitude":"44.05000","Longitude":"-75.73333","Snowdepth":"6.000","Units":"in","Rept_Date":"2021-01-16 00"},"coordinates":[4913,5342]},{"type":"Point","properties":{"Station_ID":"JOHV1","Station_Nam":"JOHNSON 2 N","Latitude":"44.65790","Longitude":"-72.67850","Snowdepth":"6.000","Units":"in","Rept_Date":"2021-01-15 12"},"coordinates":[5611,5710]},{"type":"Point","properties":{"Station_ID":"JEFV1","Station_Nam":"JEFFERSONVILLE","Latitude":"44.58430","Longitude":"-72.78700","Snowdepth":"6.000","Units":"in","Rept_Date":"2021-01-15 12"},"coordinates":[5586,5666]},{"type":"Point","properties":{"Station_ID":"ISLV1","Station_Nam":"ISLAND POND","Latitude":"44.81280","Longitude":"-71.89020","Snowdepth":"6.000","Units":"in","Rept_Date":"2021-01-15 14"},"coordinates":[5791,5804]},{"type":"Point","properties":{"Station_ID":"IL-WN-32","Station_Nam":"ROCKFORD 5.5 S, IL","Latitude":"42.19058","Longitude":"-89.06040","Snowdepth":"6.000","Units":"in","Rept_Date":"2021-01-15 14"},"coordinates":[1868,4214]},{"type":"Point","properties":{"Station_ID":"IA-WR-5","Station_Nam":"HARTFORD 1.0 E, IA","Latitude":"41.46014","Longitude":"-93.38550","Snowdepth":"6.000","Units":"in","Rept_Date":"2021-01-15 14"},"coordinates":[880,3770]},{"type":"Point","properties":{"Station_ID":"IA-ST-3","Station_Nam":"PARK VIEW 0.2 WSW, IA","Latitude":"41.68855","Longitude":"-90.54380","Snowdepth":"6.000","Units":"in","Rept_Date":"2021-01-15 13"},"coordinates":[1530,3909]},{"type":"Point","properties":{"Station_ID":"IA-SR-12","Station_Nam":"AMES 2.1 N, IA","Latitude":"42.05442","Longitude":"-93.62670","Snowdepth":"6.000","Units":"in","Rept_Date":"2021-01-15 14"},"coordinates":[825,4131]},{"type":"Point","properties":{"Station_ID":"IA-PK-83","Station_Nam":"ALTOONA 1.5 SSE, IA","Latitude":"41.63125","Longitude":"-93.46584","Snowdepth":"6.000","Units":"in","Rept_Date":"2021-01-15 13"},"coordinates":[862,3874]},{"type":"Point","properties":{"Station_ID":"IA-PK-37","Station_Nam":"WINDSOR HEIGHTS 0.8 SE, IA","Latitude":"41.59810","Longitude":"-93.69950","Snowdepth":"6.000","Units":"in","Rept_Date":"2021-01-15 13"},"coordinates":[809,3854]},{"type":"Point","properties":{"Station_ID":"IA-JH-14","Station_Nam":"SWISHER 0.4 NNE, IA","Latitude":"41.84830","Longitude":"-91.69210","Snowdepth":"6.000","Units":"in","Rept_Date":"2021-01-15 14"},"coordinates":[1267,4006]},{"type":"Point","properties":{"Station_ID":"HRFI4","Station_Nam":"HARTFORD,IA","Latitude":"41.46670","Longitude":"-93.41670","Snowdepth":"6.000","Units":"in","Rept_Date":"2021-01-15 14"},"coordinates":[873,3774]},{"type":"Point","properties":{"Station_ID":"HPN11_MADIS","Station_Nam":"SAINT BONIFACIUS","Latitude":"44.89792","Longitude":"-93.73460","Snowdepth":"6.000","Units":"in","Rept_Date":"2021-01-16 06"},"coordinates":[801,5856]},{"type":"Point","properties":{"Station_ID":"GTTI4","Station_Nam":"LOCK & DAM 10","Latitude":"42.78580","Longitude":"-91.09970","Snowdepth":"6.000","Units":"in","Rept_Date":"2021-01-15 14"},"coordinates":[1403,4575]},{"type":"Point","properties":{"Station_ID":"GRWI4","Station_Nam":"GARWIN,IA","Latitude":"42.10000","Longitude":"-92.66670","Snowdepth":"6.000","Units":"in","Rept_Date":"2021-01-15 12"},"coordinates":[1045,4159]},{"type":"Point","properties":{"Station_ID":"GLLM5","Station_Nam":"GULL LAKE DAM","Latitude":"46.41190","Longitude":"-94.35000","Snowdepth":"6.000","Units":"in","Rept_Date":"2021-01-15 14"},"coordinates":[660,6774]},{"type":"Point","properties":{"Station_ID":"GFDN6","Station_Nam":"CHASES LAKE","Latitude":"43.75920","Longitude":"-75.29980","Snowdepth":"6.000","Units":"in","Rept_Date":"2021-01-15 11"},"coordinates":[5012,5165]},{"type":"Point","properties":{"Station_ID":"GENW3","Station_Nam":"GENOA DAM 8","Latitude":"43.57050","Longitude":"-91.22950","Snowdepth":"6.000","Units":"in","Rept_Date":"2021-01-15 14"},"coordinates":[1373,5051]},{"type":"Point","properties":{"Station_ID":"FBTM5","Station_Nam":"FARIBAULT","Latitude":"44.30920","Longitude":"-93.26600","Snowdepth":"6.000","Units":"in","Rept_Date":"2021-01-15 13"},"coordinates":[908,5499]},{"type":"Point","properties":{"Station_ID":"FARM1","Station_Nam":"FARMINGTON","Latitude":"44.68930","Longitude":"-70.15640","Snowdepth":"6.000","Units":"in","Rept_Date":"2021-01-15 12"},"coordinates":[6187,5729]},{"type":"Point","properties":{"Station_ID":"EZBI2","Station_Nam":"ELIZABETH","Latitude":"42.31620","Longitude":"-90.22690","Snowdepth":"6.000","Units":"in","Rept_Date":"2021-01-15 12"},"coordinates":[1602,4290]},{"type":"Point","properties":{"Station_ID":"ESGM1","Station_Nam":"EAST SANGERVILLE","Latitude":"45.13690","Longitude":"-69.28060","Snowdepth":"6.000","Units":"in","Rept_Date":"2021-01-15 12"},"coordinates":[6387,6001]},{"type":"Point","properties":{"Station_ID":"ENFV1","Station_Nam":"ENOSBURG FALLS 2","Latitude":"44.90960","Longitude":"-72.81370","Snowdepth":"6.000","Units":"in","Rept_Date":"2021-01-15 10"},"coordinates":[5580,5863]},{"type":"Point","properties":{"Station_ID":"EGRW3","Station_Nam":"EAGLE RIVER-SOUTH","Latitude":"45.91360","Longitude":"-89.24360","Snowdepth":"6.000","Units":"in","Rept_Date":"2021-01-15 13"},"coordinates":[1827,6472]},{"type":"Point","properties":{"Station_ID":"EAHV1","Station_Nam":"EAST HAVEN","Latitude":"44.64250","Longitude":"-71.89120","Snowdepth":"6.000","Units":"in","Rept_Date":"2021-01-15 12"},"coordinates":[5791,5701]},{"type":"Point","properties":{"Station_ID":"DUBI4","Station_Nam":"DUBUQUE #3","Latitude":"42.40870","Longitude":"-90.73250","Snowdepth":"6.000","Units":"in","Rept_Date":"2021-01-16 06"},"coordinates":[1486,4346]},{"type":"Point","properties":{"Station_ID":"DSXI4","Station_Nam":"DES MOINES SNOW","Latitude":"41.54130","Longitude":"-93.65570","Snowdepth":"6.000","Units":"in","Rept_Date":"2021-01-16 06"},"coordinates":[819,3820]},{"type":"Point","properties":{"Station_ID":"DSM","Station_Nam":"DES MOINES INTERNATIONAL","Latitude":"41.53340","Longitude":"-93.66300","Snowdepth":"6.000","Units":"in","Rept_Date":"2021-01-16 00"},"coordinates":[817,3815]},{"type":"Point","properties":{"Station_ID":"DMX","Station_Nam":"DES MOINES, IA","Latitude":"41.73610","Longitude":"-93.72330","Snowdepth":"6.000","Units":"in","Rept_Date":"2021-01-16 06"},"coordinates":[803,3938]},{"type":"Point","properties":{"Station_ID":"DLDI4","Station_Nam":"MISSISSIPPI RIVER","Latitude":"42.51670","Longitude":"-90.65000","Snowdepth":"6.000","Units":"in","Rept_Date":"2021-01-15 12"},"coordinates":[1505,4411]},{"type":"Point","properties":{"Station_ID":"DFXM1","Station_Nam":"DOVER-FOXCROFT","Latitude":"45.18720","Longitude":"-69.18350","Snowdepth":"6.000","Units":"in","Rept_Date":"2021-01-15 12"},"coordinates":[6410,6031]},{"type":"Point","properties":{"Station_ID":"DBQ","Station_Nam":"DUBUQUE REGIONAL AIRPORT","Latitude":"42.40310","Longitude":"-90.70920","Snowdepth":"6.000","Units":"in","Rept_Date":"2021-01-16 00"},"coordinates":[1492,4342]},{"type":"Point","properties":{"Station_ID":"CORV1","Station_Nam":"CORINTH","Latitude":"44.00690","Longitude":"-72.31940","Snowdepth":"6.000","Units":"in","Rept_Date":"2021-01-15 12"},"coordinates":[5693,5315]},{"type":"Point","properties":{"Station_ID":"CMRI4","Station_Nam":"CALMAR NE","Latitude":"43.18760","Longitude":"-91.86200","Snowdepth":"6.000","Units":"in","Rept_Date":"2021-01-15 13"},"coordinates":[1228,4818]},{"type":"Point","properties":{"Station_ID":"CLIW3","Station_Nam":"CLINTON,WI","Latitude":"42.60000","Longitude":"-88.88330","Snowdepth":"6.000","Units":"in","Rept_Date":"2021-01-15 13"},"coordinates":[1909,4462]},{"type":"Point","properties":{"Station_ID":"CCTI4","Station_Nam":"CENTRAL CITY","Latitude":"42.21480","Longitude":"-91.52230","Snowdepth":"6.000","Units":"in","Rept_Date":"2021-01-15 14"},"coordinates":[1306,4228]},{"type":"Point","properties":{"Station_ID":"CARM1","Station_Nam":"CARIBOU WFO","Latitude":"46.86810","Longitude":"-68.01250","Snowdepth":"6.000","Units":"in","Rept_Date":"2021-01-16 05"},"coordinates":[6677,7051]},{"type":"Point","properties":{"Station_ID":"CAR","Station_Nam":"CARIBOU, ME","Latitude":"46.86830","Longitude":"-68.01360","Snowdepth":"6.000","Units":"in","Rept_Date":"2021-01-15 12"},"coordinates":[6677,7051]},{"type":"Point","properties":{"Station_ID":"CAN-PE-7","Station_Nam":"MORELL 1.4 NNW, CA","Latitude":"46.42741","Longitude":"-62.70870","Snowdepth":"6.000","Units":"in","Rept_Date":"2021-01-15 12"},"coordinates":[7889,6784]},{"type":"Point","properties":{"Station_ID":"BROW3","Station_Nam":"BRODHEAD,WI","Latitude":"42.61720","Longitude":"-89.38970","Snowdepth":"6.000","Units":"in","Rept_Date":"2021-01-15 13"},"coordinates":[1793,4472]},{"type":"Point","properties":{"Station_ID":"BRKI4","Station_Nam":"BROOKLYN,IA","Latitude":"41.72830","Longitude":"-92.43330","Snowdepth":"6.000","Units":"in","Rept_Date":"2021-01-15 13"},"coordinates":[1098,3933]},{"type":"Point","properties":{"Station_ID":"BRAM5","Station_Nam":"BRAINERD","Latitude":"46.34320","Longitude":"-94.20900","Snowdepth":"6.000","Units":"in","Rept_Date":"2021-01-15 13"},"coordinates":[692,6733]},{"type":"Point","properties":{"Station_ID":"BRAM1","Station_Nam":"BRASSUA DAM","Latitude":"45.66020","Longitude":"-69.81190","Snowdepth":"6.000","Units":"in","Rept_Date":"2021-01-15 12"},"coordinates":[6266,6318]},{"type":"Point","properties":{"Station_ID":"AWXW3","Station_Nam":"ASHLAND","Latitude":"46.58240","Longitude":"-90.88390","Snowdepth":"6.000","Units":"in","Rept_Date":"2021-01-15 13"},"coordinates":[1452,6878]},{"type":"Point","properties":{"Station_ID":"AVTW3","Station_Nam":"ARBOR VITAE-JOHNSON LAKE","Latitude":"45.89940","Longitude":"-89.72670","Snowdepth":"6.000","Units":"in","Rept_Date":"2021-01-15 12"},"coordinates":[1716,6464]},{"type":"Point","properties":{"Station_ID":"ATLI4","Station_Nam":"ATLANTIC,IA","Latitude":"41.41810","Longitude":"-95.00310","Snowdepth":"6.000","Units":"in","Rept_Date":"2021-01-15 13"},"coordinates":[511,3745]},{"type":"Point","properties":{"Station_ID":"ARX","Station_Nam":"LA CROSSE, WI","Latitude":"43.82280","Longitude":"-91.19190","Snowdepth":"6.000","Units":"in","Rept_Date":"2021-01-16 06"},"coordinates":[1381,5204]},{"type":"Point","properties":{"Station_ID":"AMOI4","Station_Nam":"ANAMOSA 3 SSW","Latitude":"42.07630","Longitude":"-91.30190","Snowdepth":"6.000","Units":"in","Rept_Date":"2021-01-15 12"},"coordinates":[1356,4144]},{"type":"Point","properties":{"Station_ID":"AMAM4","Station_Nam":"AMASA 1W","Latitude":"46.23470","Longitude":"-88.45440","Snowdepth":"6.000","Units":"in","Rept_Date":"2021-01-15 14"},"coordinates":[2007,6667]},{"type":"Point","properties":{"Station_ID":"AESI4","Station_Nam":"BLO SQUAW CK ON THE SOUTH SKUNK R.","Latitude":"41.96250","Longitude":"-93.56110","Snowdepth":"6.000","Units":"in","Rept_Date":"2021-01-15 12"},"coordinates":[840,4075]},{"type":"Point","properties":{"Station_ID":"CAN-NB-105","Station_Nam":"SISSON BROOK 3.8 E, CAN","Latitude":"46.98305","Longitude":"-67.32532","Snowdepth":"5.900","Units":"in","Rept_Date":"2021-01-15 12"},"coordinates":[6834,7121]},{"type":"Point","properties":{"Station_ID":"QWG","Station_Nam":"QWG","Latitude":"48.48890","Longitude":"-73.45940","Snowdepth":"5.748","Units":"in","Rept_Date":"2021-01-15 12"},"coordinates":[5433,8035]},{"type":"Point","properties":{"Station_ID":"WI-DA-45","Station_Nam":"MADISON 6.1 W, WI","Latitude":"43.06948","Longitude":"-89.50788","Snowdepth":"5.700","Units":"in","Rept_Date":"2021-01-15 13"},"coordinates":[1766,4747]},{"type":"Point","properties":{"Station_ID":"QTV","Station_Nam":"QTV","Latitude":"49.66000","Longitude":"-69.35690","Snowdepth":"5.591","Units":"in","Rept_Date":"2021-01-15 12"},"coordinates":[6370,8745]},{"type":"Point","properties":{"Station_ID":"WI-WS-27","Station_Nam":"RICHFIELD 2.8 WNW, WI","Latitude":"43.26840","Longitude":"-88.24890","Snowdepth":"5.500","Units":"in","Rept_Date":"2021-01-15 14"},"coordinates":[2054,4867]},{"type":"Point","properties":{"Station_ID":"WI-WK-29","Station_Nam":"OCONOMOWOC 4.6 NE, WI","Latitude":"43.14621","Longitude":"-88.42860","Snowdepth":"5.500","Units":"in","Rept_Date":"2021-01-15 15"},"coordinates":[2013,4793]},{"type":"Point","properties":{"Station_ID":"WI-RK-16","Station_Nam":"JANESVILLE 2.7 ENE, WI","Latitude":"42.69228","Longitude":"-88.96319","Snowdepth":"5.500","Units":"in","Rept_Date":"2021-01-15 14"},"coordinates":[1891,4518]},{"type":"Point","properties":{"Station_ID":"VT-OG-14","Station_Nam":"BRADFORD 2.2 NNW, VT","Latitude":"44.02268","Longitude":"-72.14756","Snowdepth":"5.500","Units":"in","Rept_Date":"2021-01-15 13"},"coordinates":[5732,5325]},{"type":"Point","properties":{"Station_ID":"VT-CL-18","Station_Nam":"WHEELOCK 1.6 S, VT","Latitude":"44.56491","Longitude":"-72.08830","Snowdepth":"5.500","Units":"in","Rept_Date":"2021-01-15 12"},"coordinates":[5746,5654]},{"type":"Point","properties":{"Station_ID":"NH-MR-4","Station_Nam":"BOW 1.6 NW, NH","Latitude":"43.14994","Longitude":"-71.55650","Snowdepth":"5.500","Units":"in","Rept_Date":"2021-01-15 13"},"coordinates":[5867,4796]},{"type":"Point","properties":{"Station_ID":"MN-RM-56","Station_Nam":"ROSEVILLE 1.6 NW, MN","Latitude":"45.03303","Longitude":"-93.17523","Snowdepth":"5.500","Units":"in","Rept_Date":"2021-01-15 13"},"coordinates":[928,5938]},{"type":"Point","properties":{"Station_ID":"MN-HN-307","Station_Nam":"MINNEAPOLIS 1.5 WNW, MN","Latitude":"44.96860","Longitude":"-93.29580","Snowdepth":"5.500","Units":"in","Rept_Date":"2021-01-15 13"},"coordinates":[901,5899]},{"type":"Point","properties":{"Station_ID":"MI-CP-14","Station_Nam":"SAULT STE. MARIE 2.2 E, MI","Latitude":"46.48933","Longitude":"-84.31971","Snowdepth":"5.500","Units":"in","Rept_Date":"2021-01-15 14"},"coordinates":[2951,6821]},{"type":"Point","properties":{"Station_ID":"ME-WL-8","Station_Nam":"WINTERPORT 2.9 N, ME","Latitude":"44.69369","Longitude":"-68.84800","Snowdepth":"5.500","Units":"in","Rept_Date":"2021-01-15 12"},"coordinates":[6486,5732]},{"type":"Point","properties":{"Station_ID":"ME-SM-45","Station_Nam":"BRIGHTON PLANTATION 2.1 N, ME","Latitude":"45.07098","Longitude":"-69.69860","Snowdepth":"5.500","Units":"in","Rept_Date":"2021-01-15 12"},"coordinates":[6292,5961]},{"type":"Point","properties":{"Station_ID":"ME-FR-22","Station_Nam":"FARMINGTON 4.8 NNW, ME","Latitude":"44.73396","Longitude":"-70.18007","Snowdepth":"5.500","Units":"in","Rept_Date":"2021-01-15 14"},"coordinates":[6182,5757]},{"type":"Point","properties":{"Station_ID":"IL-MCH-13","Station_Nam":"BULL VALLEY 2.5 WNW, IL","Latitude":"42.32455","Longitude":"-88.39460","Snowdepth":"5.500","Units":"in","Rept_Date":"2021-01-15 14"},"coordinates":[2021,4295]},{"type":"Point","properties":{"Station_ID":"IA-WH-5","Station_Nam":"DECORAH 4.9SE, IA","Latitude":"43.26481","Longitude":"-91.70294","Snowdepth":"5.500","Units":"in","Rept_Date":"2021-01-15 14"},"coordinates":[1265,4865]},{"type":"Point","properties":{"Station_ID":"IA-LN-53","Station_Nam":"ROBINS 0.8 SE, IA","Latitude":"42.06960","Longitude":"-91.66042","Snowdepth":"5.500","Units":"in","Rept_Date":"2021-01-15 13"},"coordinates":[1274,4140]},{"type":"Point","properties":{"Station_ID":"IA-DL-33","Station_Nam":"WAUKEE 1.6 N, IA","Latitude":"41.63119","Longitude":"-93.85778","Snowdepth":"5.500","Units":"in","Rept_Date":"2021-01-15 13"},"coordinates":[772,3874]},{"type":"Point","properties":{"Station_ID":"IA-AL-3","Station_Nam":"MONONA 9.8 N, IA","Latitude":"43.18992","Longitude":"-91.35361","Snowdepth":"5.500","Units":"in","Rept_Date":"2021-01-15 13"},"coordinates":[1345,4820]},{"type":"Point","properties":{"Station_ID":"CAN-PE-20","Station_Nam":"BONSHAW 6.6 NNE, CAN","Latitude":"46.25082","Longitude":"-63.33409","Snowdepth":"5.500","Units":"in","Rept_Date":"2021-01-15 12"},"coordinates":[7746,6677]},{"type":"Point","properties":{"Station_ID":"CAN-ON-451","Station_Nam":"OWEN SOUND 1.2 N - GSCA, CAN","Latitude":"44.58092","Longitude":"-80.93025","Snowdepth":"5.500","Units":"in","Rept_Date":"2021-01-15 13"},"coordinates":[3726,5664]},{"type":"Point","properties":{"Station_ID":"CAN-NS-159","Station_Nam":"NORTHPORT 0.1 NE, CAN","Latitude":"45.93299","Longitude":"-63.86711","Snowdepth":"5.500","Units":"in","Rept_Date":"2021-01-15 11"},"coordinates":[7624,6484]},{"type":"Point","properties":{"Station_ID":"CAN-NB-57","Station_Nam":"JOLICURE 2.8 NE, CAN","Latitude":"45.96081","Longitude":"-64.18848","Snowdepth":"5.500","Units":"in","Rept_Date":"2021-01-15 12"},"coordinates":[7551,6501]},{"type":"Point","properties":{"Station_ID":"CAN-NB-5","Station_Nam":"OAK POINT 0.9 SSW, CA","Latitude":"45.50752","Longitude":"-66.09860","Snowdepth":"5.500","Units":"in","Rept_Date":"2021-01-15 12"},"coordinates":[7114,6226]},{"type":"Point","properties":{"Station_ID":"IA-BT-12","Station_Nam":"FAIRFAX 4.0 NW, IA","Latitude":"41.96223","Longitude":"-91.83675","Snowdepth":"5.300","Units":"in","Rept_Date":"2021-01-15 13"},"coordinates":[1234,4075]},{"type":"Point","properties":{"Station_ID":"WI-SK-2","Station_Nam":"ROCK SPRINGS 2.8 WSW, WI","Latitude":"43.45901","Longitude":"-89.96540","Snowdepth":"5.200","Units":"in","Rept_Date":"2021-01-15 13"},"coordinates":[1662,4983]},{"type":"Point","properties":{"Station_ID":"CAN-QC-57","Station_Nam":"ACTON VALE 1.3 N, CAN","Latitude":"45.65868","Longitude":"-72.56645","Snowdepth":"5.100","Units":"in","Rept_Date":"2021-01-15 13"},"coordinates":[5637,6318]},{"type":"Point","properties":{"Station_ID":"CAN-NB-96","Station_Nam":"SAINT-IGNACE 2.6 NE, CAN","Latitude":"46.71424","Longitude":"-65.05609","Snowdepth":"5.100","Units":"in","Rept_Date":"2021-01-15 11"},"coordinates":[7353,6958]},{"type":"Point","properties":{"Station_ID":"CAN-NB-84","Station_Nam":"NORTON 7.1 WNW - KWRC, CAN","Latitude":"45.66195","Longitude":"-65.78279","Snowdepth":"5.100","Units":"in","Rept_Date":"2021-01-15 12"},"coordinates":[7186,6320]},{"type":"Point","properties":{"Station_ID":"CAN-MB-298","Station_Nam":"GARDENTON 4.2 W - SRRCD, CAN","Latitude":"49.09480","Longitude":"-96.75446","Snowdepth":"5.100","Units":"in","Rept_Date":"2021-01-15 14"},"coordinates":[111,8402]},{"type":"Point","properties":{"Station_ID":"QMA","Station_Nam":"QMA","Latitude":"50.10330","Longitude":"-70.47190","Snowdepth":"5.039","Units":"in","Rept_Date":"2021-01-15 12"},"coordinates":[6115,9014]},{"type":"Point","properties":{"Station_ID":"ZRGI4","Station_Nam":"ZEARING,IA","Latitude":"42.15000","Longitude":"-93.30000","Snowdepth":"5.000","Units":"in","Rept_Date":"2021-01-15 13"},"coordinates":[900,4189]},{"type":"Point","properties":{"Station_ID":"WVLM1","Station_Nam":"WATERVILLE TREATMENT PLT","Latitude":"44.52720","Longitude":"-69.65440","Snowdepth":"5.000","Units":"in","Rept_Date":"2021-01-15 16"},"coordinates":[6302,5631]},{"type":"Point","properties":{"Station_ID":"WSFW3","Station_Nam":"TOWN OF WESTFORD","Latitude":"43.47190","Longitude":"-88.88250","Snowdepth":"5.000","Units":"in","Rept_Date":"2021-01-15 13"},"coordinates":[1909,4991]},{"type":"Point","properties":{"Station_ID":"WRUM5","Station_Nam":"WARROAD 4W","Latitude":"48.89600","Longitude":"-95.40700","Snowdepth":"5.000","Units":"in","Rept_Date":"2021-01-16 04"},"coordinates":[418,8282]},{"type":"Point","properties":{"Station_ID":"WLKW3","Station_Nam":"WHITE LAKE 1 SE","Latitude":"45.14520","Longitude":"-88.74160","Snowdepth":"5.000","Units":"in","Rept_Date":"2021-01-15 14"},"coordinates":[1941,6006]},{"type":"Point","properties":{"Station_ID":"WI-WK-65","Station_Nam":"EAGLE 3.4 SW, WI","Latitude":"42.85067","Longitude":"-88.52596","Snowdepth":"5.000","Units":"in","Rept_Date":"2021-01-15 13"},"coordinates":[1991,4614]},{"type":"Point","properties":{"Station_ID":"WI-WH-7","Station_Nam":"WILD ROSE 0.5 E, WI","Latitude":"44.17764","Longitude":"-89.23812","Snowdepth":"5.000","Units":"in","Rept_Date":"2021-01-15 13"},"coordinates":[1828,5419]},{"type":"Point","properties":{"Station_ID":"WI-SK-15","Station_Nam":"REEDSBURG 1.3 N, WI","Latitude":"43.55348","Longitude":"-89.99739","Snowdepth":"5.000","Units":"in","Rept_Date":"2021-01-15 11"},"coordinates":[1654,5040]},{"type":"Point","properties":{"Station_ID":"WI-RC-3","Station_Nam":"RACINE 2.3 WSW, WI","Latitude":"42.71124","Longitude":"-87.84570","Snowdepth":"5.000","Units":"in","Rept_Date":"2021-01-15 13"},"coordinates":[2146,4529]},{"type":"Point","properties":{"Station_ID":"WI-PT-8","Station_Nam":"RUDOLPH 2.1 NNE, WI","Latitude":"44.52553","Longitude":"-89.78677","Snowdepth":"5.000","Units":"in","Rept_Date":"2021-01-15 11"},"coordinates":[1702,5630]},{"type":"Point","properties":{"Station_ID":"WI-PR-8","Station_Nam":"PHILLIPS 0.4 SSW, WI","Latitude":"45.69086","Longitude":"-90.40200","Snowdepth":"5.000","Units":"in","Rept_Date":"2021-01-15 13"},"coordinates":[1562,6337]},{"type":"Point","properties":{"Station_ID":"WI-OZ-17","Station_Nam":"WEST BEND 7.3 E, WI","Latitude":"43.42860","Longitude":"-88.03870","Snowdepth":"5.000","Units":"in","Rept_Date":"2021-01-15 13"},"coordinates":[2102,4965]},{"type":"Point","properties":{"Station_ID":"WI-MN-4","Station_Nam":"WILTON 4.2 E, WI","Latitude":"43.81028","Longitude":"-90.44360","Snowdepth":"5.000","Units":"in","Rept_Date":"2021-01-15 13"},"coordinates":[1552,5196]},{"type":"Point","properties":{"Station_ID":"WI-JF-22","Station_Nam":"SULLIVAN 2.6 SW, WI","Latitude":"42.98562","Longitude":"-88.62498","Snowdepth":"5.000","Units":"in","Rept_Date":"2021-01-15 14"},"coordinates":[1968,4696]},{"type":"Point","properties":{"Station_ID":"WI-JF-17","Station_Nam":"JOHNSON CREEK 2.7 SSW, WI","Latitude":"43.04559","Longitude":"-88.79925","Snowdepth":"5.000","Units":"in","Rept_Date":"2021-01-15 12"},"coordinates":[1928,4732]},{"type":"Point","properties":{"Station_ID":"WI-DD-16","Station_Nam":"BEAVER DAM 2.4 WNW, WI","Latitude":"43.47210","Longitude":"-88.88280","Snowdepth":"5.000","Units":"in","Rept_Date":"2021-01-15 13"},"coordinates":[1909,4991]},{"type":"Point","properties":{"Station_ID":"WI-DA-39","Station_Nam":"MADISON 4.0 W, WI","Latitude":"43.07741","Longitude":"-89.46757","Snowdepth":"5.000","Units":"in","Rept_Date":"2021-01-15 13"},"coordinates":[1775,4752]},{"type":"Point","properties":{"Station_ID":"WI-DA-33","Station_Nam":"OREGON 0.4 SSW, WI","Latitude":"42.92080","Longitude":"-89.38540","Snowdepth":"5.000","Units":"in","Rept_Date":"2021-01-15 13"},"coordinates":[1794,4657]},{"type":"Point","properties":{"Station_ID":"WI-CB-5","Station_Nam":"PORTAGE 7.2 SW, WI","Latitude":"43.47933","Longitude":"-89.57370","Snowdepth":"5.000","Units":"in","Rept_Date":"2021-01-15 13"},"coordinates":[1751,4995]},{"type":"Point","properties":{"Station_ID":"WI-AD-10","Station_Nam":"OXFORD 4.0 W, WI","Latitude":"43.78638","Longitude":"-89.64166","Snowdepth":"5.000","Units":"in","Rept_Date":"2021-01-15 14"},"coordinates":[1736,5182]},{"type":"Point","properties":{"Station_ID":"WHTW3","Station_Nam":"WHITEWATER,WI","Latitude":"42.85670","Longitude":"-88.72940","Snowdepth":"5.000","Units":"in","Rept_Date":"2021-01-15 14"},"coordinates":[1944,4618]},{"type":"Point","properties":{"Station_ID":"WBRM4","Station_Nam":"WEST BRANCH 3SE","Latitude":"44.25410","Longitude":"-84.20110","Snowdepth":"5.000","Units":"in","Rept_Date":"2021-01-15 13"},"coordinates":[2979,5465]},{"type":"Point","properties":{"Station_ID":"WAIV1","Station_Nam":"WAITSFIELD","Latitude":"44.17560","Longitude":"-72.79610","Snowdepth":"5.000","Units":"in","Rept_Date":"2021-01-15 12"},"coordinates":[5584,5418]},{"type":"Point","properties":{"Station_ID":"VT-WS-33","Station_Nam":"WAITSFIELD 3.5 WNW, VT","Latitude":"44.20052","Longitude":"-72.89421","Snowdepth":"5.000","Units":"in","Rept_Date":"2021-01-15 13"},"coordinates":[5562,5433]},{"type":"Point","properties":{"Station_ID":"VT-WS-11","Station_Nam":"WAITSFIELD 1.8 SE, VT","Latitude":"44.17551","Longitude":"-72.79540","Snowdepth":"5.000","Units":"in","Rept_Date":"2021-01-15 12"},"coordinates":[5584,5418]},{"type":"Point","properties":{"Station_ID":"VT-WR-2","Station_Nam":"POMFRET 2.6 N, VT","Latitude":"43.74230","Longitude":"-72.52550","Snowdepth":"5.000","Units":"in","Rept_Date":"2021-01-15 12"},"coordinates":[5646,5155]},{"type":"Point","properties":{"Station_ID":"VT-BN-12","Station_Nam":"STAMFORD 5.0 NNE, VT","Latitude":"42.82000","Longitude":"-73.02000","Snowdepth":"5.000","Units":"in","Rept_Date":"2021-01-15 21"},"coordinates":[5533,4595]},{"type":"Point","properties":{"Station_ID":"VNTI4","Station_Nam":"VINTON","Latitude":"42.17020","Longitude":"-92.00770","Snowdepth":"5.000","Units":"in","Rept_Date":"2021-01-15 13"},"coordinates":[1195,4201]},{"type":"Point","properties":{"Station_ID":"UVDV1","Station_Nam":"NERON SITE AT UNION VILLAGE DAM","Latitude":"43.79140","Longitude":"-72.25720","Snowdepth":"5.000","Units":"in","Rept_Date":"2021-01-15 12"},"coordinates":[5707,5185]},{"type":"Point","properties":{"Station_ID":"UGRW3","Station_Nam":"UNION GROVE,WI","Latitude":"42.70000","Longitude":"-88.03220","Snowdepth":"5.000","Units":"in","Rept_Date":"2021-01-15 13"},"coordinates":[2103,4523]},