{"type":"Topology","objects":{"snowdepth_geo":{"type":"GeometryCollection","name":"snowdepth","crs":{"type":"name","properties":{"name":"urn:ogc:def:crs:OGC:1.3:CRS84"}},"geometries":[{"type":"Point","properties":{"Station_ID":"NTHM3","Station_Nam":"NORTHBRIDGE 2","Latitude":"42.11500","Longitude":"-71.67600","Snowdepth":"105.000","Units":"in","Rept_Date":"2019-12-03 12"},"coordinates":[5999,4019]},{"type":"Point","properties":{"Station_ID":"RI-PR-63","Station_Nam":"WOONSOCKET 1.5 NW, RI","Latitude":"42.01540","Longitude":"-71.52170","Snowdepth":"80.000","Units":"in","Rept_Date":"2019-12-03 19"},"coordinates":[6036,3957]},{"type":"Point","properties":{"Station_ID":"PRKM4","Station_Nam":"MUNISING EAST","Latitude":"46.42580","Longitude":"-86.62000","Snowdepth":"76.500","Units":"in","Rept_Date":"2019-12-04 06"},"coordinates":[2492,6701]},{"type":"Point","properties":{"Station_ID":"OGIQ6","Station_Nam":"OGOKI CAMP","Latitude":"50.76680","Longitude":"-87.85820","Snowdepth":"61.100","Units":"in","Rept_Date":"2019-12-04 06"},"coordinates":[2202,9402]},{"type":"Point","properties":{"Station_ID":"NH-MR-25","Station_Nam":"CHICHESTER 2.7 SSW, NH","Latitude":"43.21150","Longitude":"-71.41430","Snowdepth":"50.000","Units":"in","Rept_Date":"2019-12-03 07"},"coordinates":[6061,4701]},{"type":"Point","properties":{"Station_ID":"AUDQ6","Station_Nam":"AUDEN","Latitude":"48.52600","Longitude":"-82.57570","Snowdepth":"47.640","Units":"in","Rept_Date":"2019-12-04 06"},"coordinates":[3441,8008]},{"type":"Point","properties":{"Station_ID":"DVLQ6","Station_Nam":"DEVIOUS LAKE","Latitude":"49.19890","Longitude":"-87.76440","Snowdepth":"43.460","Units":"in","Rept_Date":"2019-12-04 06"},"coordinates":[2224,8426]},{"type":"Point","properties":{"Station_ID":"IWOM4","Station_Nam":"IRONWOOD#2","Latitude":"46.46520","Longitude":"-90.13820","Snowdepth":"31.000","Units":"in","Rept_Date":"2019-12-03 13"},"coordinates":[1666,6725]},{"type":"Point","properties":{"Station_ID":"HURW3","Station_Nam":"HURLEY","Latitude":"46.46250","Longitude":"-90.19550","Snowdepth":"31.000","Units":"in","Rept_Date":"2019-12-03 14"},"coordinates":[1653,6724]},{"type":"Point","properties":{"Station_ID":"NY-AB-54","Station_Nam":"ALTAMONT 2.9 SW, NY","Latitude":"42.68182","Longitude":"-74.08326","Snowdepth":"27.000","Units":"in","Rept_Date":"2019-12-03 12"},"coordinates":[5434,4372]},{"type":"Point","properties":{"Station_ID":"MAIW3","Station_Nam":"MADELINE ISLAND","Latitude":"46.78330","Longitude":"-90.76670","Snowdepth":"26.000","Units":"in","Rept_Date":"2019-12-03 13"},"coordinates":[1519,6923]},{"type":"Point","properties":{"Station_ID":"VT-WH-9","Station_Nam":"WEST HALIFAX 0.2 SE, VT","Latitude":"42.78561","Longitude":"-72.76950","Snowdepth":"25.000","Units":"in","Rept_Date":"2019-12-03 13"},"coordinates":[5743,4436]},{"type":"Point","properties":{"Station_ID":"HTLN3","Station_Nam":"HERMIT LAKE SNOWPLOT","Latitude":"44.26130","Longitude":"-71.28330","Snowdepth":"25.000","Units":"in","Rept_Date":"2019-12-03 11"},"coordinates":[6092,5354]},{"type":"Point","properties":{"Station_ID":"NH-HL-48","Station_Nam":"GREENVILLE 1.1 ENE, NH","Latitude":"42.77674","Longitude":"-71.77990","Snowdepth":"24.500","Units":"in","Rept_Date":"2019-12-03 13"},"coordinates":[5975,4431]},{"type":"Point","properties":{"Station_ID":"PDLM4","Station_Nam":"PAINESDALE","Latitude":"47.04160","Longitude":"-88.67170","Snowdepth":"24.000","Units":"in","Rept_Date":"2019-12-03 13"},"coordinates":[2011,7084]},{"type":"Point","properties":{"Station_ID":"MQT","Station_Nam":"MARQUETTE, MI","Latitude":"46.53140","Longitude":"-87.54920","Snowdepth":"24.000","Units":"in","Rept_Date":"2019-12-04 06"},"coordinates":[2274,6767]},{"type":"Point","properties":{"Station_ID":"BFHW3","Station_Nam":"BAYFIELD FISH HATCHERY","Latitude":"46.78670","Longitude":"-90.86420","Snowdepth":"24.000","Units":"in","Rept_Date":"2019-12-03 14"},"coordinates":[1496,6926]},{"type":"Point","properties":{"Station_ID":"ACVN6","Station_Nam":"ALCOVE DAM","Latitude":"42.46970","Longitude":"-73.92670","Snowdepth":"24.000","Units":"in","Rept_Date":"2019-12-03 13"},"coordinates":[5471,4240]},{"type":"Point","properties":{"Station_ID":"ABNM3","Station_Nam":"ASHBURNHAM NORTH","Latitude":"42.66170","Longitude":"-71.93590","Snowdepth":"24.000","Units":"in","Rept_Date":"2019-12-03 12"},"coordinates":[5938,4359]},{"type":"Point","properties":{"Station_ID":"NY-SC-2","Station_Nam":"SCOTIA 1.1 NW, NY","Latitude":"42.84473","Longitude":"-73.97480","Snowdepth":"23.500","Units":"in","Rept_Date":"2019-12-03 11"},"coordinates":[5460,4473]},{"type":"Point","properties":{"Station_ID":"NH-HL-19","Station_Nam":"BROOKLINE 2.1 SW, NH","Latitude":"42.71235","Longitude":"-71.69760","Snowdepth":"23.500","Units":"in","Rept_Date":"2019-12-03 13"},"coordinates":[5994,4391]},{"type":"Point","properties":{"Station_ID":"NH-CH-20","Station_Nam":"RINDGE 3.2 ESE, NH","Latitude":"42.73100","Longitude":"-71.95200","Snowdepth":"23.500","Units":"in","Rept_Date":"2019-12-03 11"},"coordinates":[5935,4402]},{"type":"Point","properties":{"Station_ID":"WI-IR-3","Station_Nam":"PENCE 0.1 E, WI","Latitude":"46.41555","Longitude":"-90.27013","Snowdepth":"23.000","Units":"in","Rept_Date":"2019-12-03 13"},"coordinates":[1635,6695]},{"type":"Point","properties":{"Station_ID":"WI-DG-20","Station_Nam":"SOLON SPRINGS 1.2 W, WI","Latitude":"46.35217","Longitude":"-91.84405","Snowdepth":"23.000","Units":"in","Rept_Date":"2019-12-03 13"},"coordinates":[1266,6655]},{"type":"Point","properties":{"Station_ID":"WI-BY-1","Station_Nam":"BAYFIELD 8.8 N, WI","Latitude":"46.93855","Longitude":"-90.83490","Snowdepth":"23.000","Units":"in","Rept_Date":"2019-12-03 13"},"coordinates":[1503,7020]},{"type":"Point","properties":{"Station_ID":"VT-BN-12","Station_Nam":"STAMFORD 5.0 NNE, VT","Latitude":"42.82000","Longitude":"-73.02000","Snowdepth":"23.000","Units":"in","Rept_Date":"2019-12-03 21"},"coordinates":[5684,4458]},{"type":"Point","properties":{"Station_ID":"EMLN3","Station_Nam":"EAST MILFORD","Latitude":"42.82660","Longitude":"-71.62600","Snowdepth":"23.000","Units":"in","Rept_Date":"2019-12-03 12"},"coordinates":[6011,4462]},{"type":"Point","properties":{"Station_ID":"CLQM5","Station_Nam":"CLOQUET","Latitude":"46.70470","Longitude":"-92.52530","Snowdepth":"23.000","Units":"in","Rept_Date":"2019-12-03 14"},"coordinates":[1106,6874]},{"type":"Point","properties":{"Station_ID":"WI-BY-14","Station_Nam":"ASHLAND 9.8 W, WI","Latitude":"46.59742","Longitude":"-91.07856","Snowdepth":"22.500","Units":"in","Rept_Date":"2019-12-03 12"},"coordinates":[1446,6808]},{"type":"Point","properties":{"Station_ID":"NY-AB-10","Station_Nam":"RENSSELAERVILLE 2.1 NNW, NY","Latitude":"42.54548","Longitude":"-74.14750","Snowdepth":"22.500","Units":"in","Rept_Date":"2019-12-03 12"},"coordinates":[5419,4287]},{"type":"Point","properties":{"Station_ID":"VT-WH-16","Station_Nam":"WILMINGTON 0.6 WNW, VT","Latitude":"42.87064","Longitude":"-72.88180","Snowdepth":"22.000","Units":"in","Rept_Date":"2019-12-03 11"},"coordinates":[5716,4489]},{"type":"Point","properties":{"Station_ID":"NY-GR-6","Station_Nam":"FREEHOLD 3.4 E, NY","Latitude":"42.36045","Longitude":"-73.98350","Snowdepth":"22.000","Units":"in","Rept_Date":"2019-12-03 10"},"coordinates":[5458,4172]},{"type":"Point","properties":{"Station_ID":"MI-MQ-19","Station_Nam":"ISHPEMING 7.2 SW, MI","Latitude":"46.40550","Longitude":"-87.75670","Snowdepth":"22.000","Units":"in","Rept_Date":"2019-12-03 11"},"coordinates":[2225,6688]},{"type":"Point","properties":{"Station_ID":"EHYM3","Station_Nam":"EAST HAWLEY","Latitude":"42.57410","Longitude":"-72.86790","Snowdepth":"22.000","Units":"in","Rept_Date":"2019-12-03 13"},"coordinates":[5720,4305]},{"type":"Point","properties":{"Station_ID":"AWXW3","Station_Nam":"ASHLAND","Latitude":"46.58240","Longitude":"-90.88390","Snowdepth":"22.000","Units":"in","Rept_Date":"2019-12-03 13"},"coordinates":[1491,6798]},{"type":"Point","properties":{"Station_ID":"WI-AS-4","Station_Nam":"ASHLAND 0.5 WNW, WI","Latitude":"46.58240","Longitude":"-90.88390","Snowdepth":"21.500","Units":"in","Rept_Date":"2019-12-03 13"},"coordinates":[1491,6798]},{"type":"Point","properties":{"Station_ID":"NY-SR-29","Station_Nam":"CLIFTON PARK 2.7 S, NY","Latitude":"42.82126","Longitude":"-73.78545","Snowdepth":"21.500","Units":"in","Rept_Date":"2019-12-03 11"},"coordinates":[5504,4458]},{"type":"Point","properties":{"Station_ID":"MA-WR-54","Station_Nam":"BARRE 1.4 NNE, MA","Latitude":"42.44082","Longitude":"-72.09591","Snowdepth":"21.500","Units":"in","Rept_Date":"2019-12-03 12"},"coordinates":[5901,4222]},{"type":"Point","properties":{"Station_ID":"WORM3","Station_Nam":"WORTHINGTON","Latitude":"42.38690","Longitude":"-72.92100","Snowdepth":"21.000","Units":"in","Rept_Date":"2019-12-03 12"},"coordinates":[5707,4188]},{"type":"Point","properties":{"Station_ID":"TRYN6","Station_Nam":"TROY","Latitude":"42.75080","Longitude":"-73.68550","Snowdepth":"21.000","Units":"in","Rept_Date":"2019-12-03 12"},"coordinates":[5528,4415]},{"type":"Point","properties":{"Station_ID":"NY-SC-20","Station_Nam":"ROTTERDAM 0.9 NW, NY","Latitude":"42.78862","Longitude":"-73.96671","Snowdepth":"21.000","Units":"in","Rept_Date":"2019-12-03 10"},"coordinates":[5462,4438]},{"type":"Point","properties":{"Station_ID":"JWTN6","Station_Nam":"EAST JEWETT","Latitude":"42.23430","Longitude":"-74.14430","Snowdepth":"21.000","Units":"in","Rept_Date":"2019-12-03 12"},"coordinates":[5420,4093]},{"type":"Point","properties":{"Station_ID":"JAPN3","Station_Nam":"JAFFREY SILVER RANCH AIRPARK","Latitude":"42.80880","Longitude":"-72.00530","Snowdepth":"21.000","Units":"in","Rept_Date":"2019-12-03 12"},"coordinates":[5922,4451]},{"type":"Point","properties":{"Station_ID":"GLDM4","Station_Nam":"GLADSTONE NO. 2","Latitude":"45.84330","Longitude":"-87.03910","Snowdepth":"21.000","Units":"in","Rept_Date":"2019-12-03 12"},"coordinates":[2394,6339]},{"type":"Point","properties":{"Station_ID":"ESAM4","Station_Nam":"ESCANABA","Latitude":"45.74380","Longitude":"-87.04060","Snowdepth":"21.000","Units":"in","Rept_Date":"2019-12-03 12"},"coordinates":[2393,6277]},{"type":"Point","properties":{"Station_ID":"BARM3","Station_Nam":"BARRE FALLS DAM","Latitude":"42.42800","Longitude":"-72.02750","Snowdepth":"21.000","Units":"in","Rept_Date":"2019-12-03 12"},"coordinates":[5917,4214]},{"type":"Point","properties":{"Station_ID":"ASBM3","Station_Nam":"ASHBURNHAM","Latitude":"42.61780","Longitude":"-71.91590","Snowdepth":"21.000","Units":"in","Rept_Date":"2019-12-03 12"},"coordinates":[5943,4332]},{"type":"Point","properties":{"Station_ID":"NY-AB-23","Station_Nam":"ALBANY 0.7 SW, NY","Latitude":"42.66019","Longitude":"-73.81030","Snowdepth":"20.500","Units":"in","Rept_Date":"2019-12-03 12"},"coordinates":[5498,4358]},{"type":"Point","properties":{"Station_ID":"MA-MD-47","Station_Nam":"WEST TOWNSEND 0.5 W, MA","Latitude":"42.67623","Longitude":"-71.74983","Snowdepth":"20.500","Units":"in","Rept_Date":"2019-12-03 11"},"coordinates":[5982,4368]},{"type":"Point","properties":{"Station_ID":"WLFM5","Station_Nam":"WOLF RIDGE ENVIRON LEARNING CENTER","Latitude":"47.38240","Longitude":"-91.19730","Snowdepth":"20.000","Units":"in","Rept_Date":"2019-12-03 13"},"coordinates":[1418,7296]},{"type":"Point","properties":{"Station_ID":"WI-WB-2","Station_Nam":"STONE LAKE 2.0 NW, WI","Latitude":"45.85960","Longitude":"-91.57710","Snowdepth":"20.000","Units":"in","Rept_Date":"2019-12-03 13"},"coordinates":[1329,6349]},{"type":"Point","properties":{"Station_ID":"PDGM4","Station_Nam":"PAULDING","Latitude":"46.39760","Longitude":"-89.17940","Snowdepth":"20.000","Units":"in","Rept_Date":"2019-12-03 14"},"coordinates":[1891,6683]},{"type":"Point","properties":{"Station_ID":"NY-SC-26","Station_Nam":"NISKAYUNA 0.4 S, NY","Latitude":"42.81078","Longitude":"-73.89764","Snowdepth":"20.000","Units":"in","Rept_Date":"2019-12-03 12"},"coordinates":[5478,4452]},{"type":"Point","properties":{"Station_ID":"NY-RN-20","Station_Nam":"TROY 2.1 NNE, NY","Latitude":"42.75930","Longitude":"-73.65283","Snowdepth":"20.000","Units":"in","Rept_Date":"2019-12-03 13"},"coordinates":[5535,4420]},{"type":"Point","properties":{"Station_ID":"NY-RN-1","Station_Nam":"AVERILL PARK 0.9 WNW, NY","Latitude":"42.63910","Longitude":"-73.56980","Snowdepth":"20.000","Units":"in","Rept_Date":"2019-12-03 13"},"coordinates":[5555,4345]},{"type":"Point","properties":{"Station_ID":"NY-AB-1","Station_Nam":"ALTAMONT 2.7 SSW, NY","Latitude":"42.66696","Longitude":"-74.05090","Snowdepth":"20.000","Units":"in","Rept_Date":"2019-12-03 12"},"coordinates":[5442,4362]},{"type":"Point","properties":{"Station_ID":"NH-RC-72","Station_Nam":"DERRY 5.7 N, NH","Latitude":"42.97653","Longitude":"-71.27139","Snowdepth":"20.000","Units":"in","Rept_Date":"2019-12-04 00"},"coordinates":[6094,4555]},{"type":"Point","properties":{"Station_ID":"NH-HL-25","Station_Nam":"AMHERST 3.7 NNE, NH","Latitude":"42.91409","Longitude":"-71.61020","Snowdepth":"20.000","Units":"in","Rept_Date":"2019-12-03 13"},"coordinates":[6015,4516]},{"type":"Point","properties":{"Station_ID":"MA-WR-56","Station_Nam":"STERLING 4.3 NW, MA","Latitude":"42.47540","Longitude":"-71.81140","Snowdepth":"20.000","Units":"in","Rept_Date":"2019-12-03 12"},"coordinates":[5968,4243]},{"type":"Point","properties":{"Station_ID":"MA-HS-7","Station_Nam":"PLAINFIELD 2.2 SW, MA","Latitude":"42.49272","Longitude":"-72.94540","Snowdepth":"20.000","Units":"in","Rept_Date":"2019-12-03 13"},"coordinates":[5701,4254]},{"type":"Point","properties":{"Station_ID":"LVDW3","Station_Nam":"LAC VIEUX DESERT","Latitude":"46.12110","Longitude":"-89.07580","Snowdepth":"20.000","Units":"in","Rept_Date":"2019-12-03 15"},"coordinates":[1916,6511]},{"type":"Point","properties":{"Station_ID":"IRMM4","Station_Nam":"WWTP","Latitude":"46.46670","Longitude":"-90.18330","Snowdepth":"20.000","Units":"in","Rept_Date":"2019-12-03 13"},"coordinates":[1656,6726]},{"type":"Point","properties":{"Station_ID":"ENGM4","Station_Nam":"ENGADINE MDOT","Latitude":"46.12800","Longitude":"-85.56960","Snowdepth":"20.000","Units":"in","Rept_Date":"2019-12-03 12"},"coordinates":[2739,6516]},{"type":"Point","properties":{"Station_ID":"DLH","Station_Nam":"DULUTH, MN","Latitude":"46.83690","Longitude":"-92.21030","Snowdepth":"20.000","Units":"in","Rept_Date":"2019-12-04 00"},"coordinates":[1180,6957]},{"type":"Point","properties":{"Station_ID":"MI-BG-3","Station_Nam":"L'ANSE 17.8 SE, MI","Latitude":"46.55730","Longitude":"-88.20770","Snowdepth":"19.700","Units":"in","Rept_Date":"2019-12-03 13"},"coordinates":[2119,6783]},{"type":"Point","properties":{"Station_ID":"WI-AS-6","Station_Nam":"ODANAH 1.6 E, WI","Latitude":"46.60462","Longitude":"-90.64920","Snowdepth":"19.500","Units":"in","Rept_Date":"2019-12-03 13"},"coordinates":[1546,6812]},{"type":"Point","properties":{"Station_ID":"NY-SR-35","Station_Nam":"ROUND LAKE 4.1 NE, NY","Latitude":"42.97760","Longitude":"-73.73750","Snowdepth":"19.500","Units":"in","Rept_Date":"2019-12-03 12"},"coordinates":[5516,4556]},{"type":"Point","properties":{"Station_ID":"NY-SC-11","Station_Nam":"SCHENECTADY 3.3 E, NY","Latitude":"42.79382","Longitude":"-73.86390","Snowdepth":"19.500","Units":"in","Rept_Date":"2019-12-03 14"},"coordinates":[5486,4441]},{"type":"Point","properties":{"Station_ID":"MA-HD-28","Station_Nam":"WESTFIELD 2.8 SE, MA","Latitude":"42.10685","Longitude":"-72.72148","Snowdepth":"19.500","Units":"in","Rept_Date":"2019-12-03 11"},"coordinates":[5754,4014]},{"type":"Point","properties":{"Station_ID":"MA-FR-8","Station_Nam":"NEW SALEM 3.1 S, MA","Latitude":"42.45615","Longitude":"-72.34412","Snowdepth":"19.500","Units":"in","Rept_Date":"2019-12-03 14"},"coordinates":[5843,4231]},{"type":"Point","properties":{"Station_ID":"MA-BE-20","Station_Nam":"LEE 3.7 SE, MA","Latitude":"42.27242","Longitude":"-73.19763","Snowdepth":"19.500","Units":"in","Rept_Date":"2019-12-03 12"},"coordinates":[5642,4117]},{"type":"Point","properties":{"Station_ID":"SHHN6","Station_Nam":"SCHOHARIE VILLAGE","Latitude":"42.66500","Longitude":"-74.30360","Snowdepth":"19.000","Units":"in","Rept_Date":"2019-12-03 12"},"coordinates":[5383,4361]},{"type":"Point","properties":{"Station_ID":"ROWM3","Station_Nam":"ROWE 3NE","Latitude":"42.73500","Longitude":"-72.86920","Snowdepth":"19.000","Units":"in","Rept_Date":"2019-12-03 12"},"coordinates":[5719,4405]},{"type":"Point","properties":{"Station_ID":"QNCM4","Station_Nam":"QUINCY HILL","Latitude":"47.13640","Longitude":"-88.57950","Snowdepth":"19.000","Units":"in","Rept_Date":"2019-12-03 12"},"coordinates":[2032,7143]},{"type":"Point","properties":{"Station_ID":"NSKN6","Station_Nam":"NISKAYUNA","Latitude":"42.79580","Longitude":"-73.87670","Snowdepth":"19.000","Units":"in","Rept_Date":"2019-12-03 12"},"coordinates":[5483,4443]},{"type":"Point","properties":{"Station_ID":"HRKM3","Station_Nam":"HARDWICK 2 ESE","Latitude":"42.34570","Longitude":"-72.15410","Snowdepth":"19.000","Units":"in","Rept_Date":"2019-12-03 13"},"coordinates":[5887,4163]},{"type":"Point","properties":{"Station_ID":"GGRM4","Station_Nam":"GREEN GARDEN NO.2","Latitude":"46.45330","Longitude":"-87.30380","Snowdepth":"19.000","Units":"in","Rept_Date":"2019-12-03 11"},"coordinates":[2332,6718]},{"type":"Point","properties":{"Station_ID":"DLHM5","Station_Nam":"DULUTH NWS","Latitude":"46.83680","Longitude":"-92.21080","Snowdepth":"19.000","Units":"in","Rept_Date":"2019-12-04 06"},"coordinates":[1180,6957]},{"type":"Point","properties":{"Station_ID":"COUW3","Station_Nam":"COUDERAY,WI","Latitude":"45.86670","Longitude":"-91.45000","Snowdepth":"19.000","Units":"in","Rept_Date":"2019-12-03 22"},"coordinates":[1359,6353]},{"type":"Point","properties":{"Station_ID":"NH-HL-49","Station_Nam":"MONT VERNON 1.3 SSW, NH","Latitude":"42.87616","Longitude":"-71.68280","Snowdepth":"18.500","Units":"in","Rept_Date":"2019-12-03 11"},"coordinates":[5998,4493]},{"type":"Point","properties":{"Station_ID":"MA-WR-75","Station_Nam":"WARREN 2.4 WSW, MA","Latitude":"42.20400","Longitude":"-72.23540","Snowdepth":"18.500","Units":"in","Rept_Date":"2019-12-03 12"},"coordinates":[5868,4074]},{"type":"Point","properties":{"Station_ID":"MA-FR-12","Station_Nam":"SUNDERLAND 1.3 SE, MA","Latitude":"42.45217","Longitude":"-72.56610","Snowdepth":"18.500","Units":"in","Rept_Date":"2019-12-03 12"},"coordinates":[5790,4229]},{"type":"Point","properties":{"Station_ID":"NY-RN-15","Station_Nam":"TROY 0.7 E, NY","Latitude":"42.73558","Longitude":"-73.66252","Snowdepth":"18.200","Units":"in","Rept_Date":"2019-12-03 12"},"coordinates":[5533,4405]},{"type":"Point","properties":{"Station_ID":"WI-VL-9","Station_Nam":"LAND O' LAKES 11.7 W, WI","Latitude":"46.19023","Longitude":"-89.45790","Snowdepth":"18.000","Units":"in","Rept_Date":"2019-12-03 13"},"coordinates":[1826,6554]},{"type":"Point","properties":{"Station_ID":"WI-BY-2","Station_Nam":"MELLEN 18.6 SW, WI","Latitude":"46.16937","Longitude":"-90.98090","Snowdepth":"18.000","Units":"in","Rept_Date":"2019-12-03 13"},"coordinates":[1469,6541]},{"type":"Point","properties":{"Station_ID":"RRVM4","Station_Nam":"RAPID RIVER 9S","Latitude":"45.78750","Longitude":"-86.93920","Snowdepth":"18.000","Units":"in","Rept_Date":"2019-12-03 13"},"coordinates":[2417,6304]},{"type":"Point","properties":{"Station_ID":"RLKW3","Station_Nam":"REST LAKE","Latitude":"46.12220","Longitude":"-89.87720","Snowdepth":"18.000","Units":"in","Rept_Date":"2019-12-03 14"},"coordinates":[1728,6512]},{"type":"Point","properties":{"Station_ID":"NY-GR-14","Station_Nam":"LEXINGTON 1.5 N, NY","Latitude":"42.26024","Longitude":"-74.35875","Snowdepth":"18.000","Units":"in","Rept_Date":"2019-12-03 12"},"coordinates":[5370,4109]},{"type":"Point","properties":{"Station_ID":"NY-CB-9","Station_Nam":"HILLSDALE 5.8 S, NY","Latitude":"42.26165","Longitude":"-73.54160","Snowdepth":"18.000","Units":"in","Rept_Date":"2019-12-03 13"},"coordinates":[5562,4110]},{"type":"Point","properties":{"Station_ID":"NY-AB-21","Station_Nam":"NWS ALBANY, NY","Latitude":"42.69180","Longitude":"-73.83110","Snowdepth":"18.000","Units":"in","Rept_Date":"2019-12-03 12"},"coordinates":[5494,4378]},{"type":"Point","properties":{"Station_ID":"MTQM4","Station_Nam":"MANISTIQUE WWTP","Latitude":"45.95120","Longitude":"-86.25130","Snowdepth":"18.000","Units":"in","Rept_Date":"2019-12-03 12"},"coordinates":[2579,6406]},{"type":"Point","properties":{"Station_ID":"MRLV1","Station_Nam":"MARLBORO","Latitude":"42.86000","Longitude":"-72.72000","Snowdepth":"18.000","Units":"in","Rept_Date":"2019-12-03 13"},"coordinates":[5754,4483]},{"type":"Point","properties":{"Station_ID":"MNSM4","Station_Nam":"MUNISING","Latitude":"46.41210","Longitude":"-86.66250","Snowdepth":"18.000","Units":"in","Rept_Date":"2019-12-03 11"},"coordinates":[2482,6692]},{"type":"Point","properties":{"Station_ID":"MA-BE-21","Station_Nam":"CHESHIRE 0.5 NNW, MA","Latitude":"42.56315","Longitude":"-73.15701","Snowdepth":"18.000","Units":"in","Rept_Date":"2019-12-03 12"},"coordinates":[5652,4298]},{"type":"Point","properties":{"Station_ID":"LNOW3","Station_Nam":"LAND O LAKES","Latitude":"46.19000","Longitude":"-89.45700","Snowdepth":"18.000","Units":"in","Rept_Date":"2019-12-03 13"},"coordinates":[1826,6554]},{"type":"Point","properties":{"Station_ID":"DLSN6","Station_Nam":"DELANSON 2NE","Latitude":"42.76720","Longitude":"-74.17110","Snowdepth":"18.000","Units":"in","Rept_Date":"2019-12-03 12"},"coordinates":[5414,4425]},{"type":"Point","properties":{"Station_ID":"CRVW3","Station_Nam":"CRIVITZ HIGH FALLS","Latitude":"45.35750","Longitude":"-88.19190","Snowdepth":"18.000","Units":"in","Rept_Date":"2019-12-03 13"},"coordinates":[2123,6036]},{"type":"Point","properties":{"Station_ID":"COBN6","Station_Nam":"COBLESKILL 2ESE","Latitude":"42.66710","Longitude":"-74.44230","Snowdepth":"18.000","Units":"in","Rept_Date":"2019-12-03 13"},"coordinates":[5350,4363]},{"type":"Point","properties":{"Station_ID":"CMKW3","Station_Nam":"CLAM LAKE 4W","Latitude":"46.16940","Longitude":"-90.98080","Snowdepth":"18.000","Units":"in","Rept_Date":"2019-12-03 13"},"coordinates":[1469,6541]},{"type":"Point","properties":{"Station_ID":"CEFM4","Station_Nam":"EXPERIMENT FARM #2","Latitude":"46.33330","Longitude":"-86.91670","Snowdepth":"18.000","Units":"in","Rept_Date":"2019-12-03 13"},"coordinates":[2422,6643]},{"type":"Point","properties":{"Station_ID":"BSKN6","Station_Nam":"BUSKIRK","Latitude":"42.93610","Longitude":"-73.43250","Snowdepth":"18.000","Units":"in","Rept_Date":"2019-12-03 12"},"coordinates":[5587,4530]},{"type":"Point","properties":{"Station_ID":"WI-VL-10","Station_Nam":"LAND O LAKES 4.3 WNW, WI","Latitude":"46.17440","Longitude":"-89.30380","Snowdepth":"17.500","Units":"in","Rept_Date":"2019-12-03 13"},"coordinates":[1862,6545]},{"type":"Point","properties":{"Station_ID":"WI-IR-4","Station_Nam":"MERCER 7.0 NNE, WI","Latitude":"46.26677","Longitude":"-90.03360","Snowdepth":"17.500","Units":"in","Rept_Date":"2019-12-03 13"},"coordinates":[1691,6602]},{"type":"Point","properties":{"Station_ID":"NY-CB-16","Station_Nam":"VALATIE 2.9 N, NY","Latitude":"42.45655","Longitude":"-73.66812","Snowdepth":"17.500","Units":"in","Rept_Date":"2019-12-03 12"},"coordinates":[5532,4232]},{"type":"Point","properties":{"Station_ID":"MA-WR-44","Station_Nam":"WESTMINSTER 0.6 WSW, MA","Latitude":"42.54505","Longitude":"-71.91032","Snowdepth":"17.500","Units":"in","Rept_Date":"2019-12-03 12"},"coordinates":[5944,4287]},{"type":"Point","properties":{"Station_ID":"MA-HS-2","Station_Nam":"WESTHAMPTON 1.8 SW, MA","Latitude":"42.27943","Longitude":"-72.78700","Snowdepth":"17.500","Units":"in","Rept_Date":"2019-12-03 13"},"coordinates":[5739,4121]},{"type":"Point","properties":{"Station_ID":"MA-HS-14","Station_Nam":"PLAINFIELD 2.4 ESE, MA","Latitude":"42.49792","Longitude":"-72.87769","Snowdepth":"17.500","Units":"in","Rept_Date":"2019-12-03 12"},"coordinates":[5717,4257]},{"type":"Point","properties":{"Station_ID":"CT-HR-60","Station_Nam":"NORTH GRANBY 0.7 N, CT","Latitude":"42.02874","Longitude":"-72.84325","Snowdepth":"17.500","Units":"in","Rept_Date":"2019-12-03 13"},"coordinates":[5725,3965]},{"type":"Point","properties":{"Station_ID":"WTRM4","Station_Nam":"WATERSMEET 12WSW","Latitude":"46.22310","Longitude":"-89.40850","Snowdepth":"17.000","Units":"in","Rept_Date":"2019-12-03 12"},"coordinates":[1838,6575]},{"type":"Point","properties":{"Station_ID":"WRPW3","Station_Nam":"WATER PURIFICATION PLANT","Latitude":"44.38800","Longitude":"-89.80550","Snowdepth":"17.000","Units":"in","Rept_Date":"2019-12-03 12"},"coordinates":[1744,5433]},{"type":"Point","properties":{"Station_ID":"WI-BY-6","Station_Nam":"BARNES 2.2 S, WI","Latitude":"46.30264","Longitude":"-91.50320","Snowdepth":"17.000","Units":"in","Rept_Date":"2019-12-03 13"},"coordinates":[1346,6624]},{"type":"Point","properties":{"Station_ID":"VT-WH-29","Station_Nam":"BRATTLEBORO 0.7 S, VT","Latitude":"42.84030","Longitude":"-72.55580","Snowdepth":"17.000","Units":"in","Rept_Date":"2019-12-03 12"},"coordinates":[5793,4470]},{"type":"Point","properties":{"Station_ID":"SUAW3","Station_Nam":"SUAMICO","Latitude":"44.60190","Longitude":"-88.09780","Snowdepth":"17.000","Units":"in","Rept_Date":"2019-12-03 12"},"coordinates":[2145,5566]},{"type":"Point","properties":{"Station_ID":"SDLM3","Station_Nam":"SUNDERLAND","Latitude":"42.44480","Longitude":"-72.55290","Snowdepth":"17.000","Units":"in","Rept_Date":"2019-12-03 12"},"coordinates":[5794,4224]},{"type":"Point","properties":{"Station_ID":"PHEW3","Station_Nam":"PHELPS","Latitude":"46.06630","Longitude":"-89.07520","Snowdepth":"17.000","Units":"in","Rept_Date":"2019-12-03 13"},"coordinates":[1916,6477]},{"type":"Point","properties":{"Station_ID":"NY-CB-8","Station_Nam":"LIVINGSTON 0.7 SSW, NY","Latitude":"42.13308","Longitude":"-73.78540","Snowdepth":"17.000","Units":"in","Rept_Date":"2019-12-03 13"},"coordinates":[5504,4030]},{"type":"Point","properties":{"Station_ID":"NY-CB-1","Station_Nam":"HUDSON 8.2 S, NY","Latitude":"42.13349","Longitude":"-73.76790","Snowdepth":"17.000","Units":"in","Rept_Date":"2019-12-03 12"},"coordinates":[5508,4031]},{"type":"Point","properties":{"Station_ID":"MRQM4","Station_Nam":"MARQUETTE WFP","Latitude":"46.54580","Longitude":"-87.37950","Snowdepth":"17.000","Units":"in","Rept_Date":"2019-12-03 13"},"coordinates":[2314,6776]},{"type":"Point","properties":{"Station_ID":"MNCN3","Station_Nam":"MANCHESTER,NH","Latitude":"42.98330","Longitude":"-71.40000","Snowdepth":"17.000","Units":"in","Rept_Date":"2019-12-03 13"},"coordinates":[6064,4559]},{"type":"Point","properties":{"Station_ID":"MCDN3","Station_Nam":"EDWARD MACDOWELL LAKE","Latitude":"42.89410","Longitude":"-71.98420","Snowdepth":"17.000","Units":"in","Rept_Date":"2019-12-03 12"},"coordinates":[5927,4504]},{"type":"Point","properties":{"Station_ID":"MA-HD-25","Station_Nam":"LUDLOW 2.3 SW, MA","Latitude":"42.14523","Longitude":"-72.51650","Snowdepth":"17.000","Units":"in","Rept_Date":"2019-12-03 12"},"coordinates":[5802,4038]},{"type":"Point","properties":{"Station_ID":"MA-HD-20","Station_Nam":"WILBRAHAM 3.7 SSW, MA","Latitude":"42.08950","Longitude":"-72.47080","Snowdepth":"17.000","Units":"in","Rept_Date":"2019-12-03 11"},"coordinates":[5813,4003]},{"type":"Point","properties":{"Station_ID":"MA-HD-13","Station_Nam":"SPRINGFIELD 4.1 W, MA","Latitude":"42.11792","Longitude":"-72.61838","Snowdepth":"17.000","Units":"in","Rept_Date":"2019-12-03 12"},"coordinates":[5778,4021]},{"type":"Point","properties":{"Station_ID":"KALB","Station_Nam":"ALBANY INTERNATIONAL AIRPORT","Latitude":"42.75000","Longitude":"-73.80000","Snowdepth":"17.000","Units":"in","Rept_Date":"2019-12-04 00"},"coordinates":[5501,4414]},{"type":"Point","properties":{"Station_ID":"IBLM5","Station_Nam":"ISABELLA 14W","Latitude":"47.59360","Longitude":"-91.65140","Snowdepth":"17.000","Units":"in","Rept_Date":"2019-12-03 15"},"coordinates":[1311,7428]},{"type":"Point","properties":{"Station_ID":"HMPN3","Station_Nam":"WEST HAMPSTEAD","Latitude":"42.91080","Longitude":"-71.20200","Snowdepth":"17.000","Units":"in","Rept_Date":"2019-12-03 12"},"coordinates":[6111,4514]},{"type":"Point","properties":{"Station_ID":"BRDM1","Station_Nam":"BRIDGEWATER","Latitude":"46.42870","Longitude":"-67.84370","Snowdepth":"17.000","Units":"in","Rept_Date":"2019-12-03 23"},"coordinates":[6899,6703]},{"type":"Point","properties":{"Station_ID":"BCNM3","Station_Nam":"BELCHERTOWN","Latitude":"42.27960","Longitude":"-72.34820","Snowdepth":"17.000","Units":"in","Rept_Date":"2019-12-03 12"},"coordinates":[5842,4121]},{"type":"Point","properties":{"Station_ID":"AURW3","Station_Nam":"AURORA","Latitude":"45.77000","Longitude":"-88.11810","Snowdepth":"17.000","Units":"in","Rept_Date":"2019-12-03 13"},"coordinates":[2141,6293]},{"type":"Point","properties":{"Station_ID":"ASTW3","Station_Nam":"ATHELSTANE","Latitude":"45.42500","Longitude":"-88.05750","Snowdepth":"17.000","Units":"in","Rept_Date":"2019-12-03 12"},"coordinates":[2155,6078]},{"type":"Point","properties":{"Station_ID":"ALB","Station_Nam":"ALBANY INTL AP","Latitude":"42.74810","Longitude":"-73.80330","Snowdepth":"17.000","Units":"in","Rept_Date":"2019-12-04 00"},"coordinates":[5500,4413]},{"type":"Point","properties":{"Station_ID":"ABGW3","Station_Nam":"AMBERG 9 E","Latitude":"45.48250","Longitude":"-87.81190","Snowdepth":"17.000","Units":"in","Rept_Date":"2019-12-03 12"},"coordinates":[2212,6114]},{"type":"Point","properties":{"Station_ID":"NY-AB-47","Station_Nam":"DELMAR 1.0 S, NY","Latitude":"42.61013","Longitude":"-73.83172","Snowdepth":"16.900","Units":"in","Rept_Date":"2019-12-03 12"},"coordinates":[5493,4327]},{"type":"Point","properties":{"Station_ID":"WI-PR-6","Station_Nam":"PHILLIPS 1.3 S, WI","Latitude":"45.67677","Longitude":"-90.39543","Snowdepth":"16.500","Units":"in","Rept_Date":"2019-12-03 12"},"coordinates":[1606,6235]},{"type":"Point","properties":{"Station_ID":"CT-HR-8","Station_Nam":"NORTH GRANBY 1.3 ENE, CT","Latitude":"42.02440","Longitude":"-72.82070","Snowdepth":"16.300","Units":"in","Rept_Date":"2019-12-03 12"},"coordinates":[5731,3963]},{"type":"Point","properties":{"Station_ID":"MA-BE-11","Station_Nam":"GREAT BARRINGTON 3.0 N, MA","Latitude":"42.23790","Longitude":"-73.35030","Snowdepth":"16.200","Units":"in","Rept_Date":"2019-12-03 12"},"coordinates":[5606,4096]},{"type":"Point","properties":{"Station_ID":"WI-RS-1","Station_Nam":"LADYSMITH 2.8 WNW, WI","Latitude":"45.48180","Longitude":"-91.14680","Snowdepth":"16.000","Units":"in","Rept_Date":"2019-12-03 13"},"coordinates":[1430,6114]},{"type":"Point","properties":{"Station_ID":"WI-PR-2","Station_Nam":"BUTTERNUT 5.9 SW, WI","Latitude":"45.96501","Longitude":"-90.59750","Snowdepth":"16.000","Units":"in","Rept_Date":"2019-12-03 12"},"coordinates":[1559,6414]},{"type":"Point","properties":{"Station_ID":"WI-BT-14","Station_Nam":"OAKLAND 9.0 ENE, WI","Latitude":"45.95184","Longitude":"-92.21653","Snowdepth":"16.000","Units":"in","Rept_Date":"2019-12-03 13"},"coordinates":[1179,6406]},{"type":"Point","properties":{"Station_ID":"TOGM5","Station_Nam":"CELINA 2E","Latitude":"47.86630","Longitude":"-93.02660","Snowdepth":"16.000","Units":"in","Rept_Date":"2019-12-03 14"},"coordinates":[989,7597]},{"type":"Point","properties":{"Station_ID":"PRNW3","Station_Nam":"PRENTICE,WI","Latitude":"45.54780","Longitude":"-90.30000","Snowdepth":"16.000","Units":"in","Rept_Date":"2019-12-03 14"},"coordinates":[1628,6155]},{"type":"Point","properties":{"Station_ID":"PHON6","Station_Nam":"PHOENICIA 2SW","Latitude":"42.06420","Longitude":"-74.34080","Snowdepth":"16.000","Units":"in","Rept_Date":"2019-12-03 11"},"coordinates":[5374,3987]},{"type":"Point","properties":{"Station_ID":"NY-GR-13","Station_Nam":"TANNERSVILLE 4.5 SSE, NY","Latitude":"42.13884","Longitude":"-74.08697","Snowdepth":"16.000","Units":"in","Rept_Date":"2019-12-03 12"},"coordinates":[5434,4034]},{"type":"Point","properties":{"Station_ID":"NY-AB-32","Station_Nam":"GLENMONT 2.5 SW, NY","Latitude":"42.57539","Longitude":"-73.79950","Snowdepth":"16.000","Units":"in","Rept_Date":"2019-12-03 12"},"coordinates":[5501,4305]},{"type":"Point","properties":{"Station_ID":"NWCM4","Station_Nam":"NEWBERRY CITY","Latitude":"46.35720","Longitude":"-85.51780","Snowdepth":"16.000","Units":"in","Rept_Date":"2019-12-03 12"},"coordinates":[2751,6658]},{"type":"Point","properties":{"Station_ID":"MOLW3","Station_Nam":"MOLE LAKE","Latitude":"45.48470","Longitude":"-88.96500","Snowdepth":"16.000","Units":"in","Rept_Date":"2019-12-03 14"},"coordinates":[1942,6115]},{"type":"Point","properties":{"Station_ID":"MI-HG-1","Station_Nam":"HOUGHTON 1.6 ESE, MI","Latitude":"47.10774","Longitude":"-88.52940","Snowdepth":"16.000","Units":"in","Rept_Date":"2019-12-03 13"},"coordinates":[2044,7125]},{"type":"Point","properties":{"Station_ID":"MI-GG-4","Station_Nam":"WATERSMEET 5.0 SE, MI","Latitude":"46.20333","Longitude":"-89.13170","Snowdepth":"16.000","Units":"in","Rept_Date":"2019-12-03 14"},"coordinates":[1903,6563]},{"type":"Point","properties":{"Station_ID":"MI-DL-1","Station_Nam":"GARDEN CORNERS 0.8 NW, MI","Latitude":"45.89815","Longitude":"-86.54850","Snowdepth":"16.000","Units":"in","Rept_Date":"2019-12-03 13"},"coordinates":[2509,6373]},{"type":"Point","properties":{"Station_ID":"MHT","Station_Nam":"MANCHESTER AIRPORT GRENIER INDSTRL ARPK","Latitude":"42.93440","Longitude":"-71.43690","Snowdepth":"16.000","Units":"in","Rept_Date":"2019-12-03 12"},"coordinates":[6055,4529]},{"type":"Point","properties":{"Station_ID":"MA-MD-104","Station_Nam":"LITTLETON 2.8 NNW, MA","Latitude":"42.57170","Longitude":"-71.49910","Snowdepth":"16.000","Units":"in","Rept_Date":"2019-12-03 14"},"coordinates":[6041,4303]},{"type":"Point","properties":{"Station_ID":"MA-FR-17","Station_Nam":"BUCKLAND 1.8 ESE, MA","Latitude":"42.58900","Longitude":"-72.75110","Snowdepth":"16.000","Units":"in","Rept_Date":"2019-12-03 13"},"coordinates":[5747,4314]},{"type":"Point","properties":{"Station_ID":"KMHT","Station_Nam":"MANCHESTER AIRPORT","Latitude":"42.93333","Longitude":"-71.43333","Snowdepth":"16.000","Units":"in","Rept_Date":"2019-12-04 06"},"coordinates":[6056,4528]},{"type":"Point","properties":{"Station_ID":"HRVM4","Station_Nam":"HARVEY","Latitude":"46.49080","Longitude":"-87.35470","Snowdepth":"16.000","Units":"in","Rept_Date":"2019-12-03 12"},"coordinates":[2320,6741]},{"type":"Point","properties":{"Station_ID":"GDCM4","Station_Nam":"GARDEN CORNERS","Latitude":"45.89830","Longitude":"-86.54850","Snowdepth":"16.000","Units":"in","Rept_Date":"2019-12-03 13"},"coordinates":[2509,6373]},{"type":"Point","properties":{"Station_ID":"EVRW3","Station_Nam":"EAGLE RIVER-4 E","Latitude":"45.91890","Longitude":"-89.15280","Snowdepth":"16.000","Units":"in","Rept_Date":"2019-12-03 12"},"coordinates":[1898,6386]},{"type":"Point","properties":{"Station_ID":"CT-HR-5","Station_Nam":"ENFIELD 1.5 SE, CT","Latitude":"41.95634","Longitude":"-72.57300","Snowdepth":"15.800","Units":"in","Rept_Date":"2019-12-03 12"},"coordinates":[5789,3920]},{"type":"Point","properties":{"Station_ID":"NY-FL-7","Station_Nam":"BROADALBIN 4.7 ESE, NY","Latitude":"43.03940","Longitude":"-74.10845","Snowdepth":"15.500","Units":"in","Rept_Date":"2019-12-03 14"},"coordinates":[5428,4594]},{"type":"Point","properties":{"Station_ID":"MA-HS-26","Station_Nam":"EASTHAMPTON 0.5 SW, MA","Latitude":"42.26110","Longitude":"-72.68920","Snowdepth":"15.500","Units":"in","Rept_Date":"2019-12-03 12"},"coordinates":[5762,4110]},{"type":"Point","properties":{"Station_ID":"MA-FR-31","Station_Nam":"COLRAIN 3.7 WNW, MA","Latitude":"42.68716","Longitude":"-72.75112","Snowdepth":"15.500","Units":"in","Rept_Date":"2019-12-03 12"},"coordinates":[5747,4375]},{"type":"Point","properties":{"Station_ID":"MA-FR-13","Station_Nam":"CONWAY 2.9 NW, MA","Latitude":"42.54419","Longitude":"-72.72743","Snowdepth":"15.500","Units":"in","Rept_Date":"2019-12-03 12"},"coordinates":[5753,4286]},{"type":"Point","properties":{"Station_ID":"CT-TL-15","Station_Nam":"CENTRAL SOMERS 0.3 N, CT","Latitude":"41.99553","Longitude":"-72.44127","Snowdepth":"15.500","Units":"in","Rept_Date":"2019-12-03 14"},"coordinates":[5820,3945]},{"type":"Point","properties":{"Station_ID":"MA-MD-85","Station_Nam":"WILMINGTON 2.2 WNW, MA","Latitude":"42.56871","Longitude":"-71.20764","Snowdepth":"15.200","Units":"in","Rept_Date":"2019-12-03 13"},"coordinates":[6109,4301]},{"type":"Point","properties":{"Station_ID":"WI-PR-8","Station_Nam":"PHILLIPS 0.4 SSW, WI","Latitude":"45.69086","Longitude":"-90.40200","Snowdepth":"15.000","Units":"in","Rept_Date":"2019-12-03 13"},"coordinates":[1605,6244]},{"type":"Point","properties":{"Station_ID":"STGW3","Station_Nam":"ST GERMAIN","Latitude":"45.91550","Longitude":"-89.48940","Snowdepth":"15.000","Units":"in","Rept_Date":"2019-12-03 12"},"coordinates":[1819,6383]},{"type":"Point","properties":{"Station_ID":"ME-YK-18","Station_Nam":"WELLS 3.5 SW, ME","Latitude":"43.30140","Longitude":"-70.64470","Snowdepth":"15.000","Units":"in","Rept_Date":"2019-12-03 14"},"coordinates":[6241,4757]},{"type":"Point","properties":{"Station_ID":"MA-WR-41","Station_Nam":"AUBURN 2.6 SW, MA","Latitude":"42.17336","Longitude":"-71.86869","Snowdepth":"15.000","Units":"in","Rept_Date":"2019-12-03 13"},"coordinates":[5954,4055]},{"type":"Point","properties":{"Station_ID":"LBKV1","Station_Nam":"LYE BROOK","Latitude":"43.05000","Longitude":"-73.03330","Snowdepth":"15.000","Units":"in","Rept_Date":"2019-12-04 06"},"coordinates":[5681,4601]},{"type":"Point","properties":{"Station_ID":"KPSM","Station_Nam":"PEASE AIR FORCE BASE / PORTSMOUTH","Latitude":"43.08333","Longitude":"-70.81666","Snowdepth":"15.000","Units":"in","Rept_Date":"2019-12-04 06"},"coordinates":[6201,4621]},{"type":"Point","properties":{"Station_ID":"KCEF","Station_Nam":"CHICOPEE FALLS / WESTOVER AIR FORCE BASE","Latitude":"42.20000","Longitude":"-72.53333","Snowdepth":"15.000","Units":"in","Rept_Date":"2019-12-04 00"},"coordinates":[5798,4072]},{"type":"Point","properties":{"Station_ID":"ISEM5","Station_Nam":"ISLE 12N","Latitude":"46.31970","Longitude":"-93.50140","Snowdepth":"15.000","Units":"in","Rept_Date":"2019-12-03 14"},"coordinates":[877,6635]},{"type":"Point","properties":{"Station_ID":"HUDN3","Station_Nam":"HUDSON 1 SSE","Latitude":"42.78300","Longitude":"-71.41480","Snowdepth":"15.000","Units":"in","Rept_Date":"2019-12-03 12"},"coordinates":[6061,4435]},{"type":"Point","properties":{"Station_ID":"HERM4","Station_Nam":"HERMAN,MI","Latitude":"46.65000","Longitude":"-88.33330","Snowdepth":"15.000","Units":"in","Rept_Date":"2019-12-03 13"},"coordinates":[2090,6840]},{"type":"Point","properties":{"Station_ID":"GRFM3","Station_Nam":"GREENFIELD NO. 3","Latitude":"42.57190","Longitude":"-72.59750","Snowdepth":"15.000","Units":"in","Rept_Date":"2019-12-03 14"},"coordinates":[5783,4303]},{"type":"Point","properties":{"Station_ID":"CRLM5","Station_Nam":"CROSS LAKE DAM","Latitude":"46.66930","Longitude":"-94.11060","Snowdepth":"15.000","Units":"in","Rept_Date":"2019-12-03 14"},"coordinates":[734,6852]},{"type":"Point","properties":{"Station_ID":"NY-DT-24","Station_Nam":"RED HOOK 1.2 NNE, NY","Latitude":"42.00967","Longitude":"-73.86419","Snowdepth":"14.800","Units":"in","Rept_Date":"2019-12-03 12"},"coordinates":[5486,3954]},{"type":"Point","properties":{"Station_ID":"NH-HL-77","Station_Nam":"WEARE 4.3 S, NH","Latitude":"43.03222","Longitude":"-71.73669","Snowdepth":"14.500","Units":"in","Rept_Date":"2019-12-03 13"},"coordinates":[5985,4590]},{"type":"Point","properties":{"Station_ID":"MN-SL-139","Station_Nam":"DULUTH 1.2 SE, MN","Latitude":"46.77000","Longitude":"-92.08826","Snowdepth":"14.500","Units":"in","Rept_Date":"2019-12-03 12"},"coordinates":[1209,6915]},{"type":"Point","properties":{"Station_ID":"MA-BE-3","Station_Nam":"STOCKBRIDGE .2 NNE, MA","Latitude":"42.28983","Longitude":"-73.31950","Snowdepth":"14.500","Units":"in","Rept_Date":"2019-12-03 11"},"coordinates":[5614,4128]},{"type":"Point","properties":{"Station_ID":"ZBWN3","Station_Nam":"NASHUA CWSU","Latitude":"42.73440","Longitude":"-71.48030","Snowdepth":"14.000","Units":"in","Rept_Date":"2019-12-03 12"},"coordinates":[6045,4404]},{"type":"Point","properties":{"Station_ID":"WILW3","Station_Nam":"RESERVOIR","Latitude":"45.70000","Longitude":"-89.83330","Snowdepth":"14.000","Units":"in","Rept_Date":"2019-12-03 12"},"coordinates":[1738,6249]},{"type":"Point","properties":{"Station_ID":"WI-VL-14","Station_Nam":"BOULDER JUNCTION 1.4 NE, WI","Latitude":"46.12840","Longitude":"-89.62470","Snowdepth":"14.000","Units":"in","Rept_Date":"2019-12-03 13"},"coordinates":[1787,6516]},{"type":"Point","properties":{"Station_ID":"WI-SR-5","Station_Nam":"HAYWARD 9.7 NE, WI","Latitude":"46.12030","Longitude":"-91.35370","Snowdepth":"14.000","Units":"in","Rept_Date":"2019-12-03 14"},"coordinates":[1381,6511]},{"type":"Point","properties":{"Station_ID":"WI-LC-1","Station_Nam":"WEST SALEM 0.7 W, WI","Latitude":"43.89817","Longitude":"-91.09548","Snowdepth":"14.000","Units":"in","Rept_Date":"2019-12-03 21"},"coordinates":[1442,5128]},{"type":"Point","properties":{"Station_ID":"RHIW3","Station_Nam":"RHINELANDER","Latitude":"45.59860","Longitude":"-89.45080","Snowdepth":"14.000","Units":"in","Rept_Date":"2019-12-03 13"},"coordinates":[1828,6186]},{"type":"Point","properties":{"Station_ID":"RANM1","Station_Nam":"RANGELEY,ME","Latitude":"44.96670","Longitude":"-70.65000","Snowdepth":"14.000","Units":"in","Rept_Date":"2019-12-03 11"},"coordinates":[6240,5793]},{"type":"Point","properties":{"Station_ID":"NY-RN-24","Station_Nam":"NASSAU 4.2 ESE, NY","Latitude":"42.49091","Longitude":"-73.53462","Snowdepth":"14.000","Units":"in","Rept_Date":"2019-12-03 13"},"coordinates":[5563,4253]},{"type":"Point","properties":{"Station_ID":"NY-OR-21","Station_Nam":"PORT JERVIS 2.9 ESE, NY","Latitude":"41.35990","Longitude":"-74.64090","Snowdepth":"14.000","Units":"in","Rept_Date":"2019-12-03 11"},"coordinates":[5304,3549]},{"type":"Point","properties":{"Station_ID":"NY-OR-20","Station_Nam":"WALLKILL 2.0 E, NY","Latitude":"41.60904","Longitude":"-74.12690","Snowdepth":"14.000","Units":"in","Rept_Date":"2019-12-03 12"},"coordinates":[5424,3704]},{"type":"Point","properties":{"Station_ID":"NY-OD-43","Station_Nam":"HOLLAND PATENT 1.1 WNW, NY","Latitude":"43.24707","Longitude":"-75.27750","Snowdepth":"14.000","Units":"in","Rept_Date":"2019-12-03 12"},"coordinates":[5154,4723]},{"type":"Point","properties":{"Station_ID":"NY-DL-28","Station_Nam":"FLEISCHMANNS 5.7 N, NY","Latitude":"42.23779","Longitude":"-74.52335","Snowdepth":"14.000","Units":"in","Rept_Date":"2019-12-03 12"},"coordinates":[5331,4095]},{"type":"Point","properties":{"Station_ID":"NH-CS-10","Station_Nam":"RANDOLPH 1.4 NE, NH","Latitude":"44.38824","Longitude":"-71.26950","Snowdepth":"14.000","Units":"in","Rept_Date":"2019-12-03 12"},"coordinates":[6095,5433]},{"type":"Point","properties":{"Station_ID":"MN-OL-18","Station_Nam":"ROCHESTER 2.6 NE, MN","Latitude":"44.03975","Longitude":"-92.43750","Snowdepth":"14.000","Units":"in","Rept_Date":"2019-12-03 21"},"coordinates":[1127,5217]},{"type":"Point","properties":{"Station_ID":"MMNV1","Station_Nam":"MT. MANSFIELD","Latitude":"44.52480","Longitude":"-72.81540","Snowdepth":"14.000","Units":"in","Rept_Date":"2019-12-03 21"},"coordinates":[5732,5518]},{"type":"Point","properties":{"Station_ID":"MLLW3","Station_Nam":"MERRILL 8W","Latitude":"45.17810","Longitude":"-89.84810","Snowdepth":"14.000","Units":"in","Rept_Date":"2019-12-03 12"},"coordinates":[1735,5925]},{"type":"Point","properties":{"Station_ID":"MA-WR-6","Station_Nam":"SOUTHBRIDGE 0.6 E, MA","Latitude":"42.08422","Longitude":"-72.02250","Snowdepth":"14.000","Units":"in","Rept_Date":"2019-12-03 12"},"coordinates":[5918,4000]},{"type":"Point","properties":{"Station_ID":"MA-WR-55","Station_Nam":"HARVARD 2.1 S, MA","Latitude":"42.46891","Longitude":"-71.58360","Snowdepth":"14.000","Units":"in","Rept_Date":"2019-12-03 12"},"coordinates":[6021,4239]},{"type":"Point","properties":{"Station_ID":"MA-HS-30","Station_Nam":"SOUTH HADLEY 2.1 SSE, MA","Latitude":"42.23680","Longitude":"-72.55740","Snowdepth":"14.000","Units":"in","Rept_Date":"2019-12-03 11"},"coordinates":[5793,4095]},{"type":"Point","properties":{"Station_ID":"MA-FR-10","Station_Nam":"CONWAY 0.9 SW, MA","Latitude":"42.50879","Longitude":"-72.69730","Snowdepth":"14.000","Units":"in","Rept_Date":"2019-12-03 13"},"coordinates":[5760,4264]},{"type":"Point","properties":{"Station_ID":"KBDL","Station_Nam":"BRADLEY INTERNATIONAL AIRPORT","Latitude":"41.93333","Longitude":"-72.68333","Snowdepth":"14.000","Units":"in","Rept_Date":"2019-12-04 06"},"coordinates":[5763,3906]},{"type":"Point","properties":{"Station_ID":"JCBM4","Station_Nam":"JACOBSVILLE","Latitude":"47.00830","Longitude":"-88.43180","Snowdepth":"14.000","Units":"in","Rept_Date":"2019-12-03 12"},"coordinates":[2067,7063]},{"type":"Point","properties":{"Station_ID":"EPPN3","Station_Nam":"EPPING","Latitude":"43.03020","Longitude":"-71.08380","Snowdepth":"14.000","Units":"in","Rept_Date":"2019-12-03 12"},"coordinates":[6138,4588]},{"type":"Point","properties":{"Station_ID":"EGRW3","Station_Nam":"EAGLE RIVER-SOUTH","Latitude":"45.91360","Longitude":"-89.24360","Snowdepth":"14.000","Units":"in","Rept_Date":"2019-12-03 13"},"coordinates":[1876,6382]},{"type":"Point","properties":{"Station_ID":"CT-TL-24","Station_Nam":"STAFFORD SPRINGS 0.8 NE, CT","Latitude":"41.96300","Longitude":"-72.30000","Snowdepth":"14.000","Units":"in","Rept_Date":"2019-12-03 12"},"coordinates":[5853,3924]},{"type":"Point","properties":{"Station_ID":"BABM5","Station_Nam":"BABBITT","Latitude":"47.71210","Longitude":"-91.95330","Snowdepth":"14.000","Units":"in","Rept_Date":"2019-12-03 13"},"coordinates":[1240,7501]},{"type":"Point","properties":{"Station_ID":"AROM4","Station_Nam":"ARNOLD,MI","Latitude":"46.06670","Longitude":"-87.48330","Snowdepth":"14.000","Units":"in","Rept_Date":"2019-12-03 13"},"coordinates":[2290,6478]},{"type":"Point","properties":{"Station_ID":"WI-LN-2","Station_Nam":"MERRILL 7.0 W, WI","Latitude":"45.17746","Longitude":"-89.84820","Snowdepth":"13.500","Units":"in","Rept_Date":"2019-12-03 12"},"coordinates":[1734,5924]},{"type":"Point","properties":{"Station_ID":"NY-SR-4","Station_Nam":"SARATOGA SPRINGS 0.5 S, NY","Latitude":"43.06032","Longitude":"-73.78010","Snowdepth":"13.500","Units":"in","Rept_Date":"2019-12-03 11"},"coordinates":[5506,4607]},{"type":"Point","properties":{"Station_ID":"CT-HR-82","Station_Nam":"SUFFIELD 0.5 NNE, CT","Latitude":"41.99783","Longitude":"-72.69896","Snowdepth":"13.500","Units":"in","Rept_Date":"2019-12-03 12"},"coordinates":[5759,3946]},{"type":"Point","properties":{"Station_ID":"VT-WH-25","Station_Nam":"PUTNEY 0.7 NE, VT","Latitude":"42.98326","Longitude":"-72.51215","Snowdepth":"13.200","Units":"in","Rept_Date":"2019-12-03 14"},"coordinates":[5803,4559]},{"type":"Point","properties":{"Station_ID":"MA-MD-25","Station_Nam":"AYER 0.1 SW, MA","Latitude":"42.56114","Longitude":"-71.58690","Snowdepth":"13.100","Units":"in","Rept_Date":"2019-12-03 12"},"coordinates":[6020,4297]},{"type":"Point","properties":{"Station_ID":"WLKW3","Station_Nam":"WHITE LAKE 1 SE","Latitude":"45.14520","Longitude":"-88.74160","Snowdepth":"13.000","Units":"in","Rept_Date":"2019-12-03 14"},"coordinates":[1994,5904]},{"type":"Point","properties":{"Station_ID":"WI-TY-2","Station_Nam":"SHELDON 8.1 ENE, WI","Latitude":"45.35598","Longitude":"-90.80296","Snowdepth":"13.000","Units":"in","Rept_Date":"2019-12-03 13"},"coordinates":[1510,6035]},{"type":"Point","properties":{"Station_ID":"WI-ON-6","Station_Nam":"RHINELANDER 5.2 N, WI","Latitude":"45.71388","Longitude":"-89.42150","Snowdepth":"13.000","Units":"in","Rept_Date":"2019-12-03 14"},"coordinates":[1835,6258]},{"type":"Point","properties":{"Station_ID":"WI-CH-3","Station_Nam":"CORNELL 4.1 W, WI","Latitude":"45.17024","Longitude":"-91.23610","Snowdepth":"13.000","Units":"in","Rept_Date":"2019-12-03 14"},"coordinates":[1409,5920]},{"type":"Point","properties":{"Station_ID":"SULW3","Station_Nam":"SUMMIT LAKE","Latitude":"45.37880","Longitude":"-89.19410","Snowdepth":"13.000","Units":"in","Rept_Date":"2019-12-03 11"},"coordinates":[1888,6050]},{"type":"Point","properties":{"Station_ID":"STMM4","Station_Nam":"STAMBAUGH 2SSE","Latitude":"46.05550","Longitude":"-88.62780","Snowdepth":"13.000","Units":"in","Rept_Date":"2019-12-03 13"},"coordinates":[2021,6471]},{"type":"Point","properties":{"Station_ID":"SBRM3","Station_Nam":"SOUTHBRIDGE","Latitude":"42.05830","Longitude":"-72.07210","Snowdepth":"13.000","Units":"in","Rept_Date":"2019-12-03 12"},"coordinates":[5906,3984]},{"type":"Point","properties":{"Station_ID":"RHLW3","Station_Nam":"RHINELANDER 4NE","Latitude":"45.65270","Longitude":"-89.30740","Snowdepth":"13.000","Units":"in","Rept_Date":"2019-12-03 12"},"coordinates":[1861,6220]},{"type":"Point","properties":{"Station_ID":"RGNM1","Station_Nam":"RANGELEY 2NW","Latitude":"44.98940","Longitude":"-70.67220","Snowdepth":"13.000","Units":"in","Rept_Date":"2019-12-03 11"},"coordinates":[6235,5807]},{"type":"Point","properties":{"Station_ID":"NY-DT-37","Station_Nam":"RHINEBECK 3.4 N, NY","Latitude":"41.97735","Longitude":"-73.90559","Snowdepth":"13.000","Units":"in","Rept_Date":"2019-12-03 12"},"coordinates":[5476,3933]},{"type":"Point","properties":{"Station_ID":"NBLN6","Station_Nam":"LANSING MANOR","Latitude":"42.44860","Longitude":"-74.46530","Snowdepth":"13.000","Units":"in","Rept_Date":"2019-12-03 13"},"coordinates":[5345,4227]},{"type":"Point","properties":{"Station_ID":"MRAM4","Station_Nam":"MORAN","Latitude":"45.99030","Longitude":"-84.83610","Snowdepth":"13.000","Units":"in","Rept_Date":"2019-12-03 13"},"coordinates":[2911,6430]},{"type":"Point","properties":{"Station_ID":"MN-SL-15","Station_Nam":"CHISHOLM 0.4 WSW, MN","Latitude":"47.48557","Longitude":"-92.88690","Snowdepth":"13.000","Units":"in","Rept_Date":"2019-12-03 13"},"coordinates":[1021,7360]},{"type":"Point","properties":{"Station_ID":"ME-AR-18","Station_Nam":"NEW SWEDEN 4.9 NNW, ME","Latitude":"47.01080","Longitude":"-68.14390","Snowdepth":"13.000","Units":"in","Rept_Date":"2019-12-03 12"},"coordinates":[6828,7065]},{"type":"Point","properties":{"Station_ID":"CT-HR-39","Station_Nam":"FARMINGTON 1.6 SW, CT","Latitude":"41.71693","Longitude":"-72.81224","Snowdepth":"13.000","Units":"in","Rept_Date":"2019-12-03 12"},"coordinates":[5733,3771]},{"type":"Point","properties":{"Station_ID":"CT-HR-28","Station_Nam":"NORTH CANTON 0.8 SSW, CT","Latitude":"41.88514","Longitude":"-72.89729","Snowdepth":"13.000","Units":"in","Rept_Date":"2019-12-03 12"},"coordinates":[5713,3876]},{"type":"Point","properties":{"Station_ID":"CLGM5","Station_Nam":"COLLEGEVILLE ST JOHN","Latitude":"45.57940","Longitude":"-94.39200","Snowdepth":"13.000","Units":"in","Rept_Date":"2019-12-04 00"},"coordinates":[668,6174]},{"type":"Point","properties":{"Station_ID":"BRAM5","Station_Nam":"BRAINERD","Latitude":"46.34320","Longitude":"-94.20900","Snowdepth":"13.000","Units":"in","Rept_Date":"2019-12-03 13"},"coordinates":[711,6650]},{"type":"Point","properties":{"Station_ID":"AHRM3","Station_Nam":"AMHERST","Latitude":"42.38610","Longitude":"-72.53750","Snowdepth":"13.000","Units":"in","Rept_Date":"2019-12-03 12"},"coordinates":[5797,4188]},{"type":"Point","properties":{"Station_ID":"VT-BN-7","Station_Nam":"MANCHESTER 2.8 ENE, VT","Latitude":"43.17274","Longitude":"-73.01811","Snowdepth":"12.500","Units":"in","Rept_Date":"2019-12-03 12"},"coordinates":[5684,4677]},{"type":"Point","properties":{"Station_ID":"NH-CH-24","Station_Nam":"KEENE 2.5 NNW, NH","Latitude":"42.98401","Longitude":"-72.31399","Snowdepth":"12.500","Units":"in","Rept_Date":"2019-12-03 11"},"coordinates":[5850,4560]},{"type":"Point","properties":{"Station_ID":"MN-SL-115","Station_Nam":"COTTON 5.7 ESE, MN","Latitude":"47.15142","Longitude":"-92.35772","Snowdepth":"12.500","Units":"in","Rept_Date":"2019-12-03 14"},"coordinates":[1146,7152]},{"type":"Point","properties":{"Station_ID":"ME-FR-2","Station_Nam":"TEMPLE 1.8 W, ME","Latitude":"44.68329","Longitude":"-70.26420","Snowdepth":"12.500","Units":"in","Rept_Date":"2019-12-03 11"},"coordinates":[6331,5617]},{"type":"Point","properties":{"Station_ID":"ME-AR-23","Station_Nam":"MADAWASKA 2.5 E, ME","Latitude":"47.34933","Longitude":"-68.28141","Snowdepth":"12.500","Units":"in","Rept_Date":"2019-12-03 11"},"coordinates":[6796,7276]},{"type":"Point","properties":{"Station_ID":"MA-MD-125","Station_Nam":"TEWKSBURY 3.6 SSE, MA","Latitude":"42.57083","Longitude":"-71.19813","Snowdepth":"12.500","Units":"in","Rept_Date":"2019-12-03 13"},"coordinates":[6112,4303]},{"type":"Point","properties":{"Station_ID":"CT-HR-24","Station_Nam":"COLLINSVILLE 0.9 NW, CT","Latitude":"41.82680","Longitude":"-72.93720","Snowdepth":"12.500","Units":"in","Rept_Date":"2019-12-03 12"},"coordinates":[5703,3840]},{"type":"Point","properties":{"Station_ID":"WSKW3","Station_Nam":"WAUSAUKEE","Latitude":"45.38020","Longitude":"-87.95660","Snowdepth":"12.000","Units":"in","Rept_Date":"2019-12-03 14"},"coordinates":[2178,6050]},{"type":"Point","properties":{"Station_ID":"WI-RS-3","Station_Nam":"BRUCE 1.9 E, WI","Latitude":"45.45415","Longitude":"-91.23510","Snowdepth":"12.000","Units":"in","Rept_Date":"2019-12-03 13"},"coordinates":[1409,6096]},{"type":"Point","properties":{"Station_ID":"WI-MN-4","Station_Nam":"WILTON 4.2 E, WI","Latitude":"43.81028","Longitude":"-90.44360","Snowdepth":"12.000","Units":"in","Rept_Date":"2019-12-03 21"},"coordinates":[1595,5074]},{"type":"Point","properties":{"Station_ID":"SURN3","Station_Nam":"SURRY MOUNTAIN LAKE","Latitude":"42.99630","Longitude":"-72.31310","Snowdepth":"12.000","Units":"in","Rept_Date":"2019-12-03 12"},"coordinates":[5850,4567]},{"type":"Point","properties":{"Station_ID":"SCRW3","Station_Nam":"ST CROIX FALLS","Latitude":"45.41170","Longitude":"-92.64660","Snowdepth":"12.000","Units":"in","Rept_Date":"2019-12-03 13"},"coordinates":[1078,6070]},{"type":"Point","properties":{"Station_ID":"PEKN6","Station_Nam":"PECK LAKE","Latitude":"43.11500","Longitude":"-74.42360","Snowdepth":"12.000","Units":"in","Rept_Date":"2019-12-03 13"},"coordinates":[5355,4641]},{"type":"Point","properties":{"Station_ID":"PARM4","Station_Nam":"PARENT BAY","Latitude":"45.79610","Longitude":"-86.40110","Snowdepth":"12.000","Units":"in","Rept_Date":"2019-12-03 14"},"coordinates":[2543,6309]},{"type":"Point","properties":{"Station_ID":"OXFM3","Station_Nam":"BUFFUMVILLE LAKE","Latitude":"42.11630","Longitude":"-71.90740","Snowdepth":"12.000","Units":"in","Rept_Date":"2019-12-03 12"},"coordinates":[5945,4020]},{"type":"Point","properties":{"Station_ID":"NY-UL-31","Station_Nam":"HURLEY 2.2 S, NY","Latitude":"41.88149","Longitude":"-74.05626","Snowdepth":"12.000","Units":"in","Rept_Date":"2019-12-03 12"},"coordinates":[5441,3874]},{"type":"Point","properties":{"Station_ID":"NY-UL-16","Station_Nam":"ROSENDALE VILLAGE 1.8 WNW, NY","Latitude":"41.86083","Longitude":"-74.10750","Snowdepth":"12.000","Units":"in","Rept_Date":"2019-12-03 13"},"coordinates":[5429,3861]},{"type":"Point","properties":{"Station_ID":"NY-TM-4","Station_Nam":"GROTON 0.5 NW, NY","Latitude":"42.59127","Longitude":"-76.37200","Snowdepth":"12.000","Units":"in","Rept_Date":"2019-12-03 12"},"coordinates":[4897,4315]},{"type":"Point","properties":{"Station_ID":"NY-TG-8","Station_Nam":"APALACHIN 2.8 ESE, NY","Latitude":"42.05287","Longitude":"-76.11985","Snowdepth":"12.000","Units":"in","Rept_Date":"2019-12-03 12"},"coordinates":[4956,3980]},{"type":"Point","properties":{"Station_ID":"NY-BM-4","Station_Nam":"ENDICOTT 5.2 SSE, NY","Latitude":"42.02958","Longitude":"-76.02130","Snowdepth":"12.000","Units":"in","Rept_Date":"2019-12-03 12"},"coordinates":[4980,3966]},{"type":"Point","properties":{"Station_ID":"NY-BM-34","Station_Nam":"VESTAL 3.2 E, NY","Latitude":"42.08258","Longitude":"-75.99120","Snowdepth":"12.000","Units":"in","Rept_Date":"2019-12-03 12"},"coordinates":[4987,3999]},{"type":"Point","properties":{"Station_ID":"NEDM1","Station_Nam":"CAPE NEDDICK","Latitude":"43.22410","Longitude":"-70.63880","Snowdepth":"12.000","Units":"in","Rept_Date":"2019-12-03 12"},"coordinates":[6243,4709]},{"type":"Point","properties":{"Station_ID":"MQRW3","Station_Nam":"MINOCQUA","Latitude":"45.88630","Longitude":"-89.73220","Snowdepth":"12.000","Units":"in","Rept_Date":"2019-12-03 12"},"coordinates":[1762,6365]},{"type":"Point","properties":{"Station_ID":"MN-HS-10","Station_Nam":"BROWNSVILLE 3.1 S, MN","Latitude":"43.65410","Longitude":"-91.27894","Snowdepth":"12.000","Units":"in","Rept_Date":"2019-12-03 21"},"coordinates":[1399,4977]},{"type":"Point","properties":{"Station_ID":"MECN6","Station_Nam":"MECKLENBURG 4 SW","Latitude":"42.44220","Longitude":"-76.75740","Snowdepth":"12.000","Units":"in","Rept_Date":"2019-12-03 12"},"coordinates":[4807,4223]},{"type":"Point","properties":{"Station_ID":"ME-YK-52","Station_Nam":"YORK 5.2 N, ME","Latitude":"43.23585","Longitude":"-70.63400","Snowdepth":"12.000","Units":"in","Rept_Date":"2019-12-03 12"},"coordinates":[6244,4716]},{"type":"Point","properties":{"Station_ID":"MA-MD-51","Station_Nam":"MAYNARD 0.7 ESE, MA","Latitude":"42.42027","Longitude":"-71.44484","Snowdepth":"12.000","Units":"in","Rept_Date":"2019-12-03 12"},"coordinates":[6054,4209]},{"type":"Point","properties":{"Station_ID":"MA-MD-42","Station_Nam":"HOLLISTON 0.8 S, MA","Latitude":"42.18820","Longitude":"-71.43390","Snowdepth":"12.000","Units":"in","Rept_Date":"2019-12-03 12"},"coordinates":[6056,4065]},{"type":"Point","properties":{"Station_ID":"MA-MD-12","Station_Nam":"ACTON 1.3 SW, MA","Latitude":"42.46746","Longitude":"-71.48200","Snowdepth":"12.000","Units":"in","Rept_Date":"2019-12-03 12"},"coordinates":[6045,4238]},{"type":"Point","properties":{"Station_ID":"LWMM3","Station_Nam":"LAWRENCE","Latitude":"42.69930","Longitude":"-71.16590","Snowdepth":"12.000","Units":"in","Rept_Date":"2019-12-03 12"},"coordinates":[6119,4383]},{"type":"Point","properties":{"Station_ID":"LLLM3","Station_Nam":"LOWELL","Latitude":"42.64090","Longitude":"-71.36370","Snowdepth":"12.000","Units":"in","Rept_Date":"2019-12-03 11"},"coordinates":[6073,4346]},{"type":"Point","properties":{"Station_ID":"LEVM3","Station_Nam":"LEVERETT NO.2","Latitude":"42.44680","Longitude":"-72.53000","Snowdepth":"12.000","Units":"in","Rept_Date":"2019-12-03 12"},"coordinates":[5799,4225]},{"type":"Point","properties":{"Station_ID":"LADW3","Station_Nam":"LADYSMITH WTP","Latitude":"45.44290","Longitude":"-91.08970","Snowdepth":"12.000","Units":"in","Rept_Date":"2019-12-03 13"},"coordinates":[1443,6089]},{"type":"Point","properties":{"Station_ID":"KEEN3","Station_Nam":"KEENE","Latitude":"42.93900","Longitude":"-72.32470","Snowdepth":"12.000","Units":"in","Rept_Date":"2019-12-03 12"},"coordinates":[5847,4532]},{"type":"Point","properties":{"Station_ID":"HDNW3","Station_Nam":"HUDSON 4 E","Latitude":"44.98970","Longitude":"-92.66530","Snowdepth":"12.000","Units":"in","Rept_Date":"2019-12-03 14"},"coordinates":[1073,5808]},{"type":"Point","properties":{"Station_ID":"GLDN3","Station_Nam":"GREENLAND","Latitude":"43.02100","Longitude":"-70.82570","Snowdepth":"12.000","Units":"in","Rept_Date":"2019-12-03 12"},"coordinates":[6199,4583]},{"type":"Point","properties":{"Station_ID":"ESGM1","Station_Nam":"EAST SANGERVILLE","Latitude":"45.13690","Longitude":"-69.28060","Snowdepth":"12.000","Units":"in","Rept_Date":"2019-12-03 12"},"coordinates":[6562,5899]},{"type":"Point","properties":{"Station_ID":"CT-LT-9","Station_Nam":"NEW HARTFORD CENTER 3.2 SW, CT","Latitude":"41.84170","Longitude":"-73.00920","Snowdepth":"12.000","Units":"in","Rept_Date":"2019-12-03 12"},"coordinates":[5686,3849]},{"type":"Point","properties":{"Station_ID":"CT-HR-63","Station_Nam":"WEST HARTFORD 1.1 NNE, CT","Latitude":"41.78213","Longitude":"-72.74506","Snowdepth":"12.000","Units":"in","Rept_Date":"2019-12-03 12"},"coordinates":[5748,3812]},{"type":"Point","properties":{"Station_ID":"BRAM1","Station_Nam":"BRASSUA DAM","Latitude":"45.66020","Longitude":"-69.81190","Snowdepth":"12.000","Units":"in","Rept_Date":"2019-12-03 12"},"coordinates":[6437,6225]},{"type":"Point","properties":{"Station_ID":"BNDM5","Station_Nam":"ELY 25E","Latitude":"47.97190","Longitude":"-91.44860","Snowdepth":"12.000","Units":"in","Rept_Date":"2019-12-03 13"},"coordinates":[1359,7663]},{"type":"Point","properties":{"Station_ID":"BAKC3","Station_Nam":"BAKERSVILLE","Latitude":"41.84180","Longitude":"-73.00850","Snowdepth":"12.000","Units":"in","Rept_Date":"2019-12-03 12"},"coordinates":[5687,3849]},{"type":"Point","properties":{"Station_ID":"AVTW3","Station_Nam":"ARBOR VITAE-JOHNSON LAKE","Latitude":"45.89940","Longitude":"-89.72670","Snowdepth":"12.000","Units":"in","Rept_Date":"2019-12-03 12"},"coordinates":[1763,6373]},{"type":"Point","properties":{"Station_ID":"CT-LT-15","Station_Nam":"COLEBROOK 1.0 NE, CT","Latitude":"42.00200","Longitude":"-73.08250","Snowdepth":"11.900","Units":"in","Rept_Date":"2019-12-03 12"},"coordinates":[5669,3949]},{"type":"Point","properties":{"Station_ID":"ME-PN-45","Station_Nam":"MILLINOCKET 2.7 ESE, ME","Latitude":"45.65002","Longitude":"-68.64472","Snowdepth":"11.800","Units":"in","Rept_Date":"2019-12-03 11"},"coordinates":[6711,6218]},{"type":"Point","properties":{"Station_ID":"NY-MG-3","Station_Nam":"HESSVILLE 1.8 WSW, NY","Latitude":"42.86430","Longitude":"-74.72140","Snowdepth":"11.700","Units":"in","Rept_Date":"2019-12-03 13"},"coordinates":[5285,4485]},{"type":"Point","properties":{"Station_ID":"NY-UL-28","Station_Nam":"KERHONKSON 3.7 N, NY","Latitude":"41.83214","Longitude":"-74.30115","Snowdepth":"11.500","Units":"in","Rept_Date":"2019-12-03 12"},"coordinates":[5383,3843]},{"type":"Point","properties":{"Station_ID":"NY-SR-22","Station_Nam":"GREENFIELD CENTER 1.6 W, NY","Latitude":"43.12684","Longitude":"-73.87860","Snowdepth":"11.500","Units":"in","Rept_Date":"2019-12-03 13"},"coordinates":[5482,4649]},{"type":"Point","properties":{"Station_ID":"NY-HR-16","Station_Nam":"ILION 0.7 WSW, NY","Latitude":"43.00880","Longitude":"-75.05390","Snowdepth":"11.500","Units":"in","Rept_Date":"2019-12-03 12"},"coordinates":[5207,4575]},{"type":"Point","properties":{"Station_ID":"NH-RC-18","Station_Nam":"DEERFIELD 3.2 WSW, NH","Latitude":"43.13350","Longitude":"-71.27940","Snowdepth":"11.500","Units":"in","Rept_Date":"2019-12-03 12"},"coordinates":[6092,4653]},{"type":"Point","properties":{"Station_ID":"MN-IT-11","Station_Nam":"NASHWAUK 11.5 N, MN","Latitude":"47.54496","Longitude":"-93.19420","Snowdepth":"11.500","Units":"in","Rept_Date":"2019-12-03 13"},"coordinates":[949,7397]},{"type":"Point","properties":{"Station_ID":"MA-WR-18","Station_Nam":"NORTHBOROUGH 0.6 SSE, MA","Latitude":"42.30367","Longitude":"-71.64620","Snowdepth":"11.500","Units":"in","Rept_Date":"2019-12-03 13"},"coordinates":[6006,4136]},{"type":"Point","properties":{"Station_ID":"MA-MD-89","Station_Nam":"SUDBURY 3.6 W, MA","Latitude":"42.36394","Longitude":"-71.47012","Snowdepth":"11.500","Units":"in","Rept_Date":"2019-12-03 12"},"coordinates":[6048,4174]},{"type":"Point","properties":{"Station_ID":"MA-MD-156","Station_Nam":"MARLBOROUGH 2.8 ENE, MA","Latitude":"42.37021","Longitude":"-71.50011","Snowdepth":"11.500","Units":"in","Rept_Date":"2019-12-03 10"},"coordinates":[6041,4178]},{"type":"Point","properties":{"Station_ID":"WI-AD-6","Station_Nam":"GRAND MARSH 1.0 W, WI","Latitude":"43.88584","Longitude":"-89.72590","Snowdepth":"11.300","Units":"in","Rept_Date":"2019-12-03 21"},"coordinates":[1763,5121]},{"type":"Point","properties":{"Station_ID":"WTNM4","Station_Nam":"WATTON 2WSW","Latitude":"46.52660","Longitude":"-88.64240","Snowdepth":"11.000","Units":"in","Rept_Date":"2019-12-03 13"},"coordinates":[2017,6764]},{"type":"Point","properties":{"Station_ID":"SFVC3","Station_Nam":"STAFFORDVILLE","Latitude":"41.99840","Longitude":"-72.26060","Snowdepth":"11.000","Units":"in","Rept_Date":"2019-12-03 10"},"coordinates":[5862,3946]},{"type":"Point","properties":{"Station_ID":"RKWM1","Station_Nam":"MOOSEHEAD LAKE","Latitude":"45.58330","Longitude":"-69.71670","Snowdepth":"11.000","Units":"in","Rept_Date":"2019-12-03 12"},"coordinates":[6459,6177]},{"type":"Point","properties":{"Station_ID":"PSM","Station_Nam":"PEASE INTL TRADEPORT AP","Latitude":"43.07810","Longitude":"-70.82330","Snowdepth":"11.000","Units":"in","Rept_Date":"2019-12-03 12"},"coordinates":[6199,4618]},{"type":"Point","properties":{"Station_ID":"NY-UL-29","Station_Nam":"HIGHLAND 0.2 SW, NY","Latitude":"41.71486","Longitude":"-73.96839","Snowdepth":"11.000","Units":"in","Rept_Date":"2019-12-03 12"},"coordinates":[5461,3770]},{"type":"Point","properties":{"Station_ID":"NY-DL-25","Station_Nam":"HOBART 4.8 ESE, NY","Latitude":"42.35230","Longitude":"-74.57830","Snowdepth":"11.000","Units":"in","Rept_Date":"2019-12-03 12"},"coordinates":[5318,4167]},{"type":"Point","properties":{"Station_ID":"NVLN6","Station_Nam":"NORTHVILLE","Latitude":"43.23330","Longitude":"-74.16670","Snowdepth":"11.000","Units":"in","Rept_Date":"2019-12-03 13"},"coordinates":[5415,4715]},{"type":"Point","properties":{"Station_ID":"NH-ST-37","Station_Nam":"ROLLINSFORD 2.0 WSW, NH","Latitude":"43.22292","Longitude":"-70.85528","Snowdepth":"11.000","Units":"in","Rept_Date":"2019-12-03 12"},"coordinates":[6192,4708]},{"type":"Point","properties":{"Station_ID":"NFKC3","Station_Nam":"NORFOLK","Latitude":"41.97250","Longitude":"-73.22080","Snowdepth":"11.000","Units":"in","Rept_Date":"2019-12-03 13"},"coordinates":[5637,3930]},{"type":"Point","properties":{"Station_ID":"MN-HS-4","Station_Nam":"CALEDONIA 5.4 S, MN","Latitude":"43.55696","Longitude":"-91.51300","Snowdepth":"11.000","Units":"in","Rept_Date":"2019-12-03 21"},"coordinates":[1344,4916]},{"type":"Point","properties":{"Station_ID":"MLDN6","Station_Nam":"EMMONS","Latitude":"42.46940","Longitude":"-75.01050","Snowdepth":"11.000","Units":"in","Rept_Date":"2019-12-03 12"},"coordinates":[5217,4240]},{"type":"Point","properties":{"Station_ID":"MIDM3","Station_Nam":"MIDDLETON","Latitude":"42.59340","Longitude":"-71.01870","Snowdepth":"11.000","Units":"in","Rept_Date":"2019-12-03 15"},"coordinates":[6154,4317]},{"type":"Point","properties":{"Station_ID":"MI-HG-6","Station_Nam":"CALUMET 5.8 ENE, MI","Latitude":"47.27200","Longitude":"-88.33400","Snowdepth":"11.000","Units":"in","Rept_Date":"2019-12-03 11"},"coordinates":[2090,7227]},{"type":"Point","properties":{"Station_ID":"ME-AR-15","Station_Nam":"PRESQUE ISLE 1.3 WSW, ME","Latitude":"46.67960","Longitude":"-68.01270","Snowdepth":"11.000","Units":"in","Rept_Date":"2019-12-03 12"},"coordinates":[6859,6859]},{"type":"Point","properties":{"Station_ID":"MA-WR-28","Station_Nam":"BERLIN 1.3 WSW, MA","Latitude":"42.37750","Longitude":"-71.65830","Snowdepth":"11.000","Units":"in","Rept_Date":"2019-12-03 12"},"coordinates":[6004,4182]},{"type":"Point","properties":{"Station_ID":"MA-MD-80","Station_Nam":"LINCOLN 1.5 SW, MA","Latitude":"42.40398","Longitude":"-71.32421","Snowdepth":"11.000","Units":"in","Rept_Date":"2019-12-03 12"},"coordinates":[6082,4199]},{"type":"Point","properties":{"Station_ID":"MA-MD-158","Station_Nam":"SHERBORN 1.1 NW, MA","Latitude":"42.24460","Longitude":"-71.38130","Snowdepth":"11.000","Units":"in","Rept_Date":"2019-12-03 11"},"coordinates":[6069,4100]},{"type":"Point","properties":{"Station_ID":"MA-MD-115","Station_Nam":"HUDSON 1.4 NW, MA","Latitude":"42.40372","Longitude":"-71.58680","Snowdepth":"11.000","Units":"in","Rept_Date":"2019-12-03 12"},"coordinates":[6020,4199]},{"type":"Point","properties":{"Station_ID":"ITHN6","Station_Nam":"ITHACA,NY","Latitude":"42.45000","Longitude":"-76.45000","Snowdepth":"11.000","Units":"in","Rept_Date":"2019-12-03 12"},"coordinates":[4879,4227]},{"type":"Point","properties":{"Station_ID":"EMBM5","Station_Nam":"EMBARASS,MN","Latitude":"47.65810","Longitude":"-92.19580","Snowdepth":"11.000","Units":"in","Rept_Date":"2019-12-03 12"},"coordinates":[1184,7468]},{"type":"Point","properties":{"Station_ID":"ELYM5","Station_Nam":"ELY","Latitude":"47.90560","Longitude":"-91.82830","Snowdepth":"11.000","Units":"in","Rept_Date":"2019-12-03 14"},"coordinates":[1270,7622]},{"type":"Point","properties":{"Station_ID":"DFXM1","Station_Nam":"DOVER-FOXCROFT","Latitude":"45.18720","Longitude":"-69.18350","Snowdepth":"11.000","Units":"in","Rept_Date":"2019-12-03 12"},"coordinates":[6584,5930]},{"type":"Point","properties":{"Station_ID":"CT-TL-2","Station_Nam":"STAFFORDVILLE 0.4 NNW, CT","Latitude":"41.99874","Longitude":"-72.26100","Snowdepth":"11.000","Units":"in","Rept_Date":"2019-12-03 10"},"coordinates":[5862,3947]},{"type":"Point","properties":{"Station_ID":"CT-HR-57","Station_Nam":"SUFFIELD DEPOT 3.3 NNE, CT","Latitude":"42.02743","Longitude":"-72.63149","Snowdepth":"11.000","Units":"in","Rept_Date":"2019-12-03 10"},"coordinates":[5775,3965]},{"type":"Point","properties":{"Station_ID":"CNKN6","Station_Nam":"CONKLINGVILLE DAM","Latitude":"43.32030","Longitude":"-73.92560","Snowdepth":"11.000","Units":"in","Rept_Date":"2019-12-03 13"},"coordinates":[5471,4769]},{"type":"Point","properties":{"Station_ID":"CLKM4","Station_Nam":"CLARKSBURG","Latitude":"46.49910","Longitude":"-87.84500","Snowdepth":"11.000","Units":"in","Rept_Date":"2019-12-03 12"},"coordinates":[2205,6747]},{"type":"Point","properties":{"Station_ID":"CBLW3","Station_Nam":"CUMBERLAND","Latitude":"45.53310","Longitude":"-92.02260","Snowdepth":"11.000","Units":"in","Rept_Date":"2019-12-03 13"},"coordinates":[1224,6146]},{"type":"Point","properties":{"Station_ID":"CAN-NB-2","Station_Nam":"GRAFTON 2.7 NNE, CA","Latitude":"46.17062","Longitude":"-67.55330","Snowdepth":"11.000","Units":"in","Rept_Date":"2019-12-03 10"},"coordinates":[6967,6542]},{"type":"Point","properties":{"Station_ID":"BALW3","Station_Nam":"BALDWIN","Latitude":"44.96330","Longitude":"-92.39050","Snowdepth":"11.000","Units":"in","Rept_Date":"2019-12-03 13"},"coordinates":[1138,5791]},{"type":"Point","properties":{"Station_ID":"AGNW3","Station_Nam":"ARGONNE-1.5 NW","Latitude":"45.67360","Longitude":"-88.90380","Snowdepth":"11.000","Units":"in","Rept_Date":"2019-12-03 13"},"coordinates":[1956,6233]},{"type":"Point","properties":{"Station_ID":"ADDN6","Station_Nam":"ADDISON","Latitude":"42.10130","Longitude":"-77.23440","Snowdepth":"11.000","Units":"in","Rept_Date":"2019-12-03 12"},"coordinates":[4695,4011]},{"type":"Point","properties":{"Station_ID":"PTLQ6","Station_Nam":"PORTAGE LAKE","Latitude":"49.06950","Longitude":"-86.65940","Snowdepth":"10.510","Units":"in","Rept_Date":"2019-12-04 06"},"coordinates":[2483,8346]},{"type":"Point","properties":{"Station_ID":"NY-ST-3","Station_Nam":"SOUTH CORNING 4.7 S, NY","Latitude":"42.05672","Longitude":"-77.04850","Snowdepth":"10.500","Units":"in","Rept_Date":"2019-12-03 14"},"coordinates":[4738,3983]},{"type":"Point","properties":{"Station_ID":"NY-OR-17","Station_Nam":"PINE BUSH 3.4 WSW, NY","Latitude":"41.58796","Longitude":"-74.35766","Snowdepth":"10.500","Units":"in","Rept_Date":"2019-12-03 14"},"coordinates":[5370,3691]},{"type":"Point","properties":{"Station_ID":"NJ-SS-3","Station_Nam":"VERNON TWP 1.7 N, NJ","Latitude":"41.22151","Longitude":"-74.48800","Snowdepth":"10.500","Units":"in","Rept_Date":"2019-12-03 12"},"coordinates":[5339,3463]},{"type":"Point","properties":{"Station_ID":"MN-BK-6","Station_Nam":"LAKE PARK 6.0 S, MN","Latitude":"46.79850","Longitude":"-96.12180","Snowdepth":"10.500","Units":"in","Rept_Date":"2019-12-03 13"},"coordinates":[262,6933]},{"type":"Point","properties":{"Station_ID":"MI-DL-4","Station_Nam":"GLADSTONE 2.1 SW, MI","Latitude":"45.83218","Longitude":"-87.05727","Snowdepth":"10.500","Units":"in","Rept_Date":"2019-12-03 12"},"coordinates":[2389,6332]},{"type":"Point","properties":{"Station_ID":"MA-MD-96","Station_Nam":"LEXINGTON 0.3 NE, MA","Latitude":"42.44944","Longitude":"-71.22791","Snowdepth":"10.500","Units":"in","Rept_Date":"2019-12-03 12"},"coordinates":[6105,4227]},{"type":"Point","properties":{"Station_ID":"MA-MD-52","Station_Nam":"LEXINGTON 0.6 SW, MA","Latitude":"42.43983","Longitude":"-71.24047","Snowdepth":"10.500","Units":"in","Rept_Date":"2019-12-03 12"},"coordinates":[6102,4221]},{"type":"Point","properties":{"Station_ID":"MA-ES-48","Station_Nam":"ANDOVER 0.6 E, MA","Latitude":"42.65659","Longitude":"-71.13048","Snowdepth":"10.400","Units":"in","Rept_Date":"2019-12-03 09"},"coordinates":[6127,4356]},{"type":"Point","properties":{"Station_ID":"NY-DT-29","Station_Nam":"POUGHKEEPSIE 5.3 S, NY","Latitude":"41.61955","Longitude":"-73.91306","Snowdepth":"10.300","Units":"in","Rept_Date":"2019-12-03 14"},"coordinates":[5474,3711]},{"type":"Point","properties":{"Station_ID":"MA-ES-59","Station_Nam":"AMESBURY 1.2 N, MA","Latitude":"42.87322","Longitude":"-70.93020","Snowdepth":"10.300","Units":"in","Rept_Date":"2019-12-03 12"},"coordinates":[6174,4491]},{"type":"Point","properties":{"Station_ID":"CAN-NB-97","Station_Nam":"NEW MARYLAND 0.6 NW, CAN","Latitude":"45.90112","Longitude":"-66.68739","Snowdepth":"10.200","Units":"in","Rept_Date":"2019-12-03 11"},"coordinates":[7170,6375]},{"type":"Point","properties":{"Station_ID":"NY-ST-41","Station_Nam":"PAINTED POST 0.7 SSE, NY","Latitude":"42.15370","Longitude":"-77.08690","Snowdepth":"10.100","Units":"in","Rept_Date":"2019-12-03 13"},"coordinates":[4729,4043]},{"type":"Point","properties":{"Station_ID":"WI-VR-3","Station_Nam":"VIOLA 3.5 WNW, WI","Latitude":"43.52680","Longitude":"-90.73850","Snowdepth":"10.000","Units":"in","Rept_Date":"2019-12-03 21"},"coordinates":[1526,4897]},{"type":"Point","properties":{"Station_ID":"WI-DN-1","Station_Nam":"BOYCEVILLE 3.3 N, WI","Latitude":"45.08913","Longitude":"-92.02760","Snowdepth":"10.000","Units":"in","Rept_Date":"2019-12-03 13"},"coordinates":[1223,5869]},{"type":"Point","properties":{"Station_ID":"WI-BR-2","Station_Nam":"CHETEK 2.0 SE, WI","Latitude":"45.29427","Longitude":"-91.62470","Snowdepth":"10.000","Units":"in","Rept_Date":"2019-12-03 13"},"coordinates":[1318,5997]},{"type":"Point","properties":{"Station_ID":"WASW3","Station_Nam":"WASHINGTON IS","Latitude":"45.35800","Longitude":"-86.89110","Snowdepth":"10.000","Units":"in","Rept_Date":"2019-12-03 13"},"coordinates":[2428,6037]},{"type":"Point","properties":{"Station_ID":"VT-WR-6","Station_Nam":"LUDLOW 3.4 S, VT","Latitude":"43.34720","Longitude":"-72.69680","Snowdepth":"10.000","Units":"in","Rept_Date":"2019-12-03 12"},"coordinates":[5760,4786]},{"type":"Point","properties":{"Station_ID":"VT-WH-17","Station_Nam":"ROCKINGHAM 1.1 NNE, VT","Latitude":"43.20388","Longitude":"-72.48222","Snowdepth":"10.000","Units":"in","Rept_Date":"2019-12-03 12"},"coordinates":[5810,4696]},{"type":"Point","properties":{"Station_ID":"SBEW3","Station_Nam":"EXP. FARM","Latitude":"44.86670","Longitude":"-87.33330","Snowdepth":"10.000","Units":"in","Rept_Date":"2019-12-03 13"},"coordinates":[2325,5731]},{"type":"Point","properties":{"Station_ID":"RHI","Station_Nam":"RHINELANDER-ONEIDA COUNTY AIRPORT","Latitude":"45.63080","Longitude":"-89.46530","Snowdepth":"10.000","Units":"in","Rept_Date":"2019-12-04 00"},"coordinates":[1824,6206]},{"type":"Point","properties":{"Station_ID":"POUN6","Station_Nam":"POUGHKEEPSIE","Latitude":"41.62780","Longitude":"-73.91670","Snowdepth":"10.000","Units":"in","Rept_Date":"2019-12-03 12"},"coordinates":[5473,3716]},{"type":"Point","properties":{"Station_ID":"PERV1","Station_Nam":"PERU","Latitude":"43.26670","Longitude":"-72.90000","Snowdepth":"10.000","Units":"in","Rept_Date":"2019-12-03 12"},"coordinates":[5712,4736]},{"type":"Point","properties":{"Station_ID":"OTTN3","Station_Nam":"OTTER BROOK LAKE","Latitude":"42.95000","Longitude":"-72.23330","Snowdepth":"10.000","Units":"in","Rept_Date":"2019-12-03 12"},"coordinates":[5869,4539]},{"type":"Point","properties":{"Station_ID":"NY-UL-34","Station_Nam":"WALLKILL 3.7 E, NY","Latitude":"41.61840","Longitude":"-74.09380","Snowdepth":"10.000","Units":"in","Rept_Date":"2019-12-03 12"},"coordinates":[5432,3710]},{"type":"Point","properties":{"Station_ID":"NY-UL-23","Station_Nam":"WEST HURLEY 0.1 S, NY","Latitude":"42.00455","Longitude":"-74.11094","Snowdepth":"10.000","Units":"in","Rept_Date":"2019-12-03 12"},"coordinates":[5428,3950]},{"type":"Point","properties":{"Station_ID":"NY-TG-26","Station_Nam":"CANDOR 0.7 NW, NY","Latitude":"42.23428","Longitude":"-76.34758","Snowdepth":"10.000","Units":"in","Rept_Date":"2019-12-03 12"},"coordinates":[4903,4093]},{"type":"Point","properties":{"Station_ID":"NY-TG-20","Station_Nam":"CANDOR 1.8 N, NY","Latitude":"42.25308","Longitude":"-76.33780","Snowdepth":"10.000","Units":"in","Rept_Date":"2019-12-03 12"},"coordinates":[4905,4105]},{"type":"Point","properties":{"Station_ID":"NY-SY-1","Station_Nam":"SMITH VALLEY 1.9 SE, NY","Latitude":"42.39072","Longitude":"-76.71760","Snowdepth":"10.000","Units":"in","Rept_Date":"2019-12-03 12"},"coordinates":[4816,4191]},{"type":"Point","properties":{"Station_ID":"NY-ST-45","Station_Nam":"CORNING 2.9 N, NY","Latitude":"42.18841","Longitude":"-77.06478","Snowdepth":"10.000","Units":"in","Rept_Date":"2019-12-03 12"},"coordinates":[4735,4065]},{"type":"Point","properties":{"Station_ID":"NY-OT-4","Station_Nam":"BRIDGEWATER 4.3 SSE, NY","Latitude":"42.81667","Longitude":"-75.23330","Snowdepth":"10.000","Units":"in","Rept_Date":"2019-12-03 11"},"coordinates":[5164,4456]},{"type":"Point","properties":{"Station_ID":"NY-OG-2","Station_Nam":"DE WITT 1.4 WSW, NY","Latitude":"43.03333","Longitude":"-76.10000","Snowdepth":"10.000","Units":"in","Rept_Date":"2019-12-03 12"},"coordinates":[4961,4590]},{"type":"Point","properties":{"Station_ID":"NY-OG-10","Station_Nam":"CAMILLUS 1.0 W, NY","Latitude":"43.03962","Longitude":"-76.32830","Snowdepth":"10.000","Units":"in","Rept_Date":"2019-12-03 12"},"coordinates":[4908,4594]},{"type":"Point","properties":{"Station_ID":"NY-OD-2","Station_Nam":"POINT ROCK 0.6 SE, NY","Latitude":"43.37335","Longitude":"-75.53840","Snowdepth":"10.000","Units":"in","Rept_Date":"2019-12-03 13"},"coordinates":[5093,4802]},{"type":"Point","properties":{"Station_ID":"NY-OD-19","Station_Nam":"NEW HARTFORD 0.8 S, NY","Latitude":"43.06182","Longitude":"-75.28990","Snowdepth":"10.000","Units":"in","Rept_Date":"2019-12-03 12"},"coordinates":[5151,4608]},{"type":"Point","properties":{"Station_ID":"NY-CM-3","Station_Nam":"ELMIRA 1.3 ESE, NY","Latitude":"42.08390","Longitude":"-76.78810","Snowdepth":"10.000","Units":"in","Rept_Date":"2019-12-03 12"},"coordinates":[4800,4000]},{"type":"Point","properties":{"Station_ID":"NY-BM-14","Station_Nam":"WHITNEY POINT 1.7 SSE, NY","Latitude":"42.30837","Longitude":"-75.95690","Snowdepth":"10.000","Units":"in","Rept_Date":"2019-12-03 12"},"coordinates":[4995,4139]},{"type":"Point","properties":{"Station_ID":"NJ-SS-54","Station_Nam":"SPARTA TWP 3.6 SSW, NJ","Latitude":"41.00503","Longitude":"-74.66358","Snowdepth":"10.000","Units":"in","Rept_Date":"2019-12-03 11"},"coordinates":[5298,3328]},{"type":"Point","properties":{"Station_ID":"NHBN6","Station_Nam":"HEBRON","Latitude":"43.29540","Longitude":"-73.39830","Snowdepth":"10.000","Units":"in","Rept_Date":"2019-12-03 12"},"coordinates":[5595,4753]},{"type":"Point","properties":{"Station_ID":"MN-WK-5","Station_Nam":"WOLVERTON 1.1 ENE, MN","Latitude":"46.56920","Longitude":"-96.71540","Snowdepth":"10.000","Units":"in","Rept_Date":"2019-12-03 13"},"coordinates":[123,6790]},{"type":"Point","properties":{"Station_ID":"MN-MR-13","Station_Nam":"LITTLE FALLS 8.0 NE, MN","Latitude":"46.06785","Longitude":"-94.24789","Snowdepth":"10.000","Units":"in","Rept_Date":"2019-12-03 13"},"coordinates":[702,6478]},{"type":"Point","properties":{"Station_ID":"MN-DK-73","Station_Nam":"LAKEVILLE 2.6 NNE, MN","Latitude":"44.71250","Longitude":"-93.23043","Snowdepth":"10.000","Units":"in","Rept_Date":"2019-12-03 13"},"coordinates":[941,5635]},{"type":"Point","properties":{"Station_ID":"MN-CW-29","Station_Nam":"BRAINERD 7.7 SSE, MN","Latitude":"46.24996","Longitude":"-94.14576","Snowdepth":"10.000","Units":"in","Rept_Date":"2019-12-03 13"},"coordinates":[726,6592]},{"type":"Point","properties":{"Station_ID":"MN-CK-3","Station_Nam":"TOFTE 4.9 NE, MN","Latitude":"47.62394","Longitude":"-90.76100","Snowdepth":"10.000","Units":"in","Rept_Date":"2019-12-03 13"},"coordinates":[1520,7446]},{"type":"Point","properties":{"Station_ID":"MILM3","Station_Nam":"MILFORD","Latitude":"42.16330","Longitude":"-71.51190","Snowdepth":"10.000","Units":"in","Rept_Date":"2019-12-03 12"},"coordinates":[6038,4049]},{"type":"Point","properties":{"Station_ID":"MA-WR-42","Station_Nam":"NORTHBOROUGH 2.3 N, MA","Latitude":"42.34535","Longitude":"-71.64390","Snowdepth":"10.000","Units":"in","Rept_Date":"2019-12-03 12"},"coordinates":[6007,4162]},{"type":"Point","properties":{"Station_ID":"MA-ES-41","Station_Nam":"DANVERS 0.8 ESE, MA","Latitude":"42.56849","Longitude":"-70.93526","Snowdepth":"10.000","Units":"in","Rept_Date":"2019-12-03 16"},"coordinates":[6173,4301]},{"type":"Point","properties":{"Station_ID":"IA-WH-1","Station_Nam":"DECORAH 7.9 ENE, IA","Latitude":"43.34391","Longitude":"-91.64430","Snowdepth":"10.000","Units":"in","Rept_Date":"2019-12-03 21"},"coordinates":[1313,4784]},{"type":"Point","properties":{"Station_ID":"HOLW3","Station_Nam":"HOLCOMBE","Latitude":"45.22370","Longitude":"-91.12700","Snowdepth":"10.000","Units":"in","Rept_Date":"2019-12-03 13"},"coordinates":[1434,5953]},{"type":"Point","properties":{"Station_ID":"GHMN3","Station_Nam":"PINKHAM NOTCH","Latitude":"44.25800","Longitude":"-71.25250","Snowdepth":"10.000","Units":"in","Rept_Date":"2019-12-03 11"},"coordinates":[6099,5352]},{"type":"Point","properties":{"Station_ID":"FLDM5","Station_Nam":"FLOODWOOD,MN","Latitude":"47.00000","Longitude":"-92.91670","Snowdepth":"10.000","Units":"in","Rept_Date":"2019-12-03 14"},"coordinates":[1014,7058]},{"type":"Point","properties":{"Station_ID":"EBRM3","Station_Nam":"EAST BRIMFIELD LAKE","Latitude":"42.11030","Longitude":"-72.12690","Snowdepth":"10.000","Units":"in","Rept_Date":"2019-12-03 12"},"coordinates":[5894,4016]},{"type":"Point","properties":{"Station_ID":"CT-WN-12","Station_Nam":"EASTFORD 2.0 W, CT","Latitude":"41.89906","Longitude":"-72.12071","Snowdepth":"10.000","Units":"in","Rept_Date":"2019-12-03 11"},"coordinates":[5895,3885]},{"type":"Point","properties":{"Station_ID":"CT-HR-19","Station_Nam":"NEWINGTON 0.8 ENE, CT","Latitude":"41.69045","Longitude":"-72.71630","Snowdepth":"10.000","Units":"in","Rept_Date":"2019-12-03 12"},"coordinates":[5755,3755]},{"type":"Point","properties":{"Station_ID":"COTM5","Station_Nam":"COTTON","Latitude":"47.16870","Longitude":"-92.46290","Snowdepth":"10.000","Units":"in","Rept_Date":"2019-12-03 12"},"coordinates":[1121,7163]},{"type":"Point","properties":{"Station_ID":"COPN6","Station_Nam":"COOPERSTOWN","Latitude":"42.71660","Longitude":"-74.92660","Snowdepth":"10.000","Units":"in","Rept_Date":"2019-12-04 05"},"coordinates":[5236,4393]},{"type":"Point","properties":{"Station_ID":"CAN-NB-13","Station_Nam":"BATHURST 3.8 NW, CAN","Latitude":"47.64212","Longitude":"-65.68756","Snowdepth":"10.000","Units":"in","Rept_Date":"2019-12-03 11"},"coordinates":[7405,7458]},{"type":"Point","properties":{"Station_ID":"AVLV1","Station_Nam":"AVERILL","Latitude":"45.00570","Longitude":"-71.69030","Snowdepth":"10.000","Units":"in","Rept_Date":"2019-12-03 13"},"coordinates":[5996,5817]},{"type":"Point","properties":{"Station_ID":"AUW","Station_Nam":"WAUSAU MUNICIPAL AIRPORT","Latitude":"44.92580","Longitude":"-89.62560","Snowdepth":"10.000","Units":"in","Rept_Date":"2019-12-04 00"},"coordinates":[1787,5768]},{"type":"Point","properties":{"Station_ID":"ANTW3","Station_Nam":"ANTIGO,WI","Latitude":"45.13330","Longitude":"-89.15000","Snowdepth":"10.000","Units":"in","Rept_Date":"2019-12-03 14"},"coordinates":[1898,5897]},{"type":"Point","properties":{"Station_ID":"NY-OD-63","Station_Nam":"UTICA 2.6 ENE, NY","Latitude":"43.11209","Longitude":"-75.18019","Snowdepth":"9.800","Units":"in","Rept_Date":"2019-12-03 13"},"coordinates":[5177,4639]},{"type":"Point","properties":{"Station_ID":"NJ-SS-39","Station_Nam":"WANTAGE TWP 1.6 SE, NJ","Latitude":"41.22830","Longitude":"-74.60330","Snowdepth":"9.800","Units":"in","Rept_Date":"2019-12-03 13"},"coordinates":[5312,3467]},{"type":"Point","properties":{"Station_ID":"CAN-PE-43","Station_Nam":"GLENCOE 0.3 W, CAN","Latitude":"46.20115","Longitude":"-62.81740","Snowdepth":"9.800","Units":"in","Rept_Date":"2019-12-03 12"},"coordinates":[8078,6561]},{"type":"Point","properties":{"Station_ID":"CAN-ON-232","Station_Nam":"MILFORD 0.1 NNE - QUINTE CONSERVATION, CAN","Latitude":"43.93499","Longitude":"-77.09098","Snowdepth":"9.600","Units":"in","Rept_Date":"2019-12-03 12"},"coordinates":[4729,5151]},{"type":"Point","properties":{"Station_ID":"WI-AD-10","Station_Nam":"OXFORD 4.0 W, WI","Latitude":"43.78638","Longitude":"-89.64166","Snowdepth":"9.500","Units":"in","Rept_Date":"2019-12-03 21"},"coordinates":[1783,5059]},{"type":"Point","properties":{"Station_ID":"RI-PR-50","Station_Nam":"HARRISVILLE 1.2 SSE, RI","Latitude":"41.95128","Longitude":"-71.67171","Snowdepth":"9.500","Units":"in","Rept_Date":"2019-12-03 11"},"coordinates":[6000,3917]},{"type":"Point","properties":{"Station_ID":"NY-TM-42","Station_Nam":"ITHACA 6.4 E, NY","Latitude":"42.43350","Longitude":"-76.37860","Snowdepth":"9.500","Units":"in","Rept_Date":"2019-12-03 12"},"coordinates":[4896,4217]},{"type":"Point","properties":{"Station_ID":"NY-OT-11","Station_Nam":"HARTWICK, NY","Latitude":"42.65990","Longitude":"-75.05000","Snowdepth":"9.500","Units":"in","Rept_Date":"2019-12-03 14"},"coordinates":[5208,4358]},{"type":"Point","properties":{"Station_ID":"NY-HR-18","Station_Nam":"SALISBURY CENTER 1.8 NW, NY","Latitude":"43.16260","Longitude":"-74.80880","Snowdepth":"9.500","Units":"in","Rept_Date":"2019-12-03 11"},"coordinates":[5264,4671]},{"type":"Point","properties":{"Station_ID":"NY-CY-27","Station_Nam":"MORAVIA 5.9 ENE, NY","Latitude":"42.73491","Longitude":"-76.31137","Snowdepth":"9.500","Units":"in","Rept_Date":"2019-12-03 12"},"coordinates":[4911,4405]},{"type":"Point","properties":{"Station_ID":"NY-BM-7","Station_Nam":"VESTAL 2.8 SSE, NY","Latitude":"42.04930","Longitude":"-76.02880","Snowdepth":"9.500","Units":"in","Rept_Date":"2019-12-03 14"},"coordinates":[4978,3978]},{"type":"Point","properties":{"Station_ID":"NY-BM-21","Station_Nam":"WINDSOR 8.0 SE, NY","Latitude":"42.00992","Longitude":"-75.51420","Snowdepth":"9.500","Units":"in","Rept_Date":"2019-12-03 12"},"coordinates":[5099,3954]},{"type":"Point","properties":{"Station_ID":"MN-IT-23","Station_Nam":"BOVEY 13.4 N, MN","Latitude":"47.48855","Longitude":"-93.43497","Snowdepth":"9.500","Units":"in","Rept_Date":"2019-12-03 13"},"coordinates":[893,7362]},{"type":"Point","properties":{"Station_ID":"IA-WH-5","Station_Nam":"DECORAH 4.9SE, IA","Latitude":"43.26481","Longitude":"-91.70294","Snowdepth":"9.500","Units":"in","Rept_Date":"2019-12-03 21"},"coordinates":[1299,4734]},{"type":"Point","properties":{"Station_ID":"IA-FL-3","Station_Nam":"NORA SPRINGS 2.4 SSE, IA","Latitude":"43.11120","Longitude":"-92.99400","Snowdepth":"9.500","Units":"in","Rept_Date":"2019-12-03 21"},"coordinates":[996,4639]},{"type":"Point","properties":{"Station_ID":"CT-LT-28","Station_Nam":"CANAAN 4.2 ESE, CT","Latitude":"42.00963","Longitude":"-73.25603","Snowdepth":"9.500","Units":"in","Rept_Date":"2019-12-03 12"},"coordinates":[5629,3953]},{"type":"Point","properties":{"Station_ID":"CT-HR-65","Station_Nam":"NEWINGTON 1.9 SSW, CT","Latitude":"41.66021","Longitude":"-72.74087","Snowdepth":"9.500","Units":"in","Rept_Date":"2019-12-03 12"},"coordinates":[5749,3736]},{"type":"Point","properties":{"Station_ID":"NY-BM-24","Station_Nam":"BINGHAMTON 1.3 ENE, NY","Latitude":"42.10981","Longitude":"-75.88580","Snowdepth":"9.200","Units":"in","Rept_Date":"2019-12-03 12"},"coordinates":[5011,4016]},{"type":"Point","properties":{"Station_ID":"NJ-PS-38","Station_Nam":"BLOOMINGDALE 1.6 S, NJ","Latitude":"41.00731","Longitude":"-74.33104","Snowdepth":"9.200","Units":"in","Rept_Date":"2019-12-03 13"},"coordinates":[5376,3330]},{"type":"Point","properties":{"Station_ID":"ZNOM4","Station_Nam":"NORWAY","Latitude":"45.77810","Longitude":"-87.89560","Snowdepth":"9.000","Units":"in","Rept_Date":"2019-12-03 13"},"coordinates":[2193,6298]},{"type":"Point","properties":{"Station_ID":"WSTN6","Station_Nam":"WESTMORELAND 4 N","Latitude":"43.15950","Longitude":"-75.46110","Snowdepth":"9.000","Units":"in","Rept_Date":"2019-12-03 12"},"coordinates":[5111,4669]},{"type":"Point","properties":{"Station_ID":"WPDN6","Station_Nam":"CINCINNATUS 2NW SNOW","Latitude":"42.55000","Longitude":"-75.93330","Snowdepth":"9.000","Units":"in","Rept_Date":"2019-12-03 15"},"coordinates":[5000,4290]},{"type":"Point","properties":{"Station_ID":"WPAN6","Station_Nam":"WHITNEY POINT DAM SNOW","Latitude":"42.35000","Longitude":"-75.96670","Snowdepth":"9.000","Units":"in","Rept_Date":"2019-12-03 15"},"coordinates":[4992,4165]},{"type":"Point","properties":{"Station_ID":"WI-DR-5","Station_Nam":"ELLISON BAY 2.2 E, WI","Latitude":"45.25750","Longitude":"-87.02670","Snowdepth":"9.000","Units":"in","Rept_Date":"2019-12-03 13"},"coordinates":[2397,5974]},{"type":"Point","properties":{"Station_ID":"WI-CH-7","Station_Nam":"CHIPPEWA FALLS 1.2 E, WI","Latitude":"44.92920","Longitude":"-91.36730","Snowdepth":"9.000","Units":"in","Rept_Date":"2019-12-03 13"},"coordinates":[1378,5770]},{"type":"Point","properties":{"Station_ID":"WHTN6","Station_Nam":"WHITESVILLE","Latitude":"42.05980","Longitude":"-77.75530","Snowdepth":"9.000","Units":"in","Rept_Date":"2019-12-03 12"},"coordinates":[4573,3985]},{"type":"Point","properties":{"Station_ID":"WALN6","Station_Nam":"WALTON 2","Latitude":"42.18470","Longitude":"-75.14550","Snowdepth":"9.000","Units":"in","Rept_Date":"2019-12-03 10"},"coordinates":[5185,4062]},{"type":"Point","properties":{"Station_ID":"VANM1","Station_Nam":"VAN BUREN","Latitude":"47.16600","Longitude":"-67.93900","Snowdepth":"9.000","Units":"in","Rept_Date":"2019-12-03 12"},"coordinates":[6876,7161]},{"type":"Point","properties":{"Station_ID":"TGRP1","Station_Nam":"TIOGA RIVER AT TIOGA","Latitude":"41.90830","Longitude":"-77.12920","Snowdepth":"9.000","Units":"in","Rept_Date":"2019-12-03 12"},"coordinates":[4720,3890]},{"type":"Point","properties":{"Station_ID":"SIBI4","Station_Nam":"SIBLEY","Latitude":"43.40470","Longitude":"-95.74830","Snowdepth":"9.000","Units":"in","Rept_Date":"2019-12-03 13"},"coordinates":[350,4821]},{"type":"Point","properties":{"Station_ID":"SHHW3","Station_Nam":"SHAWANO 2SSW","Latitude":"44.76310","Longitude":"-88.61830","Snowdepth":"9.000","Units":"in","Rept_Date":"2019-12-03 14"},"coordinates":[2023,5667]},{"type":"Point","properties":{"Station_ID":"RRLW3","Station_Nam":"MERRILL,WI","Latitude":"45.17860","Longitude":"-89.66170","Snowdepth":"9.000","Units":"in","Rept_Date":"2019-12-03 14"},"coordinates":[1778,5925]},{"type":"Point","properties":{"Station_ID":"RKHN6","Station_Nam":"ROCK HILL 3 SW","Latitude":"41.59170","Longitude":"-74.61410","Snowdepth":"9.000","Units":"in","Rept_Date":"2019-12-03 12"},"coordinates":[5310,3693]},{"type":"Point","properties":{"Station_ID":"RHRW3","Station_Nam":"RHINELANDER WJFW TV-12","Latitude":"45.62220","Longitude":"-89.41000","Snowdepth":"9.000","Units":"in","Rept_Date":"2019-12-04 04"},"coordinates":[1837,6201]},{"type":"Point","properties":{"Station_ID":"REAM3","Station_Nam":"READING","Latitude":"42.52400","Longitude":"-71.12490","Snowdepth":"9.000","Units":"in","Rept_Date":"2019-12-03 12"},"coordinates":[6129,4273]},{"type":"Point","properties":{"Station_ID":"PJRN6","Station_Nam":"PORT JERVIS","Latitude":"41.38910","Longitude":"-74.69050","Snowdepth":"9.000","Units":"in","Rept_Date":"2019-12-03 12"},"coordinates":[5292,3567]},{"type":"Point","properties":{"Station_ID":"PA-SS-16","Station_Nam":"NEW MILFORD 1.6 SSE, PA","Latitude":"41.85540","Longitude":"-75.71110","Snowdepth":"9.000","Units":"in","Rept_Date":"2019-12-03 13"},"coordinates":[5052,3858]},{"type":"Point","properties":{"Station_ID":"NY-ST-33","Station_Nam":"BATH 4.2 E, NY","Latitude":"42.33968","Longitude":"-77.23666","Snowdepth":"9.000","Units":"in","Rept_Date":"2019-12-03 12"},"coordinates":[4694,4159]},{"type":"Point","properties":{"Station_ID":"NY-OR-2","Station_Nam":"CORNWALL ON HUDSON 0.6 NNW, NY","Latitude":"41.44687","Longitude":"-74.02140","Snowdepth":"9.000","Units":"in","Rept_Date":"2019-12-03 12"},"coordinates":[5449,3603]},{"type":"Point","properties":{"Station_ID":"NY-OD-42","Station_Nam":"WHITESBORO 2.3 SW, NY","Latitude":"43.10017","Longitude":"-75.32940","Snowdepth":"9.000","Units":"in","Rept_Date":"2019-12-03 12"},"coordinates":[5142,4632]},{"type":"Point","properties":{"Station_ID":"NY-OD-21","Station_Nam":"ROME 4.8 SSE, NY","Latitude":"43.16000","Longitude":"-75.46000","Snowdepth":"9.000","Units":"in","Rept_Date":"2019-12-03 12"},"coordinates":[5111,4669]},{"type":"Point","properties":{"Station_ID":"NY-DL-32","Station_Nam":"DELHI 6.6 WNW, NY","Latitude":"42.32118","Longitude":"-75.02991","Snowdepth":"9.000","Units":"in","Rept_Date":"2019-12-03 12"},"coordinates":[5212,4147]},{"type":"Point","properties":{"Station_ID":"NY-CR-5","Station_Nam":"MARATHON 1.0 NW, NY","Latitude":"42.45161","Longitude":"-76.04370","Snowdepth":"9.000","Units":"in","Rept_Date":"2019-12-03 12"},"coordinates":[4974,4228]},{"type":"Point","properties":{"Station_ID":"NY-CN-9","Station_Nam":"NORWICH 5.4 W, NY","Latitude":"42.53356","Longitude":"-75.63060","Snowdepth":"9.000","Units":"in","Rept_Date":"2019-12-03 12"},"coordinates":[5071,4279]},{"type":"Point","properties":{"Station_ID":"NY-BM-1","Station_Nam":"CHENANGO FORKS 3.0 SE, NY","Latitude":"42.19300","Longitude":"-75.84800","Snowdepth":"9.000","Units":"in","Rept_Date":"2019-12-03 13"},"coordinates":[5020,4068]},{"type":"Point","properties":{"Station_ID":"NH-RC-48","Station_Nam":"NORTHWOOD 2.9 WSW, NH","Latitude":"43.20114","Longitude":"-71.25750","Snowdepth":"9.000","Units":"in","Rept_Date":"2019-12-03 12"},"coordinates":[6098,4695]},{"type":"Point","properties":{"Station_ID":"NH-MR-41","Station_Nam":"NEWBURY 1.6 NW, NH","Latitude":"43.33667","Longitude":"-72.06060","Snowdepth":"9.000","Units":"in","Rept_Date":"2019-12-03 12"},"coordinates":[5909,4779]},{"type":"Point","properties":{"Station_ID":"NH-MR-4","Station_Nam":"BOW 1.6 NW, NH","Latitude":"43.14994","Longitude":"-71.55650","Snowdepth":"9.000","Units":"in","Rept_Date":"2019-12-03 12"},"coordinates":[6027,4663]},{"type":"Point","properties":{"Station_ID":"MRRN6","Station_Nam":"MORRISVILLE 6 SW","Latitude":"42.84160","Longitude":"-75.72630","Snowdepth":"9.000","Units":"in","Rept_Date":"2019-12-03 12"},"coordinates":[5049,4471]},{"type":"Point","properties":{"Station_ID":"MN-SL-108","Station_Nam":"IRON JUNCTION 3.4 NNW, MN","Latitude":"47.46150","Longitude":"-92.63130","Snowdepth":"9.000","Units":"in","Rept_Date":"2019-12-03 13"},"coordinates":[1081,7345]},{"type":"Point","properties":{"Station_ID":"MN-MR-4","Station_Nam":"LITTLE FALLS 1.2 SW, MN","Latitude":"45.96886","Longitude":"-94.37720","Snowdepth":"9.000","Units":"in","Rept_Date":"2019-12-03 13"},"coordinates":[672,6417]},{"type":"Point","properties":{"Station_ID":"MN-FM-10","Station_Nam":"WYKOFF 3.1 NW, MN","Latitude":"43.74340","Longitude":"-92.30650","Snowdepth":"9.000","Units":"in","Rept_Date":"2019-12-03 21"},"coordinates":[1158,5032]},{"type":"Point","properties":{"Station_ID":"MLCM5","Station_Nam":"MILACA","Latitude":"45.75320","Longitude":"-93.66170","Snowdepth":"9.000","Units":"in","Rept_Date":"2019-12-03 13"},"coordinates":[839,6283]},{"type":"Point","properties":{"Station_ID":"MA-HD-23","Station_Nam":"SPRINGFIELD 2.5 WNW, MA","Latitude":"42.12429","Longitude":"-72.58614","Snowdepth":"9.000","Units":"in","Rept_Date":"2019-12-03 14"},"coordinates":[5786,4025]},{"type":"Point","properties":{"Station_ID":"LUCW3","Station_Nam":"LUCK","Latitude":"45.57330","Longitude":"-92.48520","Snowdepth":"9.000","Units":"in","Rept_Date":"2019-12-03 22"},"coordinates":[1116,6171]},{"type":"Point","properties":{"Station_ID":"LNGM5","Station_Nam":"LONG PRAIRIE","Latitude":"45.96460","Longitude":"-94.88920","Snowdepth":"9.000","Units":"in","Rept_Date":"2019-12-03 12"},"coordinates":[551,6414]},{"type":"Point","properties":{"Station_ID":"LGRN8","Station_Nam":"LIDGERWOOD,ND","Latitude":"46.06670","Longitude":"-97.16670","Snowdepth":"9.000","Units":"in","Rept_Date":"2019-12-03 13"},"coordinates":[17,6478]},{"type":"Point","properties":{"Station_ID":"HRLN6","Station_Nam":"HORNELL ALMOND DAM","Latitude":"42.34880","Longitude":"-77.70440","Snowdepth":"9.000","Units":"in","Rept_Date":"2019-12-03 11"},"coordinates":[4585,4164]},{"type":"Point","properties":{"Station_ID":"FVLN6","Station_Nam":"FREEVILLE,NY","Latitude":"42.51670","Longitude":"-76.33330","Snowdepth":"9.000","Units":"in","Rept_Date":"2019-12-03 13"},"coordinates":[4906,4269]},{"type":"Point","properties":{"Station_ID":"FORM5","Station_Nam":"FOREST LAKE 5NE","Latitude":"45.33170","Longitude":"-92.89820","Snowdepth":"9.000","Units":"in","Rept_Date":"2019-12-03 13"},"coordinates":[1019,6020]},{"type":"Point","properties":{"Station_ID":"FISW3","Station_Nam":"FISH CREEK 1 E WWTP","Latitude":"45.12420","Longitude":"-87.22920","Snowdepth":"9.000","Units":"in","Rept_Date":"2019-12-03 14"},"coordinates":[2349,5891]},{"type":"Point","properties":{"Station_ID":"ELKM5","Station_Nam":"ELK RIVER","Latitude":"45.30470","Longitude":"-93.58420","Snowdepth":"9.000","Units":"in","Rept_Date":"2019-12-03 13"},"coordinates":[858,6003]},{"type":"Point","properties":{"Station_ID":"CT-WN-4","Station_Nam":"EAST KILLINGLY 1.3 SW, CT","Latitude":"41.83813","Longitude":"-71.83910","Snowdepth":"9.000","Units":"in","Rept_Date":"2019-12-03 14"},"coordinates":[5961,3847]},{"type":"Point","properties":{"Station_ID":"CT-LT-5","Station_Nam":"WINSTED 2.6 NNW, CT","Latitude":"41.96102","Longitude":"-73.09000","Snowdepth":"9.000","Units":"in","Rept_Date":"2019-12-03 13"},"coordinates":[5668,3923]},{"type":"Point","properties":{"Station_ID":"CQDP1","Station_Nam":"COWANESQUE DAM","Latitude":"41.99670","Longitude":"-77.15170","Snowdepth":"9.000","Units":"in","Rept_Date":"2019-12-03 12"},"coordinates":[4714,3945]},{"type":"Point","properties":{"Station_ID":"CORN6","Station_Nam":"CORNING","Latitude":"42.13410","Longitude":"-77.06910","Snowdepth":"9.000","Units":"in","Rept_Date":"2019-12-03 12"},"coordinates":[4734,4031]},{"type":"Point","properties":{"Station_ID":"CNRM1","Station_Nam":"CONNOR TWP","Latitude":"46.95830","Longitude":"-68.03330","Snowdepth":"9.000","Units":"in","Rept_Date":"2019-12-03 12"},"coordinates":[6854,7032]},{"type":"Point","properties":{"Station_ID":"CLOP1","Station_Nam":"KNOXVILLE SNOW","Latitude":"41.95000","Longitude":"-77.45000","Snowdepth":"9.000","Units":"in","Rept_Date":"2019-12-03 15"},"coordinates":[4644,3916]},{"type":"Point","properties":{"Station_ID":"CLHN6","Station_Nam":"TROUPSBURG SNOW","Latitude":"42.05000","Longitude":"-77.55000","Snowdepth":"9.000","Units":"in","Rept_Date":"2019-12-03 15"},"coordinates":[4621,3979]},{"type":"Point","properties":{"Station_ID":"CLDP1","Station_Nam":"THORNBOTTOM ROAD SNOW","Latitude":"41.96670","Longitude":"-77.28330","Snowdepth":"9.000","Units":"in","Rept_Date":"2019-12-03 15"},"coordinates":[4683,3927]},{"type":"Point","properties":{"Station_ID":"CLCP1","Station_Nam":"COWANESQUE DAM SNOW","Latitude":"41.98330","Longitude":"-77.15000","Snowdepth":"9.000","Units":"in","Rept_Date":"2019-12-03 15"},"coordinates":[4715,3937]},{"type":"Point","properties":{"Station_ID":"CARM1","Station_Nam":"CARIBOU WFO","Latitude":"46.86810","Longitude":"-68.01250","Snowdepth":"9.000","Units":"in","Rept_Date":"2019-12-04 05"},"coordinates":[6859,6976]},{"type":"Point","properties":{"Station_ID":"CAR","Station_Nam":"CARIBOU, ME","Latitude":"46.86830","Longitude":"-68.01360","Snowdepth":"9.000","Units":"in","Rept_Date":"2019-12-03 12"},"coordinates":[6859,6976]},