{"type":"Topology","objects":{"snowdepth_geo":{"type":"GeometryCollection","name":"snowdepth","crs":{"type":"name","properties":{"name":"urn:ogc:def:crs:OGC:1.3:CRS84"}},"geometries":[{"type":"Point","properties":{"Station_ID":"PRKM4","Station_Nam":"MUNISING EAST","Latitude":"46.42580","Longitude":"-86.62000","Snowdepth":"76.500","Units":"in","Rept_Date":"2021-01-29 06"},"coordinates":[2492,6765]},{"type":"Point","properties":{"Station_ID":"HTLN3","Station_Nam":"HERMIT LAKE SNOWPLOT","Latitude":"44.26130","Longitude":"-71.28330","Snowdepth":"37.000","Units":"in","Rept_Date":"2021-01-28 10"},"coordinates":[6092,5445]},{"type":"Point","properties":{"Station_ID":"MMNV1","Station_Nam":"MT. MANSFIELD","Latitude":"44.52480","Longitude":"-72.81540","Snowdepth":"36.000","Units":"in","Rept_Date":"2021-01-28 21"},"coordinates":[5732,5605]},{"type":"Point","properties":{"Station_ID":"HGHN6","Station_Nam":"HIGHMARKET","Latitude":"43.60510","Longitude":"-75.55430","Snowdepth":"34.000","Units":"in","Rept_Date":"2021-01-28 11"},"coordinates":[5089,5044]},{"type":"Point","properties":{"Station_ID":"HLSN3","Station_Nam":"HERMIT LAKE SNOTEL","Latitude":"44.26130","Longitude":"-71.28320","Snowdepth":"32.130","Units":"in","Rept_Date":"2021-01-29 06"},"coordinates":[6092,5445]},{"type":"Point","properties":{"Station_ID":"PDLM4","Station_Nam":"PAINESDALE","Latitude":"47.04160","Longitude":"-88.67170","Snowdepth":"29.000","Units":"in","Rept_Date":"2021-01-28 13"},"coordinates":[2011,7141]},{"type":"Point","properties":{"Station_ID":"LOWN6","Station_Nam":"LOWVILLE","Latitude":"43.79280","Longitude":"-75.48290","Snowdepth":"25.000","Units":"in","Rept_Date":"2021-01-28 12"},"coordinates":[5106,5159]},{"type":"Point","properties":{"Station_ID":"VT-BN-12","Station_Nam":"STAMFORD 5.0 NNE, VT","Latitude":"42.82000","Longitude":"-73.02000","Snowdepth":"24.500","Units":"in","Rept_Date":"2021-01-28 21"},"coordinates":[5684,4565]},{"type":"Point","properties":{"Station_ID":"MI-KW-2","Station_Nam":"DELAWARE 5.2 SW, MI","Latitude":"47.36928","Longitude":"-88.17919","Snowdepth":"24.000","Units":"in","Rept_Date":"2021-01-28 09"},"coordinates":[2126,7341]},{"type":"Point","properties":{"Station_ID":"PTLQ6","Station_Nam":"PORTAGE LAKE","Latitude":"49.06950","Longitude":"-86.65940","Snowdepth":"23.980","Units":"in","Rept_Date":"2021-01-29 06"},"coordinates":[2483,8378]},{"type":"Point","properties":{"Station_ID":"TRIQ6","Station_Nam":"TRIO LAKE","Latitude":"49.22880","Longitude":"-87.22920","Snowdepth":"23.740","Units":"in","Rept_Date":"2021-01-29 06"},"coordinates":[2349,8475]},{"type":"Point","properties":{"Station_ID":"QLB","Station_Nam":"QLB","Latitude":"50.72360","Longitude":"-75.10000","Snowdepth":"23.386","Units":"in","Rept_Date":"2021-01-28 12"},"coordinates":[5196,9387]},{"type":"Point","properties":{"Station_ID":"NY-HR-18","Station_Nam":"SALISBURY CENTER 1.8 NW, NY","Latitude":"43.16260","Longitude":"-74.80880","Snowdepth":"23.300","Units":"in","Rept_Date":"2021-01-28 11"},"coordinates":[5264,4774]},{"type":"Point","properties":{"Station_ID":"QGO","Station_Nam":"QGO","Latitude":"48.85500","Longitude":"-74.20640","Snowdepth":"23.031","Units":"in","Rept_Date":"2021-01-28 12"},"coordinates":[5405,8247]},{"type":"Point","properties":{"Station_ID":"OCON6","Station_Nam":"OSCEOLA","Latitude":"43.50370","Longitude":"-75.72170","Snowdepth":"23.000","Units":"in","Rept_Date":"2021-01-28 13"},"coordinates":[5050,4982]},{"type":"Point","properties":{"Station_ID":"NH-CS-10","Station_Nam":"RANDOLPH 1.4 NE, NH","Latitude":"44.38824","Longitude":"-71.26950","Snowdepth":"23.000","Units":"in","Rept_Date":"2021-01-28 12"},"coordinates":[6095,5522]},{"type":"Point","properties":{"Station_ID":"LBKV1","Station_Nam":"LYE BROOK","Latitude":"43.05000","Longitude":"-73.03330","Snowdepth":"23.000","Units":"in","Rept_Date":"2021-01-29 06"},"coordinates":[5681,4706]},{"type":"Point","properties":{"Station_ID":"KSGM4","Station_Nam":"KEARSARGE","Latitude":"47.27520","Longitude":"-88.41700","Snowdepth":"23.000","Units":"in","Rept_Date":"2021-01-28 13"},"coordinates":[2070,7283]},{"type":"Point","properties":{"Station_ID":"QCU","Station_Nam":"QCU","Latitude":"47.82750","Longitude":"-76.59830","Snowdepth":"22.795","Units":"in","Rept_Date":"2021-01-28 12"},"coordinates":[4844,7620]},{"type":"Point","properties":{"Station_ID":"AUDQ6","Station_Nam":"AUDEN","Latitude":"48.52600","Longitude":"-82.57570","Snowdepth":"22.050","Units":"in","Rept_Date":"2021-01-29 06"},"coordinates":[3441,8046]},{"type":"Point","properties":{"Station_ID":"DVLQ6","Station_Nam":"DEVIOUS LAKE","Latitude":"49.19890","Longitude":"-87.76440","Snowdepth":"22.010","Units":"in","Rept_Date":"2021-01-29 06"},"coordinates":[2224,8457]},{"type":"Point","properties":{"Station_ID":"VT-BN-3","Station_Nam":"LANDGROVE 1.1 NNE, VT","Latitude":"43.29092","Longitude":"-72.83260","Snowdepth":"22.000","Units":"in","Rept_Date":"2021-01-28 12"},"coordinates":[5728,4853]},{"type":"Point","properties":{"Station_ID":"NY-LW-12","Station_Nam":"CHASES LAKE COOP, NY","Latitude":"43.75924","Longitude":"-75.29982","Snowdepth":"21.000","Units":"in","Rept_Date":"2021-01-28 11"},"coordinates":[5149,5138]},{"type":"Point","properties":{"Station_ID":"MWN","Station_Nam":"MOUNT WASHINGTON","Latitude":"44.26670","Longitude":"-71.30000","Snowdepth":"21.000","Units":"in","Rept_Date":"2021-01-28 12"},"coordinates":[6088,5448]},{"type":"Point","properties":{"Station_ID":"KMWN","Station_Nam":"MOUNT WASHINGTON","Latitude":"44.26666","Longitude":"-71.30000","Snowdepth":"21.000","Units":"in","Rept_Date":"2021-01-29 06"},"coordinates":[6088,5448]},{"type":"Point","properties":{"Station_ID":"GFDN6","Station_Nam":"CHASES LAKE","Latitude":"43.75920","Longitude":"-75.29980","Snowdepth":"21.000","Units":"in","Rept_Date":"2021-01-28 11"},"coordinates":[5149,5138]},{"type":"Point","properties":{"Station_ID":"QFT","Station_Nam":"QFT","Latitude":"50.83280","Longitude":"-74.40390","Snowdepth":"20.591","Units":"in","Rept_Date":"2021-01-28 12"},"coordinates":[5359,9454]},{"type":"Point","properties":{"Station_ID":"QCO","Station_Nam":"QCO","Latitude":"51.45280","Longitude":"-72.20110","Snowdepth":"20.591","Units":"in","Rept_Date":"2021-01-28 12"},"coordinates":[5876,9832]},{"type":"Point","properties":{"Station_ID":"ROWM3","Station_Nam":"ROWE 3NE","Latitude":"42.73500","Longitude":"-72.86920","Snowdepth":"20.000","Units":"in","Rept_Date":"2021-01-28 15"},"coordinates":[5719,4513]},{"type":"Point","properties":{"Station_ID":"MI-HG-20","Station_Nam":"CALUMET 1.1 SSW, MI","Latitude":"47.23165","Longitude":"-88.45823","Snowdepth":"20.000","Units":"in","Rept_Date":"2021-01-28 11"},"coordinates":[2061,7257]},{"type":"Point","properties":{"Station_ID":"IL-JF-8","Station_Nam":"WALNUT HILL 1.5 WSW, IL","Latitude":"38.46810","Longitude":"-89.06947","Snowdepth":"20.000","Units":"in","Rept_Date":"2021-01-28 14"},"coordinates":[1917,1910]},{"type":"Point","properties":{"Station_ID":"CT-FR-85","Station_Nam":"DANBURY 3.0 W, CT","Latitude":"41.39710","Longitude":"-73.52960","Snowdepth":"20.000","Units":"in","Rept_Date":"2021-01-28 13"},"coordinates":[5564,3697]},{"type":"Point","properties":{"Station_ID":"CAN-ON-245","Station_Nam":"PHELPSTON 3.1 ESE, CAN","Latitude":"44.50564","Longitude":"-79.81035","Snowdepth":"20.000","Units":"in","Rept_Date":"2021-01-28 13"},"coordinates":[4090,5594]},{"type":"Point","properties":{"Station_ID":"BOON6","Station_Nam":"BOONVILLE 4 SSW","Latitude":"43.43610","Longitude":"-75.36970","Snowdepth":"20.000","Units":"in","Rept_Date":"2021-01-28 12"},"coordinates":[5132,4941]},{"type":"Point","properties":{"Station_ID":"NY-HM-1","Station_Nam":"SPECULATOR 10.0 SSW, NY","Latitude":"43.45133","Longitude":"-74.47120","Snowdepth":"19.000","Units":"in","Rept_Date":"2021-01-28 12"},"coordinates":[5343,4950]},{"type":"Point","properties":{"Station_ID":"NCBN6","Station_Nam":"NEWCOMB","Latitude":"43.97070","Longitude":"-74.22200","Snowdepth":"19.000","Units":"in","Rept_Date":"2021-01-28 12"},"coordinates":[5402,5267]},{"type":"Point","properties":{"Station_ID":"NY-OD-2","Station_Nam":"POINT ROCK 0.6 SE, NY","Latitude":"43.37335","Longitude":"-75.53840","Snowdepth":"18.500","Units":"in","Rept_Date":"2021-01-28 13"},"coordinates":[5093,4903]},{"type":"Point","properties":{"Station_ID":"QOU","Station_Nam":"QOU","Latitude":"50.79250","Longitude":"-69.67470","Snowdepth":"18.425","Units":"in","Rept_Date":"2021-01-28 12"},"coordinates":[6469,9429]},{"type":"Point","properties":{"Station_ID":"QTM","Station_Nam":"QTM","Latitude":"51.05780","Longitude":"-72.57190","Snowdepth":"18.386","Units":"in","Rept_Date":"2021-01-28 12"},"coordinates":[5789,9591]},{"type":"Point","properties":{"Station_ID":"VT-OL-12","Station_Nam":"GREENSBORO 3.9 NNE, VT","Latitude":"44.63100","Longitude":"-72.28000","Snowdepth":"18.000","Units":"in","Rept_Date":"2021-01-28 14"},"coordinates":[5858,5670]},{"type":"Point","properties":{"Station_ID":"NY-HM-10","Station_Nam":"LAKE PLEASANT 2.3 WSW, NY","Latitude":"43.45490","Longitude":"-74.45287","Snowdepth":"18.000","Units":"in","Rept_Date":"2021-01-28 12"},"coordinates":[5348,4953]},{"type":"Point","properties":{"Station_ID":"NY-ER-65","Station_Nam":"BOSTON 1.5 NE, NY","Latitude":"42.65470","Longitude":"-78.72010","Snowdepth":"18.000","Units":"in","Rept_Date":"2021-01-28 12"},"coordinates":[4346,4464]},{"type":"Point","properties":{"Station_ID":"NY-ER-166","Station_Nam":"BOSTON 2.5 NE, NY","Latitude":"42.65480","Longitude":"-78.70300","Snowdepth":"18.000","Units":"in","Rept_Date":"2021-01-28 12"},"coordinates":[4350,4464]},{"type":"Point","properties":{"Station_ID":"IWOM4","Station_Nam":"IRONWOOD#2","Latitude":"46.46520","Longitude":"-90.13820","Snowdepth":"18.000","Units":"in","Rept_Date":"2021-01-28 13"},"coordinates":[1666,6789]},{"type":"Point","properties":{"Station_ID":"NY-ER-56","Station_Nam":"COLDEN 1.4 NNW, NY","Latitude":"42.64740","Longitude":"-78.71120","Snowdepth":"17.000","Units":"in","Rept_Date":"2021-01-28 12"},"coordinates":[4348,4460]},{"type":"Point","properties":{"Station_ID":"MONW3","Station_Nam":"MONROE,WI","Latitude":"42.60000","Longitude":"-89.66670","Snowdepth":"17.000","Units":"in","Rept_Date":"2021-01-28 13"},"coordinates":[1777,4431]},{"type":"Point","properties":{"Station_ID":"ME-FR-2","Station_Nam":"TEMPLE 1.8 W, ME","Latitude":"44.68329","Longitude":"-70.26420","Snowdepth":"17.000","Units":"in","Rept_Date":"2021-01-28 12"},"coordinates":[6331,5702]},{"type":"Point","properties":{"Station_ID":"IL-SP-27","Station_Nam":"DAVIS 2.7 N, IL","Latitude":"42.46110","Longitude":"-89.40890","Snowdepth":"17.000","Units":"in","Rept_Date":"2021-01-28 13"},"coordinates":[1838,4346]},{"type":"Point","properties":{"Station_ID":"HURW3","Station_Nam":"HURLEY","Latitude":"46.46250","Longitude":"-90.19550","Snowdepth":"17.000","Units":"in","Rept_Date":"2021-01-28 14"},"coordinates":[1653,6787]},{"type":"Point","properties":{"Station_ID":"EHYM3","Station_Nam":"EAST HAWLEY","Latitude":"42.57410","Longitude":"-72.86790","Snowdepth":"17.000","Units":"in","Rept_Date":"2021-01-28 14"},"coordinates":[5720,4415]},{"type":"Point","properties":{"Station_ID":"CODN6","Station_Nam":"COLDEN","Latitude":"42.64720","Longitude":"-78.71110","Snowdepth":"17.000","Units":"in","Rept_Date":"2021-01-28 12"},"coordinates":[4348,4460]},{"type":"Point","properties":{"Station_ID":"OGIQ6","Station_Nam":"OGOKI CAMP","Latitude":"50.76680","Longitude":"-87.85820","Snowdepth":"16.260","Units":"in","Rept_Date":"2021-01-29 06"},"coordinates":[2202,9413]},{"type":"Point","properties":{"Station_ID":"CAN-QC-51","Station_Nam":"BELOEIL 0.7 NW, CAN","Latitude":"45.58049","Longitude":"-73.21218","Snowdepth":"16.200","Units":"in","Rept_Date":"2021-01-28 12"},"coordinates":[5639,6249]},{"type":"Point","properties":{"Station_ID":"WI-IW-3","Station_Nam":"MINERAL POINT 7.3 ENE, WI","Latitude":"42.91400","Longitude":"-90.05700","Snowdepth":"16.000","Units":"in","Rept_Date":"2021-01-28 13"},"coordinates":[1685,4623]},{"type":"Point","properties":{"Station_ID":"WHFN6","Station_Nam":"WILMINGTON 2W","Latitude":"44.39310","Longitude":"-73.85890","Snowdepth":"16.000","Units":"in","Rept_Date":"2021-01-28 13"},"coordinates":[5487,5525]},{"type":"Point","properties":{"Station_ID":"VT-WS-33","Station_Nam":"WAITSFIELD 3.5 WNW, VT","Latitude":"44.20052","Longitude":"-72.89421","Snowdepth":"16.000","Units":"in","Rept_Date":"2021-01-28 12"},"coordinates":[5713,5407]},{"type":"Point","properties":{"Station_ID":"VT-WR-2","Station_Nam":"POMFRET 2.6 N, VT","Latitude":"43.74230","Longitude":"-72.52550","Snowdepth":"16.000","Units":"in","Rept_Date":"2021-01-28 12"},"coordinates":[5800,5128]},{"type":"Point","properties":{"Station_ID":"VT-WH-19","Station_Nam":"EAST DOVER 1.8 N, VT","Latitude":"42.97658","Longitude":"-72.77637","Snowdepth":"16.000","Units":"in","Rept_Date":"2021-01-28 12"},"coordinates":[5741,4661]},{"type":"Point","properties":{"Station_ID":"VT-OL-1","Station_Nam":"WESTFIELD 0.7 WNW, VT","Latitude":"44.89160","Longitude":"-72.44350","Snowdepth":"16.000","Units":"in","Rept_Date":"2021-01-28 12"},"coordinates":[5819,5829]},{"type":"Point","properties":{"Station_ID":"TOPN6","Station_Nam":"TUPPER LAKE SUNMOUNT","Latitude":"44.23070","Longitude":"-74.43820","Snowdepth":"16.000","Units":"in","Rept_Date":"2021-01-28 12"},"coordinates":[5351,5426]},{"type":"Point","properties":{"Station_ID":"STOW3","Station_Nam":"STOUGHTON,WI","Latitude":"42.91670","Longitude":"-89.21670","Snowdepth":"16.000","Units":"in","Rept_Date":"2021-01-28 13"},"coordinates":[1883,4624]},{"type":"Point","properties":{"Station_ID":"SGVN6","Station_Nam":"SPRINGVILLE","Latitude":"42.54970","Longitude":"-78.57670","Snowdepth":"16.000","Units":"in","Rept_Date":"2021-01-28 22"},"coordinates":[4380,4400]},{"type":"Point","properties":{"Station_ID":"PEKN6","Station_Nam":"PECK LAKE","Latitude":"43.11500","Longitude":"-74.42360","Snowdepth":"16.000","Units":"in","Rept_Date":"2021-01-28 12"},"coordinates":[5355,4745]},{"type":"Point","properties":{"Station_ID":"NY-FK-9","Station_Nam":"GABRIELS 1.3 SE, NY","Latitude":"44.41934","Longitude":"-74.16194","Snowdepth":"16.000","Units":"in","Rept_Date":"2021-01-28 12"},"coordinates":[5416,5541]},{"type":"Point","properties":{"Station_ID":"NY-ES-6","Station_Nam":"OLMSTEDVILLE 4.6 NNE, NY","Latitude":"43.83350","Longitude":"-73.89780","Snowdepth":"16.000","Units":"in","Rept_Date":"2021-01-28 13"},"coordinates":[5478,5184]},{"type":"Point","properties":{"Station_ID":"MNSM4","Station_Nam":"MUNISING","Latitude":"46.41210","Longitude":"-86.66250","Snowdepth":"16.000","Units":"in","Rept_Date":"2021-01-28 11"},"coordinates":[2482,6757]},{"type":"Point","properties":{"Station_ID":"LPLN6","Station_Nam":"LAKE PLACID 2 S","Latitude":"44.30420","Longitude":"-73.98390","Snowdepth":"16.000","Units":"in","Rept_Date":"2021-01-28 13"},"coordinates":[5458,5471]},{"type":"Point","properties":{"Station_ID":"KABM5","Station_Nam":"KABETOGAMA LAKE VISITOR CTR","Latitude":"48.40880","Longitude":"-93.04840","Snowdepth":"16.000","Units":"in","Rept_Date":"2021-01-28 13"},"coordinates":[983,7975]},{"type":"Point","properties":{"Station_ID":"HERM4","Station_Nam":"HERMAN,MI","Latitude":"46.65000","Longitude":"-88.33330","Snowdepth":"16.000","Units":"in","Rept_Date":"2021-01-28 15"},"coordinates":[2090,6902]},{"type":"Point","properties":{"Station_ID":"CLQM5","Station_Nam":"CLOQUET","Latitude":"46.70470","Longitude":"-92.52530","Snowdepth":"16.000","Units":"in","Rept_Date":"2021-01-28 14"},"coordinates":[1106,6935]},{"type":"Point","properties":{"Station_ID":"BBEM4","Station_Nam":"BIG BAY 9SW","Latitude":"46.74620","Longitude":"-87.88160","Snowdepth":"16.000","Units":"in","Rept_Date":"2021-01-28 13"},"coordinates":[2196,6960]},{"type":"Point","properties":{"Station_ID":"AVLV1","Station_Nam":"AVERILL","Latitude":"45.00570","Longitude":"-71.69030","Snowdepth":"16.000","Units":"in","Rept_Date":"2021-01-28 13"},"coordinates":[5996,5899]},{"type":"Point","properties":{"Station_ID":"QWE","Station_Nam":"QWE","Latitude":"47.84610","Longitude":"-73.80670","Snowdepth":"15.748","Units":"in","Rept_Date":"2021-01-28 12"},"coordinates":[5499,7631]},{"type":"Point","properties":{"Station_ID":"CAN-ON-791","Station_Nam":"METCALFE 4.4 NNW, CAN","Latitude":"45.27286","Longitude":"-75.48952","Snowdepth":"15.600","Units":"in","Rept_Date":"2021-01-28 11"},"coordinates":[5104,6062]},{"type":"Point","properties":{"Station_ID":"NY-ER-195","Station_Nam":"SPRINGVILLE 0.4 NE, NY","Latitude":"42.51351","Longitude":"-78.66492","Snowdepth":"15.500","Units":"in","Rept_Date":"2021-01-29 05"},"coordinates":[4359,4378]},{"type":"Point","properties":{"Station_ID":"NY-ER-194","Station_Nam":"GLENWOOD 1.0 SE, NY","Latitude":"42.60740","Longitude":"-78.64610","Snowdepth":"15.500","Units":"in","Rept_Date":"2021-01-28 12"},"coordinates":[4364,4436]},{"type":"Point","properties":{"Station_ID":"IA-SH-6","Station_Nam":"KIRKMAN 1.0 SE, IA","Latitude":"41.71810","Longitude":"-95.25310","Snowdepth":"15.500","Units":"in","Rept_Date":"2021-01-28 13"},"coordinates":[466,3893]},{"type":"Point","properties":{"Station_ID":"QMD","Station_Nam":"QMD","Latitude":"49.29060","Longitude":"-75.84500","Snowdepth":"15.433","Units":"in","Rept_Date":"2021-01-28 12"},"coordinates":[5021,8513]},{"type":"Point","properties":{"Station_ID":"MI-BG-3","Station_Nam":"THREE LAKES, MI","Latitude":"46.55730","Longitude":"-88.20770","Snowdepth":"15.400","Units":"in","Rept_Date":"2021-01-28 13"},"coordinates":[2119,6845]},{"type":"Point","properties":{"Station_ID":"KABQ6","Station_Nam":"CAB LAKE","Latitude":"49.59950","Longitude":"-89.17990","Snowdepth":"15.040","Units":"in","Rept_Date":"2021-01-29 06"},"coordinates":[1891,8701]},{"type":"Point","properties":{"Station_ID":"WLFM5","Station_Nam":"WOLF RIDGE ENVIRON LEARNING CENTER","Latitude":"47.38240","Longitude":"-91.19730","Snowdepth":"15.000","Units":"in","Rept_Date":"2021-01-28 13"},"coordinates":[1418,7349]},{"type":"Point","properties":{"Station_ID":"WAIV1","Station_Nam":"WAITSFIELD","Latitude":"44.17560","Longitude":"-72.79610","Snowdepth":"15.000","Units":"in","Rept_Date":"2021-01-28 11"},"coordinates":[5736,5392]},{"type":"Point","properties":{"Station_ID":"VT-WS-23","Station_Nam":"CABOT 2.3 E, VT","Latitude":"44.39807","Longitude":"-72.26570","Snowdepth":"15.000","Units":"in","Rept_Date":"2021-01-28 13"},"coordinates":[5861,5528]},{"type":"Point","properties":{"Station_ID":"VT-WS-11","Station_Nam":"WAITSFIELD 1.8 SE, VT","Latitude":"44.17551","Longitude":"-72.79540","Snowdepth":"15.000","Units":"in","Rept_Date":"2021-01-28 11"},"coordinates":[5737,5392]},{"type":"Point","properties":{"Station_ID":"VT-WH-30","Station_Nam":"MARLBORO 2.0 NNE, VT","Latitude":"42.88484","Longitude":"-72.70935","Snowdepth":"15.000","Units":"in","Rept_Date":"2021-01-28 13"},"coordinates":[5757,4605]},{"type":"Point","properties":{"Station_ID":"RANM1","Station_Nam":"RANGELEY","Latitude":"44.98910","Longitude":"-70.67190","Snowdepth":"15.000","Units":"in","Rept_Date":"2021-01-28 11"},"coordinates":[6235,5889]},{"type":"Point","properties":{"Station_ID":"NY-SR-22","Station_Nam":"GREENFIELD CENTER 1.6 W, NY","Latitude":"43.12684","Longitude":"-73.87860","Snowdepth":"15.000","Units":"in","Rept_Date":"2021-01-28 11"},"coordinates":[5482,4752]},{"type":"Point","properties":{"Station_ID":"NY-ER-63","Station_Nam":"GLENWOOD 1.5 SE, NY","Latitude":"42.60195","Longitude":"-78.63910","Snowdepth":"15.000","Units":"in","Rept_Date":"2021-01-28 12"},"coordinates":[4365,4432]},{"type":"Point","properties":{"Station_ID":"MRLV1","Station_Nam":"MARLBORO","Latitude":"42.86000","Longitude":"-72.72000","Snowdepth":"15.000","Units":"in","Rept_Date":"2021-01-28 13"},"coordinates":[5754,4590]},{"type":"Point","properties":{"Station_ID":"MQT","Station_Nam":"MARQUETTE, MI","Latitude":"46.53140","Longitude":"-87.54920","Snowdepth":"15.000","Units":"in","Rept_Date":"2021-01-29 06"},"coordinates":[2274,6829]},{"type":"Point","properties":{"Station_ID":"IRMM4","Station_Nam":"WWTP","Latitude":"46.46670","Longitude":"-90.18330","Snowdepth":"15.000","Units":"in","Rept_Date":"2021-01-28 13"},"coordinates":[1656,6790]},{"type":"Point","properties":{"Station_ID":"IA-DL-33","Station_Nam":"WAUKEE 1.6 N, IA","Latitude":"41.63119","Longitude":"-93.85778","Snowdepth":"15.000","Units":"in","Rept_Date":"2021-01-28 13"},"coordinates":[793,3840]},{"type":"Point","properties":{"Station_ID":"DGVW3","Station_Nam":"DODGEVILLE","Latitude":"42.96670","Longitude":"-90.11670","Snowdepth":"15.000","Units":"in","Rept_Date":"2021-01-28 13"},"coordinates":[1671,4655]},{"type":"Point","properties":{"Station_ID":"SOCQ6","Station_Nam":"SOCKET LAKE","Latitude":"50.77870","Longitude":"-91.79300","Snowdepth":"14.800","Units":"in","Rept_Date":"2021-01-29 06"},"coordinates":[1278,9421]},{"type":"Point","properties":{"Station_ID":"MLZ","Station_Nam":"MLZ","Latitude":"50.66170","Longitude":"-68.82360","Snowdepth":"14.685","Units":"in","Rept_Date":"2021-01-28 12"},"coordinates":[6669,9349]},{"type":"Point","properties":{"Station_ID":"CAN-MB-368","Station_Nam":"WHITESHELL 1.3 NE, CAN","Latitude":"49.74405","Longitude":"-95.19123","Snowdepth":"14.600","Units":"in","Rept_Date":"2021-01-28 14"},"coordinates":[481,8789]},{"type":"Point","properties":{"Station_ID":"QLI","Station_Nam":"QLI","Latitude":"50.27080","Longitude":"-73.92280","Snowdepth":"14.567","Units":"in","Rept_Date":"2021-01-28 12"},"coordinates":[5472,9111]},{"type":"Point","properties":{"Station_ID":"VT-WS-30","Station_Nam":"WOODBURY 3.4 NNW, VT","Latitude":"44.48825","Longitude":"-72.43258","Snowdepth":"14.500","Units":"in","Rept_Date":"2021-01-28 12"},"coordinates":[5822,5583]},{"type":"Point","properties":{"Station_ID":"NY-SL-6","Station_Nam":"HANNAWA FALLS 0.1 SW, NY","Latitude":"44.61154","Longitude":"-74.97190","Snowdepth":"14.500","Units":"in","Rept_Date":"2021-01-28 12"},"coordinates":[5226,5658]},{"type":"Point","properties":{"Station_ID":"NY-OG-12","Station_Nam":"CLAY 4.6 NW, NY","Latitude":"43.20000","Longitude":"-76.26000","Snowdepth":"14.500","Units":"in","Rept_Date":"2021-01-28 12"},"coordinates":[4924,4797]},{"type":"Point","properties":{"Station_ID":"NE-LA-41","Station_Nam":"MALCOLM 0.3 SSE, NE","Latitude":"40.90461","Longitude":"-96.86279","Snowdepth":"14.500","Units":"in","Rept_Date":"2021-01-28 15"},"coordinates":[88,3397]},{"type":"Point","properties":{"Station_ID":"LANC007","Station_Nam":"DAVEY 1.2 NNW, NE","Latitude":"41.00320","Longitude":"-96.67630","Snowdepth":"14.500","Units":"in","Rept_Date":"2021-01-28 13"},"coordinates":[132,3457]},{"type":"Point","properties":{"Station_ID":"SVBQ6","Station_Nam":"SAVANT BASE","Latitude":"50.28730","Longitude":"-90.65670","Snowdepth":"14.490","Units":"in","Rept_Date":"2021-01-29 06"},"coordinates":[1545,9121]},{"type":"Point","properties":{"Station_ID":"WRSN6","Station_Nam":"WARSAW 6SW","Latitude":"42.68550","Longitude":"-78.22020","Snowdepth":"14.000","Units":"in","Rept_Date":"2021-01-28 12"},"coordinates":[4463,4483]},{"type":"Point","properties":{"Station_ID":"WORV1","Station_Nam":"WORCESTER 2 W","Latitude":"44.37470","Longitude":"-72.58220","Snowdepth":"14.000","Units":"in","Rept_Date":"2021-01-28 12"},"coordinates":[5787,5514]},{"type":"Point","properties":{"Station_ID":"WI-BY-14","Station_Nam":"ASHLAND 9.8 W, WI","Latitude":"46.59742","Longitude":"-91.07856","Snowdepth":"14.000","Units":"in","Rept_Date":"2021-01-28 12"},"coordinates":[1446,6870]},{"type":"Point","properties":{"Station_ID":"SUTV1","Station_Nam":"SUTTON","Latitude":"44.61220","Longitude":"-72.04810","Snowdepth":"14.000","Units":"in","Rept_Date":"2021-01-28 13"},"coordinates":[5912,5659]},{"type":"Point","properties":{"Station_ID":"SNYI4","Station_Nam":"STANLEY","Latitude":"42.63330","Longitude":"-91.86320","Snowdepth":"14.000","Units":"in","Rept_Date":"2021-01-28 13"},"coordinates":[1262,4451]},{"type":"Point","properties":{"Station_ID":"RGNM1","Station_Nam":"RANGELEY 2NW","Latitude":"44.98940","Longitude":"-70.67220","Snowdepth":"14.000","Units":"in","Rept_Date":"2021-01-28 11"},"coordinates":[6235,5889]},{"type":"Point","properties":{"Station_ID":"PRDM4","Station_Nam":"PARADISE","Latitude":"46.60380","Longitude":"-85.03960","Snowdepth":"14.000","Units":"in","Rept_Date":"2021-01-28 11"},"coordinates":[2863,6874]},{"type":"Point","properties":{"Station_ID":"NY-FK-7","Station_Nam":"SARANAC LAKE 6.2 N, NY","Latitude":"44.41359","Longitude":"-74.15211","Snowdepth":"14.000","Units":"in","Rept_Date":"2021-01-28 12"},"coordinates":[5418,5537]},{"type":"Point","properties":{"Station_ID":"NY-CL-12","Station_Nam":"SARANAC 0.8 SSE, NY","Latitude":"44.63980","Longitude":"-73.73848","Snowdepth":"14.000","Units":"in","Rept_Date":"2021-01-28 12"},"coordinates":[5515,5675]},{"type":"Point","properties":{"Station_ID":"JEFV1","Station_Nam":"JEFFERSONVILLE","Latitude":"44.58430","Longitude":"-72.78700","Snowdepth":"14.000","Units":"in","Rept_Date":"2021-01-28 12"},"coordinates":[5739,5642]},{"type":"Point","properties":{"Station_ID":"INDN6","Station_Nam":"INDIAN LAKE","Latitude":"43.75500","Longitude":"-74.27560","Snowdepth":"14.000","Units":"in","Rept_Date":"2021-01-28 13"},"coordinates":[5389,5136]},{"type":"Point","properties":{"Station_ID":"IA-PK-3","Station_Nam":"DES MOINES 4.5 WNW, IA","Latitude":"41.60663","Longitude":"-93.69560","Snowdepth":"14.000","Units":"in","Rept_Date":"2021-01-28 13"},"coordinates":[832,3825]},{"type":"Point","properties":{"Station_ID":"IA-BH-6","Station_Nam":"WATERLOO 1.9 SSE, IA","Latitude":"42.46500","Longitude":"-92.34100","Snowdepth":"14.000","Units":"in","Rept_Date":"2021-01-28 14"},"coordinates":[1149,4349]},{"type":"Point","properties":{"Station_ID":"GTTI4","Station_Nam":"LOCK & DAM 10","Latitude":"42.78580","Longitude":"-91.09970","Snowdepth":"14.000","Units":"in","Rept_Date":"2021-01-28 14"},"coordinates":[1441,4544]},{"type":"Point","properties":{"Station_ID":"GTHI4","Station_Nam":"GUTHRIE CENTER,IA","Latitude":"41.68330","Longitude":"-94.50000","Snowdepth":"14.000","Units":"in","Rept_Date":"2021-01-28 14"},"coordinates":[643,3872]},{"type":"Point","properties":{"Station_ID":"CTEN1","Station_Nam":"DOANE COLLEGE","Latitude":"40.61670","Longitude":"-96.95000","Snowdepth":"14.000","Units":"in","Rept_Date":"2021-01-28 13"},"coordinates":[68,3221]},{"type":"Point","properties":{"Station_ID":"CLKM4","Station_Nam":"CLARKSBURG","Latitude":"46.49910","Longitude":"-87.84500","Snowdepth":"14.000","Units":"in","Rept_Date":"2021-01-28 12"},"coordinates":[2205,6810]},{"type":"Point","properties":{"Station_ID":"CLDI4","Station_Nam":"CLARINDA,IA","Latitude":"40.73330","Longitude":"-95.03330","Snowdepth":"14.000","Units":"in","Rept_Date":"2021-01-28 12"},"coordinates":[518,3292]},{"type":"Point","properties":{"Station_ID":"CAN-ON-42","Station_Nam":"VANKLEEK HILL 3.4 S, CA","Latitude":"45.48987","Longitude":"-74.64570","Snowdepth":"14.000","Units":"in","Rept_Date":"2021-01-28 12"},"coordinates":[5302,6194]},{"type":"Point","properties":{"Station_ID":"BLVI4","Station_Nam":"MISSISSIPPI RIVER","Latitude":"42.26670","Longitude":"-90.41670","Snowdepth":"14.000","Units":"in","Rept_Date":"2021-01-28 12"},"coordinates":[1601,4228]},{"type":"Point","properties":{"Station_ID":"ANJM4","Station_Nam":"SNOW PAID OBSERVER FOR KANJ","Latitude":"46.48670","Longitude":"-84.40260","Snowdepth":"14.000","Units":"in","Rept_Date":"2021-01-29 06"},"coordinates":[3013,6802]},{"type":"Point","properties":{"Station_ID":"CAN-QC-57","Station_Nam":"ACTON VALE 1.3 N, CAN","Latitude":"45.65868","Longitude":"-72.56645","Snowdepth":"13.800","Units":"in","Rept_Date":"2021-01-28 13"},"coordinates":[5790,6297]},{"type":"Point","properties":{"Station_ID":"WI-DA-35","Station_Nam":"MADISON 5.5 N, WI","Latitude":"43.15858","Longitude":"-89.37280","Snowdepth":"13.500","Units":"in","Rept_Date":"2021-01-28 14"},"coordinates":[1846,4772]},{"type":"Point","properties":{"Station_ID":"VT-WS-19","Station_Nam":"WATERBURY 3.0 NW, VT","Latitude":"44.36060","Longitude":"-72.80770","Snowdepth":"13.500","Units":"in","Rept_Date":"2021-01-28 11"},"coordinates":[5734,5505]},{"type":"Point","properties":{"Station_ID":"VT-CL-14","Station_Nam":"LYNDONVILLE 1.1 W, VT","Latitude":"44.53582","Longitude":"-72.02867","Snowdepth":"13.500","Units":"in","Rept_Date":"2021-01-28 12"},"coordinates":[5917,5612]},{"type":"Point","properties":{"Station_ID":"VT-BN-7","Station_Nam":"MANCHESTER 2.8 ENE, VT","Latitude":"43.17274","Longitude":"-73.01811","Snowdepth":"13.500","Units":"in","Rept_Date":"2021-01-28 12"},"coordinates":[5684,4780]},{"type":"Point","properties":{"Station_ID":"VT-AD-20","Station_Nam":"HANCOCK 0.3 S, VT","Latitude":"43.92166","Longitude":"-72.84042","Snowdepth":"13.500","Units":"in","Rept_Date":"2021-01-28 12"},"coordinates":[5726,5237]},{"type":"Point","properties":{"Station_ID":"NY-OS-21","Station_Nam":"PULASKI 0.5 NE, NY","Latitude":"43.56997","Longitude":"-76.11950","Snowdepth":"13.500","Units":"in","Rept_Date":"2021-01-28 14"},"coordinates":[4957,5023]},{"type":"Point","properties":{"Station_ID":"NE-SY-11","Station_Nam":"LA VISTA 2.0 WSW, NE","Latitude":"41.17702","Longitude":"-96.07571","Snowdepth":"13.500","Units":"in","Rept_Date":"2021-01-28 13"},"coordinates":[273,3563]},{"type":"Point","properties":{"Station_ID":"MN-SL-108","Station_Nam":"IRON JUNCTION 3.4 NNW, MN","Latitude":"47.46150","Longitude":"-92.63130","Snowdepth":"13.500","Units":"in","Rept_Date":"2021-01-28 12"},"coordinates":[1081,7397]},{"type":"Point","properties":{"Station_ID":"WSFW3","Station_Nam":"TOWN OF WESTFORD","Latitude":"43.47190","Longitude":"-88.88250","Snowdepth":"13.000","Units":"in","Rept_Date":"2021-01-28 13"},"coordinates":[1961,4963]},{"type":"Point","properties":{"Station_ID":"WNDP1","Station_Nam":"WINDBER COUNTY CLUB","Latitude":"40.28780","Longitude":"-78.77530","Snowdepth":"13.000","Units":"in","Rept_Date":"2021-01-28 12"},"coordinates":[4333,3020]},{"type":"Point","properties":{"Station_ID":"WI-SR-1","Station_Nam":"HAYWARD 9.2 NNE, WI","Latitude":"46.13255","Longitude":"-91.40500","Snowdepth":"13.000","Units":"in","Rept_Date":"2021-01-28 12"},"coordinates":[1369,6586]},{"type":"Point","properties":{"Station_ID":"WI-MW-14","Station_Nam":"MILWAUKEE 3.6 NNW, WI","Latitude":"43.11300","Longitude":"-87.98730","Snowdepth":"13.000","Units":"in","Rept_Date":"2021-01-28 11"},"coordinates":[2171,4744]},{"type":"Point","properties":{"Station_ID":"WI-IR-3","Station_Nam":"PENCE 0.1 E, WI","Latitude":"46.41555","Longitude":"-90.27013","Snowdepth":"13.000","Units":"in","Rept_Date":"2021-01-28 13"},"coordinates":[1635,6759]},{"type":"Point","properties":{"Station_ID":"WI-DD-16","Station_Nam":"BEAVER DAM 2.4 WNW, WI","Latitude":"43.47210","Longitude":"-88.88280","Snowdepth":"13.000","Units":"in","Rept_Date":"2021-01-28 13"},"coordinates":[1961,4963]},{"type":"Point","properties":{"Station_ID":"WELM5","Station_Nam":"WELLS","Latitude":"43.74680","Longitude":"-93.73680","Snowdepth":"13.000","Units":"in","Rept_Date":"2021-01-28 14"},"coordinates":[822,5131]},{"type":"Point","properties":{"Station_ID":"VT-ES-3","Station_Nam":"LUNENBURG 2.3 NNW, VT","Latitude":"44.49324","Longitude":"-71.70446","Snowdepth":"13.000","Units":"in","Rept_Date":"2021-01-28 12"},"coordinates":[5993,5586]},{"type":"Point","properties":{"Station_ID":"TOGM5","Station_Nam":"CELINA 2E","Latitude":"47.86630","Longitude":"-93.02660","Snowdepth":"13.000","Units":"in","Rept_Date":"2021-01-28 15"},"coordinates":[989,7644]},{"type":"Point","properties":{"Station_ID":"SUAW3","Station_Nam":"SUAMICO","Latitude":"44.60190","Longitude":"-88.09780","Snowdepth":"13.000","Units":"in","Rept_Date":"2021-01-28 12"},"coordinates":[2145,5652]},{"type":"Point","properties":{"Station_ID":"SSMM4","Station_Nam":"SAULT STE MARIE","Latitude":"46.48660","Longitude":"-84.40250","Snowdepth":"13.000","Units":"in","Rept_Date":"2021-01-28 13"},"coordinates":[3013,6802]},{"type":"Point","properties":{"Station_ID":"SDHI4","Station_Nam":"SHENANDOAH,IA","Latitude":"40.78330","Longitude":"-95.35000","Snowdepth":"13.000","Units":"in","Rept_Date":"2021-01-28 14"},"coordinates":[443,3323]},{"type":"Point","properties":{"Station_ID":"RANI4","Station_Nam":"RANDOLPH,IA","Latitude":"40.86670","Longitude":"-95.56670","Snowdepth":"13.000","Units":"in","Rept_Date":"2021-01-28 14"},"coordinates":[392,3374]},{"type":"Point","properties":{"Station_ID":"NY-OT-11","Station_Nam":"HARTWICK, NY","Latitude":"42.65990","Longitude":"-75.05000","Snowdepth":"13.000","Units":"in","Rept_Date":"2021-01-28 14"},"coordinates":[5208,4468]},{"type":"Point","properties":{"Station_ID":"NY-OS-38","Station_Nam":"MEXICO COOP, NY","Latitude":"43.43830","Longitude":"-76.26570","Snowdepth":"13.000","Units":"in","Rept_Date":"2021-01-28 12"},"coordinates":[4922,4942]},{"type":"Point","properties":{"Station_ID":"NE-LA-38","Station_Nam":"LINCOLN 4.6 S, NE","Latitude":"40.74920","Longitude":"-96.68970","Snowdepth":"13.000","Units":"in","Rept_Date":"2021-01-28 13"},"coordinates":[129,3302]},{"type":"Point","properties":{"Station_ID":"NCYN1","Station_Nam":"NEBRASKA CITY 2NW","Latitude":"40.69860","Longitude":"-95.88660","Snowdepth":"13.000","Units":"in","Rept_Date":"2021-01-28 13"},"coordinates":[317,3271]},{"type":"Point","properties":{"Station_ID":"MXON6","Station_Nam":"MEXICO","Latitude":"43.43830","Longitude":"-76.26560","Snowdepth":"13.000","Units":"in","Rept_Date":"2021-01-28 12"},"coordinates":[4922,4942]},{"type":"Point","properties":{"Station_ID":"MN-SL-15","Station_Nam":"CHISHOLM 0.4 WSW, MN","Latitude":"47.48557","Longitude":"-92.88690","Snowdepth":"13.000","Units":"in","Rept_Date":"2021-01-28 13"},"coordinates":[1021,7412]},{"type":"Point","properties":{"Station_ID":"MN-IT-7","Station_Nam":"GRAND RAPIDS 6.2 SSW, MN","Latitude":"47.13687","Longitude":"-93.56660","Snowdepth":"13.000","Units":"in","Rept_Date":"2021-01-28 12"},"coordinates":[862,7199]},{"type":"Point","properties":{"Station_ID":"MN-IS-18","Station_Nam":"BRAHAM 0.7 SW, MN","Latitude":"45.71379","Longitude":"-93.18095","Snowdepth":"13.000","Units":"in","Rept_Date":"2021-01-28 14"},"coordinates":[952,6331]},{"type":"Point","properties":{"Station_ID":"MALN6","Station_Nam":"MALONE","Latitude":"44.84180","Longitude":"-74.30600","Snowdepth":"13.000","Units":"in","Rept_Date":"2021-01-28 12"},"coordinates":[5382,5799]},{"type":"Point","properties":{"Station_ID":"LNK","Station_Nam":"LINCOLN MUNICIPAL AIRPORT","Latitude":"40.85080","Longitude":"-96.75920","Snowdepth":"13.000","Units":"in","Rept_Date":"2021-01-29 00"},"coordinates":[113,3364]},{"type":"Point","properties":{"Station_ID":"KGTB","Station_Nam":"FORT DRUM / WHEELER-SACK U. S. ARMY AIRFIELD","Latitude":"44.05000","Longitude":"-75.73333","Snowdepth":"13.000","Units":"in","Rept_Date":"2021-01-29 06"},"coordinates":[5047,5316]},{"type":"Point","properties":{"Station_ID":"JOHV1","Station_Nam":"JOHNSON 2 N","Latitude":"44.65790","Longitude":"-72.67850","Snowdepth":"13.000","Units":"in","Rept_Date":"2021-01-28 12"},"coordinates":[5764,5686]},{"type":"Point","properties":{"Station_ID":"ISLV1","Station_Nam":"ISLAND POND","Latitude":"44.81280","Longitude":"-71.89020","Snowdepth":"13.000","Units":"in","Rept_Date":"2021-01-28 13"},"coordinates":[5949,5781]},{"type":"Point","properties":{"Station_ID":"HRTM1","Station_Nam":"HARTFORD","Latitude":"44.37440","Longitude":"-70.31620","Snowdepth":"13.000","Units":"in","Rept_Date":"2021-01-28 12"},"coordinates":[6318,5514]},{"type":"Point","properties":{"Station_ID":"FLDM5","Station_Nam":"FLOODWOOD,MN","Latitude":"47.00000","Longitude":"-92.91670","Snowdepth":"13.000","Units":"in","Rept_Date":"2021-01-28 14"},"coordinates":[1014,7115]},{"type":"Point","properties":{"Station_ID":"BNDM5","Station_Nam":"ELY 25E","Latitude":"47.97190","Longitude":"-91.44860","Snowdepth":"13.000","Units":"in","Rept_Date":"2021-01-28 13"},"coordinates":[1359,7708]},{"type":"Point","properties":{"Station_ID":"ANJ","Station_Nam":"SAULT STE MARIE","Latitude":"46.46670","Longitude":"-84.36670","Snowdepth":"13.000","Units":"in","Rept_Date":"2021-01-29 00"},"coordinates":[3021,6790]},{"type":"Point","properties":{"Station_ID":"42.1284_079.8945","Station_Nam":"NORTHEAST 6SW (CLE0249)","Latitude":"42.12840","Longitude":"-79.89450","Snowdepth":"13.000","Units":"in","Rept_Date":"2021-01-28 23"},"coordinates":[4071,4143]},{"type":"Point","properties":{"Station_ID":"QCX","Station_Nam":"QCX","Latitude":"51.32830","Longitude":"-70.08060","Snowdepth":"12.205","Units":"in","Rept_Date":"2021-01-28 12"},"coordinates":[6374,9756]},{"type":"Point","properties":{"Station_ID":"NE-LA-56","Station_Nam":"LINCOLN 8.1 SSE, NE","Latitude":"40.71326","Longitude":"-96.61527","Snowdepth":"12.100","Units":"in","Rept_Date":"2021-01-28 14"},"coordinates":[146,3280]},{"type":"Point","properties":{"Station_ID":"WTNM4","Station_Nam":"WATTON 2WSW","Latitude":"46.52660","Longitude":"-88.64240","Snowdepth":"12.000","Units":"in","Rept_Date":"2021-01-28 13"},"coordinates":[2017,6826]},{"type":"Point","properties":{"Station_ID":"WTBW3","Station_Nam":"WEST BEND PUBLIC WORKS","Latitude":"43.41110","Longitude":"-88.19380","Snowdepth":"12.000","Units":"in","Rept_Date":"2021-01-28 14"},"coordinates":[2123,4926]},{"type":"Point","properties":{"Station_ID":"WSWN6","Station_Nam":"WARSAW","Latitude":"42.74220","Longitude":"-78.20850","Snowdepth":"12.000","Units":"in","Rept_Date":"2021-01-28 12"},"coordinates":[4466,4518]},{"type":"Point","properties":{"Station_ID":"WSTW3","Station_Nam":"WEST BEND -FIRE","Latitude":"43.43138","Longitude":"-88.16111","Snowdepth":"12.000","Units":"in","Rept_Date":"2021-01-28 13"},"coordinates":[2130,4938]},{"type":"Point","properties":{"Station_ID":"WRSM5","Station_Nam":"WRENSHALL","Latitude":"46.61550","Longitude":"-92.38380","Snowdepth":"12.000","Units":"in","Rept_Date":"2021-01-28 14"},"coordinates":[1139,6881]},{"type":"Point","properties":{"Station_ID":"WNBM5","Station_Nam":"DAM","Latitude":"47.43060","Longitude":"-94.05000","Snowdepth":"12.000","Units":"in","Rept_Date":"2021-01-28 14"},"coordinates":[748,7378]},{"type":"Point","properties":{"Station_ID":"WI-VL-9","Station_Nam":"LAND O' LAKES 11.7 W, WI","Latitude":"46.19023","Longitude":"-89.45790","Snowdepth":"12.000","Units":"in","Rept_Date":"2021-01-28 13"},"coordinates":[1826,6621]},{"type":"Point","properties":{"Station_ID":"WI-JF-17","Station_Nam":"JOHNSON CREEK 2.7 SSW, WI","Latitude":"43.04559","Longitude":"-88.79925","Snowdepth":"12.000","Units":"in","Rept_Date":"2021-01-28 13"},"coordinates":[1981,4703]},{"type":"Point","properties":{"Station_ID":"WI-DD-5","Station_Nam":"THERESA 3.1 SE, WI","Latitude":"43.49201","Longitude":"-88.40165","Snowdepth":"12.000","Units":"in","Rept_Date":"2021-01-28 14"},"coordinates":[2074,4975]},{"type":"Point","properties":{"Station_ID":"WI-DA-99","Station_Nam":"FITCHBURG 1.1 NW, WI","Latitude":"42.99740","Longitude":"-89.44046","Snowdepth":"12.000","Units":"in","Rept_Date":"2021-01-28 13"},"coordinates":[1830,4673]},{"type":"Point","properties":{"Station_ID":"VT-CL-18","Station_Nam":"WHEELOCK 1.6 S, VT","Latitude":"44.56491","Longitude":"-72.08830","Snowdepth":"12.000","Units":"in","Rept_Date":"2021-01-28 12"},"coordinates":[5903,5630]},{"type":"Point","properties":{"Station_ID":"VT-CH-13","Station_Nam":"RICHMOND 3.4 SSE, VT","Latitude":"44.36084","Longitude":"-72.96400","Snowdepth":"12.000","Units":"in","Rept_Date":"2021-01-28 12"},"coordinates":[5697,5505]},{"type":"Point","properties":{"Station_ID":"UGRW3","Station_Nam":"UNION GROVE,WI","Latitude":"42.70000","Longitude":"-88.03220","Snowdepth":"12.000","Units":"in","Rept_Date":"2021-01-28 13"},"coordinates":[2161,4492]},{"type":"Point","properties":{"Station_ID":"STOI2","Station_Nam":"STOCKTON 3 NNE","Latitude":"42.40050","Longitude":"-89.99580","Snowdepth":"12.000","Units":"in","Rept_Date":"2021-01-29 03"},"coordinates":[1700,4309]},{"type":"Point","properties":{"Station_ID":"SLNV1","Station_Nam":"SOUTH LINCOLN","Latitude":"44.07460","Longitude":"-72.97180","Snowdepth":"12.000","Units":"in","Rept_Date":"2021-01-28 12"},"coordinates":[5695,5331]},{"type":"Point","properties":{"Station_ID":"ROKI4","Station_Nam":"RED OAK,IA","Latitude":"41.00000","Longitude":"-95.23330","Snowdepth":"12.000","Units":"in","Rept_Date":"2021-01-28 13"},"coordinates":[471,3455]},{"type":"Point","properties":{"Station_ID":"RCHW3","Station_Nam":"RICHRIELD,WI","Latitude":"43.21080","Longitude":"-88.20940","Snowdepth":"12.000","Units":"in","Rept_Date":"2021-01-28 12"},"coordinates":[2119,4804]},{"type":"Point","properties":{"Station_ID":"PKGM5","Station_Nam":"POKEGANA LK DAM","Latitude":"47.25080","Longitude":"-93.58610","Snowdepth":"12.000","Units":"in","Rept_Date":"2021-01-28 14"},"coordinates":[857,7268]},{"type":"Point","properties":{"Station_ID":"NY-OS-20","Station_Nam":"FULTON 0.2 W, NY","Latitude":"43.31650","Longitude":"-76.41850","Snowdepth":"12.000","Units":"in","Rept_Date":"2021-01-28 13"},"coordinates":[4886,4868]},{"type":"Point","properties":{"Station_ID":"NY-MD-10","Station_Nam":"CAZENOVIA 2.9 SE, NY","Latitude":"42.90003","Longitude":"-75.81140","Snowdepth":"12.000","Units":"in","Rept_Date":"2021-01-28 12"},"coordinates":[5029,4614]},{"type":"Point","properties":{"Station_ID":"NY-GR-14","Station_Nam":"LEXINGTON 1.5 N, NY","Latitude":"42.26024","Longitude":"-74.35875","Snowdepth":"12.000","Units":"in","Rept_Date":"2021-01-28 12"},"coordinates":[5370,4224]},{"type":"Point","properties":{"Station_ID":"NY-DL-32","Station_Nam":"DELHI 6.6 WNW, NY","Latitude":"42.32118","Longitude":"-75.02991","Snowdepth":"12.000","Units":"in","Rept_Date":"2021-01-28 14"},"coordinates":[5212,4261]},{"type":"Point","properties":{"Station_ID":"NUMN3","Station_Nam":"NORTHUMBERLAND","Latitude":"44.52830","Longitude":"-71.50440","Snowdepth":"12.000","Units":"in","Rept_Date":"2021-01-28 12"},"coordinates":[6040,5607]},{"type":"Point","properties":{"Station_ID":"NH-MR-41","Station_Nam":"NEWBURY 1.6 NW, NH","Latitude":"43.33667","Longitude":"-72.06060","Snowdepth":"12.000","Units":"in","Rept_Date":"2021-01-28 12"},"coordinates":[5909,4880]},{"type":"Point","properties":{"Station_ID":"NH-CS-19","Station_Nam":"CARROLL 4.6 NE, NH","Latitude":"44.33765","Longitude":"-71.46461","Snowdepth":"12.000","Units":"in","Rept_Date":"2021-01-28 12"},"coordinates":[6049,5491]},{"type":"Point","properties":{"Station_ID":"NE-SY-25","Station_Nam":"GRETNA 2.9 NNE, NE","Latitude":"41.17831","Longitude":"-96.21984","Snowdepth":"12.000","Units":"in","Rept_Date":"2021-01-28 14"},"coordinates":[239,3564]},{"type":"Point","properties":{"Station_ID":"NE-LA-19","Station_Nam":"LINCOLN 6.8 SE, NE","Latitude":"40.74944","Longitude":"-96.59280","Snowdepth":"12.000","Units":"in","Rept_Date":"2021-01-28 13"},"coordinates":[152,3302]},{"type":"Point","properties":{"Station_ID":"NE-JF-4","Station_Nam":"FAIRBURY 0.6 N, NE","Latitude":"40.14954","Longitude":"-97.17528","Snowdepth":"12.000","Units":"in","Rept_Date":"2021-01-28 13"},"coordinates":[15,2936]},{"type":"Point","properties":{"Station_ID":"MTCI2","Station_Nam":"MOUNT CARROLL","Latitude":"42.09800","Longitude":"-89.98410","Snowdepth":"12.000","Units":"in","Rept_Date":"2021-01-28 18"},"coordinates":[1703,4125]},{"type":"Point","properties":{"Station_ID":"MRBW3","Station_Nam":"MT HOREB","Latitude":"42.98030","Longitude":"-89.73940","Snowdepth":"12.000","Units":"in","Rept_Date":"2021-01-28 13"},"coordinates":[1760,4663]},{"type":"Point","properties":{"Station_ID":"MRAM5","Station_Nam":"MORA","Latitude":"45.87760","Longitude":"-93.31470","Snowdepth":"12.000","Units":"in","Rept_Date":"2021-01-28 13"},"coordinates":[921,6431]},{"type":"Point","properties":{"Station_ID":"MN-SE-2","Station_Nam":"OWATONNA 0.8 E, MN","Latitude":"44.09170","Longitude":"-93.21380","Snowdepth":"12.000","Units":"in","Rept_Date":"2021-01-28 13"},"coordinates":[945,5341]},{"type":"Point","properties":{"Station_ID":"MN-GH-28","Station_Nam":"CANNON FALLS 0.5 SE, MN","Latitude":"44.50866","Longitude":"-92.89526","Snowdepth":"12.000","Units":"in","Rept_Date":"2021-01-28 14"},"coordinates":[1019,5595]},{"type":"Point","properties":{"Station_ID":"MIEM4","Station_Nam":"MICHIGAMME 3WNW","Latitude":"46.54530","Longitude":"-88.18000","Snowdepth":"12.000","Units":"in","Rept_Date":"2021-01-28 13"},"coordinates":[2126,6838]},{"type":"Point","properties":{"Station_ID":"MI-HG-1","Station_Nam":"HOUGHTON 1.6 ESE, MI","Latitude":"47.10774","Longitude":"-88.52940","Snowdepth":"12.000","Units":"in","Rept_Date":"2021-01-28 13"},"coordinates":[2044,7181]},{"type":"Point","properties":{"Station_ID":"ME-SM-45","Station_Nam":"BRIGHTON PLANTATION 2.1 N, ME","Latitude":"45.07098","Longitude":"-69.69860","Snowdepth":"12.000","Units":"in","Rept_Date":"2021-01-28 12"},"coordinates":[6463,5938]},{"type":"Point","properties":{"Station_ID":"ME-SM-10","Station_Nam":"NORTH NEW PORTLAND 0.3 WSW, ME","Latitude":"44.92353","Longitude":"-70.02788","Snowdepth":"12.000","Units":"in","Rept_Date":"2021-01-28 12"},"coordinates":[6386,5849]},{"type":"Point","properties":{"Station_ID":"ME-FR-4","Station_Nam":"NEW SHARON 2.0 NW, ME","Latitude":"44.66582","Longitude":"-70.02720","Snowdepth":"12.000","Units":"in","Rept_Date":"2021-01-28 12"},"coordinates":[6386,5691]},{"type":"Point","properties":{"Station_ID":"ME-FR-22","Station_Nam":"FARMINGTON 4.8 NNW, ME","Latitude":"44.73396","Longitude":"-70.18007","Snowdepth":"12.000","Units":"in","Rept_Date":"2021-01-28 14"},"coordinates":[6350,5733]},{"type":"Point","properties":{"Station_ID":"MA-BE-24","Station_Nam":"HANCOCK 3.6 NNE, MA","Latitude":"42.59130","Longitude":"-73.29530","Snowdepth":"12.000","Units":"in","Rept_Date":"2021-01-28 17"},"coordinates":[5619,4426]},{"type":"Point","properties":{"Station_ID":"LNOW3","Station_Nam":"LAND O LAKES","Latitude":"46.19000","Longitude":"-89.45700","Snowdepth":"12.000","Units":"in","Rept_Date":"2021-01-28 13"},"coordinates":[1826,6621]},{"type":"Point","properties":{"Station_ID":"LEIM5","Station_Nam":"ORR 3E","Latitude":"48.05810","Longitude":"-92.75220","Snowdepth":"12.000","Units":"in","Rept_Date":"2021-01-28 12"},"coordinates":[1053,7761]},{"type":"Point","properties":{"Station_ID":"IL-MCH-13","Station_Nam":"BULL VALLEY 2.5 WNW, IL","Latitude":"42.32455","Longitude":"-88.39460","Snowdepth":"12.000","Units":"in","Rept_Date":"2021-01-28 14"},"coordinates":[2076,4263]},{"type":"Point","properties":{"Station_ID":"IL-JD-8","Station_Nam":"STOCKTON 3.4 NNE, IL","Latitude":"42.39960","Longitude":"-89.99020","Snowdepth":"12.000","Units":"in","Rept_Date":"2021-01-28 13"},"coordinates":[1701,4309]},{"type":"Point","properties":{"Station_ID":"IDAI4","Station_Nam":"INDIANOLA,IA","Latitude":"41.36670","Longitude":"-93.55000","Snowdepth":"12.000","Units":"in","Rept_Date":"2021-01-28 13"},"coordinates":[866,3679]},{"type":"Point","properties":{"Station_ID":"HORW3","Station_Nam":"HORICON WWTP","Latitude":"43.45000","Longitude":"-88.63330","Snowdepth":"12.000","Units":"in","Rept_Date":"2021-01-28 13"},"coordinates":[2020,4950]},{"type":"Point","properties":{"Station_ID":"FUTN6","Station_Nam":"FULTON","Latitude":"43.30500","Longitude":"-76.39380","Snowdepth":"12.000","Units":"in","Rept_Date":"2021-01-28 12"},"coordinates":[4892,4861]},{"type":"Point","properties":{"Station_ID":"ELYM5","Station_Nam":"ELY","Latitude":"47.90560","Longitude":"-91.82830","Snowdepth":"12.000","Units":"in","Rept_Date":"2021-01-28 14"},"coordinates":[1270,7668]},{"type":"Point","properties":{"Station_ID":"CRNI4","Station_Nam":"CORNING","Latitude":"40.98860","Longitude":"-94.74910","Snowdepth":"12.000","Units":"in","Rept_Date":"2021-01-28 13"},"coordinates":[584,3448]},{"type":"Point","properties":{"Station_ID":"COTM5","Station_Nam":"COTTON","Latitude":"47.16870","Longitude":"-92.46290","Snowdepth":"12.000","Units":"in","Rept_Date":"2021-01-28 12"},"coordinates":[1121,7218]},{"type":"Point","properties":{"Station_ID":"CMKW3","Station_Nam":"CLAM LAKE 4W","Latitude":"46.16940","Longitude":"-90.98080","Snowdepth":"12.000","Units":"in","Rept_Date":"2021-01-28 13"},"coordinates":[1469,6609]},{"type":"Point","properties":{"Station_ID":"CAN-ON-118","Station_Nam":"DURHAM 1.4 S, CAN","Latitude":"44.16525","Longitude":"-80.82064","Snowdepth":"12.000","Units":"in","Rept_Date":"2021-01-28 12"},"coordinates":[3853,5386]},{"type":"Point","properties":{"Station_ID":"BRKI4","Station_Nam":"BROOKLYN,IA","Latitude":"41.72830","Longitude":"-92.43330","Snowdepth":"12.000","Units":"in","Rept_Date":"2021-01-28 13"},"coordinates":[1128,3899]},{"type":"Point","properties":{"Station_ID":"BRAM1","Station_Nam":"BRASSUA DAM","Latitude":"45.66020","Longitude":"-69.81190","Snowdepth":"12.000","Units":"in","Rept_Date":"2021-01-28 12"},"coordinates":[6437,6298]},{"type":"Point","properties":{"Station_ID":"BLTW3","Station_Nam":"BELOIT,WI","Latitude":"42.50000","Longitude":"-89.03330","Snowdepth":"12.000","Units":"in","Rept_Date":"2021-01-28 12"},"coordinates":[1926,4370]},{"type":"Point","properties":{"Station_ID":"BLGW3","Station_Nam":"BELGIUM WWTP","Latitude":"43.51310","Longitude":"-87.85440","Snowdepth":"12.000","Units":"in","Rept_Date":"2021-01-28 13"},"coordinates":[2202,4988]},{"type":"Point","properties":{"Station_ID":"BEAW3","Station_Nam":"BEAVER DAM,WI","Latitude":"43.45000","Longitude":"-88.85000","Snowdepth":"12.000","Units":"in","Rept_Date":"2021-01-28 13"},"coordinates":[1969,4950]},{"type":"Point","properties":{"Station_ID":"BABM5","Station_Nam":"BABBITT","Latitude":"47.71210","Longitude":"-91.95330","Snowdepth":"12.000","Units":"in","Rept_Date":"2021-01-28 13"},"coordinates":[1240,7550]},{"type":"Point","properties":{"Station_ID":"ALXI4","Station_Nam":"WATERLOO SNOW","Latitude":"42.53130","Longitude":"-92.37550","Snowdepth":"12.000","Units":"in","Rept_Date":"2021-01-29 06"},"coordinates":[1141,4389]},{"type":"Point","properties":{"Station_ID":"ALO","Station_Nam":"WATERLOO MUNICIPAL AIRPORT","Latitude":"42.55690","Longitude":"-92.40000","Snowdepth":"12.000","Units":"in","Rept_Date":"2021-01-29 00"},"coordinates":[1136,4405]},{"type":"Point","properties":{"Station_ID":"MI-AG-6","Station_Nam":"MUNISING 11.1 SSW, MI","Latitude":"46.27805","Longitude":"-86.75747","Snowdepth":"11.800","Units":"in","Rept_Date":"2021-01-28 12"},"coordinates":[2460,6675]},{"type":"Point","properties":{"Station_ID":"CAN-QC-47","Station_Nam":"SAINTE-FOY 1.8 ENE, CAN","Latitude":"46.76934","Longitude":"-71.27124","Snowdepth":"11.600","Units":"in","Rept_Date":"2021-01-28 12"},"coordinates":[6094,6975]},{"type":"Point","properties":{"Station_ID":"WI-RK-12","Station_Nam":"JANESVILLE 3.1 W, WI","Latitude":"42.67576","Longitude":"-89.07614","Snowdepth":"11.500","Units":"in","Rept_Date":"2021-01-28 13"},"coordinates":[1916,4477]},{"type":"Point","properties":{"Station_ID":"WI-IR-2","Station_Nam":"MERCER 2.0 SE, WI","Latitude":"46.14749","Longitude":"-90.03097","Snowdepth":"11.500","Units":"in","Rept_Date":"2021-01-28 13"},"coordinates":[1692,6595]},{"type":"Point","properties":{"Station_ID":"WI-BY-29","Station_Nam":"BAYFIELD 5.1 NNW, WI","Latitude":"46.88063","Longitude":"-90.85854","Snowdepth":"11.500","Units":"in","Rept_Date":"2021-01-28 14"},"coordinates":[1497,7042]},{"type":"Point","properties":{"Station_ID":"VT-OL-9","Station_Nam":"GREENSBORO 2.1 NNW, VT","Latitude":"44.60528","Longitude":"-72.30940","Snowdepth":"11.500","Units":"in","Rept_Date":"2021-01-28 12"},"coordinates":[5851,5654]},{"type":"Point","properties":{"Station_ID":"NY-CR-5","Station_Nam":"MARATHON 1.0 NW, NY","Latitude":"42.45161","Longitude":"-76.04370","Snowdepth":"11.500","Units":"in","Rept_Date":"2021-01-28 12"},"coordinates":[4974,4340]},{"type":"Point","properties":{"Station_ID":"NY-CR-1","Station_Nam":"FREETOWN 1.0 NE, NY","Latitude":"42.53299","Longitude":"-76.02111","Snowdepth":"11.500","Units":"in","Rept_Date":"2021-01-28 12"},"coordinates":[4980,4390]},{"type":"Point","properties":{"Station_ID":"ME-AR-18","Station_Nam":"NEW SWEDEN 4.9 NNW, ME","Latitude":"47.01080","Longitude":"-68.14390","Snowdepth":"11.500","Units":"in","Rept_Date":"2021-01-28 12"},"coordinates":[6828,7122]},{"type":"Point","properties":{"Station_ID":"IA-ST-1","Station_Nam":"LE CLAIRE 1.8 NNE, IA","Latitude":"41.62355","Longitude":"-90.35140","Snowdepth":"11.500","Units":"in","Rept_Date":"2021-01-28 14"},"coordinates":[1616,3835]},{"type":"Point","properties":{"Station_ID":"CATQ6","Station_Nam":"CAT LAKE","Latitude":"51.72690","Longitude":"-91.82210","Snowdepth":"11.460","Units":"in","Rept_Date":"2021-01-29 06"},"coordinates":[1271,9999]},{"type":"Point","properties":{"Station_ID":"QLP","Station_Nam":"QLP","Latitude":"48.13920","Longitude":"-72.63830","Snowdepth":"11.417","Units":"in","Rept_Date":"2021-01-28 12"},"coordinates":[5774,7810]},{"type":"Point","properties":{"Station_ID":"CAN-QC-66","Station_Nam":"SAINT-ARMAND 4.2 ESE, CAN","Latitude":"45.01614","Longitude":"-72.99450","Snowdepth":"11.300","Units":"in","Rept_Date":"2021-01-28 13"},"coordinates":[5690,5905]},{"type":"Point","properties":{"Station_ID":"QGA","Station_Nam":"QGA","Latitude":"47.25640","Longitude":"-73.73810","Snowdepth":"11.260","Units":"in","Rept_Date":"2021-01-28 12"},"coordinates":[5515,7272]},{"type":"Point","properties":{"Station_ID":"VT-WR-22","Station_Nam":"ROCHESTER 0.3 NE, VT","Latitude":"43.87816","Longitude":"-72.80459","Snowdepth":"11.200","Units":"in","Rept_Date":"2021-01-28 12"},"coordinates":[5734,5211]},{"type":"Point","properties":{"Station_ID":"MA-FR-22","Station_Nam":"ASHFIELD 1.4 NE, MA","Latitude":"42.54694","Longitude":"-72.76361","Snowdepth":"11.200","Units":"in","Rept_Date":"2021-01-28 12"},"coordinates":[5744,4399]},{"type":"Point","properties":{"Station_ID":"WI-WS-15","Station_Nam":"WEST BEND 5.4 SE, WI","Latitude":"43.37259","Longitude":"-88.10086","Snowdepth":"11.000","Units":"in","Rept_Date":"2021-01-28 14"},"coordinates":[2145,4902]},{"type":"Point","properties":{"Station_ID":"WI-WK-29","Station_Nam":"OCONOMOWOC 4.6 NE, WI","Latitude":"43.14621","Longitude":"-88.42860","Snowdepth":"11.000","Units":"in","Rept_Date":"2021-01-28 15"},"coordinates":[2068,4764]},{"type":"Point","properties":{"Station_ID":"WI-WB-2","Station_Nam":"STONE LAKE 2.0 NW, WI","Latitude":"45.85960","Longitude":"-91.57710","Snowdepth":"11.000","Units":"in","Rept_Date":"2021-01-28 13"},"coordinates":[1329,6420]},{"type":"Point","properties":{"Station_ID":"TBLN1","Station_Nam":"TABLE ROCK,NE","Latitude":"40.23610","Longitude":"-96.08890","Snowdepth":"11.000","Units":"in","Rept_Date":"2021-01-28 13"},"coordinates":[270,2989]},{"type":"Point","properties":{"Station_ID":"OMA","Station_Nam":"EPPLEY AIRFIELD","Latitude":"41.30220","Longitude":"-95.89330","Snowdepth":"11.000","Units":"in","Rept_Date":"2021-01-29 00"},"coordinates":[316,3639]},{"type":"Point","properties":{"Station_ID":"OAKI4","Station_Nam":"OAKLAND,IA","Latitude":"41.31330","Longitude":"-95.39060","Snowdepth":"11.000","Units":"in","Rept_Date":"2021-01-28 13"},"coordinates":[434,3646]},{"type":"Point","properties":{"Station_ID":"NY-OT-31","Station_Nam":"MARYLAND 1.8 W, NY","Latitude":"42.53310","Longitude":"-74.92090","Snowdepth":"11.000","Units":"in","Rept_Date":"2021-01-28 13"},"coordinates":[5238,4390]},{"type":"Point","properties":{"Station_ID":"NWSM1","Station_Nam":"NEW SHARON","Latitude":"44.63520","Longitude":"-70.00020","Snowdepth":"11.000","Units":"in","Rept_Date":"2021-01-28 12"},"coordinates":[6393,5673]},{"type":"Point","properties":{"Station_ID":"NPTV1","Station_Nam":"NEWPORT","Latitude":"44.94900","Longitude":"-72.19120","Snowdepth":"11.000","Units":"in","Rept_Date":"2021-01-28 12"},"coordinates":[5878,5864]},{"type":"Point","properties":{"Station_ID":"NH-CR-26","Station_Nam":"CENTER SANDWICH 4.9 E, NH","Latitude":"43.80976","Longitude":"-71.34150","Snowdepth":"11.000","Units":"in","Rept_Date":"2021-01-28 12"},"coordinates":[6078,5169]},{"type":"Point","properties":{"Station_ID":"NE-CA-4","Station_Nam":"ELMWOOD 3.4 WSW, NE","Latitude":"40.81849","Longitude":"-96.35093","Snowdepth":"11.000","Units":"in","Rept_Date":"2021-01-28 14"},"coordinates":[208,3344]},{"type":"Point","properties":{"Station_ID":"NCKN6","Station_Nam":"NORTH CREEK 5 SE","Latitude":"43.66110","Longitude":"-73.89690","Snowdepth":"11.000","Units":"in","Rept_Date":"2021-01-28 12"},"coordinates":[5478,5078]},{"type":"Point","properties":{"Station_ID":"MN-IT-1","Station_Nam":"GRAND RAPIDS 2.0 E, MN","Latitude":"47.22266","Longitude":"-93.49600","Snowdepth":"11.000","Units":"in","Rept_Date":"2021-01-28 14"},"coordinates":[878,7251]},{"type":"Point","properties":{"Station_ID":"MN-CN-36","Station_Nam":"CLOQUET 3.4 ENE, MN","Latitude":"46.74146","Longitude":"-92.42698","Snowdepth":"11.000","Units":"in","Rept_Date":"2021-01-28 13"},"coordinates":[1129,6958]},{"type":"Point","properties":{"Station_ID":"MI-OT-4","Station_Nam":"GAYLORD 1.7 WNW, MI","Latitude":"45.03280","Longitude":"-84.71090","Snowdepth":"11.000","Units":"in","Rept_Date":"2021-01-28 13"},"coordinates":[2940,5915]},{"type":"Point","properties":{"Station_ID":"MI-MQ-28","Station_Nam":"CARLSHEND, MI","Latitude":"46.31638","Longitude":"-87.19944","Snowdepth":"11.000","Units":"in","Rept_Date":"2021-01-28 13"},"coordinates":[2356,6698]},{"type":"Point","properties":{"Station_ID":"MI-MQ-19","Station_Nam":"ISHPEMING 7.2 SW, MI","Latitude":"46.40550","Longitude":"-87.75670","Snowdepth":"11.000","Units":"in","Rept_Date":"2021-01-28 11"},"coordinates":[2225,6753]},{"type":"Point","properties":{"Station_ID":"ME-SM-4","Station_Nam":"SOLON 3.9 ESE, ME","Latitude":"44.94705","Longitude":"-69.77790","Snowdepth":"11.000","Units":"in","Rept_Date":"2021-01-28 12"},"coordinates":[6445,5863]},{"type":"Point","properties":{"Station_ID":"LVRM1","Station_Nam":"LIVERMORE FALLS 1 E","Latitude":"44.47160","Longitude":"-70.15940","Snowdepth":"11.000","Units":"in","Rept_Date":"2021-01-28 12"},"coordinates":[6355,5573]},{"type":"Point","properties":{"Station_ID":"LVDW3","Station_Nam":"LAC VIEUX DESERT","Latitude":"46.12110","Longitude":"-89.07580","Snowdepth":"11.000","Units":"in","Rept_Date":"2021-01-28 14"},"coordinates":[1916,6579]},{"type":"Point","properties":{"Station_ID":"LSXI4","Station_Nam":"LITTLE SIOUX,IA","Latitude":"41.81670","Longitude":"-96.01670","Snowdepth":"11.000","Units":"in","Rept_Date":"2021-01-28 13"},"coordinates":[287,3953]},{"type":"Point","properties":{"Station_ID":"KINM1","Station_Nam":"KINGFIELD","Latitude":"44.95950","Longitude":"-70.17530","Snowdepth":"11.000","Units":"in","Rept_Date":"2021-01-28 13"},"coordinates":[6352,5870]},{"type":"Point","properties":{"Station_ID":"JKMM1","Station_Nam":"JACKMAN","Latitude":"45.62600","Longitude":"-70.24600","Snowdepth":"11.000","Units":"in","Rept_Date":"2021-01-28 12"},"coordinates":[6335,6277]},{"type":"Point","properties":{"Station_ID":"INL","Station_Nam":"FALLS INTERNATIONAL ARPT","Latitude":"48.56640","Longitude":"-93.40310","Snowdepth":"11.000","Units":"in","Rept_Date":"2021-01-29 00"},"coordinates":[900,8071]},{"type":"Point","properties":{"Station_ID":"INDM5","Station_Nam":"INDUS,MN","Latitude":"48.61670","Longitude":"-93.90000","Snowdepth":"11.000","Units":"in","Rept_Date":"2021-01-28 14"},"coordinates":[784,8102]},{"type":"Point","properties":{"Station_ID":"IL-SP-25","Station_Nam":"FREEPORT 1.7 NW, IL","Latitude":"42.30427","Longitude":"-89.66285","Snowdepth":"11.000","Units":"in","Rept_Date":"2021-01-28 13"},"coordinates":[1778,4251]},{"type":"Point","properties":{"Station_ID":"IL-SP-14","Station_Nam":"FREEPORT 1.7 ESE, IL","Latitude":"42.28257","Longitude":"-89.60360","Snowdepth":"11.000","Units":"in","Rept_Date":"2021-01-28 13"},"coordinates":[1792,4237]},{"type":"Point","properties":{"Station_ID":"IFSM5","Station_Nam":"INTERNATIONAL FALLS SNOW","Latitude":"48.57780","Longitude":"-93.39640","Snowdepth":"11.000","Units":"in","Rept_Date":"2021-01-28 12"},"coordinates":[902,8078]},{"type":"Point","properties":{"Station_ID":"IA-BT-12","Station_Nam":"FAIRFAX 4.0 NW, IA","Latitude":"41.96223","Longitude":"-91.83675","Snowdepth":"11.000","Units":"in","Rept_Date":"2021-01-28 13"},"coordinates":[1268,4042]},{"type":"Point","properties":{"Station_ID":"HUBN3","Station_Nam":"HUBBARD BROOK","Latitude":"43.93330","Longitude":"-71.71670","Snowdepth":"11.000","Units":"in","Rept_Date":"2021-01-29 06"},"coordinates":[5990,5244]},{"type":"Point","properties":{"Station_ID":"GNDI4","Station_Nam":"GRUNDY CENTER,IA","Latitude":"42.35530","Longitude":"-92.77390","Snowdepth":"11.000","Units":"in","Rept_Date":"2021-01-28 13"},"coordinates":[1048,4282]},{"type":"Point","properties":{"Station_ID":"GHMN3","Station_Nam":"PINKHAM NOTCH","Latitude":"44.25800","Longitude":"-71.25250","Snowdepth":"11.000","Units":"in","Rept_Date":"2021-01-28 10"},"coordinates":[6099,5443]},{"type":"Point","properties":{"Station_ID":"GAYM4","Station_Nam":"GAYLORD","Latitude":"45.03320","Longitude":"-84.71130","Snowdepth":"11.000","Units":"in","Rept_Date":"2021-01-28 13"},"coordinates":[2940,5915]},{"type":"Point","properties":{"Station_ID":"FLAM4","Station_Nam":"FIFE LAKE 2WNW","Latitude":"44.58480","Longitude":"-85.36530","Snowdepth":"11.000","Units":"in","Rept_Date":"2021-01-28 12"},"coordinates":[2787,5642]},{"type":"Point","properties":{"Station_ID":"FCLN1","Station_Nam":"FT CALHOUN 4W","Latitude":"41.44670","Longitude":"-96.09190","Snowdepth":"11.000","Units":"in","Rept_Date":"2021-01-28 13"},"coordinates":[269,3727]},{"type":"Point","properties":{"Station_ID":"FARM1","Station_Nam":"FARMINGTON","Latitude":"44.68930","Longitude":"-70.15640","Snowdepth":"11.000","Units":"in","Rept_Date":"2021-01-28 12"},"coordinates":[6356,5706]},{"type":"Point","properties":{"Station_ID":"ESDN3","Station_Nam":"EAST SANDWICH","Latitude":"43.80990","Longitude":"-71.34250","Snowdepth":"11.000","Units":"in","Rept_Date":"2021-01-28 11"},"coordinates":[6078,5169]},{"type":"Point","properties":{"Station_ID":"DOUG006","Station_Nam":"OMAHA 2.9 W, NE","Latitude":"41.26580","Longitude":"-95.99270","Snowdepth":"11.000","Units":"in","Rept_Date":"2021-01-28 13"},"coordinates":[292,3617]},{"type":"Point","properties":{"Station_ID":"DARW3","Station_Nam":"DARLINGTON","Latitude":"42.67780","Longitude":"-90.11860","Snowdepth":"11.000","Units":"in","Rept_Date":"2021-01-28 13"},"coordinates":[1671,4478]},{"type":"Point","properties":{"Station_ID":"CSLM5","Station_Nam":"CASS LAKE,MN","Latitude":"47.38470","Longitude":"-94.61470","Snowdepth":"11.000","Units":"in","Rept_Date":"2021-01-28 14"},"coordinates":[616,7350]},{"type":"Point","properties":{"Station_ID":"CRLM5","Station_Nam":"CROSS LAKE DAM","Latitude":"46.66930","Longitude":"-94.11060","Snowdepth":"11.000","Units":"in","Rept_Date":"2021-01-28 14"},"coordinates":[734,6914]},{"type":"Point","properties":{"Station_ID":"CORV1","Station_Nam":"CORINTH","Latitude":"44.00690","Longitude":"-72.31940","Snowdepth":"11.000","Units":"in","Rept_Date":"2021-01-28 12"},"coordinates":[5848,5289]},{"type":"Point","properties":{"Station_ID":"COKM5","Station_Nam":"COOK","Latitude":"47.85060","Longitude":"-92.69250","Snowdepth":"11.000","Units":"in","Rept_Date":"2021-01-28 11"},"coordinates":[1067,7634]},{"type":"Point","properties":{"Station_ID":"CNKN6","Station_Nam":"CONKLINGVILLE DAM","Latitude":"43.32030","Longitude":"-73.92560","Snowdepth":"11.000","Units":"in","Rept_Date":"2021-01-28 13"},"coordinates":[5471,4870]},{"type":"Point","properties":{"Station_ID":"CAN-NB-13","Station_Nam":"BATHURST 3.8 NW, CAN","Latitude":"47.64212","Longitude":"-65.68756","Snowdepth":"11.000","Units":"in","Rept_Date":"2021-01-28 11"},"coordinates":[7405,7507]},{"type":"Point","properties":{"Station_ID":"BWTN6","Station_Nam":"BREWERTON LOCK 23","Latitude":"43.23860","Longitude":"-76.19640","Snowdepth":"11.000","Units":"in","Rept_Date":"2021-01-28 11"},"coordinates":[4938,4821]},{"type":"Point","properties":{"Station_ID":"BRLN3","Station_Nam":"BERLIN","Latitude":"44.45350","Longitude":"-71.18540","Snowdepth":"11.000","Units":"in","Rept_Date":"2021-01-28 12"},"coordinates":[6115,5562]},{"type":"Point","properties":{"Station_ID":"BRCN1","Station_Nam":"BEATRICE,NE","Latitude":"40.30000","Longitude":"-96.74940","Snowdepth":"11.000","Units":"in","Rept_Date":"2021-01-28 13"},"coordinates":[115,3028]},{"type":"Point","properties":{"Station_ID":"ARLW3","Station_Nam":"UNIV FARM","Latitude":"43.30000","Longitude":"-89.35000","Snowdepth":"11.000","Units":"in","Rept_Date":"2021-01-28 14"},"coordinates":[1851,4858]},{"type":"Point","properties":{"Station_ID":"QTV","Station_Nam":"QTV","Latitude":"49.66000","Longitude":"-69.35690","Snowdepth":"10.945","Units":"in","Rept_Date":"2021-01-28 12"},"coordinates":[6544,8738]},{"type":"Point","properties":{"Station_ID":"FTHQ6","Station_Nam":"FORT HOPE","Latitude":"51.55820","Longitude":"-87.90510","Snowdepth":"10.940","Units":"in","Rept_Date":"2021-01-28 22"},"coordinates":[2191,9896]},{"type":"Point","properties":{"Station_ID":"WI-CB-5","Station_Nam":"PORTAGE 7.2 SW, WI","Latitude":"43.47933","Longitude":"-89.57370","Snowdepth":"10.800","Units":"in","Rept_Date":"2021-01-28 13"},"coordinates":[1799,4967]},{"type":"Point","properties":{"Station_ID":"CAN-ON-491","Station_Nam":"MILVERTON 1.1 ESE- CANWARN, CAN","Latitude":"43.56074","Longitude":"-80.90887","Snowdepth":"10.700","Units":"in","Rept_Date":"2021-01-28 11"},"coordinates":[3832,5017]},{"type":"Point","properties":{"Station_ID":"WI-OZ-22","Station_Nam":"SAUKVILLE 0.9 SSW, WI","Latitude":"43.37254","Longitude":"-87.95009","Snowdepth":"10.500","Units":"in","Rept_Date":"2021-01-28 13"},"coordinates":[2180,4902]},{"type":"Point","properties":{"Station_ID":"WI-OZ-12","Station_Nam":"PORT WASHINGTON 0.5 S, WI","Latitude":"43.38610","Longitude":"-87.87900","Snowdepth":"10.500","Units":"in","Rept_Date":"2021-01-28 13"},"coordinates":[2197,4911]},{"type":"Point","properties":{"Station_ID":"WI-DA-31","Station_Nam":"DEERFIELD 0.6 N, WI","Latitude":"43.05958","Longitude":"-89.07340","Snowdepth":"10.500","Units":"in","Rept_Date":"2021-01-28 13"},"coordinates":[1916,4711]},{"type":"Point","properties":{"Station_ID":"WI-DA-13","Station_Nam":"MADISON 3.7 WSW, WI","Latitude":"43.06230","Longitude":"-89.45650","Snowdepth":"10.500","Units":"in","Rept_Date":"2021-01-28 13"},"coordinates":[1826,4713]},{"type":"Point","properties":{"Station_ID":"NY-OT-29","Station_Nam":"NEW BERLIN 1.5 NE, NY","Latitude":"42.63689","Longitude":"-75.31090","Snowdepth":"10.500","Units":"in","Rept_Date":"2021-01-28 13"},"coordinates":[5146,4454]},{"type":"Point","properties":{"Station_ID":"NE-DG-8","Station_Nam":"OMAHA 7.0 W, NE","Latitude":"41.27451","Longitude":"-96.14630","Snowdepth":"10.500","Units":"in","Rept_Date":"2021-01-28 13"},"coordinates":[256,3622]},{"type":"Point","properties":{"Station_ID":"MN-CK-18","Station_Nam":"GRAND MARAIS 4.4 WSW, MN","Latitude":"47.74462","Longitude":"-90.43796","Snowdepth":"10.500","Units":"in","Rept_Date":"2021-01-28 13"},"coordinates":[1596,7570]},{"type":"Point","properties":{"Station_ID":"MI-OT-17","Station_Nam":"GAYLORD 4.1 S, MI","Latitude":"44.96388","Longitude":"-84.68467","Snowdepth":"10.500","Units":"in","Rept_Date":"2021-01-28 12"},"coordinates":[2946,5873]},{"type":"Point","properties":{"Station_ID":"MI-OG-6","Station_Nam":"WEST BRANCH 2.1 SSW, MI","Latitude":"44.24814","Longitude":"-84.25089","Snowdepth":"10.500","Units":"in","Rept_Date":"2021-01-28 12"},"coordinates":[3048,5436]},{"type":"Point","properties":{"Station_ID":"IL-SP-6","Station_Nam":"FREEPORT 2.0 NW, IL","Latitude":"42.30955","Longitude":"-89.66370","Snowdepth":"10.500","Units":"in","Rept_Date":"2021-01-28 13"},"coordinates":[1778,4254]},{"type":"Point","properties":{"Station_ID":"IL-BN-19","Station_Nam":"BELVIDERE 5.0 NNW, IL","Latitude":"42.32071","Longitude":"-88.88282","Snowdepth":"10.500","Units":"in","Rept_Date":"2021-01-28 13"},"coordinates":[1961,4261]},{"type":"Point","properties":{"Station_ID":"IA-WR-5","Station_Nam":"HARTFORD 1.0 E, IA","Latitude":"41.46014","Longitude":"-93.38550","Snowdepth":"10.500","Units":"in","Rept_Date":"2021-01-28 14"},"coordinates":[904,3736]},{"type":"Point","properties":{"Station_ID":"IA-JH-20","Station_Nam":"CORALVILLE 1.4 S, IA","Latitude":"41.67016","Longitude":"-91.60296","Snowdepth":"10.500","Units":"in","Rept_Date":"2021-01-28 14"},"coordinates":[1323,3864]},{"type":"Point","properties":{"Station_ID":"CAN-ON-771","Station_Nam":"KENORA 8.7 NNE - CANWARN, CAN","Latitude":"49.84171","Longitude":"-94.44386","Snowdepth":"10.500","Units":"in","Rept_Date":"2021-01-28 13"},"coordinates":[656,8849]},{"type":"Point","properties":{"Station_ID":"CAN-ON-5","Station_Nam":"OWEN SOUND 1.5 NW - GSCA, CAN","Latitude":"44.57837","Longitude":"-80.95461","Snowdepth":"10.500","Units":"in","Rept_Date":"2021-01-28 13"},"coordinates":[3822,5638]},{"type":"Point","properties":{"Station_ID":"IL-LE-22","Station_Nam":"AMBOY 0.5 SSW, IL","Latitude":"41.71016","Longitude":"-89.33695","Snowdepth":"10.400","Units":"in","Rept_Date":"2021-01-28 11"},"coordinates":[1854,3888]},{"type":"Point","properties":{"Station_ID":"IL-CK-288","Station_Nam":"ROSELLE 0.8 N, IL","Latitude":"41.99255","Longitude":"-88.08422","Snowdepth":"10.400","Units":"in","Rept_Date":"2021-01-28 13"},"coordinates":[2148,4060]},{"type":"Point","properties":{"Station_ID":"CAN-ON-92","Station_Nam":"DUNROBIN 1.9 W - MVCA, CAN","Latitude":"45.42318","Longitude":"-76.04525","Snowdepth":"10.400","Units":"in","Rept_Date":"2021-01-28 12"},"coordinates":[4974,6153]},{"type":"Point","properties":{"Station_ID":"QLM","Station_Nam":"QLM","Latitude":"48.92030","Longitude":"-70.25280","Snowdepth":"10.236","Units":"in","Rept_Date":"2021-01-28 12"},"coordinates":[6333,8287]},{"type":"Point","properties":{"Station_ID":"CAN-ON-804","Station_Nam":"KEMBLE 1.6 S - GSCA, CAN","Latitude":"44.71013","Longitude":"-80.92735","Snowdepth":"10.200","Units":"in","Rept_Date":"2021-01-28 13"},"coordinates":[3828,5718]},{"type":"Point","properties":{"Station_ID":"CAN-NL-82","Station_Nam":"GANDER 2.7 NW, CAN","Latitude":"48.97737","Longitude":"-54.63396","Snowdepth":"10.200","Units":"in","Rept_Date":"2021-01-28 10"},"coordinates":[9999,8322]},{"type":"Point","properties":{"Station_ID":"WTRM4","Station_Nam":"WATERSMEET 12WSW","Latitude":"46.22310","Longitude":"-89.40850","Snowdepth":"10.000","Units":"in","Rept_Date":"2021-01-28 12"},"coordinates":[1838,6641]},{"type":"Point","properties":{"Station_ID":"WNNM5","Station_Nam":"WINNEBAGO","Latitude":"43.76920","Longitude":"-94.18730","Snowdepth":"10.000","Units":"in","Rept_Date":"2021-01-28 14"},"coordinates":[716,5144]},{"type":"Point","properties":{"Station_ID":"WI-WK-68","Station_Nam":"OCONOMOWOC 1.0 S, WI","Latitude":"43.09530","Longitude":"-88.48590","Snowdepth":"10.000","Units":"in","Rept_Date":"2021-01-28 14"},"coordinates":[2054,4733]},{"type":"Point","properties":{"Station_ID":"WI-VL-14","Station_Nam":"BOULDER JUNCTION 1.4 NE, WI","Latitude":"46.12840","Longitude":"-89.62470","Snowdepth":"10.000","Units":"in","Rept_Date":"2021-01-28 13"},"coordinates":[1787,6584]},{"type":"Point","properties":{"Station_ID":"WI-MW-43","Station_Nam":"BROWN DEER 0.8 NW, WI","Latitude":"43.18438","Longitude":"-87.98401","Snowdepth":"10.000","Units":"in","Rept_Date":"2021-01-28 13"},"coordinates":[2172,4788]},{"type":"Point","properties":{"Station_ID":"WI-JF-2","Station_Nam":"WATERTOWN 1.6 ESE, WI","Latitude":"43.17916","Longitude":"-88.69720","Snowdepth":"10.000","Units":"in","Rept_Date":"2021-01-28 14"},"coordinates":[2005,4784]},{"type":"Point","properties":{"Station_ID":"WI-DA-88","Station_Nam":"BLACK EARTH 3.1 SSE, WI","Latitude":"43.09290","Longitude":"-89.72889","Snowdepth":"10.000","Units":"in","Rept_Date":"2021-01-28 13"},"coordinates":[1762,4732]},{"type":"Point","properties":{"Station_ID":"WI-DA-39","Station_Nam":"MADISON 4.0 W, WI","Latitude":"43.07741","Longitude":"-89.46757","Snowdepth":"10.000","Units":"in","Rept_Date":"2021-01-28 13"},"coordinates":[1824,4722]},{"type":"Point","properties":{"Station_ID":"WI-BY-6","Station_Nam":"BARNES 2.2 S, WI","Latitude":"46.30264","Longitude":"-91.50320","Snowdepth":"10.000","Units":"in","Rept_Date":"2021-01-28 13"},"coordinates":[1346,6690]},{"type":"Point","properties":{"Station_ID":"WI-BT-14","Station_Nam":"OAKLAND 9.0 ENE, WI","Latitude":"45.95184","Longitude":"-92.21653","Snowdepth":"10.000","Units":"in","Rept_Date":"2021-01-28 13"},"coordinates":[1179,6476]},{"type":"Point","properties":{"Station_ID":"VT-OL-25","Station_Nam":"NEWPORT 1.5 WSW, VT","Latitude":"44.93059","Longitude":"-72.23731","Snowdepth":"10.000","Units":"in","Rept_Date":"2021-01-28 12"},"coordinates":[5868,5853]},{"type":"Point","properties":{"Station_ID":"VT-FR-21","Station_Nam":"FAIRFAX 4.9 WNW, VT","Latitude":"44.68880","Longitude":"-73.10340","Snowdepth":"10.000","Units":"in","Rept_Date":"2021-01-28 14"},"coordinates":[5664,5705]},{"type":"Point","properties":{"Station_ID":"TEKN1","Station_Nam":"TEKAMAH,NE","Latitude":"41.76670","Longitude":"-96.23330","Snowdepth":"10.000","Units":"in","Rept_Date":"2021-01-28 13"},"coordinates":[236,3923]},{"type":"Point","properties":{"Station_ID":"TCMN1","Station_Nam":"TECUMSEH,NE","Latitude":"40.36670","Longitude":"-96.18330","Snowdepth":"10.000","Units":"in","Rept_Date":"2021-01-28 14"},"coordinates":[248,3069]},{"type":"Point","properties":{"Station_ID":"STMM4","Station_Nam":"STAMBAUGH 2SSE","Latitude":"46.05550","Longitude":"-88.62780","Snowdepth":"10.000","Units":"in","Rept_Date":"2021-01-28 13"},"coordinates":[2021,6539]},{"type":"Point","properties":{"Station_ID":"SLRW3","Station_Nam":"SLINGER","Latitude":"43.33390","Longitude":"-88.29780","Snowdepth":"10.000","Units":"in","Rept_Date":"2021-01-28 13"},"coordinates":[2098,4879]},{"type":"Point","properties":{"Station_ID":"RLKW3","Station_Nam":"REST LAKE","Latitude":"46.12220","Longitude":"-89.87720","Snowdepth":"10.000","Units":"in","Rept_Date":"2021-01-28 14"},"coordinates":[1728,6580]},{"type":"Point","properties":{"Station_ID":"PORW3","Station_Nam":"PORTAGE,WI","Latitude":"43.53190","Longitude":"-89.43780","Snowdepth":"10.000","Units":"in","Rept_Date":"2021-01-28 14"},"coordinates":[1831,5000]},{"type":"Point","properties":{"Station_ID":"PLFV1","Station_Nam":"PLAINFIELD","Latitude":"44.27610","Longitude":"-72.41500","Snowdepth":"10.000","Units":"in","Rept_Date":"2021-01-28 12"},"coordinates":[5826,5454]},{"type":"Point","properties":{"Station_ID":"PDGM4","Station_Nam":"PAULDING","Latitude":"46.39760","Longitude":"-89.17940","Snowdepth":"10.000","Units":"in","Rept_Date":"2021-01-28 14"},"coordinates":[1891,6748]},{"type":"Point","properties":{"Station_ID":"ONCW3","Station_Nam":"SOUTH","Latitude":"43.11170","Longitude":"-88.49970","Snowdepth":"10.000","Units":"in","Rept_Date":"2021-01-28 14"},"coordinates":[2051,4743]},{"type":"Point","properties":{"Station_ID":"OLNI4","Station_Nam":"OELWEIN 1E","Latitude":"42.68010","Longitude":"-91.87510","Snowdepth":"10.000","Units":"in","Rept_Date":"2021-01-28 12"},"coordinates":[1259,4480]},{"type":"Point","properties":{"Station_ID":"NY-OG-72","Station_Nam":"LIVERPOOL 4.5 N, NY","Latitude":"43.17016","Longitude":"-76.22385","Snowdepth":"10.000","Units":"in","Rept_Date":"2021-01-28 13"},"coordinates":[4932,4779]},{"type":"Point","properties":{"Station_ID":"NY-OG-46","Station_Nam":"BALDWINSVILLE 3.5 NE, NY","Latitude":"43.19506","Longitude":"-76.28830","Snowdepth":"10.000","Units":"in","Rept_Date":"2021-01-28 13"},"coordinates":[4917,4794]},{"type":"Point","properties":{"Station_ID":"NY-CT-22","Station_Nam":"FRANKLINVILLE 0.5 NNE, NY","Latitude":"42.34166","Longitude":"-78.45280","Snowdepth":"10.000","Units":"in","Rept_Date":"2021-01-28 14"},"coordinates":[4409,4273]},{"type":"Point","properties":{"Station_ID":"NY-CQ-27","Station_Nam":"SILVER CREEK 1.0 SSE, NY","Latitude":"42.53088","Longitude":"-79.15986","Snowdepth":"10.000","Units":"in","Rept_Date":"2021-01-28 11"},"coordinates":[4243,4389]},{"type":"Point","properties":{"Station_ID":"NH-MR-60","Station_Nam":"SOUTH SUTTON 1.3 SE, NH","Latitude":"43.29531","Longitude":"-71.90238","Snowdepth":"10.000","Units":"in","Rept_Date":"2021-01-28 13"},"coordinates":[5946,4855]},{"type":"Point","properties":{"Station_ID":"NE-SY-31","Station_Nam":"GRETNA 3.0 NNE, NE","Latitude":"41.18158","Longitude":"-96.22400","Snowdepth":"10.000","Units":"in","Rept_Date":"2021-01-28 13"},"coordinates":[238,3566]},{"type":"Point","properties":{"Station_ID":"NE-LA-58","Station_Nam":"LINCOLN 1.4 S, NE","Latitude":"40.79682","Longitude":"-96.68468","Snowdepth":"10.000","Units":"in","Rept_Date":"2021-01-28 13"},"coordinates":[130,3331]},{"type":"Point","properties":{"Station_ID":"MSN","Station_Nam":"MADISON DANE COUNTY RGNL","Latitude":"43.13970","Longitude":"-89.33750","Snowdepth":"10.000","Units":"in","Rept_Date":"2021-01-29 00"},"coordinates":[1854,4760]},{"type":"Point","properties":{"Station_ID":"MO-ND-6","Station_Nam":"HOPKINS 3.9 WSW, MO","Latitude":"40.53581","Longitude":"-94.88790","Snowdepth":"10.000","Units":"in","Rept_Date":"2021-01-28 13"},"coordinates":[552,3172]},{"type":"Point","properties":{"Station_ID":"MNPV1","Station_Nam":"MONTPELIER 2","Latitude":"44.25530","Longitude":"-72.60060","Snowdepth":"10.000","Units":"in","Rept_Date":"2021-01-28 12"},"coordinates":[5782,5441]},{"type":"Point","properties":{"Station_ID":"MN-KB-17","Station_Nam":"MORA 2.5 S, MN","Latitude":"45.84100","Longitude":"-93.29700","Snowdepth":"10.000","Units":"in","Rept_Date":"2021-01-28 13"},"coordinates":[925,6408]},{"type":"Point","properties":{"Station_ID":"MN-IT-17","Station_Nam":"GRAND RAPIDS 6.1 N, MN","Latitude":"47.31165","Longitude":"-93.55036","Snowdepth":"10.000","Units":"in","Rept_Date":"2021-01-28 13"},"coordinates":[866,7305]},{"type":"Point","properties":{"Station_ID":"MN-CW-22","Station_Nam":"FORT RIPLEY 0.8 N, MN","Latitude":"46.18089","Longitude":"-94.36510","Snowdepth":"10.000","Units":"in","Rept_Date":"2021-01-28 13"},"coordinates":[674,6616]},{"type":"Point","properties":{"Station_ID":"MI-CP-14","Station_Nam":"SAULT STE. MARIE 2.2 E, MI","Latitude":"46.48933","Longitude":"-84.31971","Snowdepth":"10.000","Units":"in","Rept_Date":"2021-01-28 13"},"coordinates":[3032,6804]},{"type":"Point","properties":{"Station_ID":"MI-AT-6","Station_Nam":"MANCELONA 0.5 ESE, MI","Latitude":"44.89981","Longitude":"-85.05100","Snowdepth":"10.000","Units":"in","Rept_Date":"2021-01-28 13"},"coordinates":[2860,5834]},{"type":"Point","properties":{"Station_ID":"MEDN1","Station_Nam":"AGRONOMY LABRATORY","Latitude":"41.16670","Longitude":"-96.41670","Snowdepth":"10.000","Units":"in","Rept_Date":"2021-01-28 12"},"coordinates":[193,3557]},{"type":"Point","properties":{"Station_ID":"LOOW3","Station_Nam":"WATERLOO","Latitude":"43.18830","Longitude":"-88.98440","Snowdepth":"10.000","Units":"in","Rept_Date":"2021-01-28 14"},"coordinates":[1937,4790]},{"type":"Point","properties":{"Station_ID":"LANW3","Station_Nam":"LANCASTER 4WSW","Latitude":"42.82780","Longitude":"-90.78890","Snowdepth":"10.000","Units":"in","Rept_Date":"2021-01-28 14"},"coordinates":[1514,4570]},{"type":"Point","properties":{"Station_ID":"KSYR","Station_Nam":"SYRACUSE HANCOCK INTERNATIONAL  AIRPORT","Latitude":"43.11666","Longitude":"-76.10000","Snowdepth":"10.000","Units":"in","Rept_Date":"2021-01-29 06"},"coordinates":[4961,4746]},{"type":"Point","properties":{"Station_ID":"KMSN","Station_Nam":"MADISON DANE COUNTY RGNL","Latitude":"43.13333","Longitude":"-89.35000","Snowdepth":"10.000","Units":"in","Rept_Date":"2021-01-29 06"},"coordinates":[1851,4756]},{"type":"Point","properties":{"Station_ID":"KDSM","Station_Nam":"DES MOINES INTERNATIONAL","Latitude":"41.53333","Longitude":"-93.66666","Snowdepth":"10.000","Units":"in","Rept_Date":"2021-01-29 06"},"coordinates":[838,3780]},{"type":"Point","properties":{"Station_ID":"JEFN3","Station_Nam":"JEFFERSON","Latitude":"44.41690","Longitude":"-71.50080","Snowdepth":"10.000","Units":"in","Rept_Date":"2021-01-28 12"},"coordinates":[6040,5539]},{"type":"Point","properties":{"Station_ID":"IA-ST-3","Station_Nam":"PARK VIEW 0.2 WSW, IA","Latitude":"41.68855","Longitude":"-90.54380","Snowdepth":"10.000","Units":"in","Rept_Date":"2021-01-28 13"},"coordinates":[1571,3875]},{"type":"Point","properties":{"Station_ID":"IA-SR-17","Station_Nam":"AMES 0.9 ENE, IA","Latitude":"42.02886","Longitude":"-93.60950","Snowdepth":"10.000","Units":"in","Rept_Date":"2021-01-28 13"},"coordinates":[852,4083]},{"type":"Point","properties":{"Station_ID":"IA-PK-97","Station_Nam":"ANKENY 1.5 NNE, IA","Latitude":"41.74376","Longitude":"-93.59088","Snowdepth":"10.000","Units":"in","Rept_Date":"2021-01-28 13"},"coordinates":[856,3909]},{"type":"Point","properties":{"Station_ID":"IA-PK-89","Station_Nam":"ANKENY 3.7 NNE, IA","Latitude":"41.77305","Longitude":"-93.57635","Snowdepth":"10.000","Units":"in","Rept_Date":"2021-01-28 13"},"coordinates":[860,3927]},{"type":"Point","properties":{"Station_ID":"IA-PK-21","Station_Nam":"JOHNSTON 3.7 NNW, IA","Latitude":"41.73660","Longitude":"-93.72360","Snowdepth":"10.000","Units":"in","Rept_Date":"2021-01-28 13"},"coordinates":[825,3904]},{"type":"Point","properties":{"Station_ID":"HVJP1","Station_Nam":"HIDDEN VALLEY COOP","Latitude":"40.04200","Longitude":"-79.25660","Snowdepth":"10.000","Units":"in","Rept_Date":"2021-01-28 13"},"coordinates":[4220,2870]},{"type":"Point","properties":{"Station_ID":"HTLM4","Station_Nam":"SNOW PAID OBSERVER FOR KHTL","Latitude":"44.34470","Longitude":"-84.67730","Snowdepth":"10.000","Units":"in","Rept_Date":"2021-01-29 06"},"coordinates":[2948,5495]},{"type":"Point","properties":{"Station_ID":"HTL","Station_Nam":"ROSCOMMON COUNTY AIRPORT","Latitude":"44.35000","Longitude":"-84.66670","Snowdepth":"10.000","Units":"in","Rept_Date":"2021-01-29 00"},"coordinates":[2951,5499]},{"type":"Point","properties":{"Station_ID":"HSTM5","Station_Nam":"HASTINGS DAM 2","Latitude":"44.75970","Longitude":"-92.86890","Snowdepth":"10.000","Units":"in","Rept_Date":"2021-01-28 13"},"coordinates":[1026,5749]},{"type":"Point","properties":{"Station_ID":"GRAN1","Station_Nam":"GRETNA,NE","Latitude":"41.20000","Longitude":"-96.20000","Snowdepth":"10.000","Units":"in","Rept_Date":"2021-01-28 14"},"coordinates":[244,3577]},{"type":"Point","properties":{"Station_ID":"FEDM5","Station_Nam":"LEECH LAKE DAM","Latitude":"47.24670","Longitude":"-94.22280","Snowdepth":"10.000","Units":"in","Rept_Date":"2021-01-28 14"},"coordinates":[708,7266]},{"type":"Point","properties":{"Station_ID":"EVRW3","Station_Nam":"EAGLE RIVER-4 E","Latitude":"45.91890","Longitude":"-89.15280","Snowdepth":"10.000","Units":"in","Rept_Date":"2021-01-28 13"},"coordinates":[1898,6456]},{"type":"Point","properties":{"Station_ID":"ENFV1","Station_Nam":"ENOSBURG FALLS 2","Latitude":"44.90960","Longitude":"-72.81370","Snowdepth":"10.000","Units":"in","Rept_Date":"2021-01-28 10"},"coordinates":[5732,5840]},{"type":"Point","properties":{"Station_ID":"EKRI4","Station_Nam":"ELKADER 6SSW","Latitude":"42.77540","Longitude":"-91.45370","Snowdepth":"10.000","Units":"in","Rept_Date":"2021-01-28 13"},"coordinates":[1358,4538]},{"type":"Point","properties":{"Station_ID":"EJNM4","Station_Nam":"EAST JORDAN 2NW","Latitude":"45.18630","Longitude":"-85.14770","Snowdepth":"10.000","Units":"in","Rept_Date":"2021-01-28 13"},"coordinates":[2838,6009]},{"type":"Point","properties":{"Station_ID":"DVNI4","Station_Nam":"DAVENPORT WFO","Latitude":"41.61170","Longitude":"-90.58160","Snowdepth":"10.000","Units":"in","Rept_Date":"2021-01-29 06"},"coordinates":[1562,3828]},{"type":"Point","properties":{"Station_ID":"DVN","Station_Nam":"QUAD CITIES, IA","Latitude":"41.61030","Longitude":"-90.58830","Snowdepth":"10.000","Units":"in","Rept_Date":"2021-01-29 00"},"coordinates":[1561,3827]},{"type":"Point","properties":{"Station_ID":"DSXI4","Station_Nam":"DES MOINES SNOW","Latitude":"41.54130","Longitude":"-93.65570","Snowdepth":"10.000","Units":"in","Rept_Date":"2021-01-29 06"},"coordinates":[841,3785]},{"type":"Point","properties":{"Station_ID":"DSM","Station_Nam":"DES MOINES INTERNATIONAL","Latitude":"41.53340","Longitude":"-93.66300","Snowdepth":"10.000","Units":"in","Rept_Date":"2021-01-29 00"},"coordinates":[839,3780]},{"type":"Point","properties":{"Station_ID":"DMX","Station_Nam":"DES MOINES, IA","Latitude":"41.73610","Longitude":"-93.72330","Snowdepth":"10.000","Units":"in","Rept_Date":"2021-01-29 06"},"coordinates":[825,3904]},{"type":"Point","properties":{"Station_ID":"DEKI2","Station_Nam":"SOUTH BRANCH KISHWAUKEE RIVER AT DEKALB","Latitude":"41.93110","Longitude":"-88.75970","Snowdepth":"10.000","Units":"in","Rept_Date":"2021-01-28 13"},"coordinates":[1990,4023]},{"type":"Point","properties":{"Station_ID":"CUSW3","Station_Nam":"COLUMBUS","Latitude":"43.32610","Longitude":"-89.00810","Snowdepth":"10.000","Units":"in","Rept_Date":"2021-01-28 13"},"coordinates":[1932,4874]},{"type":"Point","properties":{"Station_ID":"CLUI4","Station_Nam":"CLUTIER,IA","Latitude":"42.08330","Longitude":"-92.40000","Snowdepth":"10.000","Units":"in","Rept_Date":"2021-01-28 13"},"coordinates":[1136,4116]},{"type":"Point","properties":{"Station_ID":"CLNI4","Station_Nam":"CLINTON NO 1","Latitude":"41.79470","Longitude":"-90.26390","Snowdepth":"10.000","Units":"in","Rept_Date":"2021-01-29 00"},"coordinates":[1637,3940]},{"type":"Point","properties":{"Station_ID":"CLIW3","Station_Nam":"CLINTON,WI","Latitude":"42.60000","Longitude":"-88.88330","Snowdepth":"10.000","Units":"in","Rept_Date":"2021-01-28 13"},"coordinates":[1961,4431]},{"type":"Point","properties":{"Station_ID":"CBLW3","Station_Nam":"CUMBERLAND","Latitude":"45.53310","Longitude":"-92.02260","Snowdepth":"10.000","Units":"in","Rept_Date":"2021-01-28 13"},"coordinates":[1224,6220]},{"type":"Point","properties":{"Station_ID":"CARM1","Station_Nam":"CARIBOU WFO","Latitude":"46.86810","Longitude":"-68.01250","Snowdepth":"10.000","Units":"in","Rept_Date":"2021-01-29 05"},"coordinates":[6859,7035]},{"type":"Point","properties":{"Station_ID":"BNWI4","Station_Nam":"BOONE,IA","Latitude":"42.05000","Longitude":"-93.93330","Snowdepth":"10.000","Units":"in","Rept_Date":"2021-01-28 14"},"coordinates":[776,4095]},{"type":"Point","properties":{"Station_ID":"BGTW3","Station_Nam":"SEWAGE DISPOSAL PLANT","Latitude":"42.68330","Longitude":"-88.20000","Snowdepth":"10.000","Units":"in","Rept_Date":"2021-01-28 12"},"coordinates":[2121,4482]},{"type":"Point","properties":{"Station_ID":"BCNI4","Station_Nam":"BEACONSFIELD,IA","Latitude":"40.82360","Longitude":"-94.04390","Snowdepth":"10.000","Units":"in","Rept_Date":"2021-01-28 13"},"coordinates":[750,3347]},{"type":"Point","properties":{"Station_ID":"AUDI4","Station_Nam":"AUDUBON,IA","Latitude":"41.71670","Longitude":"-94.93330","Snowdepth":"10.000","Units":"in","Rept_Date":"2021-01-28 14"},"coordinates":[541,3892]},{"type":"Point","properties":{"Station_ID":"AUBN1","Station_Nam":"AUBURN,NE","Latitude":"40.38330","Longitude":"-95.75000","Snowdepth":"10.000","Units":"in","Rept_Date":"2021-01-29 02"},"coordinates":[349,3079]},{"type":"Point","properties":{"Station_ID":"ATLI4","Station_Nam":"ATLANTIC,IA","Latitude":"41.41810","Longitude":"-95.00310","Snowdepth":"10.000","Units":"in","Rept_Date":"2021-01-28 13"},"coordinates":[525,3710]},{"type":"Point","properties":{"Station_ID":"ATAN6","Station_Nam":"ATTICA 7 SW","Latitude":"42.81070","Longitude":"-78.39790","Snowdepth":"10.000","Units":"in","Rept_Date":"2021-01-28 11"},"coordinates":[4422,4560]},{"type":"Point","properties":{"Station_ID":"ARBW3","Station_Nam":"SOUTH SIDE-ARBORETUM UNIV WI","Latitude":"43.04110","Longitude":"-89.42860","Snowdepth":"10.000","Units":"in","Rept_Date":"2021-01-28 14"},"coordinates":[1833,4700]},{"type":"Point","properties":{"Station_ID":"AMOI4","Station_Nam":"ANAMOSA 3 SSW","Latitude":"42.07630","Longitude":"-91.30190","Snowdepth":"10.000","Units":"in","Rept_Date":"2021-01-28 12"},"coordinates":[1393,4112]},{"type":"Point","properties":{"Station_ID":"AMAM4","Station_Nam":"AMASA 1W","Latitude":"46.23470","Longitude":"-88.45440","Snowdepth":"10.000","Units":"in","Rept_Date":"2021-01-28 14"},"coordinates":[2062,6648]},{"type":"Point","properties":{"Station_ID":"AFTW3","Station_Nam":"ROCK RIVER","Latitude":"42.61670","Longitude":"-89.06670","Snowdepth":"10.000","Units":"in","Rept_Date":"2021-01-28 13"},"coordinates":[1918,4441]},{"type":"Point","properties":{"Station_ID":"CAN-ON-757","Station_Nam":"SAULT STE. MARIE 2.8 ESE - GLFC, CAN","Latitude":"46.50300","Longitude":"-84.30300","Snowdepth":"9.600","Units":"in","Rept_Date":"2021-01-28 13"},"coordinates":[3036,6812]},{"type":"Point","properties":{"Station_ID":"QIQ","Station_Nam":"QIQ","Latitude":"49.82390","Longitude":"-68.54310","Snowdepth":"9.528","Units":"in","Rept_Date":"2021-01-28 12"},"coordinates":[6735,8838]},{"type":"Point","properties":{"Station_ID":"WI-OZ-17","Station_Nam":"WEST BEND 7.3 E, WI","Latitude":"43.42860","Longitude":"-88.03870","Snowdepth":"9.500","Units":"in","Rept_Date":"2021-01-28 13"},"coordinates":[2159,4937]},{"type":"Point","properties":{"Station_ID":"WI-JF-10","Station_Nam":"PALMYRA 1.5 N, WI","Latitude":"42.90084","Longitude":"-88.58620","Snowdepth":"9.500","Units":"in","Rept_Date":"2021-01-28 13"},"coordinates":[2031,4615]},{"type":"Point","properties":{"Station_ID":"WI-DA-87","Station_Nam":"DUNKIRK 0.1 NW, WI","Latitude":"42.88356","Longitude":"-89.21056","Snowdepth":"9.500","Units":"in","Rept_Date":"2021-01-28 12"},"coordinates":[1884,4604]},{"type":"Point","properties":{"Station_ID":"WI-DA-46","Station_Nam":"MADISON 6.4 W, WI","Latitude":"43.08337","Longitude":"-89.51503","Snowdepth":"9.500","Units":"in","Rept_Date":"2021-01-28 13"},"coordinates":[1813,4726]},{"type":"Point","properties":{"Station_ID":"VT-RT-24","Station_Nam":"MIDDLETOWN SPRINGS 0.9 WNW, VT","Latitude":"43.49194","Longitude":"-73.13350","Snowdepth":"9.500","Units":"in","Rept_Date":"2021-01-28 12"},"coordinates":[5657,4975]},{"type":"Point","properties":{"Station_ID":"VT-CH-7","Station_Nam":"HUNTINGTON 1.1 E, VT","Latitude":"44.32488","Longitude":"-72.96570","Snowdepth":"9.500","Units":"in","Rept_Date":"2021-01-28 12"},"coordinates":[5697,5483]},{"type":"Point","properties":{"Station_ID":"VT-AD-28","Station_Nam":"MONKTON 1.5 NE, VT","Latitude":"44.26760","Longitude":"-73.09940","Snowdepth":"9.500","Units":"in","Rept_Date":"2021-01-28 13"},"coordinates":[5665,5448]},{"type":"Point","properties":{"Station_ID":"NY-WR-10","Station_Nam":"WARRENSBURG 2.1 WNW, NY","Latitude":"43.51784","Longitude":"-73.81069","Snowdepth":"9.500","Units":"in","Rept_Date":"2021-01-28 13"},"coordinates":[5498,4991]},{"type":"Point","properties":{"Station_ID":"NY-MD-22","Station_Nam":"ONEIDA 0.4 NW, NY","Latitude":"43.08012","Longitude":"-75.66860","Snowdepth":"9.500","Units":"in","Rept_Date":"2021-01-28 12"},"coordinates":[5062,4724]},{"type":"Point","properties":{"Station_ID":"NY-MD-16","Station_Nam":"CHITTENANGO 2.1 ESE, NY","Latitude":"43.03297","Longitude":"-75.83480","Snowdepth":"9.500","Units":"in","Rept_Date":"2021-01-28 13"},"coordinates":[5023,4695]},{"type":"Point","properties":{"Station_ID":"NY-ES-7","Station_Nam":"KEESEVILLE 0.8 SE, NY","Latitude":"44.49504","Longitude":"-73.47109","Snowdepth":"9.500","Units":"in","Rept_Date":"2021-01-28 12"},"coordinates":[5578,5587]},{"type":"Point","properties":{"Station_ID":"NY-DL-25","Station_Nam":"HOBART 4.8 ESE, NY","Latitude":"42.35230","Longitude":"-74.57830","Snowdepth":"9.500","Units":"in","Rept_Date":"2021-01-28 12"},"coordinates":[5318,4280]},{"type":"Point","properties":{"Station_ID":"NH-GR-47","Station_Nam":"LITTLETON 7.3 W, NH","Latitude":"44.31847","Longitude":"-71.91086","Snowdepth":"9.500","Units":"in","Rept_Date":"2021-01-28 13"},"coordinates":[5944,5479]},{"type":"Point","properties":{"Station_ID":"NH-CS-7","Station_Nam":"LANCASTER 0.5 N, NH","Latitude":"44.49611","Longitude":"-71.57640","Snowdepth":"9.500","Units":"in","Rept_Date":"2021-01-28 12"},"coordinates":[6023,5588]},{"type":"Point","properties":{"Station_ID":"MN-SH-985","Station_Nam":"PRINCETON 3.3 WSW, MN","Latitude":"45.55211","Longitude":"-93.64481","Snowdepth":"9.500","Units":"in","Rept_Date":"2021-01-28 10"},"coordinates":[843,6232]},{"type":"Point","properties":{"Station_ID":"MN-CW-54","Station_Nam":"AITKIN 9.6 W, MN","Latitude":"46.53711","Longitude":"-93.90688","Snowdepth":"9.500","Units":"in","Rept_Date":"2021-01-28 14"},"coordinates":[782,6833]},{"type":"Point","properties":{"Station_ID":"MN-CW-44","Station_Nam":"CROSBY 1.1 SW, MN","Latitude":"46.47772","Longitude":"-93.97293","Snowdepth":"9.500","Units":"in","Rept_Date":"2021-01-28 13"},"coordinates":[766,6797]},{"type":"Point","properties":{"Station_ID":"MI-GL-4","Station_Nam":"GLADWIN 10.4 NNW, MI","Latitude":"44.11865","Longitude":"-84.58470","Snowdepth":"9.500","Units":"in","Rept_Date":"2021-01-28 14"},"coordinates":[2970,5357]},{"type":"Point","properties":{"Station_ID":"MI-CX-7","Station_Nam":"EAST JORDAN 2.1 NNW, MI","Latitude":"45.18639","Longitude":"-85.14750","Snowdepth":"9.500","Units":"in","Rept_Date":"2021-01-28 13"},"coordinates":[2838,6009]},{"type":"Point","properties":{"Station_ID":"IA-TY-2","Station_Nam":"NEW MARKET 4.7 N, IA","Latitude":"40.80060","Longitude":"-94.91020","Snowdepth":"9.500","Units":"in","Rept_Date":"2021-01-28 13"},"coordinates":[546,3333]},{"type":"Point","properties":{"Station_ID":"IA-PT-13","Station_Nam":"COUNCIL BLUFFS 2.1 SSE, IA","Latitude":"41.21159","Longitude":"-95.84800","Snowdepth":"9.500","Units":"in","Rept_Date":"2021-01-28 13"},"coordinates":[326,3584]},{"type":"Point","properties":{"Station_ID":"IA-JH-14","Station_Nam":"SWISHER 0.4 NNE, IA","Latitude":"41.84830","Longitude":"-91.69210","Snowdepth":"9.500","Units":"in","Rept_Date":"2021-01-28 14"},"coordinates":[1302,3972]},{"type":"Point","properties":{"Station_ID":"IA-CT-8","Station_Nam":"ELKADER 6.8 WSW, IA","Latitude":"42.81136","Longitude":"-91.52332","Snowdepth":"9.500","Units":"in","Rept_Date":"2021-01-28 14"},"coordinates":[1341,4560]},{"type":"Point","properties":{"Station_ID":"CAN-NB-11","Station_Nam":"MIRAMICHI 3.3 S, CAN","Latitude":"46.99343","Longitude":"-65.50690","Snowdepth":"9.500","Units":"in","Rept_Date":"2021-01-28 11"},"coordinates":[7447,7111]},{"type":"Point","properties":{"Station_ID":"IA-CL-3","Station_Nam":"MURRAY 0.5 N, IA","Latitude":"41.04831","Longitude":"-93.94960","Snowdepth":"9.400","Units":"in","Rept_Date":"2021-01-28 13"},"coordinates":[772,3484]},{"type":"Point","properties":{"Station_ID":"CAN-NB-105","Station_Nam":"SISSON BROOK 3.8 E, CAN","Latitude":"46.98305","Longitude":"-67.32532","Snowdepth":"9.400","Units":"in","Rept_Date":"2021-01-28 12"},"coordinates":[7020,7105]},{"type":"Point","properties":{"Station_ID":"IA-CL-4","Station_Nam":"MURRAY 1.7 W, IA","Latitude":"41.04128","Longitude":"-93.98046","Snowdepth":"9.300","Units":"in","Rept_Date":"2021-01-28 13"},"coordinates":[765,3480]},{"type":"Point","properties":{"Station_ID":"QMA","Station_Nam":"QMA","Latitude":"50.10330","Longitude":"-70.47190","Snowdepth":"9.134","Units":"in","Rept_Date":"2021-01-28 12"},"coordinates":[6282,9009]},{"type":"Point","properties":{"Station_ID":"WODI2","Station_Nam":"WOODSTOCK","Latitude":"42.36280","Longitude":"-88.53140","Snowdepth":"9.000","Units":"in","Rept_Date":"2021-01-28 13"},"coordinates":[2044,4286]},{"type":"Point","properties":{"Station_ID":"WMTI4","Station_Nam":"FORT DODGE,IA","Latitude":"42.50610","Longitude":"-94.20110","Snowdepth":"9.000","Units":"in","Rept_Date":"2021-01-28 13"},"coordinates":[713,4374]},{"type":"Point","properties":{"Station_ID":"WLSN6","Station_Nam":"WALES","Latitude":"42.73920","Longitude":"-78.58780","Snowdepth":"9.000","Units":"in","Rept_Date":"2021-01-28 12"},"coordinates":[4377,4516]},{"type":"Point","properties":{"Station_ID":"WI-WK-34","Station_Nam":"MUKWONAGO 5.3 W, WI","Latitude":"42.85380","Longitude":"-88.43550","Snowdepth":"9.000","Units":"in","Rept_Date":"2021-01-28 13"},"coordinates":[2066,4586]},{"type":"Point","properties":{"Station_ID":"WI-SB-10","Station_Nam":"RANDOM LAKE 0.5 SSE, WI","Latitude":"43.54812","Longitude":"-87.95050","Snowdepth":"9.000","Units":"in","Rept_Date":"2021-01-28 13"},"coordinates":[2180,5009]},{"type":"Point","properties":{"Station_ID":"WI-PK-4","Station_Nam":"DRESSER 6.1 ESE, WI","Latitude":"45.32436","Longitude":"-92.52080","Snowdepth":"9.000","Units":"in","Rept_Date":"2021-01-28 14"},"coordinates":[1107,6093]},{"type":"Point","properties":{"Station_ID":"WI-DA-33","Station_Nam":"OREGON 0.4 SSW, WI","Latitude":"42.92080","Longitude":"-89.38540","Snowdepth":"9.000","Units":"in","Rept_Date":"2021-01-28 13"},"coordinates":[1843,4627]},{"type":"Point","properties":{"Station_ID":"WI-CB-4","Station_Nam":"PORTAGE 5.7 WSW, WI","Latitude":"43.51411","Longitude":"-89.56910","Snowdepth":"9.000","Units":"in","Rept_Date":"2021-01-28 12"},"coordinates":[1800,4989]},{"type":"Point","properties":{"Station_ID":"WDOM5","Station_Nam":"WINDOM","Latitude":"43.87700","Longitude":"-95.11590","Snowdepth":"9.000","Units":"in","Rept_Date":"2021-01-28 14"},"coordinates":[498,5210]},{"type":"Point","properties":{"Station_ID":"VT-LM-1","Station_Nam":"STOWE 0.2 SW, VT","Latitude":"44.46399","Longitude":"-72.69070","Snowdepth":"9.000","Units":"in","Rept_Date":"2021-01-28 12"},"coordinates":[5761,5568]},{"type":"Point","properties":{"Station_ID":"VT-CH-38","Station_Nam":"WILLISTON 0.2 WSW, VT","Latitude":"44.43669","Longitude":"-73.07154","Snowdepth":"9.000","Units":"in","Rept_Date":"2021-01-28 12"},"coordinates":[5672,5552]},{"type":"Point","properties":{"Station_ID":"VT-CH-11","Station_Nam":"UNDERHILL 5.1 NNE, VT","Latitude":"44.59811","Longitude":"-72.91880","Snowdepth":"9.000","Units":"in","Rept_Date":"2021-01-28 11"},"coordinates":[5708,5650]},{"type":"Point","properties":{"Station_ID":"UNDI4","Station_Nam":"UNDERWOOD","Latitude":"41.38940","Longitude":"-95.68110","Snowdepth":"9.000","Units":"in","Rept_Date":"2021-01-28 13"},"coordinates":[366,3692]},{"type":"Point","properties":{"Station_ID":"TLDI4","Station_Nam":"TOLEDO,IA","Latitude":"41.98330","Longitude":"-92.58330","Snowdepth":"9.000","Units":"in","Rept_Date":"2021-01-28 13"},"coordinates":[1093,4055]},{"type":"Point","properties":{"Station_ID":"SWHI4","Station_Nam":"SWISHER #2","Latitude":"41.84970","Longitude":"-91.67650","Snowdepth":"9.000","Units":"in","Rept_Date":"2021-01-28 14"},"coordinates":[1305,3973]},{"type":"Point","properties":{"Station_ID":"SRAW3","Station_Nam":"SARONA","Latitude":"45.80250","Longitude":"-91.86700","Snowdepth":"9.000","Units":"in","Rept_Date":"2021-01-28 14"},"coordinates":[1261,6385]},{"type":"Point","properties":{"Station_ID":"SPNN1","Station_Nam":"MAHA SCOUT CAMP","Latitude":"41.06390","Longitude":"-96.00690","Snowdepth":"9.000","Units":"in","Rept_Date":"2021-01-28 14"},"coordinates":[289,3494]},{"type":"Point","properties":{"Station_ID":"SACW3","Station_Nam":"SAUK CITY","Latitude":"43.26000","Longitude":"-89.73580","Snowdepth":"9.000","Units":"in","Rept_Date":"2021-01-28 13"},"coordinates":[1761,4834]},{"type":"Point","properties":{"Station_ID":"ROCW3","Station_Nam":"ROCHESTER WWTP","Latitude":"42.72690","Longitude":"-88.22580","Snowdepth":"9.000","Units":"in","Rept_Date":"2021-01-28 11"},"coordinates":[2115,4508]},{"type":"Point","properties":{"Station_ID":"RKWM1","Station_Nam":"MOOSEHEAD LAKE","Latitude":"45.58330","Longitude":"-69.71670","Snowdepth":"9.000","Units":"in","Rept_Date":"2021-01-28 12"},"coordinates":[6459,6251]},{"type":"Point","properties":{"Station_ID":"RKWI4","Station_Nam":"ROCKWELL CITY,IA","Latitude":"42.40000","Longitude":"-94.61670","Snowdepth":"9.000","Units":"in","Rept_Date":"2021-01-28 13"},"coordinates":[615,4309]},{"type":"Point","properties":{"Station_ID":"RARM4","Station_Nam":"RAPID RIVER 1 SW","Latitude":"45.91500","Longitude":"-86.98800","Snowdepth":"9.000","Units":"in","Rept_Date":"2021-01-28 12"},"coordinates":[2406,6453]},{"type":"Point","properties":{"Station_ID":"PRNW3","Station_Nam":"PRENTICE,WI","Latitude":"45.54780","Longitude":"-90.30000","Snowdepth":"9.000","Units":"in","Rept_Date":"2021-01-28 14"},"coordinates":[1628,6229]},{"type":"Point","properties":{"Station_ID":"PKBI4","Station_Nam":"PARKERSBURG,IA","Latitude":"42.59250","Longitude":"-92.77860","Snowdepth":"9.000","Units":"in","Rept_Date":"2021-01-28 13"},"coordinates":[1047,4426]},