{"type":"Topology","objects":{"snowdepth_geo":{"type":"GeometryCollection","name":"snowdepth","crs":{"type":"name","properties":{"name":"urn:ogc:def:crs:OGC:1.3:CRS84"}},"geometries":[{"type":"Point","properties":{"Station_ID":"MMSV1","Station_Nam":"MOUNT MANSFIELD","Latitude":"44.53330","Longitude":"-72.83330","Snowdepth":"85.000","Units":"in","Rept_Date":"2019-11-18 05"},"coordinates":[6510,5961]},{"type":"Point","properties":{"Station_ID":"PRKM4","Station_Nam":"MUNISING EAST","Latitude":"46.42580","Longitude":"-86.62000","Snowdepth":"76.500","Units":"in","Rept_Date":"2019-11-18 06"},"coordinates":[2534,7024]},{"type":"Point","properties":{"Station_ID":"OGIQ6","Station_Nam":"OGOKI CAMP","Latitude":"50.76680","Longitude":"-87.85820","Snowdepth":"61.100","Units":"in","Rept_Date":"2019-11-18 06"},"coordinates":[2177,9460]},{"type":"Point","properties":{"Station_ID":"AUDQ6","Station_Nam":"AUDEN","Latitude":"48.52600","Longitude":"-82.57570","Snowdepth":"47.640","Units":"in","Rept_Date":"2019-11-18 06"},"coordinates":[3700,8202]},{"type":"Point","properties":{"Station_ID":"PRDM4","Station_Nam":"PARADISE","Latitude":"46.60380","Longitude":"-85.03960","Snowdepth":"11.000","Units":"in","Rept_Date":"2019-11-17 12"},"coordinates":[2990,7123]},{"type":"Point","properties":{"Station_ID":"AVLV1","Station_Nam":"AVERILL","Latitude":"45.00570","Longitude":"-71.69030","Snowdepth":"11.000","Units":"in","Rept_Date":"2019-11-17 13"},"coordinates":[6839,6226]},{"type":"Point","properties":{"Station_ID":"MMNV1","Station_Nam":"MT. MANSFIELD","Latitude":"44.52480","Longitude":"-72.81540","Snowdepth":"10.000","Units":"in","Rept_Date":"2019-11-17 21"},"coordinates":[6515,5957]},{"type":"Point","properties":{"Station_ID":"FISM1","Station_Nam":"FORT KENT COOP","Latitude":"47.23850","Longitude":"-68.61240","Snowdepth":"10.000","Units":"in","Rept_Date":"2019-11-17 12"},"coordinates":[7727,7480]},{"type":"Point","properties":{"Station_ID":"MCCS1","Station_Nam":"MCCORMICK","Latitude":"33.91250","Longitude":"-82.28760","Snowdepth":"9.000","Units":"in","Rept_Date":"2019-11-17 12"},"coordinates":[3783,0]},{"type":"Point","properties":{"Station_ID":"HWLM4","Station_Nam":"HALFWAY LAKE","Latitude":"46.47480","Longitude":"-85.59250","Snowdepth":"9.000","Units":"in","Rept_Date":"2019-11-17 14"},"coordinates":[2830,7051]},{"type":"Point","properties":{"Station_ID":"FTHQ6","Station_Nam":"FORT HOPE","Latitude":"51.55820","Longitude":"-87.90510","Snowdepth":"8.900","Units":"in","Rept_Date":"2019-11-18 06"},"coordinates":[2163,9904]},{"type":"Point","properties":{"Station_ID":"VT-OL-12","Station_Nam":"GREENSBORO 3.9 NNE, VT","Latitude":"44.63100","Longitude":"-72.28000","Snowdepth":"8.000","Units":"in","Rept_Date":"2019-11-17 12"},"coordinates":[6669,6016]},{"type":"Point","properties":{"Station_ID":"VANM1","Station_Nam":"VAN BUREN","Latitude":"47.16600","Longitude":"-67.93900","Snowdepth":"8.000","Units":"in","Rept_Date":"2019-11-17 12"},"coordinates":[7921,7439]},{"type":"Point","properties":{"Station_ID":"PDLM4","Station_Nam":"PAINESDALE","Latitude":"47.04160","Longitude":"-88.67170","Snowdepth":"8.000","Units":"in","Rept_Date":"2019-11-17 13"},"coordinates":[1942,7369]},{"type":"Point","properties":{"Station_ID":"NY-SL-6","Station_Nam":"HANNAWA FALLS 0.1 SW, NY","Latitude":"44.61154","Longitude":"-74.97190","Snowdepth":"8.000","Units":"in","Rept_Date":"2019-11-17 12"},"coordinates":[5893,6005]},{"type":"Point","properties":{"Station_ID":"NY-NG-12","Station_Nam":"LOCKPORT 0.8 NE, NY","Latitude":"43.17645","Longitude":"-78.68340","Snowdepth":"8.000","Units":"in","Rept_Date":"2019-11-17 12"},"coordinates":[4823,5200]},{"type":"Point","properties":{"Station_ID":"NPTM4","Station_Nam":"NORTHPORT 2W","Latitude":"45.13220","Longitude":"-85.64720","Snowdepth":"8.000","Units":"in","Rept_Date":"2019-11-17 13"},"coordinates":[2815,6297]},{"type":"Point","properties":{"Station_ID":"LILM1","Station_Nam":"LILLE","Latitude":"47.27770","Longitude":"-68.10520","Snowdepth":"8.000","Units":"in","Rept_Date":"2019-11-17 12"},"coordinates":[7873,7502]},{"type":"Point","properties":{"Station_ID":"KSGM4","Station_Nam":"KEARSARGE","Latitude":"47.27520","Longitude":"-88.41700","Snowdepth":"8.000","Units":"in","Rept_Date":"2019-11-17 13"},"coordinates":[2016,7500]},{"type":"Point","properties":{"Station_ID":"JOHV1","Station_Nam":"JOHNSON 2 N","Latitude":"44.65790","Longitude":"-72.67850","Snowdepth":"8.000","Units":"in","Rept_Date":"2019-11-17 12"},"coordinates":[6554,6031]},{"type":"Point","properties":{"Station_ID":"IWOM4","Station_Nam":"IRONWOOD#2","Latitude":"46.46520","Longitude":"-90.13820","Snowdepth":"8.000","Units":"in","Rept_Date":"2019-11-17 13"},"coordinates":[1519,7046]},{"type":"Point","properties":{"Station_ID":"HURW3","Station_Nam":"HURLEY","Latitude":"46.46250","Longitude":"-90.19550","Snowdepth":"8.000","Units":"in","Rept_Date":"2019-11-17 14"},"coordinates":[1503,7044]},{"type":"Point","properties":{"Station_ID":"CNRM1","Station_Nam":"CONNOR TWP","Latitude":"46.95830","Longitude":"-68.03330","Snowdepth":"8.000","Units":"in","Rept_Date":"2019-11-17 12"},"coordinates":[7894,7322]},{"type":"Point","properties":{"Station_ID":"VT-ES-3","Station_Nam":"LUNENBURG 2.3 NNW, VT","Latitude":"44.49324","Longitude":"-71.70446","Snowdepth":"7.000","Units":"in","Rept_Date":"2019-11-17 11"},"coordinates":[6835,5939]},{"type":"Point","properties":{"Station_ID":"PTBN3","Station_Nam":"DAM WITHIN","Latitude":"45.05000","Longitude":"-71.38330","Snowdepth":"7.000","Units":"in","Rept_Date":"2019-11-17 12"},"coordinates":[6928,6251]},{"type":"Point","properties":{"Station_ID":"NWCM4","Station_Nam":"NEWBERRY CITY","Latitude":"46.35720","Longitude":"-85.51780","Snowdepth":"7.000","Units":"in","Rept_Date":"2019-11-17 12"},"coordinates":[2852,6985]},{"type":"Point","properties":{"Station_ID":"MNSM4","Station_Nam":"MUNISING","Latitude":"46.41210","Longitude":"-86.66250","Snowdepth":"7.000","Units":"in","Rept_Date":"2019-11-17 11"},"coordinates":[2522,7016]},{"type":"Point","properties":{"Station_ID":"MI-AT-6","Station_Nam":"MANCELONA 0.5 ESE, MI","Latitude":"44.89981","Longitude":"-85.05100","Snowdepth":"7.000","Units":"in","Rept_Date":"2019-11-17 13"},"coordinates":[2986,6167]},{"type":"Point","properties":{"Station_ID":"HRSM4","Station_Nam":"HARRISVILLE 2NNE","Latitude":"44.68190","Longitude":"-83.28080","Snowdepth":"7.000","Units":"in","Rept_Date":"2019-11-17 13"},"coordinates":[3497,6045]},{"type":"Point","properties":{"Station_ID":"CARM1","Station_Nam":"CARIBOU WFO","Latitude":"46.86810","Longitude":"-68.01250","Snowdepth":"7.000","Units":"in","Rept_Date":"2019-11-18 05"},"coordinates":[7900,7272]},{"type":"Point","properties":{"Station_ID":"CAR","Station_Nam":"CARIBOU, ME","Latitude":"46.86830","Longitude":"-68.01360","Snowdepth":"7.000","Units":"in","Rept_Date":"2019-11-17 12"},"coordinates":[7900,7272]},{"type":"Point","properties":{"Station_ID":"CAN-NB-13","Station_Nam":"BATHURST 3.8 NW, CAN","Latitude":"47.64212","Longitude":"-65.68756","Snowdepth":"6.500","Units":"in","Rept_Date":"2019-11-17 11"},"coordinates":[8571,7706]},{"type":"Point","properties":{"Station_ID":"MI-MB-55","Station_Nam":"FRASER 1.2 N, MI","Latitude":"42.55697","Longitude":"-82.94938","Snowdepth":"6.200","Units":"in","Rept_Date":"2019-11-17 12"},"coordinates":[3593,4852]},{"type":"Point","properties":{"Station_ID":"VT-WS-30","Station_Nam":"WOODBURY 3.4 NNW, VT","Latitude":"44.48825","Longitude":"-72.43258","Snowdepth":"6.000","Units":"in","Rept_Date":"2019-11-17 12"},"coordinates":[6625,5936]},{"type":"Point","properties":{"Station_ID":"VT-OL-2","Station_Nam":"BARTON 3.0 ENE, VT","Latitude":"44.75863","Longitude":"-72.11680","Snowdepth":"6.000","Units":"in","Rept_Date":"2019-11-17 12"},"coordinates":[6716,6088]},{"type":"Point","properties":{"Station_ID":"VT-OL-1","Station_Nam":"WESTFIELD 0.7 WNW, VT","Latitude":"44.89160","Longitude":"-72.44350","Snowdepth":"6.000","Units":"in","Rept_Date":"2019-11-17 12"},"coordinates":[6622,6162]},{"type":"Point","properties":{"Station_ID":"VT-CH-4","Station_Nam":"UNDERHILL 4.4 NNE, VT","Latitude":"44.58774","Longitude":"-72.92250","Snowdepth":"6.000","Units":"in","Rept_Date":"2019-11-17 12"},"coordinates":[6484,5992]},{"type":"Point","properties":{"Station_ID":"SUAW3","Station_Nam":"SUAMICO","Latitude":"44.60190","Longitude":"-88.09780","Snowdepth":"6.000","Units":"in","Rept_Date":"2019-11-17 12"},"coordinates":[2108,6000]},{"type":"Point","properties":{"Station_ID":"SSMM4","Station_Nam":"SAULT STE MARIE","Latitude":"46.48660","Longitude":"-84.40250","Snowdepth":"6.000","Units":"in","Rept_Date":"2019-11-17 13"},"coordinates":[3174,7058]},{"type":"Point","properties":{"Station_ID":"QNCM4","Station_Nam":"QUINCY HILL","Latitude":"47.13640","Longitude":"-88.57950","Snowdepth":"6.000","Units":"in","Rept_Date":"2019-11-17 12"},"coordinates":[1969,7422]},{"type":"Point","properties":{"Station_ID":"NY-FK-7","Station_Nam":"SARANAC LAKE 6.2 N, NY","Latitude":"44.41359","Longitude":"-74.15211","Snowdepth":"6.000","Units":"in","Rept_Date":"2019-11-17 12"},"coordinates":[6130,5894]},{"type":"Point","properties":{"Station_ID":"NY-ES-7","Station_Nam":"KEESEVILLE 0.8 SE, NY","Latitude":"44.49504","Longitude":"-73.47109","Snowdepth":"6.000","Units":"in","Rept_Date":"2019-11-17 12"},"coordinates":[6326,5940]},{"type":"Point","properties":{"Station_ID":"NY-ER-158","Station_Nam":"EAST AURORA 2.7 SSE, NY","Latitude":"42.72936","Longitude":"-78.60561","Snowdepth":"6.000","Units":"in","Rept_Date":"2019-11-17 12"},"coordinates":[4845,4949]},{"type":"Point","properties":{"Station_ID":"NUNV1","Station_Nam":"NORTH UNDERHILL","Latitude":"44.58760","Longitude":"-72.92150","Snowdepth":"6.000","Units":"in","Rept_Date":"2019-11-17 12"},"coordinates":[6484,5992]},{"type":"Point","properties":{"Station_ID":"NH-CS-4","Station_Nam":"PITTSBURG 6.1 NE, NH","Latitude":"45.11060","Longitude":"-71.29760","Snowdepth":"6.000","Units":"in","Rept_Date":"2019-11-17 12"},"coordinates":[6953,6285]},{"type":"Point","properties":{"Station_ID":"MI-WY-7","Station_Nam":"DEARBORN 3.5 NE, MI","Latitude":"42.35000","Longitude":"-83.17000","Snowdepth":"6.000","Units":"in","Rept_Date":"2019-11-17 12"},"coordinates":[3529,4736]},{"type":"Point","properties":{"Station_ID":"JEFV1","Station_Nam":"JEFFERSONVILLE","Latitude":"44.58430","Longitude":"-72.78700","Snowdepth":"6.000","Units":"in","Rept_Date":"2019-11-17 12"},"coordinates":[6523,5990]},{"type":"Point","properties":{"Station_ID":"IRMM4","Station_Nam":"WWTP","Latitude":"46.46670","Longitude":"-90.18330","Snowdepth":"6.000","Units":"in","Rept_Date":"2019-11-17 13"},"coordinates":[1506,7047]},{"type":"Point","properties":{"Station_ID":"HERM4","Station_Nam":"HERMAN,MI","Latitude":"46.65000","Longitude":"-88.33330","Snowdepth":"6.000","Units":"in","Rept_Date":"2019-11-17 13"},"coordinates":[2040,7149]},{"type":"Point","properties":{"Station_ID":"GHMN3","Station_Nam":"PINKHAM NOTCH","Latitude":"44.25800","Longitude":"-71.25250","Snowdepth":"6.000","Units":"in","Rept_Date":"2019-11-17 11"},"coordinates":[6966,5807]},{"type":"Point","properties":{"Station_ID":"FLAM4","Station_Nam":"FIFE LAKE 2WNW","Latitude":"44.58480","Longitude":"-85.36530","Snowdepth":"6.000","Units":"in","Rept_Date":"2019-11-17 12"},"coordinates":[2896,5990]},{"type":"Point","properties":{"Station_ID":"ENFV1","Station_Nam":"ENOSBURG FALLS 2","Latitude":"44.90960","Longitude":"-72.81370","Snowdepth":"6.000","Units":"in","Rept_Date":"2019-11-17 12"},"coordinates":[6516,6173]},{"type":"Point","properties":{"Station_ID":"DBNM4","Station_Nam":"DEARBORN NO.2","Latitude":"42.34670","Longitude":"-83.17420","Snowdepth":"6.000","Units":"in","Rept_Date":"2019-11-17 12"},"coordinates":[3528,4734]},{"type":"Point","properties":{"Station_ID":"COLN3","Station_Nam":"COLEBROOK 3SW","Latitude":"44.86100","Longitude":"-71.53920","Snowdepth":"6.000","Units":"in","Rept_Date":"2019-11-17 12"},"coordinates":[6883,6145]},{"type":"Point","properties":{"Station_ID":"CHRM4","Station_Nam":"CHARLEVOIX","Latitude":"45.31720","Longitude":"-85.26720","Snowdepth":"6.000","Units":"in","Rept_Date":"2019-11-17 13"},"coordinates":[2924,6401]},{"type":"Point","properties":{"Station_ID":"BRKN6","Station_Nam":"BROCKPORT","Latitude":"43.21600","Longitude":"-77.95290","Snowdepth":"6.000","Units":"in","Rept_Date":"2019-11-17 14"},"coordinates":[5033,5222]},{"type":"Point","properties":{"Station_ID":"ATMM4","Station_Nam":"ATLANTIC MINE 5NW","Latitude":"47.15440","Longitude":"-88.71670","Snowdepth":"6.000","Units":"in","Rept_Date":"2019-11-17 20"},"coordinates":[1929,7433]},{"type":"Point","properties":{"Station_ID":"APXM4","Station_Nam":"GAYLORD 9SSW","Latitude":"44.90720","Longitude":"-84.71880","Snowdepth":"6.000","Units":"in","Rept_Date":"2019-11-18 05"},"coordinates":[3082,6171]},{"type":"Point","properties":{"Station_ID":"ANJM4","Station_Nam":"SNOW PAID OBSERVER FOR KANJ","Latitude":"46.48670","Longitude":"-84.40260","Snowdepth":"6.000","Units":"in","Rept_Date":"2019-11-18 06"},"coordinates":[3173,7058]},{"type":"Point","properties":{"Station_ID":"ANJ","Station_Nam":"SAULT STE MARIE","Latitude":"46.46670","Longitude":"-84.36670","Snowdepth":"6.000","Units":"in","Rept_Date":"2019-11-18 00"},"coordinates":[3184,7047]},{"type":"Point","properties":{"Station_ID":"ALPM4","Station_Nam":"SNOW PAID OBSERVER FOR KAPN","Latitude":"45.03110","Longitude":"-83.55970","Snowdepth":"6.000","Units":"in","Rept_Date":"2019-11-18 06"},"coordinates":[3417,6241]},{"type":"Point","properties":{"Station_ID":"MI-WS-3","Station_Nam":"PLYMOUTH 5.4 W, MI","Latitude":"42.38279","Longitude":"-83.57120","Snowdepth":"5.900","Units":"in","Rept_Date":"2019-11-17 12"},"coordinates":[3413,4754]},{"type":"Point","properties":{"Station_ID":"SVBQ6","Station_Nam":"SAVANT BASE","Latitude":"50.28730","Longitude":"-90.65670","Snowdepth":"5.830","Units":"in","Rept_Date":"2019-11-18 06"},"coordinates":[1370,9191]},{"type":"Point","properties":{"Station_ID":"DVLQ6","Station_Nam":"DEVIOUS LAKE","Latitude":"49.19890","Longitude":"-87.76440","Snowdepth":"5.510","Units":"in","Rept_Date":"2019-11-18 06"},"coordinates":[2204,8580]},{"type":"Point","properties":{"Station_ID":"VT-WS-15","Station_Nam":"EAST CALAIS 1.5 SW, VT","Latitude":"44.35523","Longitude":"-72.45540","Snowdepth":"5.500","Units":"in","Rept_Date":"2019-11-17 12"},"coordinates":[6619,5861]},{"type":"Point","properties":{"Station_ID":"VT-OL-5","Station_Nam":"DERBY CENTER 1.8 NW, VT","Latitude":"44.97200","Longitude":"-72.14780","Snowdepth":"5.500","Units":"in","Rept_Date":"2019-11-17 12"},"coordinates":[6708,6208]},{"type":"Point","properties":{"Station_ID":"NY-FK-9","Station_Nam":"GABRIELS 1.3 SE, NY","Latitude":"44.41934","Longitude":"-74.16194","Snowdepth":"5.500","Units":"in","Rept_Date":"2019-11-17 12"},"coordinates":[6127,5897]},{"type":"Point","properties":{"Station_ID":"CAN-QC-51","Station_Nam":"BELOEIL 0.7 NW, CAN","Latitude":"45.58049","Longitude":"-73.21218","Snowdepth":"5.300","Units":"in","Rept_Date":"2019-11-17 12"},"coordinates":[6401,6549]},{"type":"Point","properties":{"Station_ID":"CAN-QC-16","Station_Nam":"SAINT-ARMAND 3.6 W, CAN","Latitude":"45.02631","Longitude":"-73.08795","Snowdepth":"5.300","Units":"in","Rept_Date":"2019-11-17 12"},"coordinates":[6436,6238]},{"type":"Point","properties":{"Station_ID":"SOCQ6","Station_Nam":"SOCKET LAKE","Latitude":"50.77870","Longitude":"-91.79300","Snowdepth":"5.240","Units":"in","Rept_Date":"2019-11-18 06"},"coordinates":[1042,9467]},{"type":"Point","properties":{"Station_ID":"MI-BG-3","Station_Nam":"L'ANSE 17.8 SE, MI","Latitude":"46.55730","Longitude":"-88.20770","Snowdepth":"5.200","Units":"in","Rept_Date":"2019-11-17 13"},"coordinates":[2076,7097]},{"type":"Point","properties":{"Station_ID":"MI-AN-20","Station_Nam":"HOLLAND 5.3 WSW, MI","Latitude":"42.74900","Longitude":"-86.20200","Snowdepth":"5.200","Units":"in","Rept_Date":"2019-11-17 13"},"coordinates":[2655,4960]},{"type":"Point","properties":{"Station_ID":"WRPW3","Station_Nam":"WATER PURIFICATION PLANT","Latitude":"44.38800","Longitude":"-89.80550","Snowdepth":"5.000","Units":"in","Rept_Date":"2019-11-17 12"},"coordinates":[1615,5880]},{"type":"Point","properties":{"Station_ID":"WLSN6","Station_Nam":"WALES","Latitude":"42.73920","Longitude":"-78.58780","Snowdepth":"5.000","Units":"in","Rept_Date":"2019-11-17 12"},"coordinates":[4850,4954]},{"type":"Point","properties":{"Station_ID":"VT-CL-23","Station_Nam":"RYEGATE 1.5 N, VT","Latitude":"44.23024","Longitude":"-72.10523","Snowdepth":"5.000","Units":"in","Rept_Date":"2019-11-17 12"},"coordinates":[6720,5791]},{"type":"Point","properties":{"Station_ID":"VRGV1","Station_Nam":"VERGENNES","Latitude":"44.17190","Longitude":"-73.24720","Snowdepth":"5.000","Units":"in","Rept_Date":"2019-11-17 12"},"coordinates":[6390,5758]},{"type":"Point","properties":{"Station_ID":"UPSW3","Station_Nam":"UPSON,WI","Latitude":"46.36780","Longitude":"-90.41220","Snowdepth":"5.000","Units":"in","Rept_Date":"2019-11-18 00"},"coordinates":[1440,6991]},{"type":"Point","properties":{"Station_ID":"TOPN6","Station_Nam":"TUPPER LAKE SUNMOUNT","Latitude":"44.23070","Longitude":"-74.43820","Snowdepth":"5.000","Units":"in","Rept_Date":"2019-11-17 12"},"coordinates":[6047,5791]},{"type":"Point","properties":{"Station_ID":"TCEM4","Station_Nam":"TRAVERSE CITY 5ESE","Latitude":"44.73370","Longitude":"-85.51180","Snowdepth":"5.000","Units":"in","Rept_Date":"2019-11-17 12"},"coordinates":[2854,6074]},{"type":"Point","properties":{"Station_ID":"SUTV1","Station_Nam":"SUTTON","Latitude":"44.61220","Longitude":"-72.04810","Snowdepth":"5.000","Units":"in","Rept_Date":"2019-11-17 13"},"coordinates":[6736,6006]},{"type":"Point","properties":{"Station_ID":"RGNM1","Station_Nam":"RANGELEY 2NW","Latitude":"44.98940","Longitude":"-70.67220","Snowdepth":"5.000","Units":"in","Rept_Date":"2019-11-17 15"},"coordinates":[7133,6217]},{"type":"Point","properties":{"Station_ID":"RANM1","Station_Nam":"RANGELEY,ME","Latitude":"44.96670","Longitude":"-70.65000","Snowdepth":"5.000","Units":"in","Rept_Date":"2019-11-17 14"},"coordinates":[7139,6205]},{"type":"Point","properties":{"Station_ID":"PDGM4","Station_Nam":"PAULDING","Latitude":"46.39760","Longitude":"-89.17940","Snowdepth":"5.000","Units":"in","Rept_Date":"2019-11-17 13"},"coordinates":[1796,7008]},{"type":"Point","properties":{"Station_ID":"NY-ER-65","Station_Nam":"BOSTON 1.5 NE, NY","Latitude":"42.65470","Longitude":"-78.72010","Snowdepth":"5.000","Units":"in","Rept_Date":"2019-11-17 12"},"coordinates":[4812,4907]},{"type":"Point","properties":{"Station_ID":"NY-ER-178","Station_Nam":"WEST SENECA 2.5 SE, NY","Latitude":"42.81374","Longitude":"-78.71399","Snowdepth":"5.000","Units":"in","Rept_Date":"2019-11-17 12"},"coordinates":[4814,4996]},{"type":"Point","properties":{"Station_ID":"NVLV1","Station_Nam":"NASHVILLE","Latitude":"44.44970","Longitude":"-72.92640","Snowdepth":"5.000","Units":"in","Rept_Date":"2019-11-17 12"},"coordinates":[6483,5914]},{"type":"Point","properties":{"Station_ID":"NPTV1","Station_Nam":"NEWPORT","Latitude":"44.94900","Longitude":"-72.19120","Snowdepth":"5.000","Units":"in","Rept_Date":"2019-11-17 12"},"coordinates":[6695,6195]},{"type":"Point","properties":{"Station_ID":"NH-CS-10","Station_Nam":"RANDOLPH 1.4 NE, NH","Latitude":"44.38824","Longitude":"-71.26950","Snowdepth":"5.000","Units":"in","Rept_Date":"2019-11-17 12"},"coordinates":[6961,5880]},{"type":"Point","properties":{"Station_ID":"MI-OT-17","Station_Nam":"GAYLORD 4.1 S, MI","Latitude":"44.96388","Longitude":"-84.68467","Snowdepth":"5.000","Units":"in","Rept_Date":"2019-11-17 12"},"coordinates":[3092,6203]},{"type":"Point","properties":{"Station_ID":"MI-GT-25","Station_Nam":"TRAVERSE CITY 4.7 ESE, MI","Latitude":"44.73370","Longitude":"-85.51189","Snowdepth":"5.000","Units":"in","Rept_Date":"2019-11-17 12"},"coordinates":[2854,6074]},{"type":"Point","properties":{"Station_ID":"ME-AR-15","Station_Nam":"PRESQUE ISLE 1.3 WSW, ME","Latitude":"46.67960","Longitude":"-68.01270","Snowdepth":"5.000","Units":"in","Rept_Date":"2019-11-17 12"},"coordinates":[7900,7166]},{"type":"Point","properties":{"Station_ID":"MALN6","Station_Nam":"MALONE","Latitude":"44.84180","Longitude":"-74.30600","Snowdepth":"5.000","Units":"in","Rept_Date":"2019-11-17 12"},"coordinates":[6085,6134]},{"type":"Point","properties":{"Station_ID":"LPLN6","Station_Nam":"LAKE PLACID 2 S","Latitude":"44.30420","Longitude":"-73.98390","Snowdepth":"5.000","Units":"in","Rept_Date":"2019-11-17 12"},"coordinates":[6178,5833]},{"type":"Point","properties":{"Station_ID":"LEXM4","Station_Nam":"LEXINGTON WATER PLANT","Latitude":"43.26310","Longitude":"-82.53280","Snowdepth":"5.000","Units":"in","Rept_Date":"2019-11-17 13"},"coordinates":[3713,5248]},{"type":"Point","properties":{"Station_ID":"ISLV1","Station_Nam":"ISLAND POND","Latitude":"44.81280","Longitude":"-71.89020","Snowdepth":"5.000","Units":"in","Rept_Date":"2019-11-17 18"},"coordinates":[6782,6118]},{"type":"Point","properties":{"Station_ID":"HGHN6","Station_Nam":"HIGHMARKET","Latitude":"43.57520","Longitude":"-75.52070","Snowdepth":"5.000","Units":"in","Rept_Date":"2019-11-17 11"},"coordinates":[5735,5424]},{"type":"Point","properties":{"Station_ID":"GNLM4","Station_Nam":"GREENLAND 6N","Latitude":"46.87360","Longitude":"-89.10060","Snowdepth":"5.000","Units":"in","Rept_Date":"2019-11-17 11"},"coordinates":[1819,7275]},{"type":"Point","properties":{"Station_ID":"CAN-ON-42","Station_Nam":"VANKLEEK HILL 3.4 S, CA","Latitude":"45.48987","Longitude":"-74.64570","Snowdepth":"5.000","Units":"in","Rept_Date":"2019-11-17 12"},"coordinates":[5987,6498]},{"type":"Point","properties":{"Station_ID":"CAN-ON-109","Station_Nam":"MILDMAY 5.9 SSE, CA","Latitude":"43.98733","Longitude":"-81.10330","Snowdepth":"5.000","Units":"in","Rept_Date":"2019-11-17 13"},"coordinates":[4125,5655]},{"type":"Point","properties":{"Station_ID":"CAN-NB-2","Station_Nam":"GRAFTON 2.7 NNE, CA","Latitude":"46.17062","Longitude":"-67.55330","Snowdepth":"5.000","Units":"in","Rept_Date":"2019-11-17 11"},"coordinates":[8033,6880]},{"type":"Point","properties":{"Station_ID":"CAN-NB-18","Station_Nam":"MCLEOD HILL 1.1 ENE, CA","Latitude":"46.02725","Longitude":"-66.67460","Snowdepth":"5.000","Units":"in","Rept_Date":"2019-11-17 12"},"coordinates":[8286,6800]},{"type":"Point","properties":{"Station_ID":"BUNM4","Station_Nam":"BURTON 4N","Latitude":"43.06750","Longitude":"-83.59190","Snowdepth":"5.000","Units":"in","Rept_Date":"2019-11-17 12"},"coordinates":[3407,5139]},{"type":"Point","properties":{"Station_ID":"BRDM1","Station_Nam":"BRIDGEWATER","Latitude":"46.42870","Longitude":"-67.84370","Snowdepth":"5.000","Units":"in","Rept_Date":"2019-11-17 23"},"coordinates":[7949,7025]},{"type":"Point","properties":{"Station_ID":"ABNN6","Station_Nam":"ALBION","Latitude":"43.26330","Longitude":"-78.21520","Snowdepth":"5.000","Units":"in","Rept_Date":"2019-11-17 23"},"coordinates":[4958,5248]},{"type":"Point","properties":{"Station_ID":"WI-VL-10","Station_Nam":"LAND O LAKES 4.3 WNW, WI","Latitude":"46.17440","Longitude":"-89.30380","Snowdepth":"4.500","Units":"in","Rept_Date":"2019-11-17 13"},"coordinates":[1760,6882]},{"type":"Point","properties":{"Station_ID":"WI-IR-3","Station_Nam":"PENCE 0.1 E, WI","Latitude":"46.41555","Longitude":"-90.27013","Snowdepth":"4.500","Units":"in","Rept_Date":"2019-11-17 13"},"coordinates":[1481,7018]},{"type":"Point","properties":{"Station_ID":"VT-LM-7","Station_Nam":"HYDE PARK 2.9 NE, VT","Latitude":"44.62080","Longitude":"-72.57250","Snowdepth":"4.500","Units":"in","Rept_Date":"2019-11-17 13"},"coordinates":[6585,6010]},{"type":"Point","properties":{"Station_ID":"NY-ER-138","Station_Nam":"EAST AURORA 3.4 NNE, NY","Latitude":"42.81400","Longitude":"-78.59670","Snowdepth":"4.500","Units":"in","Rept_Date":"2019-11-17 12"},"coordinates":[4848,4996]},{"type":"Point","properties":{"Station_ID":"NH-GR-47","Station_Nam":"LITTLETON 7.3 W, NH","Latitude":"44.31847","Longitude":"-71.91086","Snowdepth":"4.500","Units":"in","Rept_Date":"2019-11-17 13"},"coordinates":[6776,5841]},{"type":"Point","properties":{"Station_ID":"MI-WS-53","Station_Nam":"CHELSEA 3.7 NNE, MI","Latitude":"42.36360","Longitude":"-83.99330","Snowdepth":"4.500","Units":"in","Rept_Date":"2019-11-17 13"},"coordinates":[3292,4744]},{"type":"Point","properties":{"Station_ID":"MI-CX-7","Station_Nam":"EAST JORDAN 2.1 NNW, MI","Latitude":"45.18639","Longitude":"-85.14750","Snowdepth":"4.500","Units":"in","Rept_Date":"2019-11-17 13"},"coordinates":[2959,6328]},{"type":"Point","properties":{"Station_ID":"MI-CT-18","Station_Nam":"LAINGSBURG 2.1 NNW, MI","Latitude":"42.91661","Longitude":"-84.36803","Snowdepth":"4.500","Units":"in","Rept_Date":"2019-11-17 13"},"coordinates":[3183,5054]},{"type":"Point","properties":{"Station_ID":"WYON6","Station_Nam":"WYOMING 3W","Latitude":"42.81750","Longitude":"-78.14810","Snowdepth":"4.000","Units":"in","Rept_Date":"2019-11-17 12"},"coordinates":[4977,4998]},{"type":"Point","properties":{"Station_ID":"WAIV1","Station_Nam":"WAITSFIELD","Latitude":"44.17560","Longitude":"-72.79610","Snowdepth":"4.000","Units":"in","Rept_Date":"2019-11-17 12"},"coordinates":[6521,5761]},{"type":"Point","properties":{"Station_ID":"VT-WS-11","Station_Nam":"WAITSFIELD 1.8 SE, VT","Latitude":"44.17551","Longitude":"-72.79540","Snowdepth":"4.000","Units":"in","Rept_Date":"2019-11-17 12"},"coordinates":[6521,5761]},{"type":"Point","properties":{"Station_ID":"VT-WS-10","Station_Nam":"NORTHFIELD 1.5 N, VT","Latitude":"44.16986","Longitude":"-72.65200","Snowdepth":"4.000","Units":"in","Rept_Date":"2019-11-17 12"},"coordinates":[6562,5757]},{"type":"Point","properties":{"Station_ID":"VT-GI-3","Station_Nam":"ALBURGH 4.6 SSE, VT","Latitude":"44.91280","Longitude":"-73.26890","Snowdepth":"4.000","Units":"in","Rept_Date":"2019-11-17 15"},"coordinates":[6384,6174]},{"type":"Point","properties":{"Station_ID":"VT-CL-18","Station_Nam":"WHEELOCK 1.6 S, VT","Latitude":"44.56491","Longitude":"-72.08830","Snowdepth":"4.000","Units":"in","Rept_Date":"2019-11-17 12"},"coordinates":[6725,5979]},{"type":"Point","properties":{"Station_ID":"VT-CH-38","Station_Nam":"WILLISTON 0.2 WSW, VT","Latitude":"44.43669","Longitude":"-73.07154","Snowdepth":"4.000","Units":"in","Rept_Date":"2019-11-17 12"},"coordinates":[6441,5907]},{"type":"Point","properties":{"Station_ID":"TCMM4","Station_Nam":"TRAVERSE CITY MUNSON","Latitude":"44.76070","Longitude":"-85.64430","Snowdepth":"4.000","Units":"in","Rept_Date":"2019-11-17 11"},"coordinates":[2815,6089]},{"type":"Point","properties":{"Station_ID":"SLNV1","Station_Nam":"SOUTH LINCOLN","Latitude":"44.07460","Longitude":"-72.97180","Snowdepth":"4.000","Units":"in","Rept_Date":"2019-11-17 12"},"coordinates":[6470,5704]},{"type":"Point","properties":{"Station_ID":"SBNN6","Station_Nam":"SANBORN","Latitude":"43.17050","Longitude":"-78.81810","Snowdepth":"4.000","Units":"in","Rept_Date":"2019-11-17 12"},"coordinates":[4784,5196]},{"type":"Point","properties":{"Station_ID":"RLKW3","Station_Nam":"REST LAKE","Latitude":"46.12220","Longitude":"-89.87720","Snowdepth":"4.000","Units":"in","Rept_Date":"2019-11-17 13"},"coordinates":[1595,6853]},{"type":"Point","properties":{"Station_ID":"RICM4","Station_Nam":"RICHMOND 4 NNW","Latitude":"42.87830","Longitude":"-82.79580","Snowdepth":"4.000","Units":"in","Rept_Date":"2019-11-17 14"},"coordinates":[3637,5032]},{"type":"Point","properties":{"Station_ID":"RDYM4","Station_Nam":"RUDYARD 4S","Latitude":"46.18170","Longitude":"-84.60140","Snowdepth":"4.000","Units":"in","Rept_Date":"2019-11-17 12"},"coordinates":[3116,6887]},{"type":"Point","properties":{"Station_ID":"PONM4","Station_Nam":"STATE HOSPITAL","Latitude":"42.65000","Longitude":"-83.30000","Snowdepth":"4.000","Units":"in","Rept_Date":"2019-11-17 12"},"coordinates":[3491,4904]},{"type":"Point","properties":{"Station_ID":"NY-WY-10","Station_Nam":"WYOMING COOP, NY","Latitude":"42.82060","Longitude":"-78.14810","Snowdepth":"4.000","Units":"in","Rept_Date":"2019-11-17 12"},"coordinates":[4977,5000]},{"type":"Point","properties":{"Station_ID":"NY-ER-77","Station_Nam":"COLDEN 2.4 ENE, NY","Latitude":"42.65088","Longitude":"-78.61060","Snowdepth":"4.000","Units":"in","Rept_Date":"2019-11-17 13"},"coordinates":[4844,4905]},{"type":"Point","properties":{"Station_ID":"NY-ER-102","Station_Nam":"CHEEKTOWAGA 2.7 NE, NY","Latitude":"42.94119","Longitude":"-78.71933","Snowdepth":"4.000","Units":"in","Rept_Date":"2019-11-17 12"},"coordinates":[4812,5068]},{"type":"Point","properties":{"Station_ID":"NSFN3","Station_Nam":"NORTH STRATFORD","Latitude":"44.68190","Longitude":"-71.58570","Snowdepth":"4.000","Units":"in","Rept_Date":"2019-11-17 12"},"coordinates":[6870,6045]},{"type":"Point","properties":{"Station_ID":"NCKN6","Station_Nam":"NORTH CREEK 5 SE","Latitude":"43.66110","Longitude":"-73.89690","Snowdepth":"4.000","Units":"in","Rept_Date":"2019-11-17 12"},"coordinates":[6203,5472]},{"type":"Point","properties":{"Station_ID":"MTQM4","Station_Nam":"MANISTIQUE WWTP","Latitude":"45.95120","Longitude":"-86.25130","Snowdepth":"4.000","Units":"in","Rept_Date":"2019-11-17 12"},"coordinates":[2640,6757]},{"type":"Point","properties":{"Station_ID":"MI-OT-4","Station_Nam":"GAYLORD 1.7 WNW, MI","Latitude":"45.03280","Longitude":"-84.71090","Snowdepth":"4.000","Units":"in","Rept_Date":"2019-11-17 13"},"coordinates":[3085,6242]},{"type":"Point","properties":{"Station_ID":"MI-OT-16","Station_Nam":"GAYLORD 2.2 SSE, MI","Latitude":"44.99441","Longitude":"-84.65820","Snowdepth":"4.000","Units":"in","Rept_Date":"2019-11-17 14"},"coordinates":[3100,6220]},{"type":"Point","properties":{"Station_ID":"MI-HG-1","Station_Nam":"HOUGHTON 1.6 ESE, MI","Latitude":"47.10774","Longitude":"-88.52940","Snowdepth":"4.000","Units":"in","Rept_Date":"2019-11-17 13"},"coordinates":[1983,7406]},{"type":"Point","properties":{"Station_ID":"MI-GN-29","Station_Nam":"DAVISON 5.2 N, MI","Latitude":"43.10778","Longitude":"-83.51137","Snowdepth":"4.000","Units":"in","Rept_Date":"2019-11-17 14"},"coordinates":[3430,5161]},{"type":"Point","properties":{"Station_ID":"ME-SM-4","Station_Nam":"SOLON 3.9 ESE, ME","Latitude":"44.94705","Longitude":"-69.77790","Snowdepth":"4.000","Units":"in","Rept_Date":"2019-11-17 12"},"coordinates":[7391,6194]},{"type":"Point","properties":{"Station_ID":"ME-PN-45","Station_Nam":"MILLINOCKET 2.7 ESE, ME","Latitude":"45.65002","Longitude":"-68.64472","Snowdepth":"4.000","Units":"in","Rept_Date":"2019-11-17 12"},"coordinates":[7718,6588]},{"type":"Point","properties":{"Station_ID":"LPEM4","Station_Nam":"LAPEER,MI","Latitude":"43.06280","Longitude":"-83.33330","Snowdepth":"4.000","Units":"in","Rept_Date":"2019-11-17 16"},"coordinates":[3482,5136]},{"type":"Point","properties":{"Station_ID":"LNCM1","Station_Nam":"LINCOLN WATER DISTRICT","Latitude":"45.32410","Longitude":"-68.58300","Snowdepth":"4.000","Units":"in","Rept_Date":"2019-11-17 13"},"coordinates":[7736,6405]},{"type":"Point","properties":{"Station_ID":"LERN6","Station_Nam":"LE ROY 1E","Latitude":"42.97360","Longitude":"-77.96710","Snowdepth":"4.000","Units":"in","Rept_Date":"2019-11-17 12"},"coordinates":[5029,5086]},{"type":"Point","properties":{"Station_ID":"KTVC","Station_Nam":"CHERRY CAPITAL AIRPORT","Latitude":"44.73333","Longitude":"-85.56666","Snowdepth":"4.000","Units":"in","Rept_Date":"2019-11-17 18"},"coordinates":[2838,6074]},{"type":"Point","properties":{"Station_ID":"KBTV","Station_Nam":"BURLINGTON INTERNATIONAL","Latitude":"44.46666","Longitude":"-73.15000","Snowdepth":"4.000","Units":"in","Rept_Date":"2019-11-17 12"},"coordinates":[6419,5924]},{"type":"Point","properties":{"Station_ID":"GPFM4","Station_Nam":"GROSSE POINTE FARMS,MI","Latitude":"42.38330","Longitude":"-82.90000","Snowdepth":"4.000","Units":"in","Rept_Date":"2019-11-17 13"},"coordinates":[3607,4755]},{"type":"Point","properties":{"Station_ID":"GOVN6","Station_Nam":"GOUVERNEUR 3 NW","Latitude":"44.35400","Longitude":"-75.51230","Snowdepth":"4.000","Units":"in","Rept_Date":"2019-11-17 12"},"coordinates":[5737,5861]},{"type":"Point","properties":{"Station_ID":"GAYM4","Station_Nam":"GAYLORD","Latitude":"45.03320","Longitude":"-84.71130","Snowdepth":"4.000","Units":"in","Rept_Date":"2019-11-17 13"},"coordinates":[3084,6242]},{"type":"Point","properties":{"Station_ID":"EJNM4","Station_Nam":"EAST JORDAN 2NW","Latitude":"45.18630","Longitude":"-85.14770","Snowdepth":"4.000","Units":"in","Rept_Date":"2019-11-17 13"},"coordinates":[2959,6328]},{"type":"Point","properties":{"Station_ID":"CHLM4","Station_Nam":"CHELSEA,MI","Latitude":"42.31670","Longitude":"-84.01670","Snowdepth":"4.000","Units":"in","Rept_Date":"2019-11-17 14"},"coordinates":[3285,4717]},{"type":"Point","properties":{"Station_ID":"CAN-NB-11","Station_Nam":"MIRAMICHI 3.3 S, CAN","Latitude":"46.99343","Longitude":"-65.50690","Snowdepth":"4.000","Units":"in","Rept_Date":"2019-11-17 12"},"coordinates":[8623,7342]},{"type":"Point","properties":{"Station_ID":"BTV","Station_Nam":"BURLINGTON, VT","Latitude":"44.47140","Longitude":"-73.15330","Snowdepth":"4.000","Units":"in","Rept_Date":"2019-11-18 01"},"coordinates":[6418,5927]},{"type":"Point","properties":{"Station_ID":"ATAN6","Station_Nam":"ATTICA 7 SW","Latitude":"42.81070","Longitude":"-78.39790","Snowdepth":"4.000","Units":"in","Rept_Date":"2019-11-17 11"},"coordinates":[4905,4994]},{"type":"Point","properties":{"Station_ID":"ARBM4","Station_Nam":"UNIV OF MICH","Latitude":"42.30000","Longitude":"-83.71670","Snowdepth":"4.000","Units":"in","Rept_Date":"2019-11-17 23"},"coordinates":[3371,4708]},{"type":"Point","properties":{"Station_ID":"ANDM1","Station_Nam":"ANDOVER 2","Latitude":"44.65300","Longitude":"-70.79410","Snowdepth":"4.000","Units":"in","Rept_Date":"2019-11-17 11"},"coordinates":[7098,6029]},{"type":"Point","properties":{"Station_ID":"CATQ6","Station_Nam":"CAT LAKE","Latitude":"51.72690","Longitude":"-91.82210","Snowdepth":"3.940","Units":"in","Rept_Date":"2019-11-18 06"},"coordinates":[1034,9999]},{"type":"Point","properties":{"Station_ID":"CAN-ON-86","Station_Nam":"GUELPH 5.1 S - CANWARN, CAN","Latitude":"43.49691","Longitude":"-80.24385","Snowdepth":"3.900","Units":"in","Rept_Date":"2019-11-17 12"},"coordinates":[4373,5380]},{"type":"Point","properties":{"Station_ID":"TRIQ6","Station_Nam":"TRIO LAKE","Latitude":"49.22880","Longitude":"-87.22920","Snowdepth":"3.580","Units":"in","Rept_Date":"2019-11-18 06"},"coordinates":[2358,8597]},{"type":"Point","properties":{"Station_ID":"VT-WS-33","Station_Nam":"WAITSFIELD 3.5 WNW, VT","Latitude":"44.20052","Longitude":"-72.89421","Snowdepth":"3.500","Units":"in","Rept_Date":"2019-11-17 13"},"coordinates":[6492,5775]},{"type":"Point","properties":{"Station_ID":"VT-WS-19","Station_Nam":"WATERBURY 3.0 NW, VT","Latitude":"44.36060","Longitude":"-72.80770","Snowdepth":"3.500","Units":"in","Rept_Date":"2019-11-17 11"},"coordinates":[6517,5864]},{"type":"Point","properties":{"Station_ID":"VT-OG-11","Station_Nam":"VERSHIRE 1.5 ESE, VT","Latitude":"43.96138","Longitude":"-72.29777","Snowdepth":"3.500","Units":"in","Rept_Date":"2019-11-17 12"},"coordinates":[6664,5640]},{"type":"Point","properties":{"Station_ID":"VT-LM-1","Station_Nam":"STOWE 0.2 SW, VT","Latitude":"44.46399","Longitude":"-72.69070","Snowdepth":"3.500","Units":"in","Rept_Date":"2019-11-17 12"},"coordinates":[6551,5922]},{"type":"Point","properties":{"Station_ID":"NY-ER-75","Station_Nam":"ELMA CENTER 0.7 SE, NY","Latitude":"42.81936","Longitude":"-78.62140","Snowdepth":"3.500","Units":"in","Rept_Date":"2019-11-17 14"},"coordinates":[4841,4999]},{"type":"Point","properties":{"Station_ID":"NY-CL-7","Station_Nam":"PERU 4.1 ESE, NY","Latitude":"44.56461","Longitude":"-73.45390","Snowdepth":"3.500","Units":"in","Rept_Date":"2019-11-17 11"},"coordinates":[6331,5979]},{"type":"Point","properties":{"Station_ID":"MI-WS-25","Station_Nam":"SALINE 3.8 SSW, MI","Latitude":"42.12618","Longitude":"-83.81090","Snowdepth":"3.500","Units":"in","Rept_Date":"2019-11-17 12"},"coordinates":[3344,4610]},{"type":"Point","properties":{"Station_ID":"MI-GT-21","Station_Nam":"KINGSLEY 2.7 ENE, MI","Latitude":"44.59871","Longitude":"-85.48426","Snowdepth":"3.500","Units":"in","Rept_Date":"2019-11-17 11"},"coordinates":[2862,5998]},{"type":"Point","properties":{"Station_ID":"MI-CP-14","Station_Nam":"SAULT STE. MARIE 2.2 E, MI","Latitude":"46.48933","Longitude":"-84.31971","Snowdepth":"3.500","Units":"in","Rept_Date":"2019-11-17 12"},"coordinates":[3197,7059]},{"type":"Point","properties":{"Station_ID":"MI-CF-9","Station_Nam":"GRAYLING 15.8 NE, MI","Latitude":"44.80464","Longitude":"-84.46313","Snowdepth":"3.500","Units":"in","Rept_Date":"2019-11-17 12"},"coordinates":[3156,6114]},{"type":"Point","properties":{"Station_ID":"CAN-ON-132","Station_Nam":"ORANGEVILLE 5.1 SSW - CANWARN, CAN","Latitude":"43.87372","Longitude":"-80.13428","Snowdepth":"3.500","Units":"in","Rept_Date":"2019-11-17 12"},"coordinates":[4404,5591]},{"type":"Point","properties":{"Station_ID":"CAN-ON-92","Station_Nam":"DUNROBIN 1.9 W - MVCA, CAN","Latitude":"45.42318","Longitude":"-76.04525","Snowdepth":"3.300","Units":"in","Rept_Date":"2019-11-17 12"},"coordinates":[5584,6461]},{"type":"Point","properties":{"Station_ID":"CAN-ON-31","Station_Nam":"KOMOKA 2.8 W, CAN","Latitude":"42.95424","Longitude":"-81.43488","Snowdepth":"3.100","Units":"in","Rept_Date":"2019-11-17 13"},"coordinates":[4029,5075]},{"type":"Point","properties":{"Station_ID":"YALM4","Station_Nam":"YALE,MI","Latitude":"43.15000","Longitude":"-82.80000","Snowdepth":"3.000","Units":"in","Rept_Date":"2019-11-17 13"},"coordinates":[3636,5185]},{"type":"Point","properties":{"Station_ID":"WYTM4","Station_Nam":"WYANDOTTE","Latitude":"42.20110","Longitude":"-83.16830","Snowdepth":"3.000","Units":"in","Rept_Date":"2019-11-17 13"},"coordinates":[3529,4652]},{"type":"Point","properties":{"Station_ID":"WTRM4","Station_Nam":"WATERSMEET 12WSW","Latitude":"46.22310","Longitude":"-89.40850","Snowdepth":"3.000","Units":"in","Rept_Date":"2019-11-17 12"},"coordinates":[1730,6910]},{"type":"Point","properties":{"Station_ID":"WTNM4","Station_Nam":"WATTON 2WSW","Latitude":"46.52660","Longitude":"-88.64240","Snowdepth":"3.000","Units":"in","Rept_Date":"2019-11-17 13"},"coordinates":[1951,7080]},{"type":"Point","properties":{"Station_ID":"WRSN6","Station_Nam":"WARSAW 6SW","Latitude":"42.68550","Longitude":"-78.22020","Snowdepth":"3.000","Units":"in","Rept_Date":"2019-11-17 12"},"coordinates":[4956,4924]},{"type":"Point","properties":{"Station_ID":"WORV1","Station_Nam":"WORCESTER 2 W","Latitude":"44.37470","Longitude":"-72.58220","Snowdepth":"3.000","Units":"in","Rept_Date":"2019-11-17 12"},"coordinates":[6582,5872]},{"type":"Point","properties":{"Station_ID":"WLNM4","Station_Nam":"WELLSTON 1N","Latitude":"44.22940","Longitude":"-85.95690","Snowdepth":"3.000","Units":"in","Rept_Date":"2019-11-17 12"},"coordinates":[2725,5791]},{"type":"Point","properties":{"Station_ID":"WLFM5","Station_Nam":"WOLF RIDGE ENVIRON LEARNING CENTER","Latitude":"47.38240","Longitude":"-91.19730","Snowdepth":"3.000","Units":"in","Rept_Date":"2019-11-17 13"},"coordinates":[1214,7560]},{"type":"Point","properties":{"Station_ID":"WI-VL-9","Station_Nam":"LAND O' LAKES 11.7 W, WI","Latitude":"46.19023","Longitude":"-89.45790","Snowdepth":"3.000","Units":"in","Rept_Date":"2019-11-17 13"},"coordinates":[1716,6891]},{"type":"Point","properties":{"Station_ID":"WI-VL-14","Station_Nam":"BOULDER JUNCTION 1.4 NE, WI","Latitude":"46.12840","Longitude":"-89.62470","Snowdepth":"3.000","Units":"in","Rept_Date":"2019-11-17 13"},"coordinates":[1668,6857]},{"type":"Point","properties":{"Station_ID":"WI-RS-1","Station_Nam":"LADYSMITH 2.8 WNW, WI","Latitude":"45.48180","Longitude":"-91.14680","Snowdepth":"3.000","Units":"in","Rept_Date":"2019-11-17 14"},"coordinates":[1229,6494]},{"type":"Point","properties":{"Station_ID":"WHKM4","Station_Nam":"WHITE LAKE,MI","Latitude":"42.69750","Longitude":"-83.47220","Snowdepth":"3.000","Units":"in","Rept_Date":"2019-11-18 06"},"coordinates":[3442,4931]},{"type":"Point","properties":{"Station_ID":"WBSN6","Station_Nam":"WEBSTER 2 NE","Latitude":"43.24190","Longitude":"-77.38810","Snowdepth":"3.000","Units":"in","Rept_Date":"2019-11-18 01"},"coordinates":[5196,5236]},{"type":"Point","properties":{"Station_ID":"VT-CH-13","Station_Nam":"RICHMOND 3.4 SSE, VT","Latitude":"44.36084","Longitude":"-72.96400","Snowdepth":"3.000","Units":"in","Rept_Date":"2019-11-17 12"},"coordinates":[6472,5865]},{"type":"Point","properties":{"Station_ID":"VSSM4","Station_Nam":"VASSAR,MI","Latitude":"43.36670","Longitude":"-83.58330","Snowdepth":"3.000","Units":"in","Rept_Date":"2019-11-17 12"},"coordinates":[3410,5307]},{"type":"Point","properties":{"Station_ID":"TMWN3","Station_Nam":"TAMWORTH 4","Latitude":"43.86390","Longitude":"-71.26610","Snowdepth":"3.000","Units":"in","Rept_Date":"2019-11-17 12"},"coordinates":[6962,5586]},{"type":"Point","properties":{"Station_ID":"SVSN6","Station_Nam":"SILVER SPRINGS 3N","Latitude":"42.70580","Longitude":"-78.09370","Snowdepth":"3.000","Units":"in","Rept_Date":"2019-11-17 12"},"coordinates":[4993,4936]},{"type":"Point","properties":{"Station_ID":"STIM4","Station_Nam":"ST IGNACE","Latitude":"45.86080","Longitude":"-84.71960","Snowdepth":"3.000","Units":"in","Rept_Date":"2019-11-17 12"},"coordinates":[3082,6706]},{"type":"Point","properties":{"Station_ID":"SLNM4","Station_Nam":"SALINE,MI","Latitude":"42.13330","Longitude":"-83.81670","Snowdepth":"3.000","Units":"in","Rept_Date":"2019-11-17 14"},"coordinates":[3342,4614]},{"type":"Point","properties":{"Station_ID":"ROC","Station_Nam":"GREATER ROCHESTER INTL","Latitude":"43.11890","Longitude":"-77.67280","Snowdepth":"3.000","Units":"in","Rept_Date":"2019-11-18 06"},"coordinates":[5114,5167]},{"type":"Point","properties":{"Station_ID":"PRGN6","Station_Nam":"PERRYSBURG","Latitude":"42.46470","Longitude":"-79.00310","Snowdepth":"3.000","Units":"in","Rept_Date":"2019-11-17 16"},"coordinates":[4731,4800]},{"type":"Point","properties":{"Station_ID":"PLFV1","Station_Nam":"PLAINFIELD","Latitude":"44.27610","Longitude":"-72.41500","Snowdepth":"3.000","Units":"in","Rept_Date":"2019-11-17 12"},"coordinates":[6630,5817]},{"type":"Point","properties":{"Station_ID":"OCON6","Station_Nam":"OSCEOLA","Latitude":"43.49910","Longitude":"-75.71210","Snowdepth":"3.000","Units":"in","Rept_Date":"2019-11-17 12"},"coordinates":[5680,5381]},{"type":"Point","properties":{"Station_ID":"NY-WY-11","Station_Nam":"SILVER SPRINGS COOP, NY","Latitude":"42.70580","Longitude":"-78.09370","Snowdepth":"3.000","Units":"in","Rept_Date":"2019-11-17 12"},"coordinates":[4993,4936]},{"type":"Point","properties":{"Station_ID":"NY-ER-63","Station_Nam":"GLENWOOD 1.5 SE, NY","Latitude":"42.60195","Longitude":"-78.63910","Snowdepth":"3.000","Units":"in","Rept_Date":"2019-11-17 13"},"coordinates":[4836,4877]},{"type":"Point","properties":{"Station_ID":"NTON6","Station_Nam":"NORTH TONAWANDA","Latitude":"43.05730","Longitude":"-78.86170","Snowdepth":"3.000","Units":"in","Rept_Date":"2019-11-17 12"},"coordinates":[4771,5133]},{"type":"Point","properties":{"Station_ID":"NH-CR-27","Station_Nam":"TAMWORTH 0.4 NNW, NH","Latitude":"43.86449","Longitude":"-71.26610","Snowdepth":"3.000","Units":"in","Rept_Date":"2019-11-17 12"},"coordinates":[6962,5586]},{"type":"Point","properties":{"Station_ID":"NALN6","Station_Nam":"CATTARAUGUS","Latitude":"42.32450","Longitude":"-78.86700","Snowdepth":"3.000","Units":"in","Rept_Date":"2019-11-17 13"},"coordinates":[4770,4722]},{"type":"Point","properties":{"Station_ID":"MYOM4","Station_Nam":"MIO WWTP","Latitude":"44.64660","Longitude":"-84.11580","Snowdepth":"3.000","Units":"in","Rept_Date":"2019-11-17 13"},"coordinates":[3256,6025]},{"type":"Point","properties":{"Station_ID":"MXON6","Station_Nam":"MEXICO","Latitude":"43.43830","Longitude":"-76.26560","Snowdepth":"3.000","Units":"in","Rept_Date":"2019-11-17 12"},"coordinates":[5520,5347]},{"type":"Point","properties":{"Station_ID":"MWN","Station_Nam":"MOUNT WASHINGTON","Latitude":"44.26670","Longitude":"-71.30000","Snowdepth":"3.000","Units":"in","Rept_Date":"2019-11-18 05"},"coordinates":[6952,5812]},{"type":"Point","properties":{"Station_ID":"MRQM4","Station_Nam":"MARQUETTE WFP","Latitude":"46.54580","Longitude":"-87.37950","Snowdepth":"3.000","Units":"in","Rept_Date":"2019-11-17 13"},"coordinates":[2315,7091]},{"type":"Point","properties":{"Station_ID":"MRAM4","Station_Nam":"MORAN","Latitude":"45.99030","Longitude":"-84.83610","Snowdepth":"3.000","Units":"in","Rept_Date":"2019-11-17 13"},"coordinates":[3048,6779]},{"type":"Point","properties":{"Station_ID":"MIEM4","Station_Nam":"MICHIGAMME 3WNW","Latitude":"46.54530","Longitude":"-88.18000","Snowdepth":"3.000","Units":"in","Rept_Date":"2019-11-17 13"},"coordinates":[2084,7091]},{"type":"Point","properties":{"Station_ID":"MI-WY-33","Station_Nam":"LIVONIA 2.3 NNW, MI","Latitude":"42.43100","Longitude":"-83.38190","Snowdepth":"3.000","Units":"in","Rept_Date":"2019-11-17 12"},"coordinates":[3468,4781]},{"type":"Point","properties":{"Station_ID":"MI-WS-41","Station_Nam":"ANN ARBOR 7.1 W, MI","Latitude":"42.26390","Longitude":"-83.86940","Snowdepth":"3.000","Units":"in","Rept_Date":"2019-11-17 12"},"coordinates":[3327,4688]},{"type":"Point","properties":{"Station_ID":"MI-VB-12","Station_Nam":"PAW PAW 0.7 ESE, MI","Latitude":"42.21583","Longitude":"-85.87741","Snowdepth":"3.000","Units":"in","Rept_Date":"2019-11-18 03"},"coordinates":[2748,4661]},{"type":"Point","properties":{"Station_ID":"MI-OK-94","Station_Nam":"FARMINGTON HILLS 1.4 N, MI","Latitude":"42.50660","Longitude":"-83.37910","Snowdepth":"3.000","Units":"in","Rept_Date":"2019-11-17 12"},"coordinates":[3469,4824]},{"type":"Point","properties":{"Station_ID":"MI-OC-3","Station_Nam":"HART 3 WSW, MI","Latitude":"43.67470","Longitude":"-86.42250","Snowdepth":"3.000","Units":"in","Rept_Date":"2019-11-17 12"},"coordinates":[2591,5479]},{"type":"Point","properties":{"Station_ID":"MI-MQ-2","Station_Nam":"MARQUETTE 6.5 SSE, MI","Latitude":"46.46461","Longitude":"-87.34064","Snowdepth":"3.000","Units":"in","Rept_Date":"2019-11-17 12"},"coordinates":[2326,7045]},{"type":"Point","properties":{"Station_ID":"MI-MC-4","Station_Nam":"ST. IGNACE 0.5SE, MI","Latitude":"45.86057","Longitude":"-84.71980","Snowdepth":"3.000","Units":"in","Rept_Date":"2019-11-17 12"},"coordinates":[3082,6706]},{"type":"Point","properties":{"Station_ID":"MI-HR-10","Station_Nam":"BAY PORT 3.2 SSW, MI","Latitude":"43.80746","Longitude":"-83.40013","Snowdepth":"3.000","Units":"in","Rept_Date":"2019-11-17 13"},"coordinates":[3463,5554]},{"type":"Point","properties":{"Station_ID":"MEDN6","Station_Nam":"MEDINA","Latitude":"43.20930","Longitude":"-78.38940","Snowdepth":"3.000","Units":"in","Rept_Date":"2019-11-17 11"},"coordinates":[4908,5218]},{"type":"Point","properties":{"Station_ID":"ME-AR-30","Station_Nam":"HOULTON 0.7 N, ME","Latitude":"46.12775","Longitude":"-67.83418","Snowdepth":"3.000","Units":"in","Rept_Date":"2019-11-17 12"},"coordinates":[7952,6856]},{"type":"Point","properties":{"Station_ID":"MCHM4","Station_Nam":"MANCHESTER,MI","Latitude":"42.15000","Longitude":"-84.01670","Snowdepth":"3.000","Units":"in","Rept_Date":"2019-11-17 13"},"coordinates":[3285,4624]},{"type":"Point","properties":{"Station_ID":"LPTN6","Station_Nam":"LOCKPORT","Latitude":"43.18760","Longitude":"-78.60910","Snowdepth":"3.000","Units":"in","Rept_Date":"2019-11-18 00"},"coordinates":[4844,5206]},{"type":"Point","properties":{"Station_ID":"LOWN6","Station_Nam":"LOWVILLE","Latitude":"43.79280","Longitude":"-75.48290","Snowdepth":"3.000","Units":"in","Rept_Date":"2019-11-17 12"},"coordinates":[5746,5546]},{"type":"Point","properties":{"Station_ID":"LNOW3","Station_Nam":"LAND O LAKES","Latitude":"46.19000","Longitude":"-89.45700","Snowdepth":"3.000","Units":"in","Rept_Date":"2019-11-17 13"},"coordinates":[1716,6891]},{"type":"Point","properties":{"Station_ID":"KSEM4","Station_Nam":"KALKASKA 11SE","Latitude":"44.58970","Longitude":"-85.04860","Snowdepth":"3.000","Units":"in","Rept_Date":"2019-11-17 13"},"coordinates":[2987,5993]},{"type":"Point","properties":{"Station_ID":"KROC","Station_Nam":"GREATER ROCHESTER INTERNATIONAL","Latitude":"43.11666","Longitude":"-77.68333","Snowdepth":"3.000","Units":"in","Rept_Date":"2019-11-17 18"},"coordinates":[5111,5166]},{"type":"Point","properties":{"Station_ID":"KMWN","Station_Nam":"MOUNT WASHINGTON","Latitude":"44.26666","Longitude":"-71.30000","Snowdepth":"3.000","Units":"in","Rept_Date":"2019-11-18 06"},"coordinates":[6952,5812]},{"type":"Point","properties":{"Station_ID":"KGTB","Station_Nam":"FORT DRUM / WHEELER-SACK U. S. ARMY AIRFIELD","Latitude":"44.05000","Longitude":"-75.73333","Snowdepth":"3.000","Units":"in","Rept_Date":"2019-11-18 06"},"coordinates":[5674,5690]},{"type":"Point","properties":{"Station_ID":"JKMM1","Station_Nam":"JACKMAN","Latitude":"45.62600","Longitude":"-70.24600","Snowdepth":"3.000","Units":"in","Rept_Date":"2019-11-17 12"},"coordinates":[7256,6575]},{"type":"Point","properties":{"Station_ID":"IBLM5","Station_Nam":"ISABELLA 14W","Latitude":"47.59360","Longitude":"-91.65140","Snowdepth":"3.000","Units":"in","Rept_Date":"2019-11-17 15"},"coordinates":[1083,7679]},{"type":"Point","properties":{"Station_ID":"HRTM4","Station_Nam":"HART,MI","Latitude":"43.70000","Longitude":"-86.36670","Snowdepth":"3.000","Units":"in","Rept_Date":"2019-11-17 12"},"coordinates":[2607,5494]},{"type":"Point","properties":{"Station_ID":"HEBI2","Station_Nam":"HEBRON","Latitude":"42.46750","Longitude":"-88.48060","Snowdepth":"3.000","Units":"in","Rept_Date":"2019-11-17 13"},"coordinates":[1997,4802]},{"type":"Point","properties":{"Station_ID":"GGRM4","Station_Nam":"GREEN GARDEN NO.2","Latitude":"46.45330","Longitude":"-87.30380","Snowdepth":"3.000","Units":"in","Rept_Date":"2019-11-17 12"},"coordinates":[2337,7039]},{"type":"Point","properties":{"Station_ID":"GFDN6","Station_Nam":"CHASE LAKE","Latitude":"43.75920","Longitude":"-75.29980","Snowdepth":"3.000","Units":"in","Rept_Date":"2019-11-17 11"},"coordinates":[5799,5527]},{"type":"Point","properties":{"Station_ID":"FKMM4","Station_Nam":"FRANKENMUTH 1SE","Latitude":"43.31940","Longitude":"-83.71610","Snowdepth":"3.000","Units":"in","Rept_Date":"2019-11-17 17"},"coordinates":[3371,5280]},{"type":"Point","properties":{"Station_ID":"FARM4","Station_Nam":"FARMINGTON,MI","Latitude":"42.46670","Longitude":"-83.36670","Snowdepth":"3.000","Units":"in","Rept_Date":"2019-11-17 12"},"coordinates":[3472,4801]},{"type":"Point","properties":{"Station_ID":"ESGM1","Station_Nam":"EAST SANGERVILLE","Latitude":"45.13690","Longitude":"-69.28060","Snowdepth":"3.000","Units":"in","Rept_Date":"2019-11-17 12"},"coordinates":[7534,6300]},{"type":"Point","properties":{"Station_ID":"CORV1","Station_Nam":"CORINTH","Latitude":"44.00690","Longitude":"-72.31940","Snowdepth":"3.000","Units":"in","Rept_Date":"2019-11-17 12"},"coordinates":[6658,5666]},{"type":"Point","properties":{"Station_ID":"CLKM4","Station_Nam":"CLARKSBURG","Latitude":"46.49910","Longitude":"-87.84500","Snowdepth":"3.000","Units":"in","Rept_Date":"2019-11-17 12"},"coordinates":[2181,7065]},{"type":"Point","properties":{"Station_ID":"CHSM4","Station_Nam":"CHESANING,MI","Latitude":"43.21670","Longitude":"-84.10000","Snowdepth":"3.000","Units":"in","Rept_Date":"2019-11-17 12"},"coordinates":[3261,5222]},{"type":"Point","properties":{"Station_ID":"CAN-ON-719","Station_Nam":"HAGERSVILLE 6.0 ESE, CAN","Latitude":"42.93833","Longitude":"-79.98528","Snowdepth":"3.000","Units":"in","Rept_Date":"2019-11-18 05"},"coordinates":[4447,5066]},{"type":"Point","properties":{"Station_ID":"CAN-ON-33","Station_Nam":"BURLINGTON 1.7 W, CA","Latitude":"43.37134","Longitude":"-79.83550","Snowdepth":"3.000","Units":"in","Rept_Date":"2019-11-17 13"},"coordinates":[4491,5309]},{"type":"Point","properties":{"Station_ID":"BRLN3","Station_Nam":"BERLIN","Latitude":"44.45350","Longitude":"-71.18540","Snowdepth":"3.000","Units":"in","Rept_Date":"2019-11-17 11"},"coordinates":[6985,5917]},{"type":"Point","properties":{"Station_ID":"AASM4","Station_Nam":"ANN ARBOR SE","Latitude":"42.24160","Longitude":"-83.69330","Snowdepth":"3.000","Units":"in","Rept_Date":"2019-11-17 12"},"coordinates":[3378,4675]},{"type":"Point","properties":{"Station_ID":"PTLQ6","Station_Nam":"PORTAGE LAKE","Latitude":"49.06950","Longitude":"-86.65940","Snowdepth":"2.990","Units":"in","Rept_Date":"2019-11-18 06"},"coordinates":[2523,8507]},{"type":"Point","properties":{"Station_ID":"NY-CY-27","Station_Nam":"MORAVIA 5.9 ENE, NY","Latitude":"42.73491","Longitude":"-76.31137","Snowdepth":"2.800","Units":"in","Rept_Date":"2019-11-17 12"},"coordinates":[5507,4952]},{"type":"Point","properties":{"Station_ID":"CAN-ON-466","Station_Nam":"PICTON 12.7 NNE, CAN","Latitude":"44.11197","Longitude":"-77.08426","Snowdepth":"2.800","Units":"in","Rept_Date":"2019-11-17 12"},"coordinates":[5284,5725]},{"type":"Point","properties":{"Station_ID":"MI-MB-54","Station_Nam":"UTICA 2.9 E, MI","Latitude":"42.63518","Longitude":"-82.96528","Snowdepth":"2.700","Units":"in","Rept_Date":"2019-11-17 12"},"coordinates":[3588,4896]},{"type":"Point","properties":{"Station_ID":"CAN-ON-9","Station_Nam":"WINDSOR 1.7 SE, CAN","Latitude":"42.28448","Longitude":"-83.03456","Snowdepth":"2.600","Units":"in","Rept_Date":"2019-11-17 12"},"coordinates":[3568,4699]},{"type":"Point","properties":{"Station_ID":"VT-RT-7","Station_Nam":"RUTLAND 1.2 N, VT","Latitude":"43.62533","Longitude":"-72.97790","Snowdepth":"2.500","Units":"in","Rept_Date":"2019-11-17 12"},"coordinates":[6468,5452]},{"type":"Point","properties":{"Station_ID":"NY-OD-2","Station_Nam":"POINT ROCK 0.6 SE, NY","Latitude":"43.37335","Longitude":"-75.53840","Snowdepth":"2.500","Units":"in","Rept_Date":"2019-11-17 13"},"coordinates":[5730,5310]},{"type":"Point","properties":{"Station_ID":"NY-NG-30","Station_Nam":"LOCKPORT 2.5 ESE, NY","Latitude":"43.15207","Longitude":"-78.65338","Snowdepth":"2.500","Units":"in","Rept_Date":"2019-11-17 12"},"coordinates":[4831,5186]},{"type":"Point","properties":{"Station_ID":"NH-CR-15","Station_Nam":"JACKSON 3.7 NW, NH","Latitude":"44.19069","Longitude":"-71.22598","Snowdepth":"2.500","Units":"in","Rept_Date":"2019-11-17 12"},"coordinates":[6973,5769]},{"type":"Point","properties":{"Station_ID":"MI-WS-28","Station_Nam":"DEXTER 0.3 ENE, MI","Latitude":"42.33367","Longitude":"-83.87510","Snowdepth":"2.500","Units":"in","Rept_Date":"2019-11-17 12"},"coordinates":[3326,4727]},{"type":"Point","properties":{"Station_ID":"MI-WS-11","Station_Nam":"ANN ARBOR 2.1 WNW, MI","Latitude":"42.28323","Longitude":"-83.77150","Snowdepth":"2.500","Units":"in","Rept_Date":"2019-11-17 12"},"coordinates":[3355,4698]},{"type":"Point","properties":{"Station_ID":"MI-VB-13","Station_Nam":"PAW PAW 2.0 NE, MI","Latitude":"42.23743","Longitude":"-85.86171","Snowdepth":"2.500","Units":"in","Rept_Date":"2019-11-17 12"},"coordinates":[2753,4673]},{"type":"Point","properties":{"Station_ID":"MI-HL-9","Station_Nam":"MONTGOMERY 1.9 SSE, MI","Latitude":"41.75167","Longitude":"-84.78952","Snowdepth":"2.500","Units":"in","Rept_Date":"2019-11-17 13"},"coordinates":[3062,4400]},{"type":"Point","properties":{"Station_ID":"MI-CP-7","Station_Nam":"DRUMMOND 2.9 NE, MI","Latitude":"46.05329","Longitude":"-83.69060","Snowdepth":"2.500","Units":"in","Rept_Date":"2019-11-17 14"},"coordinates":[3379,6814]},{"type":"Point","properties":{"Station_ID":"ME-SM-10","Station_Nam":"NORTH NEW PORTLAND 0.3 WSW, ME","Latitude":"44.92353","Longitude":"-70.02788","Snowdepth":"2.500","Units":"in","Rept_Date":"2019-11-17 12"},"coordinates":[7319,6180]},{"type":"Point","properties":{"Station_ID":"CAN-ON-322","Station_Nam":"WINDSOR 4.0 NE, CAN","Latitude":"42.31785","Longitude":"-83.01522","Snowdepth":"2.100","Units":"in","Rept_Date":"2019-11-17 12"},"coordinates":[3574,4718]},{"type":"Point","properties":{"Station_ID":"KABQ6","Station_Nam":"CAB LAKE","Latitude":"49.59950","Longitude":"-89.17990","Snowdepth":"2.090","Units":"in","Rept_Date":"2019-11-18 06"},"coordinates":[1796,8805]},{"type":"Point","properties":{"Station_ID":"YGTN6","Station_Nam":"YOUNGSTOWN 2NE","Latitude":"43.26820","Longitude":"-79.01020","Snowdepth":"2.000","Units":"in","Rept_Date":"2019-11-17 13"},"coordinates":[4729,5251]},{"type":"Point","properties":{"Station_ID":"WVLM1","Station_Nam":"WATERVILLE,ME","Latitude":"44.52780","Longitude":"-69.65390","Snowdepth":"2.000","Units":"in","Rept_Date":"2019-11-17 12"},"coordinates":[7427,5958]},{"type":"Point","properties":{"Station_ID":"WI-WW-12","Station_Nam":"ELKHORN 0.4 ESE, WI","Latitude":"42.66970","Longitude":"-88.53170","Snowdepth":"2.000","Units":"in","Rept_Date":"2019-11-17 11"},"coordinates":[1983,4915]},{"type":"Point","properties":{"Station_ID":"WI-WN-9","Station_Nam":"NEENAH 1.1 ENE, WI","Latitude":"44.17370","Longitude":"-88.45130","Snowdepth":"2.000","Units":"in","Rept_Date":"2019-11-17 13"},"coordinates":[2006,5759]},{"type":"Point","properties":{"Station_ID":"WI-GN-5","Station_Nam":"MONTICELLO 2.2 SE, WI","Latitude":"42.71990","Longitude":"-89.56360","Snowdepth":"2.000","Units":"in","Rept_Date":"2019-11-17 13"},"coordinates":[1685,4943]},{"type":"Point","properties":{"Station_ID":"WI-DN-5","Station_Nam":"ELK MOUND 1.3 NE, WI","Latitude":"44.88627","Longitude":"-91.66680","Snowdepth":"2.000","Units":"in","Rept_Date":"2019-11-17 13"},"coordinates":[1079,6159]},{"type":"Point","properties":{"Station_ID":"WI-BR-2","Station_Nam":"CHETEK 2.0 SE, WI","Latitude":"45.29427","Longitude":"-91.62470","Snowdepth":"2.000","Units":"in","Rept_Date":"2019-11-17 13"},"coordinates":[1091,6388]},{"type":"Point","properties":{"Station_ID":"WI-BN-6","Station_Nam":"SUAMICO 4.4 WNW, WI","Latitude":"44.66111","Longitude":"-88.11780","Snowdepth":"2.000","Units":"in","Rept_Date":"2019-11-17 13"},"coordinates":[2102,6033]},{"type":"Point","properties":{"Station_ID":"WI-BN-14","Station_Nam":"GREEN BAY 3.8 SSE, WI","Latitude":"44.46772","Longitude":"-87.97350","Snowdepth":"2.000","Units":"in","Rept_Date":"2019-11-17 12"},"coordinates":[2144,5925]},{"type":"Point","properties":{"Station_ID":"SCOM4","Station_Nam":"SCOTTVILLE 2 SE","Latitude":"43.93310","Longitude":"-86.24530","Snowdepth":"2.000","Units":"in","Rept_Date":"2019-11-17 12"},"coordinates":[2642,5624]},{"type":"Point","properties":{"Station_ID":"SBOP1","Station_Nam":"SPRINGBORO","Latitude":"41.81660","Longitude":"-80.43330","Snowdepth":"2.000","Units":"in","Rept_Date":"2019-11-17 12"},"coordinates":[4318,4436]},{"type":"Point","properties":{"Station_ID":"RUTV1","Station_Nam":"RUTLAND","Latitude":"43.62530","Longitude":"-72.97810","Snowdepth":"2.000","Units":"in","Rept_Date":"2019-11-17 12"},"coordinates":[6468,5452]},{"type":"Point","properties":{"Station_ID":"PHEW3","Station_Nam":"PHELPS","Latitude":"46.06630","Longitude":"-89.07520","Snowdepth":"2.000","Units":"in","Rept_Date":"2019-11-17 13"},"coordinates":[1826,6822]},{"type":"Point","properties":{"Station_ID":"PA-CW-8","Station_Nam":"SPRINGBORO 3.0 WNW, PA","Latitude":"41.81654","Longitude":"-80.42540","Snowdepth":"2.000","Units":"in","Rept_Date":"2019-11-17 12"},"coordinates":[4320,4436]},{"type":"Point","properties":{"Station_ID":"OWSM4","Station_Nam":"OWOSSO,MI","Latitude":"42.96670","Longitude":"-84.20000","Snowdepth":"2.000","Units":"in","Rept_Date":"2019-11-17 12"},"coordinates":[3232,5082]},{"type":"Point","properties":{"Station_ID":"NY-NG-22","Station_Nam":"NIAGARA FALLS 5.7 E, NY","Latitude":"43.08297","Longitude":"-78.90460","Snowdepth":"2.000","Units":"in","Rept_Date":"2019-11-17 12"},"coordinates":[4759,5147]},{"type":"Point","properties":{"Station_ID":"NY-HR-18","Station_Nam":"SALISBURY CENTER 1.8 NW, NY","Latitude":"43.16260","Longitude":"-74.80880","Snowdepth":"2.000","Units":"in","Rept_Date":"2019-11-17 12"},"coordinates":[5940,5192]},{"type":"Point","properties":{"Station_ID":"NY-ER-60","Station_Nam":"BLASDELL 1.5 SSW, NY","Latitude":"42.77657","Longitude":"-78.84440","Snowdepth":"2.000","Units":"in","Rept_Date":"2019-11-17 12"},"coordinates":[4776,4975]},{"type":"Point","properties":{"Station_ID":"NY-ER-59","Station_Nam":"KENMORE 0.3 ESE, NY","Latitude":"42.96316","Longitude":"-78.86690","Snowdepth":"2.000","Units":"in","Rept_Date":"2019-11-17 11"},"coordinates":[4770,5080]},{"type":"Point","properties":{"Station_ID":"NY-CT-22","Station_Nam":"FRANKLINVILLE 0.5 NNE, NY","Latitude":"42.34166","Longitude":"-78.45280","Snowdepth":"2.000","Units":"in","Rept_Date":"2019-11-17 13"},"coordinates":[4889,4731]},{"type":"Point","properties":{"Station_ID":"NY-CQ-39","Station_Nam":"GERRY 0.8 N, NY","Latitude":"42.20500","Longitude":"-79.24700","Snowdepth":"2.000","Units":"in","Rept_Date":"2019-11-17 13"},"coordinates":[4660,4654]},{"type":"Point","properties":{"Station_ID":"NY-CQ-22","Station_Nam":"FREDONIA 0.8 WNW, NY","Latitude":"42.44414","Longitude":"-79.34610","Snowdepth":"2.000","Units":"in","Rept_Date":"2019-11-17 10"},"coordinates":[4632,4789]},{"type":"Point","properties":{"Station_ID":"NWSM1","Station_Nam":"NEW SHARON","Latitude":"44.63520","Longitude":"-70.00020","Snowdepth":"2.000","Units":"in","Rept_Date":"2019-11-17 12"},"coordinates":[7327,6019]},{"type":"Point","properties":{"Station_ID":"NWPM4","Station_Nam":"NEWPORT 4SSE","Latitude":"41.94970","Longitude":"-83.28000","Snowdepth":"2.000","Units":"in","Rept_Date":"2019-11-17 12"},"coordinates":[3497,4511]},{"type":"Point","properties":{"Station_ID":"NWFN6","Station_Nam":"NEWFANE","Latitude":"43.29010","Longitude":"-78.72280","Snowdepth":"2.000","Units":"in","Rept_Date":"2019-11-17 12"},"coordinates":[4811,5264]},{"type":"Point","properties":{"Station_ID":"NH-GR-49","Station_Nam":"PLYMOUTH 3.7 N, NH","Latitude":"43.79048","Longitude":"-71.68413","Snowdepth":"2.000","Units":"in","Rept_Date":"2019-11-17 12"},"coordinates":[6841,5544]},{"type":"Point","properties":{"Station_ID":"MWTM1","Station_Nam":"MILLINOCKET WWTP","Latitude":"45.64030","Longitude":"-68.67480","Snowdepth":"2.000","Units":"in","Rept_Date":"2019-11-17 12"},"coordinates":[7709,6583]},{"type":"Point","properties":{"Station_ID":"MONW3","Station_Nam":"MONROE,WI","Latitude":"42.60000","Longitude":"-89.66670","Snowdepth":"2.000","Units":"in","Rept_Date":"2019-11-17 13"},"coordinates":[1655,4876]},{"type":"Point","properties":{"Station_ID":"MI-WS-42","Station_Nam":"ANN ARBOR 4.5 W, MI","Latitude":"42.27814","Longitude":"-83.81884","Snowdepth":"2.000","Units":"in","Rept_Date":"2019-11-17 12"},"coordinates":[3342,4696]},{"type":"Point","properties":{"Station_ID":"MI-VB-4","Station_Nam":"PAW PAW 3.6 NNE, MI","Latitude":"42.26582","Longitude":"-85.86190","Snowdepth":"2.000","Units":"in","Rept_Date":"2019-11-17 12"},"coordinates":[2753,4689]},{"type":"Point","properties":{"Station_ID":"MI-OK-35","Station_Nam":"WATERFORD 2.1 NW, MI","Latitude":"42.68742","Longitude":"-83.41320","Snowdepth":"2.000","Units":"in","Rept_Date":"2019-11-17 12"},"coordinates":[3459,4925]},{"type":"Point","properties":{"Station_ID":"MI-MR-1","Station_Nam":"NEWPORT 3.1 SE, MI","Latitude":"41.94960","Longitude":"-83.28010","Snowdepth":"2.000","Units":"in","Rept_Date":"2019-11-17 12"},"coordinates":[3497,4511]},{"type":"Point","properties":{"Station_ID":"MI-MQ-19","Station_Nam":"ISHPEMING 7.2 SW, MI","Latitude":"46.40550","Longitude":"-87.75670","Snowdepth":"2.000","Units":"in","Rept_Date":"2019-11-17 11"},"coordinates":[2206,7012]},{"type":"Point","properties":{"Station_ID":"MI-JC-13","Station_Nam":"HANOVER 3.8 W, MI","Latitude":"42.10700","Longitude":"-84.62600","Snowdepth":"2.000","Units":"in","Rept_Date":"2019-11-17 12"},"coordinates":[3109,4599]},{"type":"Point","properties":{"Station_ID":"MI-HL-1","Station_Nam":"LITCHFIELD 0.3 ENE, MI","Latitude":"42.04528","Longitude":"-84.75310","Snowdepth":"2.000","Units":"in","Rept_Date":"2019-11-17 12"},"coordinates":[3072,4565]},{"type":"Point","properties":{"Station_ID":"MI-BN-2","Station_Nam":"STEVENSVILLE 1.7 SSE, MI","Latitude":"41.99114","Longitude":"-86.50860","Snowdepth":"2.000","Units":"in","Rept_Date":"2019-11-17 12"},"coordinates":[2566,4534]},{"type":"Point","properties":{"Station_ID":"ME-PN-47","Station_Nam":"MILFORD 0.8 SSW, ME","Latitude":"44.94108","Longitude":"-68.64154","Snowdepth":"2.000","Units":"in","Rept_Date":"2019-11-17 12"},"coordinates":[7719,6190]},{"type":"Point","properties":{"Station_ID":"ME-PN-30","Station_Nam":"OLD TOWN 4.1 ESE, ME","Latitude":"44.93543","Longitude":"-68.65840","Snowdepth":"2.000","Units":"in","Rept_Date":"2019-11-17 13"},"coordinates":[7714,6187]},{"type":"Point","properties":{"Station_ID":"ME-AN-32","Station_Nam":"WINTHROP 9.4 W, ME","Latitude":"44.30476","Longitude":"-70.15835","Snowdepth":"2.000","Units":"in","Rept_Date":"2019-11-17 12"},"coordinates":[7281,5833]},{"type":"Point","properties":{"Station_ID":"MDLM4","Station_Nam":"MIDLAND,MI","Latitude":"43.61670","Longitude":"-84.21670","Snowdepth":"2.000","Units":"in","Rept_Date":"2019-11-17 12"},"coordinates":[3227,5447]},{"type":"Point","properties":{"Station_ID":"MBS","Station_Nam":"MBS INTERNATIONAL AIRPORT","Latitude":"43.53310","Longitude":"-84.07970","Snowdepth":"2.000","Units":"in","Rept_Date":"2019-11-17 12"},"coordinates":[3267,5400]},{"type":"Point","properties":{"Station_ID":"LVRM1","Station_Nam":"LIVERMORE FALLS 1 E","Latitude":"44.47160","Longitude":"-70.15940","Snowdepth":"2.000","Units":"in","Rept_Date":"2019-11-17 12"},"coordinates":[7281,5927]},{"type":"Point","properties":{"Station_ID":"LVDW3","Station_Nam":"LAC VIEUX DESERT","Latitude":"46.12110","Longitude":"-89.07580","Snowdepth":"2.000","Units":"in","Rept_Date":"2019-11-17 15"},"coordinates":[1826,6853]},{"type":"Point","properties":{"Station_ID":"LUPM4","Station_Nam":"LUPTON 1S","Latitude":"44.41990","Longitude":"-84.02320","Snowdepth":"2.000","Units":"in","Rept_Date":"2019-11-17 13"},"coordinates":[3283,5898]},{"type":"Point","properties":{"Station_ID":"LPRM4","Station_Nam":"OAKDALE REGIONAL CENTER","Latitude":"43.05000","Longitude":"-83.35000","Snowdepth":"2.000","Units":"in","Rept_Date":"2019-11-17 12"},"coordinates":[3477,5129]},{"type":"Point","properties":{"Station_ID":"LKVN6","Station_Nam":"LAKE VIEW","Latitude":"42.73180","Longitude":"-78.92400","Snowdepth":"2.000","Units":"in","Rept_Date":"2019-11-17 13"},"coordinates":[4753,4950]},{"type":"Point","properties":{"Station_ID":"LIDM4","Station_Nam":"LINDEN WWTP","Latitude":"42.81330","Longitude":"-83.80380","Snowdepth":"2.000","Units":"in","Rept_Date":"2019-11-17 13"},"coordinates":[3346,4996]},{"type":"Point","properties":{"Station_ID":"LGEW3","Station_Nam":"LAKE GENEVA, WI","Latitude":"42.60000","Longitude":"-88.43440","Snowdepth":"2.000","Units":"in","Rept_Date":"2019-11-17 13"},"coordinates":[2011,4876]},{"type":"Point","properties":{"Station_ID":"LBKV1","Station_Nam":"LYE BROOK","Latitude":"43.05000","Longitude":"-73.03330","Snowdepth":"2.000","Units":"in","Rept_Date":"2019-11-18 06"},"coordinates":[6452,5129]},{"type":"Point","properties":{"Station_ID":"LANM4","Station_Nam":"LANSING 2 WNW","Latitude":"42.74530","Longitude":"-84.58830","Snowdepth":"2.000","Units":"in","Rept_Date":"2019-11-18 05"},"coordinates":[3120,4958]},{"type":"Point","properties":{"Station_ID":"LAN","Station_Nam":"CAPITAL CITY AIRPORT","Latitude":"42.77860","Longitude":"-84.58720","Snowdepth":"2.000","Units":"in","Rept_Date":"2019-11-18 00"},"coordinates":[3120,4976]},{"type":"Point","properties":{"Station_ID":"KUKN6","Station_Nam":"LAKESIDE","Latitude":"43.37140","Longitude":"-78.26630","Snowdepth":"2.000","Units":"in","Rept_Date":"2019-11-17 13"},"coordinates":[4943,5309]},{"type":"Point","properties":{"Station_ID":"KINM1","Station_Nam":"KINGFIELD","Latitude":"44.95950","Longitude":"-70.17530","Snowdepth":"2.000","Units":"in","Rept_Date":"2019-11-17 12"},"coordinates":[7276,6201]},{"type":"Point","properties":{"Station_ID":"KBUF","Station_Nam":"GREATER BUFFALO INTERNATIONAL  AIRPORT","Latitude":"42.93333","Longitude":"-78.73333","Snowdepth":"2.000","Units":"in","Rept_Date":"2019-11-18 00"},"coordinates":[4808,5063]},{"type":"Point","properties":{"Station_ID":"JCBM4","Station_Nam":"JACOBSVILLE","Latitude":"47.00830","Longitude":"-88.43180","Snowdepth":"2.000","Units":"in","Rept_Date":"2019-11-17 12"},"coordinates":[2012,7351]},{"type":"Point","properties":{"Station_ID":"IL-SP-25","Station_Nam":"FREEPORT 1.7 NW, IL","Latitude":"42.30427","Longitude":"-89.66285","Snowdepth":"2.000","Units":"in","Rept_Date":"2019-11-17 13"},"coordinates":[1657,4710]},{"type":"Point","properties":{"Station_ID":"IL-MCH-83","Station_Nam":"CRYSTAL LAKE 1.0 WSW, IL","Latitude":"42.22882","Longitude":"-88.34964","Snowdepth":"2.000","Units":"in","Rept_Date":"2019-11-17 13"},"coordinates":[2035,4668]},{"type":"Point","properties":{"Station_ID":"IL-MCH-33","Station_Nam":"WOODSTOCK 3.8 SW, IL","Latitude":"42.27554","Longitude":"-88.49500","Snowdepth":"2.000","Units":"in","Rept_Date":"2019-11-17 14"},"coordinates":[1993,4694]},{"type":"Point","properties":{"Station_ID":"IL-MCH-30","Station_Nam":"WONDER LAKE 0.8 WNW, IL","Latitude":"42.38354","Longitude":"-88.37090","Snowdepth":"2.000","Units":"in","Rept_Date":"2019-11-17 13"},"coordinates":[2029,4755]},{"type":"Point","properties":{"Station_ID":"HUBN3","Station_Nam":"HUBBARD BROOK","Latitude":"43.93330","Longitude":"-71.71670","Snowdepth":"2.000","Units":"in","Rept_Date":"2019-11-18 06"},"coordinates":[6832,5625]},{"type":"Point","properties":{"Station_ID":"HTLM4","Station_Nam":"SNOW PAID OBSERVER FOR KHTL","Latitude":"44.34470","Longitude":"-84.67730","Snowdepth":"2.000","Units":"in","Rept_Date":"2019-11-17 18"},"coordinates":[3094,5855]},{"type":"Point","properties":{"Station_ID":"HTL","Station_Nam":"ROSCOMMON COUNTY AIRPORT","Latitude":"44.35000","Longitude":"-84.66670","Snowdepth":"2.000","Units":"in","Rept_Date":"2019-11-18 00"},"coordinates":[3097,5858]},{"type":"Point","properties":{"Station_ID":"HRTM1","Station_Nam":"HARTFORD","Latitude":"44.37440","Longitude":"-70.31620","Snowdepth":"2.000","Units":"in","Rept_Date":"2019-11-17 12"},"coordinates":[7236,5872]},{"type":"Point","properties":{"Station_ID":"HMYM1","Station_Nam":"HARMONY","Latitude":"44.94660","Longitude":"-69.54560","Snowdepth":"2.000","Units":"in","Rept_Date":"2019-11-17 11"},"coordinates":[7458,6193]},{"type":"Point","properties":{"Station_ID":"HALM4","Station_Nam":"LOUD DAM","Latitude":"44.46250","Longitude":"-83.72190","Snowdepth":"2.000","Units":"in","Rept_Date":"2019-11-17 15"},"coordinates":[3370,5922]},{"type":"Point","properties":{"Station_ID":"GODM4","Station_Nam":"GOODRICH","Latitude":"42.91640","Longitude":"-83.50970","Snowdepth":"2.000","Units":"in","Rept_Date":"2019-11-17 12"},"coordinates":[3431,5054]},{"type":"Point","properties":{"Station_ID":"GNFM5","Station_Nam":"GUNFLINT LAKE","Latitude":"48.16670","Longitude":"-90.88750","Snowdepth":"2.000","Units":"in","Rept_Date":"2019-11-17 13"},"coordinates":[1303,8001]},{"type":"Point","properties":{"Station_ID":"GLNM4","Station_Nam":"GLENNIE 2SE","Latitude":"44.53580","Longitude":"-83.70220","Snowdepth":"2.000","Units":"in","Rept_Date":"2019-11-17 12"},"coordinates":[3375,5963]},{"type":"Point","properties":{"Station_ID":"GENN6","Station_Nam":"GENEVA RESEARCH FARM","Latitude":"42.87660","Longitude":"-77.03070","Snowdepth":"2.000","Units":"in","Rept_Date":"2019-11-17 13"},"coordinates":[5299,5031]},{"type":"Point","properties":{"Station_ID":"GDLM4","Station_Nam":"GRAND LEDGE,MI","Latitude":"42.76670","Longitude":"-84.76670","Snowdepth":"2.000","Units":"in","Rept_Date":"2019-11-17 12"},"coordinates":[3068,4970]},{"type":"Point","properties":{"Station_ID":"GDCM4","Station_Nam":"GARDEN CORNERS","Latitude":"45.89830","Longitude":"-86.54850","Snowdepth":"2.000","Units":"in","Rept_Date":"2019-11-17 13"},"coordinates":[2555,6727]},{"type":"Point","properties":{"Station_ID":"FNT","Station_Nam":"FLINT BISHOP INTL AIRPORT","Latitude":"42.96560","Longitude":"-83.74360","Snowdepth":"2.000","Units":"in","Rept_Date":"2019-11-18 06"},"coordinates":[3364,5081]},{"type":"Point","properties":{"Station_ID":"FARM1","Station_Nam":"FARMINGTON","Latitude":"44.68930","Longitude":"-70.15640","Snowdepth":"2.000","Units":"in","Rept_Date":"2019-11-17 12"},"coordinates":[7282,6049]},{"type":"Point","properties":{"Station_ID":"DTW","Station_Nam":"DETROIT METROPOLITAN","Latitude":"42.21220","Longitude":"-83.35330","Snowdepth":"2.000","Units":"in","Rept_Date":"2019-11-18 06"},"coordinates":[3476,4659]},{"type":"Point","properties":{"Station_ID":"DTVM4","Station_Nam":"DETOUR VILLAGE","Latitude":"45.99830","Longitude":"-83.90130","Snowdepth":"2.000","Units":"in","Rept_Date":"2019-11-17 13"},"coordinates":[3318,6784]},{"type":"Point","properties":{"Station_ID":"DNDM4","Station_Nam":"DUNDEE,MI","Latitude":"41.95000","Longitude":"-83.65000","Snowdepth":"2.000","Units":"in","Rept_Date":"2019-11-17 10"},"coordinates":[3391,4511]},{"type":"Point","properties":{"Station_ID":"DLNW3","Station_Nam":"WALWORTH COUNTYMETROPOLITAN SEWERAGE DISTRICT (DELEVAN)","Latitude":"42.63440","Longitude":"-88.66280","Snowdepth":"2.000","Units":"in","Rept_Date":"2019-11-17 13"},"coordinates":[1945,4895]},{"type":"Point","properties":{"Station_ID":"DKKN6","Station_Nam":"DUNKIRK 1S","Latitude":"42.47170","Longitude":"-79.33360","Snowdepth":"2.000","Units":"in","Rept_Date":"2019-11-17 13"},"coordinates":[4635,4804]},{"type":"Point","properties":{"Station_ID":"CVWP1","Station_Nam":"CHANDLER VALLEY 1SE","Latitude":"41.93010","Longitude":"-79.29700","Snowdepth":"2.000","Units":"in","Rept_Date":"2019-11-17 12"},"coordinates":[4646,4500]},{"type":"Point","properties":{"Station_ID":"CSSM4","Station_Nam":"CASS CITY,MI","Latitude":"43.58330","Longitude":"-83.18330","Snowdepth":"2.000","Units":"in","Rept_Date":"2019-11-17 11"},"coordinates":[3525,5428]},{"type":"Point","properties":{"Station_ID":"COKM5","Station_Nam":"COOK","Latitude":"47.85060","Longitude":"-92.69250","Snowdepth":"2.000","Units":"in","Rept_Date":"2019-11-17 12"},"coordinates":[783,7823]},{"type":"Point","properties":{"Station_ID":"CODN6","Station_Nam":"COLDEN 1W","Latitude":"42.64720","Longitude":"-78.71110","Snowdepth":"2.000","Units":"in","Rept_Date":"2019-11-17 12"},"coordinates":[4815,4903]},{"type":"Point","properties":{"Station_ID":"CLIW3","Station_Nam":"CLINTON,WI","Latitude":"42.60000","Longitude":"-88.88330","Snowdepth":"2.000","Units":"in","Rept_Date":"2019-11-17 13"},"coordinates":[1881,4876]},{"type":"Point","properties":{"Station_ID":"CARM4","Station_Nam":"REGIONAL CENTER","Latitude":"43.45000","Longitude":"-83.40000","Snowdepth":"2.000","Units":"in","Rept_Date":"2019-11-17 14"},"coordinates":[3463,5353]},{"type":"Point","properties":{"Station_ID":"CAN-ON-5","Station_Nam":"OWEN SOUND 1.5 NW - GSCA, CAN","Latitude":"44.57837","Longitude":"-80.95461","Snowdepth":"2.000","Units":"in","Rept_Date":"2019-11-17 13"},"coordinates":[4168,5987]},{"type":"Point","properties":{"Station_ID":"CAN-ON-103","Station_Nam":"CALEDONIA 12.4 NW, CA","Latitude":"43.14246","Longitude":"-80.06960","Snowdepth":"2.000","Units":"in","Rept_Date":"2019-11-17 12"},"coordinates":[4423,5181]},{"type":"Point","properties":{"Station_ID":"CAN-NS-74","Station_Nam":"BADDECK FORKS 2.5 E, CAN","Latitude":"46.18550","Longitude":"-60.73426","Snowdepth":"2.000","Units":"in","Rept_Date":"2019-11-17 10"},"coordinates":[9999,6889]},{"type":"Point","properties":{"Station_ID":"BUF","Station_Nam":"BUFFALO, NY","Latitude":"42.94140","Longitude":"-78.71920","Snowdepth":"2.000","Units":"in","Rept_Date":"2019-11-18 06"},"coordinates":[4812,5068]},{"type":"Point","properties":{"Station_ID":"BNDM5","Station_Nam":"ELY 25E","Latitude":"47.97190","Longitude":"-91.44860","Snowdepth":"2.000","Units":"in","Rept_Date":"2019-11-17 13"},"coordinates":[1142,7891]},{"type":"Point","properties":{"Station_ID":"BGTW3","Station_Nam":"SEWAGE DISPOSAL PLANT","Latitude":"42.68330","Longitude":"-88.20000","Snowdepth":"2.000","Units":"in","Rept_Date":"2019-11-17 12"},"coordinates":[2078,4923]},{"type":"Point","properties":{"Station_ID":"BETM1","Station_Nam":"BETHEL 6 SSE","Latitude":"44.32000","Longitude":"-70.75680","Snowdepth":"2.000","Units":"in","Rept_Date":"2019-11-17 13"},"coordinates":[7109,5842]},{"type":"Point","properties":{"Station_ID":"BDAM4","Station_Nam":"BAD AXE,MI","Latitude":"43.81670","Longitude":"-83.00000","Snowdepth":"2.000","Units":"in","Rept_Date":"2019-11-17 12"},"coordinates":[3578,5559]},{"type":"Point","properties":{"Station_ID":"APN","Station_Nam":"PHELPS COLLINS FIELD","Latitude":"45.07810","Longitude":"-83.56030","Snowdepth":"2.000","Units":"in","Rept_Date":"2019-11-18 00"},"coordinates":[3416,6267]},{"type":"Point","properties":{"Station_ID":"AFTW3","Station_Nam":"ROCK RIVER","Latitude":"42.61670","Longitude":"-89.06670","Snowdepth":"2.000","Units":"in","Rept_Date":"2019-11-17 13"},"coordinates":[1828,4886]},{"type":"Point","properties":{"Station_ID":"IL-CK-214","Station_Nam":"ROGERS PARK 1.5 SW, IL","Latitude":"41.99567","Longitude":"-87.69180","Snowdepth":"1.900","Units":"in","Rept_Date":"2019-11-17 13"},"coordinates":[2225,4537]},{"type":"Point","properties":{"Station_ID":"CAN-ON-451","Station_Nam":"OWEN SOUND 1.2 N - GSCA, CAN","Latitude":"44.58092","Longitude":"-80.93025","Snowdepth":"1.800","Units":"in","Rept_Date":"2019-11-17 13"},"coordinates":[4175,5988]},{"type":"Point","properties":{"Station_ID":"NY-WN-18","Station_Nam":"MACEDON 2.6 ESE, NY","Latitude":"43.05200","Longitude":"-77.25700","Snowdepth":"1.600","Units":"in","Rept_Date":"2019-11-17 12"},"coordinates":[5234,5130]},{"type":"Point","properties":{"Station_ID":"CAN-ON-593","Station_Nam":"KITCHENER 4.5 E, CAN","Latitude":"43.45147","Longitude":"-80.43180","Snowdepth":"1.600","Units":"in","Rept_Date":"2019-11-17 14"},"coordinates":[4319,5354]},{"type":"Point","properties":{"Station_ID":"CAN-NB-1","Station_Nam":"FREDERICTON 4.0 SSE, CA","Latitude":"45.92897","Longitude":"-66.62830","Snowdepth":"1.600","Units":"in","Rept_Date":"2019-11-17 11"},"coordinates":[8299,6745]},{"type":"Point","properties":{"Station_ID":"WI-WK-65","Station_Nam":"EAGLE 3.4 SW, WI","Latitude":"42.85067","Longitude":"-88.52596","Snowdepth":"1.500","Units":"in","Rept_Date":"2019-11-17 14"},"coordinates":[1984,5017]},{"type":"Point","properties":{"Station_ID":"OH-CY-42","Station_Nam":"STRONGSVILLE 1.3 SE, OH","Latitude":"41.29815","Longitude":"-81.81507","Snowdepth":"1.500","Units":"in","Rept_Date":"2019-11-17 13"},"coordinates":[3920,4145]},{"type":"Point","properties":{"Station_ID":"NY-ER-122","Station_Nam":"CHEEKTOWAGA 2.4 NW, NY","Latitude":"42.93457","Longitude":"-78.78295","Snowdepth":"1.500","Units":"in","Rept_Date":"2019-11-17 12"},"coordinates":[4794,5064]},{"type":"Point","properties":{"Station_ID":"NY-CQ-34","Station_Nam":"KENNEDY 2.6 SE, NY","Latitude":"42.12567","Longitude":"-79.07235","Snowdepth":"1.500","Units":"in","Rept_Date":"2019-11-17 13"},"coordinates":[4711,4610]},{"type":"Point","properties":{"Station_ID":"NY-CQ-27","Station_Nam":"SILVER CREEK 1.0 SSE, NY","Latitude":"42.53088","Longitude":"-79.15986","Snowdepth":"1.500","Units":"in","Rept_Date":"2019-11-17 12"},"coordinates":[4685,4837]},{"type":"Point","properties":{"Station_ID":"NH-MR-41","Station_Nam":"NEWBURY 1.6 NW, NH","Latitude":"43.33667","Longitude":"-72.06060","Snowdepth":"1.500","Units":"in","Rept_Date":"2019-11-17 12"},"coordinates":[6733,5290]},{"type":"Point","properties":{"Station_ID":"NH-CR-11","Station_Nam":"NORTH CONWAY 1.4 SSW, NH","Latitude":"44.03556","Longitude":"-71.14010","Snowdepth":"1.500","Units":"in","Rept_Date":"2019-11-17 12"},"coordinates":[6998,5682]},{"type":"Point","properties":{"Station_ID":"MI-OW-2","Station_Nam":"HOLLAND 3.9 NNE, MI","Latitude":"42.82296","Longitude":"-86.06780","Snowdepth":"1.500","Units":"in","Rept_Date":"2019-11-17 11"},"coordinates":[2693,5001]},{"type":"Point","properties":{"Station_ID":"MI-IN-1","Station_Nam":"SARANAC 2.6 NE, MI","Latitude":"42.95764","Longitude":"-85.17380","Snowdepth":"1.500","Units":"in","Rept_Date":"2019-11-17 11"},"coordinates":[2951,5077]},{"type":"Point","properties":{"Station_ID":"MI-IH-45","Station_Nam":"LANSING 1.0 ENE, MI","Latitude":"42.71480","Longitude":"-84.53490","Snowdepth":"1.500","Units":"in","Rept_Date":"2019-11-17 13"},"coordinates":[3135,4941]},{"type":"Point","properties":{"Station_ID":"MI-IH-34","Station_Nam":"MASON 5.8 ENE, MI","Latitude":"42.61430","Longitude":"-84.33813","Snowdepth":"1.500","Units":"in","Rept_Date":"2019-11-17 13"},"coordinates":[3192,4884]},{"type":"Point","properties":{"Station_ID":"MI-BN-4","Station_Nam":"NILES 2.7 W, MI","Latitude":"41.83705","Longitude":"-86.30050","Snowdepth":"1.500","Units":"in","Rept_Date":"2019-11-17 13"},"coordinates":[2626,4448]},{"type":"Point","properties":{"Station_ID":"IL-WN-26","Station_Nam":"ROCKFORD 1.5 ENE, IL","Latitude":"42.27775","Longitude":"-89.03590","Snowdepth":"1.500","Units":"in","Rept_Date":"2019-11-17 15"},"coordinates":[1837,4695]},{"type":"Point","properties":{"Station_ID":"IL-SP-26","Station_Nam":"FREEPORT 2.9 WSW, IL","Latitude":"42.26779","Longitude":"-89.68323","Snowdepth":"1.500","Units":"in","Rept_Date":"2019-11-17 14"},"coordinates":[1651,4690]},{"type":"Point","properties":{"Station_ID":"IL-MCH-13","Station_Nam":"BULL VALLEY 2.5 WNW, IL","Latitude":"42.32455","Longitude":"-88.39460","Snowdepth":"1.500","Units":"in","Rept_Date":"2019-11-17 14"},"coordinates":[2022,4722]},{"type":"Point","properties":{"Station_ID":"IL-CK-180","Station_Nam":"PARK RIDGE 0.5 SSW, IL","Latitude":"42.00443","Longitude":"-87.84600","Snowdepth":"1.500","Units":"in","Rept_Date":"2019-11-17 13"},"coordinates":[2180,4542]},{"type":"Point","properties":{"Station_ID":"IL-DP-87","Station_Nam":"ROSELLE 1.2 ESE, IL","Latitude":"41.97664","Longitude":"-88.05980","Snowdepth":"1.400","Units":"in","Rept_Date":"2019-11-17 16"},"coordinates":[2119,4526]},{"type":"Point","properties":{"Station_ID":"WI-BY-2","Station_Nam":"MELLEN 18.6 SW, WI","Latitude":"46.16937","Longitude":"-90.98090","Snowdepth":"1.200","Units":"in","Rept_Date":"2019-11-17 13"},"coordinates":[1276,6880]},{"type":"Point","properties":{"Station_ID":"MI-HL-4","Station_Nam":"JONESVILLE 5.9 ENE, MI","Latitude":"42.01472","Longitude":"-84.56190","Snowdepth":"1.200","Units":"in","Rept_Date":"2019-11-17 12"},"coordinates":[3128,4548]},{"type":"Point","properties":{"Station_ID":"CAN-ON-130","Station_Nam":"BARRIE 3.6 N - CANWARN, CAN","Latitude":"44.41135","Longitude":"-79.69817","Snowdepth":"1.200","Units":"in","Rept_Date":"2019-11-17 13"},"coordinates":[4530,5893]},{"type":"Point","properties":{"Station_ID":"ZNOM4","Station_Nam":"NORWAY","Latitude":"45.77810","Longitude":"-87.89560","Snowdepth":"1.000","Units":"in","Rept_Date":"2019-11-17 13"},"coordinates":[2166,6660]},{"type":"Point","properties":{"Station_ID":"WRUM5","Station_Nam":"WARROAD 4W","Latitude":"48.89600","Longitude":"-95.40700","Snowdepth":"1.000","Units":"in","Rept_Date":"2019-11-18 04"},"coordinates":[0,8410]},{"type":"Point","properties":{"Station_ID":"WRRP1","Station_Nam":"ALLEGHENY RIVER AT WARREN","Latitude":"41.84380","Longitude":"-79.15000","Snowdepth":"1.000","Units":"in","Rept_Date":"2019-11-17 12"},"coordinates":[4688,4452]},{"type":"Point","properties":{"Station_ID":"WODI2","Station_Nam":"WOODSTOCK","Latitude":"42.36280","Longitude":"-88.53140","Snowdepth":"1.000","Units":"in","Rept_Date":"2019-11-17 13"},"coordinates":[1983,4743]},{"type":"Point","properties":{"Station_ID":"WNDP1","Station_Nam":"WINDBER COUNTY CLUB","Latitude":"40.28780","Longitude":"-78.77530","Snowdepth":"1.000","Units":"in","Rept_Date":"2019-11-17 12"},"coordinates":[4796,3578]},{"type":"Point","properties":{"Station_ID":"WI-ON-6","Station_Nam":"RHINELANDER 5.2 N, WI","Latitude":"45.71388","Longitude":"-89.42150","Snowdepth":"1.000","Units":"in","Rept_Date":"2019-11-17 15"},"coordinates":[1726,6624]},{"type":"Point","properties":{"Station_ID":"WI-GT-3","Station_Nam":"CUBA CITY 0.4 NNE, WI","Latitude":"42.60796","Longitude":"-90.42881","Snowdepth":"1.000","Units":"in","Rept_Date":"2019-11-17 12"},"coordinates":[1436,4881]},{"type":"Point","properties":{"Station_ID":"WI-DA-31","Station_Nam":"DEERFIELD 0.6 N, WI","Latitude":"43.05958","Longitude":"-89.07340","Snowdepth":"1.000","Units":"in","Rept_Date":"2019-11-17 14"},"coordinates":[1827,5134]},{"type":"Point","properties":{"Station_ID":"WI-CH-3","Station_Nam":"CORNELL 4.1 W, WI","Latitude":"45.17024","Longitude":"-91.23610","Snowdepth":"1.000","Units":"in","Rept_Date":"2019-11-17 14"},"coordinates":[1203,6319]},{"type":"Point","properties":{"Station_ID":"WI-BY-14","Station_Nam":"ASHLAND 9.8 W, WI","Latitude":"46.59742","Longitude":"-91.07856","Snowdepth":"1.000","Units":"in","Rept_Date":"2019-11-17 12"},"coordinates":[1248,7120]},{"type":"Point","properties":{"Station_ID":"WHTW3","Station_Nam":"WHITEWATER,WI","Latitude":"42.85670","Longitude":"-88.72940","Snowdepth":"1.000","Units":"in","Rept_Date":"2019-11-17 13"},"coordinates":[1926,5020]},{"type":"Point","properties":{"Station_ID":"WBRM4","Station_Nam":"WEST BRANCH 3SE","Latitude":"44.25410","Longitude":"-84.20110","Snowdepth":"1.000","Units":"in","Rept_Date":"2019-11-17 13"},"coordinates":[3232,5805]},{"type":"Point","properties":{"Station_ID":"WAUO1","Station_Nam":"UNKNOWN","Latitude":"41.55000","Longitude":"-84.13000","Snowdepth":"1.000","Units":"in","Rept_Date":"2019-11-17 13"},"coordinates":[3252,4287]},{"type":"Point","properties":{"Station_ID":"VT-WR-2","Station_Nam":"POMFRET 2.6 N, VT","Latitude":"43.74230","Longitude":"-72.52550","Snowdepth":"1.000","Units":"in","Rept_Date":"2019-11-17 12"},"coordinates":[6599,5517]},{"type":"Point","properties":{"Station_ID":"VT-RT-24","Station_Nam":"MIDDLETOWN SPRINGS 0.9 WNW, VT","Latitude":"43.49194","Longitude":"-73.13350","Snowdepth":"1.000","Units":"in","Rept_Date":"2019-11-17 12"},"coordinates":[6423,5377]},{"type":"Point","properties":{"Station_ID":"UGRW3","Station_Nam":"UNION GROVE,WI","Latitude":"42.70000","Longitude":"-88.03220","Snowdepth":"1.000","Units":"in","Rept_Date":"2019-11-17 13"},"coordinates":[2127,4932]},{"type":"Point","properties":{"Station_ID":"TURM1","Station_Nam":"TURNER","Latitude":"44.28220","Longitude":"-70.25610","Snowdepth":"1.000","Units":"in","Rept_Date":"2019-11-17 12"},"coordinates":[7253,5820]},{"type":"Point","properties":{"Station_ID":"TOPM1","Station_Nam":"TOPSFIELD","Latitude":"45.43470","Longitude":"-67.72020","Snowdepth":"1.000","Units":"in","Rept_Date":"2019-11-17 12"},"coordinates":[7984,6467]},{"type":"Point","properties":{"Station_ID":"STRW3","Station_Nam":"STRATFORD 1NW","Latitude":"44.81750","Longitude":"-90.08990","Snowdepth":"1.000","Units":"in","Rept_Date":"2019-11-17 13"},"coordinates":[1533,6121]},{"type":"Point","properties":{"Station_ID":"STGW3","Station_Nam":"ST GERMAIN","Latitude":"45.91550","Longitude":"-89.48940","Snowdepth":"1.000","Units":"in","Rept_Date":"2019-11-17 12"},"coordinates":[1707,6737]},{"type":"Point","properties":{"Station_ID":"SRAW3","Station_Nam":"SARONA","Latitude":"45.80250","Longitude":"-91.86700","Snowdepth":"1.000","Units":"in","Rept_Date":"2019-11-17 14"},"coordinates":[1021,6674]},{"type":"Point","properties":{"Station_ID":"SPTI4","Station_Nam":"STRAWBERRY POINT","Latitude":"42.68530","Longitude":"-91.53300","Snowdepth":"1.000","Units":"in","Rept_Date":"2019-11-17 13"},"coordinates":[1117,4924]},{"type":"Point","properties":{"Station_ID":"SILN6","Station_Nam":"SILVER CREEK","Latitude":"42.53800","Longitude":"-79.16990","Snowdepth":"1.000","Units":"in","Rept_Date":"2019-11-17 12"},"coordinates":[4682,4841]},{"type":"Point","properties":{"Station_ID":"SHIW3","Station_Nam":"SHIOCTON","Latitude":"44.43890","Longitude":"-88.58390","Snowdepth":"1.000","Units":"in","Rept_Date":"2019-11-17 13"},"coordinates":[1968,5908]},{"type":"Point","properties":{"Station_ID":"SEEW3","Station_Nam":"SOUTH MILWAUKEE WWTP","Latitude":"42.90110","Longitude":"-87.84940","Snowdepth":"1.000","Units":"in","Rept_Date":"2019-11-17 13"},"coordinates":[2179,5045]},{"type":"Point","properties":{"Station_ID":"RSCI2","Station_Nam":"ROSCOE","Latitude":"42.40500","Longitude":"-88.97940","Snowdepth":"1.000","Units":"in","Rept_Date":"2019-11-17 12"},"coordinates":[1854,4767]},{"type":"Point","properties":{"Station_ID":"RHLW3","Station_Nam":"RHINELANDER 4NE","Latitude":"45.65270","Longitude":"-89.30740","Snowdepth":"1.000","Units":"in","Rept_Date":"2019-11-17 12"},"coordinates":[1759,6590]},{"type":"Point","properties":{"Station_ID":"RHIW3","Station_Nam":"RHINELANDER","Latitude":"45.59860","Longitude":"-89.45080","Snowdepth":"1.000","Units":"in","Rept_Date":"2019-11-17 13"},"coordinates":[1718,6559]},{"type":"Point","properties":{"Station_ID":"PULW3","Station_Nam":"PULASKI WWTP","Latitude":"44.67830","Longitude":"-88.22750","Snowdepth":"1.000","Units":"in","Rept_Date":"2019-11-17 12"},"coordinates":[2070,6043]},{"type":"Point","properties":{"Station_ID":"PERV1","Station_Nam":"PERU","Latitude":"43.26670","Longitude":"-72.90000","Snowdepth":"1.000","Units":"in","Rept_Date":"2019-11-17 12"},"coordinates":[6491,5250]},{"type":"Point","properties":{"Station_ID":"PELW3","Station_Nam":"PELLA 3SE","Latitude":"44.73580","Longitude":"-88.73780","Snowdepth":"1.000","Units":"in","Rept_Date":"2019-11-17 11"},"coordinates":[1923,6075]},{"type":"Point","properties":{"Station_ID":"PEKN6","Station_Nam":"PECK LAKE","Latitude":"43.11500","Longitude":"-74.42360","Snowdepth":"1.000","Units":"in","Rept_Date":"2019-11-17 12"},"coordinates":[6051,5165]},{"type":"Point","properties":{"Station_ID":"PA-CW-18","Station_Nam":"CONNEAUT LAKE 1.3 WNW, PA","Latitude":"41.60816","Longitude":"-80.33371","Snowdepth":"1.000","Units":"in","Rept_Date":"2019-11-17 12"},"coordinates":[4347,4319]},{"type":"Point","properties":{"Station_ID":"OSWN6","Station_Nam":"OSWEGO","Latitude":"43.44990","Longitude":"-76.53680","Snowdepth":"1.000","Units":"in","Rept_Date":"2019-11-17 22"},"coordinates":[5442,5353]},{"type":"Point","properties":{"Station_ID":"ONAM4","Station_Nam":"ONAWAY 4N","Latitude":"45.41080","Longitude":"-84.22330","Snowdepth":"1.000","Units":"in","Rept_Date":"2019-11-17 23"},"coordinates":[3225,6454]},{"type":"Point","properties":{"Station_ID":"OILM4","Station_Nam":"OIL CITY 3E","Latitude":"43.61140","Longitude":"-84.52810","Snowdepth":"1.000","Units":"in","Rept_Date":"2019-11-17 12"},"coordinates":[3137,5444]},{"type":"Point","properties":{"Station_ID":"OH-GG-7","Station_Nam":"MIDDLEFIELD 0.6 NE, OH","Latitude":"41.46438","Longitude":"-81.06520","Snowdepth":"1.000","Units":"in","Rept_Date":"2019-11-17 13"},"coordinates":[4136,4239]},{"type":"Point","properties":{"Station_ID":"NY-MD-10","Station_Nam":"CAZENOVIA 2.9 SE, NY","Latitude":"42.90003","Longitude":"-75.81140","Snowdepth":"1.000","Units":"in","Rept_Date":"2019-11-17 12"},"coordinates":[5651,5045]},{"type":"Point","properties":{"Station_ID":"NY-ER-98","Station_Nam":"AMHERST 5.4 NNE, NY","Latitude":"43.05207","Longitude":"-78.76430","Snowdepth":"1.000","Units":"in","Rept_Date":"2019-11-17 13"},"coordinates":[4799,5130]},{"type":"Point","properties":{"Station_ID":"NONW3","Station_Nam":"NEW LONDON","Latitude":"44.35890","Longitude":"-88.71890","Snowdepth":"1.000","Units":"in","Rept_Date":"2019-11-17 12"},"coordinates":[1929,5863]},{"type":"Point","properties":{"Station_ID":"NH-CR-26","Station_Nam":"CENTER SANDWICH 4.9 E, NH","Latitude":"43.80976","Longitude":"-71.34150","Snowdepth":"1.000","Units":"in","Rept_Date":"2019-11-17 12"},"coordinates":[6940,5555]},{"type":"Point","properties":{"Station_ID":"NGLW3","Station_Nam":"NEW GLARUS","Latitude":"42.83500","Longitude":"-89.62080","Snowdepth":"1.000","Units":"in","Rept_Date":"2019-11-17 13"},"coordinates":[1669,5008]},{"type":"Point","properties":{"Station_ID":"MTCI2","Station_Nam":"MOUNT CARROLL","Latitude":"42.09800","Longitude":"-89.98410","Snowdepth":"1.000","Units":"in","Rept_Date":"2019-11-17 15"},"coordinates":[1564,4594]},{"type":"Point","properties":{"Station_ID":"MRIM4","Station_Nam":"MORENCI,MI","Latitude":"41.71670","Longitude":"-84.20000","Snowdepth":"1.000","Units":"in","Rept_Date":"2019-11-17 12"},"coordinates":[3232,4380]},{"type":"Point","properties":{"Station_ID":"MRBW3","Station_Nam":"MT HOREB","Latitude":"42.98030","Longitude":"-89.73940","Snowdepth":"1.000","Units":"in","Rept_Date":"2019-11-17 13"},"coordinates":[1634,5090]},{"type":"Point","properties":{"Station_ID":"MQT","Station_Nam":"MARQUETTE, MI","Latitude":"46.53140","Longitude":"-87.54920","Snowdepth":"1.000","Units":"in","Rept_Date":"2019-11-18 06"},"coordinates":[2266,7083]},{"type":"Point","properties":{"Station_ID":"MQRW3","Station_Nam":"MINOCQUA","Latitude":"45.88630","Longitude":"-89.73220","Snowdepth":"1.000","Units":"in","Rept_Date":"2019-11-17 12"},"coordinates":[1637,6721]},{"type":"Point","properties":{"Station_ID":"MKX","Station_Nam":"MILWAUKEE, WI","Latitude":"42.96810","Longitude":"-88.54920","Snowdepth":"1.000","Units":"in","Rept_Date":"2019-11-18 06"},"coordinates":[1978,5083]},{"type":"Point","properties":{"Station_ID":"MKE","Station_Nam":"GEN MITCHELL INTL AIRPORT","Latitude":"42.94720","Longitude":"-87.89670","Snowdepth":"1.000","Units":"in","Rept_Date":"2019-11-17 12"},"coordinates":[2166,5071]},{"type":"Point","properties":{"Station_ID":"MI-MT-9","Station_Nam":"FENWICK 3.3 E, MI","Latitude":"43.15067","Longitude":"-85.01435","Snowdepth":"1.000","Units":"in","Rept_Date":"2019-11-17 12"},"coordinates":[2997,5185]},{"type":"Point","properties":{"Station_ID":"MI-MR-16","Station_Nam":"OTTAWA LAKE 1.4 SSW, MI","Latitude":"41.78278","Longitude":"-83.73895","Snowdepth":"1.000","Units":"in","Rept_Date":"2019-11-17 12"},"coordinates":[3365,4417]},{"type":"Point","properties":{"Station_ID":"MI-ME-10","Station_Nam":"MECOSTA 4.6 SSW, MI","Latitude":"43.56269","Longitude":"-85.28063","Snowdepth":"1.000","Units":"in","Rept_Date":"2019-11-17 13"},"coordinates":[2920,5417]},{"type":"Point","properties":{"Station_ID":"MI-JC-11","Station_Nam":"JACKSON 3.2 W, MI","Latitude":"42.24061","Longitude":"-84.46690","Snowdepth":"1.000","Units":"in","Rept_Date":"2019-11-17 12"},"coordinates":[3155,4674]},{"type":"Point","properties":{"Station_ID":"MI-EM-5","Station_Nam":"HARBOR SPRINGS 0.7 ENE, MI","Latitude":"45.43450","Longitude":"-84.97540","Snowdepth":"1.000","Units":"in","Rept_Date":"2019-11-17 12"},"coordinates":[3008,6467]},{"type":"Point","properties":{"Station_ID":"MHCP1","Station_Nam":"MAHANTANGO CK","Latitude":"40.66670","Longitude":"-76.66670","Snowdepth":"1.000","Units":"in","Rept_Date":"2019-11-17 11"},"coordinates":[5404,3791]},{"type":"Point","properties":{"Station_ID":"ME-WL-8","Station_Nam":"WINTERPORT 2.9 N, ME","Latitude":"44.69369","Longitude":"-68.84800","Snowdepth":"1.000","Units":"in","Rept_Date":"2019-11-17 12"},"coordinates":[7659,6051]},{"type":"Point","properties":{"Station_ID":"ME-KX-12","Station_Nam":"UNION 3.0 W, ME","Latitude":"44.21320","Longitude":"-69.34160","Snowdepth":"1.000","Units":"in","Rept_Date":"2019-11-17 12"},"coordinates":[7517,5782]},{"type":"Point","properties":{"Station_ID":"LKZI2","Station_Nam":"LAKE ZURICH","Latitude":"42.19250","Longitude":"-88.06530","Snowdepth":"1.000","Units":"in","Rept_Date":"2019-11-17 13"},"coordinates":[2117,4647]},{"type":"Point","properties":{"Station_ID":"KRFD","Station_Nam":"GREATER ROCKFORD AIRPORT","Latitude":"42.20000","Longitude":"-89.10000","Snowdepth":"1.000","Units":"in","Rept_Date":"2019-11-17 18"},"coordinates":[1819,4652]},{"type":"Point","properties":{"Station_ID":"KERI","Station_Nam":"ERIE INTERNATIONAL AIRPORT","Latitude":"42.08333","Longitude":"-80.18333","Snowdepth":"1.000","Units":"in","Rept_Date":"2019-11-17 12"},"coordinates":[4390,4586]},{"type":"Point","properties":{"Station_ID":"KBGR","Station_Nam":"BANGOR INTL AIRPORT","Latitude":"44.80000","Longitude":"-68.81666","Snowdepth":"1.000","Units":"in","Rept_Date":"2019-11-18 00"},"coordinates":[7668,6111]},{"type":"Point","properties":{"Station_ID":"JIMW3","Station_Nam":"JIM FALLS 3NW","Latitude":"45.08270","Longitude":"-91.33130","Snowdepth":"1.000","Units":"in","Rept_Date":"2019-11-17 12"},"coordinates":[1175,6270]},{"type":"Point","properties":{"Station_ID":"INL","Station_Nam":"FALLS INTERNATIONAL ARPT","Latitude":"48.56640","Longitude":"-93.40310","Snowdepth":"1.000","Units":"in","Rept_Date":"2019-11-18 00"},"coordinates":[578,8225]},{"type":"Point","properties":{"Station_ID":"IN-KS-41","Station_Nam":"NORTH WEBSTER 2.3 N, IN","Latitude":"41.35866","Longitude":"-85.70060","Snowdepth":"1.000","Units":"in","Rept_Date":"2019-11-17 12"},"coordinates":[2799,4179]},{"type":"Point","properties":{"Station_ID":"IN-KS-11","Station_Nam":"LEESBURG 0.1 WNW, IN","Latitude":"41.32988","Longitude":"-85.85070","Snowdepth":"1.000","Units":"in","Rept_Date":"2019-11-17 12"},"coordinates":[2756,4163]},{"type":"Point","properties":{"Station_ID":"IN-EL-59","Station_Nam":"GOSHEN 1.2 SW, IN","Latitude":"41.56898","Longitude":"-85.85356","Snowdepth":"1.000","Units":"in","Rept_Date":"2019-11-17 12"},"coordinates":[2755,4297]},{"type":"Point","properties":{"Station_ID":"IN-EL-39","Station_Nam":"GOSHEN 3.0 WSW, IN","Latitude":"41.55775","Longitude":"-85.88342","Snowdepth":"1.000","Units":"in","Rept_Date":"2019-11-17 12"},"coordinates":[2746,4291]},{"type":"Point","properties":{"Station_ID":"ILIM5","Station_Nam":"ISLAND LAKE","Latitude":"47.02400","Longitude":"-92.07000","Snowdepth":"1.000","Units":"in","Rept_Date":"2019-11-17 15"},"coordinates":[962,7359]},{"type":"Point","properties":{"Station_ID":"ILEW3","Station_Nam":"STILES 1S","Latitude":"44.84190","Longitude":"-88.05420","Snowdepth":"1.000","Units":"in","Rept_Date":"2019-11-17 13"},"coordinates":[2120,6135]},{"type":"Point","properties":{"Station_ID":"IL-WN-2","Station_Nam":"ROSCOE 1.6 ESE, IL","Latitude":"42.40500","Longitude":"-88.97950","Snowdepth":"1.000","Units":"in","Rept_Date":"2019-11-17 12"},"coordinates":[1854,4767]},{"type":"Point","properties":{"Station_ID":"IL-WN-10","Station_Nam":"NEW MILLFORD 3.3 W, IL","Latitude":"42.16623","Longitude":"-89.12870","Snowdepth":"1.000","Units":"in","Rept_Date":"2019-11-17 13"},"coordinates":[1811,4633]},{"type":"Point","properties":{"Station_ID":"IL-SP-7","Station_Nam":"DAVIS 0.5 N, IL","Latitude":"42.42919","Longitude":"-89.41730","Snowdepth":"1.000","Units":"in","Rept_Date":"2019-11-17 13"},"coordinates":[1727,4780]},{"type":"Point","properties":{"Station_ID":"IL-MCH-95","Station_Nam":"CARY 0.5 SSW, IL","Latitude":"42.20235","Longitude":"-88.25224","Snowdepth":"1.000","Units":"in","Rept_Date":"2019-11-17 13"},"coordinates":[2063,4653]},{"type":"Point","properties":{"Station_ID":"IL-MCH-43","Station_Nam":"ALGONQUIN 0.7 N, IL","Latitude":"42.17392","Longitude":"-88.29930","Snowdepth":"1.000","Units":"in","Rept_Date":"2019-11-17 10"},"coordinates":[2050,4637]},{"type":"Point","properties":{"Station_ID":"IL-LK-9","Station_Nam":"LAKE VILLA 1.1 SSW, IL","Latitude":"42.40305","Longitude":"-88.09050","Snowdepth":"1.000","Units":"in","Rept_Date":"2019-11-17 12"},"coordinates":[2110,4766]},{"type":"Point","properties":{"Station_ID":"IL-LK-81","Station_Nam":"LAKE VILLA 2.3 WSW, IL","Latitude":"42.40532","Longitude":"-88.12380","Snowdepth":"1.000","Units":"in","Rept_Date":"2019-11-17 13"},"coordinates":[2100,4767]},{"type":"Point","properties":{"Station_ID":"IL-LK-39","Station_Nam":"RIVERWOODS 0.4 ENE, IL","Latitude":"42.17264","Longitude":"-87.88840","Snowdepth":"1.000","Units":"in","Rept_Date":"2019-11-17 13"},"coordinates":[2168,4636]},{"type":"Point","properties":{"Station_ID":"IL-LE-10","Station_Nam":"DIXON 3.0 NNW, IL","Latitude":"41.88759","Longitude":"-89.50820","Snowdepth":"1.000","Units":"in","Rept_Date":"2019-11-17 14"},"coordinates":[1701,4476]},{"type":"Point","properties":{"Station_ID":"IL-JD-8","Station_Nam":"STOCKTON 3.4 NNE, IL","Latitude":"42.39960","Longitude":"-89.99020","Snowdepth":"1.000","Units":"in","Rept_Date":"2019-11-17 13"},"coordinates":[1562,4764]},{"type":"Point","properties":{"Station_ID":"IL-DP-155","Station_Nam":"MEDINAH 1.0 SSW, IL","Latitude":"41.96360","Longitude":"-88.06590","Snowdepth":"1.000","Units":"in","Rept_Date":"2019-11-17 14"},"coordinates":[2117,4519]},