{"type":"Topology","objects":{"snowdepth_geo":{"type":"GeometryCollection","name":"snowdepth","crs":{"type":"name","properties":{"name":"urn:ogc:def:crs:OGC:1.3:CRS84"}},"geometries":[{"type":"Point","properties":{"Station_ID":"PRKM4","Station_Nam":"MUNISING EAST","Latitude":"46.42580","Longitude":"-86.62000","Snowdepth":"76.500","Units":"in","Rept_Date":"2020-04-05 06"},"coordinates":[2492,6701]},{"type":"Point","properties":{"Station_ID":"OGIQ6","Station_Nam":"OGOKI CAMP","Latitude":"50.76680","Longitude":"-87.85820","Snowdepth":"61.100","Units":"in","Rept_Date":"2020-04-05 06"},"coordinates":[2202,9402]},{"type":"Point","properties":{"Station_ID":"AUDQ6","Station_Nam":"AUDEN","Latitude":"48.52600","Longitude":"-82.57570","Snowdepth":"47.640","Units":"in","Rept_Date":"2020-04-05 06"},"coordinates":[3441,8008]},{"type":"Point","properties":{"Station_ID":"DVLQ6","Station_Nam":"DEVIOUS LAKE","Latitude":"49.19890","Longitude":"-87.76440","Snowdepth":"43.460","Units":"in","Rept_Date":"2020-04-05 06"},"coordinates":[2224,8426]},{"type":"Point","properties":{"Station_ID":"PDLM4","Station_Nam":"PAINESDALE","Latitude":"47.04160","Longitude":"-88.67170","Snowdepth":"34.000","Units":"in","Rept_Date":"2020-04-04 12"},"coordinates":[2011,7084]},{"type":"Point","properties":{"Station_ID":"CAN-NS-39","Station_Nam":"ST. ANNS 2.8 NW, CA","Latitude":"46.25082","Longitude":"-60.64340","Snowdepth":"34.000","Units":"in","Rept_Date":"2020-04-04 13"},"coordinates":[8589,6592]},{"type":"Point","properties":{"Station_ID":"CAN-NL-82","Station_Nam":"GANDER 2.7 NW, CAN","Latitude":"48.97737","Longitude":"-54.63396","Snowdepth":"27.200","Units":"in","Rept_Date":"2020-04-04 10"},"coordinates":[9999,8288]},{"type":"Point","properties":{"Station_ID":"WLFM5","Station_Nam":"WOLF RIDGE ENVIRON LEARNING CENTER","Latitude":"47.38240","Longitude":"-91.19730","Snowdepth":"27.000","Units":"in","Rept_Date":"2020-04-04 12"},"coordinates":[1418,7296]},{"type":"Point","properties":{"Station_ID":"MNSM4","Station_Nam":"MUNISING","Latitude":"46.41210","Longitude":"-86.66250","Snowdepth":"25.000","Units":"in","Rept_Date":"2020-04-04 10"},"coordinates":[2482,6692]},{"type":"Point","properties":{"Station_ID":"CAN-NB-13","Station_Nam":"BATHURST 3.8 NW, CAN","Latitude":"47.64212","Longitude":"-65.68756","Snowdepth":"24.500","Units":"in","Rept_Date":"2020-04-04 10"},"coordinates":[7405,7458]},{"type":"Point","properties":{"Station_ID":"ME-AR-18","Station_Nam":"NEW SWEDEN 4.9 NNW, ME","Latitude":"47.01080","Longitude":"-68.14390","Snowdepth":"23.000","Units":"in","Rept_Date":"2020-04-04 12"},"coordinates":[6828,7065]},{"type":"Point","properties":{"Station_ID":"KSGM4","Station_Nam":"KEARSARGE","Latitude":"47.27520","Longitude":"-88.41700","Snowdepth":"22.000","Units":"in","Rept_Date":"2020-04-04 12"},"coordinates":[2070,7229]},{"type":"Point","properties":{"Station_ID":"CAN-QC-47","Station_Nam":"SAINTE-FOY 1.8 ENE, CAN","Latitude":"46.76934","Longitude":"-71.27124","Snowdepth":"21.700","Units":"in","Rept_Date":"2020-04-04 12"},"coordinates":[6094,6915]},{"type":"Point","properties":{"Station_ID":"CAN-NB-11","Station_Nam":"MIRAMICHI 3.3 S, CAN","Latitude":"46.99343","Longitude":"-65.50690","Snowdepth":"20.500","Units":"in","Rept_Date":"2020-04-04 12"},"coordinates":[7447,7054]},{"type":"Point","properties":{"Station_ID":"QNCM4","Station_Nam":"QUINCY HILL","Latitude":"47.13640","Longitude":"-88.57950","Snowdepth":"20.000","Units":"in","Rept_Date":"2020-04-04 11"},"coordinates":[2032,7143]},{"type":"Point","properties":{"Station_ID":"HERM4","Station_Nam":"HERMAN,MI","Latitude":"46.65000","Longitude":"-88.33330","Snowdepth":"20.000","Units":"in","Rept_Date":"2020-04-04 12"},"coordinates":[2090,6840]},{"type":"Point","properties":{"Station_ID":"FISM1","Station_Nam":"FORT KENT COOP","Latitude":"47.23850","Longitude":"-68.61240","Snowdepth":"20.000","Units":"in","Rept_Date":"2020-04-04 10"},"coordinates":[6718,7207]},{"type":"Point","properties":{"Station_ID":"PTLQ6","Station_Nam":"PORTAGE LAKE","Latitude":"49.06950","Longitude":"-86.65940","Snowdepth":"19.410","Units":"in","Rept_Date":"2020-04-05 06"},"coordinates":[2483,8346]},{"type":"Point","properties":{"Station_ID":"MQT","Station_Nam":"MARQUETTE, MI","Latitude":"46.53140","Longitude":"-87.54920","Snowdepth":"19.000","Units":"in","Rept_Date":"2020-04-05 06"},"coordinates":[2274,6767]},{"type":"Point","properties":{"Station_ID":"IBLM5","Station_Nam":"ISABELLA 14W","Latitude":"47.59360","Longitude":"-91.65140","Snowdepth":"19.000","Units":"in","Rept_Date":"2020-04-04 14"},"coordinates":[1311,7428]},{"type":"Point","properties":{"Station_ID":"TRIQ6","Station_Nam":"TRIO LAKE","Latitude":"49.22880","Longitude":"-87.22920","Snowdepth":"18.580","Units":"in","Rept_Date":"2020-04-05 06"},"coordinates":[2349,8445]},{"type":"Point","properties":{"Station_ID":"MI-BG-3","Station_Nam":"L'ANSE 17.8 SE, MI","Latitude":"46.55730","Longitude":"-88.20770","Snowdepth":"18.500","Units":"in","Rept_Date":"2020-04-04 13"},"coordinates":[2119,6783]},{"type":"Point","properties":{"Station_ID":"STEM4","Station_Nam":"STEUBEN","Latitude":"46.18530","Longitude":"-86.46410","Snowdepth":"16.000","Units":"in","Rept_Date":"2020-04-04 13"},"coordinates":[2529,6551]},{"type":"Point","properties":{"Station_ID":"MI-KW-2","Station_Nam":"DELAWARE 5.2 SW, MI","Latitude":"47.36928","Longitude":"-88.17919","Snowdepth":"16.000","Units":"in","Rept_Date":"2020-04-04 09"},"coordinates":[2126,7288]},{"type":"Point","properties":{"Station_ID":"SVBQ6","Station_Nam":"SAVANT BASE","Latitude":"50.28730","Longitude":"-90.65670","Snowdepth":"15.470","Units":"in","Rept_Date":"2020-04-05 06"},"coordinates":[1545,9103]},{"type":"Point","properties":{"Station_ID":"CAN-NB-96","Station_Nam":"SAINT-IGNACE 2.6 NE, CAN","Latitude":"46.71424","Longitude":"-65.05609","Snowdepth":"15.000","Units":"in","Rept_Date":"2020-04-04 11"},"coordinates":[7553,6880]},{"type":"Point","properties":{"Station_ID":"RGNM1","Station_Nam":"RANGELEY 2NW","Latitude":"44.98940","Longitude":"-70.67220","Snowdepth":"14.000","Units":"in","Rept_Date":"2020-04-04 12"},"coordinates":[6235,5807]},{"type":"Point","properties":{"Station_ID":"GHMN3","Station_Nam":"PINKHAM NOTCH","Latitude":"44.25800","Longitude":"-71.25250","Snowdepth":"14.000","Units":"in","Rept_Date":"2020-04-04 10"},"coordinates":[6099,5352]},{"type":"Point","properties":{"Station_ID":"CARM1","Station_Nam":"CARIBOU WFO","Latitude":"46.86810","Longitude":"-68.01250","Snowdepth":"14.000","Units":"in","Rept_Date":"2020-04-05 04"},"coordinates":[6859,6976]},{"type":"Point","properties":{"Station_ID":"BRAM1","Station_Nam":"BRASSUA DAM","Latitude":"45.66020","Longitude":"-69.81190","Snowdepth":"14.000","Units":"in","Rept_Date":"2020-04-04 11"},"coordinates":[6437,6225]},{"type":"Point","properties":{"Station_ID":"VT-OL-12","Station_Nam":"GREENSBORO 3.9 NNE, VT","Latitude":"44.63100","Longitude":"-72.28000","Snowdepth":"13.000","Units":"in","Rept_Date":"2020-04-04 13"},"coordinates":[5858,5584]},{"type":"Point","properties":{"Station_ID":"VANM1","Station_Nam":"VAN BUREN","Latitude":"47.16600","Longitude":"-67.93900","Snowdepth":"13.000","Units":"in","Rept_Date":"2020-04-04 11"},"coordinates":[6876,7161]},{"type":"Point","properties":{"Station_ID":"RKWM1","Station_Nam":"MOOSEHEAD LAKE","Latitude":"45.58330","Longitude":"-69.71670","Snowdepth":"13.000","Units":"in","Rept_Date":"2020-04-04 11"},"coordinates":[6459,6177]},{"type":"Point","properties":{"Station_ID":"ME-AR-15","Station_Nam":"PRESQUE ISLE 1.3 WSW, ME","Latitude":"46.67960","Longitude":"-68.01270","Snowdepth":"13.000","Units":"in","Rept_Date":"2020-04-04 12"},"coordinates":[6859,6859]},{"type":"Point","properties":{"Station_ID":"CAN-NB-105","Station_Nam":"SISSON BROOK 3.8 E, CAN","Latitude":"46.98305","Longitude":"-67.32532","Snowdepth":"12.600","Units":"in","Rept_Date":"2020-04-04 12"},"coordinates":[7020,7048]},{"type":"Point","properties":{"Station_ID":"MI-HG-6","Station_Nam":"CALUMET 5.8 ENE, MI","Latitude":"47.27200","Longitude":"-88.33400","Snowdepth":"12.500","Units":"in","Rept_Date":"2020-04-04 11"},"coordinates":[2090,7227]},{"type":"Point","properties":{"Station_ID":"CAN-MB-32","Station_Nam":"PINAWA 1.0 SW, CA","Latitude":"50.14747","Longitude":"-95.89020","Snowdepth":"12.500","Units":"in","Rept_Date":"2020-04-04 13"},"coordinates":[316,9016]},{"type":"Point","properties":{"Station_ID":"PRDM4","Station_Nam":"PARADISE","Latitude":"46.60380","Longitude":"-85.03960","Snowdepth":"12.000","Units":"in","Rept_Date":"2020-04-04 10"},"coordinates":[2863,6812]},{"type":"Point","properties":{"Station_ID":"MI-HG-1","Station_Nam":"HOUGHTON 1.6 ESE, MI","Latitude":"47.10774","Longitude":"-88.52940","Snowdepth":"12.000","Units":"in","Rept_Date":"2020-04-04 14"},"coordinates":[2044,7125]},{"type":"Point","properties":{"Station_ID":"LBRM5","Station_Nam":"LAKE BRONSON DAM","Latitude":"48.72410","Longitude":"-96.62180","Snowdepth":"12.000","Units":"in","Rept_Date":"2020-04-04 13"},"coordinates":[145,8131]},{"type":"Point","properties":{"Station_ID":"GNFM5","Station_Nam":"GUNFLINT LAKE","Latitude":"48.16670","Longitude":"-90.88750","Snowdepth":"12.000","Units":"in","Rept_Date":"2020-04-04 12"},"coordinates":[1491,7784]},{"type":"Point","properties":{"Station_ID":"MN-CK-18","Station_Nam":"GRAND MARAIS 4.4 WSW, MN","Latitude":"47.74462","Longitude":"-90.43796","Snowdepth":"11.500","Units":"in","Rept_Date":"2020-04-04 13"},"coordinates":[1596,7521]},{"type":"Point","properties":{"Station_ID":"WRPW3","Station_Nam":"WATER PURIFICATION PLANT","Latitude":"44.38800","Longitude":"-89.80550","Snowdepth":"11.000","Units":"in","Rept_Date":"2020-04-04 11"},"coordinates":[1744,5433]},{"type":"Point","properties":{"Station_ID":"VT-CL-3","Station_Nam":"GROTON 4.4 WSW, VT","Latitude":"44.19440","Longitude":"-72.28240","Snowdepth":"11.000","Units":"in","Rept_Date":"2020-04-04 11"},"coordinates":[5857,5313]},{"type":"Point","properties":{"Station_ID":"ND-GF-13","Station_Nam":"GRAND FORKS 3.7 SSE, ND","Latitude":"47.86533","Longitude":"-97.04935","Snowdepth":"11.000","Units":"in","Rept_Date":"2020-04-04 13"},"coordinates":[44,7597]},{"type":"Point","properties":{"Station_ID":"MWN","Station_Nam":"MOUNT WASHINGTON","Latitude":"44.26670","Longitude":"-71.30000","Snowdepth":"11.000","Units":"in","Rept_Date":"2020-04-05 04"},"coordinates":[6088,5358]},{"type":"Point","properties":{"Station_ID":"KMWN","Station_Nam":"MOUNT WASHINGTON","Latitude":"44.26666","Longitude":"-71.30000","Snowdepth":"11.000","Units":"in","Rept_Date":"2020-04-05 06"},"coordinates":[6088,5358]},{"type":"Point","properties":{"Station_ID":"CAN-NS-60","Station_Nam":"SYDNEY FORKS, CAN","Latitude":"46.05645","Longitude":"-60.31510","Snowdepth":"11.000","Units":"in","Rept_Date":"2020-04-04 13"},"coordinates":[8666,6471]},{"type":"Point","properties":{"Station_ID":"CAN-NS-103","Station_Nam":"TRAFALGAR 4.9 WSW, CAN","Latitude":"45.26217","Longitude":"-62.72285","Snowdepth":"11.000","Units":"in","Rept_Date":"2020-04-04 11"},"coordinates":[8101,5977]},{"type":"Point","properties":{"Station_ID":"WI-VL-9","Station_Nam":"LAND O' LAKES 11.7 W, WI","Latitude":"46.19023","Longitude":"-89.45790","Snowdepth":"10.000","Units":"in","Rept_Date":"2020-04-04 13"},"coordinates":[1826,6554]},{"type":"Point","properties":{"Station_ID":"MI-GG-4","Station_Nam":"WATERSMEET 5.0 SE, MI","Latitude":"46.20333","Longitude":"-89.13170","Snowdepth":"10.000","Units":"in","Rept_Date":"2020-04-04 14"},"coordinates":[1903,6563]},{"type":"Point","properties":{"Station_ID":"LNOW3","Station_Nam":"LAND O LAKES","Latitude":"46.19000","Longitude":"-89.45700","Snowdepth":"10.000","Units":"in","Rept_Date":"2020-04-04 12"},"coordinates":[1826,6554]},{"type":"Point","properties":{"Station_ID":"KISM4","Station_Nam":"K.I. SAWYER WWTP","Latitude":"46.33410","Longitude":"-87.37790","Snowdepth":"10.000","Units":"in","Rept_Date":"2020-04-04 12"},"coordinates":[2314,6644]},{"type":"Point","properties":{"Station_ID":"ME-FR-22","Station_Nam":"FARMINGTON 4.8 NNW, ME","Latitude":"44.73396","Longitude":"-70.18007","Snowdepth":"9.500","Units":"in","Rept_Date":"2020-04-04 14"},"coordinates":[6350,5648]},{"type":"Point","properties":{"Station_ID":"WI-VL-10","Station_Nam":"LAND O LAKES 4.3 WNW, WI","Latitude":"46.17440","Longitude":"-89.30380","Snowdepth":"9.000","Units":"in","Rept_Date":"2020-04-04 13"},"coordinates":[1862,6545]},{"type":"Point","properties":{"Station_ID":"WI-IR-3","Station_Nam":"PENCE 0.1 E, WI","Latitude":"46.41555","Longitude":"-90.27013","Snowdepth":"9.000","Units":"in","Rept_Date":"2020-04-04 13"},"coordinates":[1635,6695]},{"type":"Point","properties":{"Station_ID":"NOHM5","Station_Nam":"NORTHOME","Latitude":"47.83590","Longitude":"-94.25550","Snowdepth":"9.000","Units":"in","Rept_Date":"2020-04-04 12"},"coordinates":[700,7578]},{"type":"Point","properties":{"Station_ID":"LVDW3","Station_Nam":"LAC VIEUX DESERT","Latitude":"46.12110","Longitude":"-89.07580","Snowdepth":"9.000","Units":"in","Rept_Date":"2020-04-04 14"},"coordinates":[1916,6511]},{"type":"Point","properties":{"Station_ID":"CAN-NB-18","Station_Nam":"MCLEOD HILL 1.1 ENE, CA","Latitude":"46.02725","Longitude":"-66.67460","Snowdepth":"9.000","Units":"in","Rept_Date":"2020-04-04 12"},"coordinates":[7173,6453]},{"type":"Point","properties":{"Station_ID":"KABQ6","Station_Nam":"CAB LAKE","Latitude":"49.59950","Longitude":"-89.17990","Snowdepth":"8.980","Units":"in","Rept_Date":"2020-04-05 06"},"coordinates":[1891,8675]},{"type":"Point","properties":{"Station_ID":"NH-CS-10","Station_Nam":"RANDOLPH 1.4 NE, NH","Latitude":"44.38824","Longitude":"-71.26950","Snowdepth":"8.000","Units":"in","Rept_Date":"2020-04-04 12"},"coordinates":[6095,5433]},{"type":"Point","properties":{"Station_ID":"MN8JKXE2","Station_Nam":"PRAIRIE PORTAGE 5.2 SSW","Latitude":"47.97663","Longitude":"-91.46744","Snowdepth":"8.000","Units":"in","Rept_Date":"2020-04-04 11"},"coordinates":[1354,7666]},{"type":"Point","properties":{"Station_ID":"MN7TCHCK","Station_Nam":"COOK 0.2 ENE","Latitude":"47.85225","Longitude":"-92.68378","Snowdepth":"8.000","Units":"in","Rept_Date":"2020-04-04 11"},"coordinates":[1069,7588]},{"type":"Point","properties":{"Station_ID":"MI-MQ-19","Station_Nam":"ISHPEMING 7.2 SW, MI","Latitude":"46.40550","Longitude":"-87.75670","Snowdepth":"8.000","Units":"in","Rept_Date":"2020-04-04 11"},"coordinates":[2225,6688]},{"type":"Point","properties":{"Station_ID":"GRFN8","Station_Nam":"UNIVERSITY","Latitude":"47.93330","Longitude":"-97.08330","Snowdepth":"8.000","Units":"in","Rept_Date":"2020-04-05 05"},"coordinates":[36,7639]},{"type":"Point","properties":{"Station_ID":"CRVW3","Station_Nam":"CRIVITZ HIGH FALLS","Latitude":"45.35750","Longitude":"-88.19190","Snowdepth":"8.000","Units":"in","Rept_Date":"2020-04-04 12"},"coordinates":[2123,6036]},{"type":"Point","properties":{"Station_ID":"COKM5","Station_Nam":"COOK","Latitude":"47.85060","Longitude":"-92.69250","Snowdepth":"8.000","Units":"in","Rept_Date":"2020-04-04 11"},"coordinates":[1067,7587]},{"type":"Point","properties":{"Station_ID":"CAN-MB-56","Station_Nam":"WINNIPEG 7.6 ENE, CAN","Latitude":"49.93264","Longitude":"-97.04752","Snowdepth":"8.000","Units":"in","Rept_Date":"2020-04-04 14"},"coordinates":[45,8883]},{"type":"Point","properties":{"Station_ID":"BNDM5","Station_Nam":"ELY 25E","Latitude":"47.97190","Longitude":"-91.44860","Snowdepth":"8.000","Units":"in","Rept_Date":"2020-04-04 12"},"coordinates":[1359,7663]},{"type":"Point","properties":{"Station_ID":"SOCQ6","Station_Nam":"SOCKET LAKE","Latitude":"50.77870","Longitude":"-91.79300","Snowdepth":"7.280","Units":"in","Rept_Date":"2020-04-05 06"},"coordinates":[1278,9409]},{"type":"Point","properties":{"Station_ID":"WI-BY-1","Station_Nam":"BAYFIELD 8.8 N, WI","Latitude":"46.93855","Longitude":"-90.83490","Snowdepth":"7.000","Units":"in","Rept_Date":"2020-04-04 13"},"coordinates":[1503,7020]},{"type":"Point","properties":{"Station_ID":"SUAW3","Station_Nam":"SUAMICO","Latitude":"44.60190","Longitude":"-88.09780","Snowdepth":"7.000","Units":"in","Rept_Date":"2020-04-04 11"},"coordinates":[2145,5566]},{"type":"Point","properties":{"Station_ID":"MN7M8EBJ","Station_Nam":"LUTSEN 15.7 NNW","Latitude":"47.85324","Longitude":"-89.92908","Snowdepth":"7.000","Units":"in","Rept_Date":"2020-04-04 13"},"coordinates":[1715,7589]},{"type":"Point","properties":{"Station_ID":"MN-CY-1","Station_Nam":"MOORHEAD 2.0 N, MN","Latitude":"46.88766","Longitude":"-96.74800","Snowdepth":"7.000","Units":"in","Rept_Date":"2020-04-04 13"},"coordinates":[115,6988]},{"type":"Point","properties":{"Station_ID":"MN-CK-6","Station_Nam":"GRAND MARAIS 4.4 W, MN","Latitude":"47.74865","Longitude":"-90.43760","Snowdepth":"7.000","Units":"in","Rept_Date":"2020-04-04 13"},"coordinates":[1596,7524]},{"type":"Point","properties":{"Station_ID":"KGFK","Station_Nam":"GRAND FORKS INTERNATIONAL","Latitude":"47.95000","Longitude":"-97.18333","Snowdepth":"7.000","Units":"in","Rept_Date":"2020-04-05 00"},"coordinates":[13,7649]},{"type":"Point","properties":{"Station_ID":"GFK","Station_Nam":"GRAND FORKS INTERNATIONAL AIRPORT","Latitude":"47.94920","Longitude":"-97.17610","Snowdepth":"7.000","Units":"in","Rept_Date":"2020-04-05 00"},"coordinates":[15,7649]},{"type":"Point","properties":{"Station_ID":"NH-CR-15","Station_Nam":"JACKSON 3.7 NW, NH","Latitude":"44.19069","Longitude":"-71.22598","Snowdepth":"6.500","Units":"in","Rept_Date":"2020-04-04 12"},"coordinates":[6105,5310]},{"type":"Point","properties":{"Station_ID":"ND-CS-25","Station_Nam":"FARGO 2.1 N, ND","Latitude":"46.90816","Longitude":"-96.77937","Snowdepth":"6.500","Units":"in","Rept_Date":"2020-04-04 14"},"coordinates":[108,7001]},{"type":"Point","properties":{"Station_ID":"CAN-NB-64","Station_Nam":"KESWICK RIDGE 4.0 SE, CAN","Latitude":"45.97014","Longitude":"-66.85538","Snowdepth":"6.100","Units":"in","Rept_Date":"2020-04-04 13"},"coordinates":[7131,6417]},{"type":"Point","properties":{"Station_ID":"WI-WB-2","Station_Nam":"STONE LAKE 2.0 NW, WI","Latitude":"45.85960","Longitude":"-91.57710","Snowdepth":"6.000","Units":"in","Rept_Date":"2020-04-04 13"},"coordinates":[1329,6349]},{"type":"Point","properties":{"Station_ID":"WI-VL-14","Station_Nam":"BOULDER JUNCTION 1.4 NE, WI","Latitude":"46.12840","Longitude":"-89.62470","Snowdepth":"6.000","Units":"in","Rept_Date":"2020-04-04 13"},"coordinates":[1787,6516]},{"type":"Point","properties":{"Station_ID":"SUTV1","Station_Nam":"SUTTON","Latitude":"44.61220","Longitude":"-72.04810","Snowdepth":"6.000","Units":"in","Rept_Date":"2020-04-04 12"},"coordinates":[5912,5573]},{"type":"Point","properties":{"Station_ID":"STGW3","Station_Nam":"ST GERMAIN","Latitude":"45.91550","Longitude":"-89.48940","Snowdepth":"6.000","Units":"in","Rept_Date":"2020-04-04 11"},"coordinates":[1819,6383]},{"type":"Point","properties":{"Station_ID":"SBNM5","Station_Nam":"SABIN","Latitude":"46.77690","Longitude":"-96.65610","Snowdepth":"6.000","Units":"in","Rept_Date":"2020-04-04 12"},"coordinates":[137,6919]},{"type":"Point","properties":{"Station_ID":"RANM1","Station_Nam":"RANGELEY","Latitude":"44.98910","Longitude":"-70.67190","Snowdepth":"6.000","Units":"in","Rept_Date":"2020-04-04 11"},"coordinates":[6235,5807]},{"type":"Point","properties":{"Station_ID":"PBAN8","Station_Nam":"SITE 1-3MI.N","Latitude":"48.97420","Longitude":"-97.23860","Snowdepth":"6.000","Units":"in","Rept_Date":"2020-04-04 13"},"coordinates":[0,8286]},{"type":"Point","properties":{"Station_ID":"MN-SL-15","Station_Nam":"CHISHOLM 0.4 WSW, MN","Latitude":"47.48557","Longitude":"-92.88690","Snowdepth":"6.000","Units":"in","Rept_Date":"2020-04-04 13"},"coordinates":[1021,7360]},{"type":"Point","properties":{"Station_ID":"MN-PK-15","Station_Nam":"MENTOR 2.5 SSW, MN","Latitude":"47.66625","Longitude":"-96.17328","Snowdepth":"6.000","Units":"in","Rept_Date":"2020-04-04 13"},"coordinates":[250,7473]},{"type":"Point","properties":{"Station_ID":"MN-IT-23","Station_Nam":"BOVEY 13.4 N, MN","Latitude":"47.48855","Longitude":"-93.43497","Snowdepth":"6.000","Units":"in","Rept_Date":"2020-04-04 13"},"coordinates":[893,7362]},{"type":"Point","properties":{"Station_ID":"MCLN8","Station_Nam":"MC LEOD,ND","Latitude":"46.40250","Longitude":"-97.23810","Snowdepth":"6.000","Units":"in","Rept_Date":"2020-04-04 13"},"coordinates":[0,6686]},{"type":"Point","properties":{"Station_ID":"JKMM1","Station_Nam":"JACKMAN","Latitude":"45.62600","Longitude":"-70.24600","Snowdepth":"6.000","Units":"in","Rept_Date":"2020-04-04 11"},"coordinates":[6335,6203]},{"type":"Point","properties":{"Station_ID":"DLHM5","Station_Nam":"DULUTH NWS","Latitude":"46.83680","Longitude":"-92.21080","Snowdepth":"6.000","Units":"in","Rept_Date":"2020-04-04 18"},"coordinates":[1180,6957]},{"type":"Point","properties":{"Station_ID":"DLH","Station_Nam":"DULUTH, MN","Latitude":"46.83690","Longitude":"-92.21030","Snowdepth":"6.000","Units":"in","Rept_Date":"2020-04-05 00"},"coordinates":[1180,6957]},{"type":"Point","properties":{"Station_ID":"CLKM4","Station_Nam":"CLARKSBURG","Latitude":"46.49910","Longitude":"-87.84500","Snowdepth":"6.000","Units":"in","Rept_Date":"2020-04-04 11"},"coordinates":[2205,6747]},{"type":"Point","properties":{"Station_ID":"CAN-PE-3","Station_Nam":"WELLINGTON 1.6 NE, CA","Latitude":"46.46672","Longitude":"-63.98920","Snowdepth":"6.000","Units":"in","Rept_Date":"2020-04-04 11"},"coordinates":[7803,6726]},{"type":"Point","properties":{"Station_ID":"BRDM1","Station_Nam":"BRIDGEWATER","Latitude":"46.42870","Longitude":"-67.84370","Snowdepth":"6.000","Units":"in","Rept_Date":"2020-04-04 22"},"coordinates":[6899,6703]},{"type":"Point","properties":{"Station_ID":"WI-BY-14","Station_Nam":"ASHLAND 9.8 W, WI","Latitude":"46.59742","Longitude":"-91.07856","Snowdepth":"5.500","Units":"in","Rept_Date":"2020-04-04 13"},"coordinates":[1446,6808]},{"type":"Point","properties":{"Station_ID":"CAN-PE-7","Station_Nam":"MORELL 1.4 NNW, CA","Latitude":"46.42741","Longitude":"-62.70870","Snowdepth":"5.200","Units":"in","Rept_Date":"2020-04-04 12"},"coordinates":[8104,6702]},{"type":"Point","properties":{"Station_ID":"CAN-MB-298","Station_Nam":"GARDENTON 4.2 W - SRRCD, CAN","Latitude":"49.09480","Longitude":"-96.75446","Snowdepth":"5.100","Units":"in","Rept_Date":"2020-04-04 13"},"coordinates":[114,8361]},{"type":"Point","properties":{"Station_ID":"WI-ON-8","Station_Nam":"HAZELHURST 2.1 SSE, WI","Latitude":"45.78186","Longitude":"-89.70330","Snowdepth":"5.000","Units":"in","Rept_Date":"2020-04-04 13"},"coordinates":[1768,6300]},{"type":"Point","properties":{"Station_ID":"VT-BN-12","Station_Nam":"STAMFORD 5.0 NNE, VT","Latitude":"42.82000","Longitude":"-73.02000","Snowdepth":"5.000","Units":"in","Rept_Date":"2020-04-04 21"},"coordinates":[5684,4458]},{"type":"Point","properties":{"Station_ID":"UPSW3","Station_Nam":"UPSON,WI","Latitude":"46.36780","Longitude":"-90.41220","Snowdepth":"5.000","Units":"in","Rept_Date":"2020-04-04 23"},"coordinates":[1602,6665]},{"type":"Point","properties":{"Station_ID":"PTBN3","Station_Nam":"PITTSBURG RESERVOIR","Latitude":"45.04690","Longitude":"-71.38300","Snowdepth":"5.000","Units":"in","Rept_Date":"2020-04-04 12"},"coordinates":[6068,5843]},{"type":"Point","properties":{"Station_ID":"PHEW3","Station_Nam":"PHELPS","Latitude":"46.06630","Longitude":"-89.07520","Snowdepth":"5.000","Units":"in","Rept_Date":"2020-04-04 12"},"coordinates":[1916,6477]},{"type":"Point","properties":{"Station_ID":"ND-CS-1","Station_Nam":"WEST FARGO 3.8 SSE, ND","Latitude":"46.82750","Longitude":"-96.85280","Snowdepth":"5.000","Units":"in","Rept_Date":"2020-04-04 13"},"coordinates":[91,6951]},{"type":"Point","properties":{"Station_ID":"LILM1","Station_Nam":"LILLE","Latitude":"47.27770","Longitude":"-68.10520","Snowdepth":"5.000","Units":"in","Rept_Date":"2020-04-04 11"},"coordinates":[6837,7231]},{"type":"Point","properties":{"Station_ID":"KINM1","Station_Nam":"KINGFIELD","Latitude":"44.95950","Longitude":"-70.17530","Snowdepth":"5.000","Units":"in","Rept_Date":"2020-04-04 11"},"coordinates":[6352,5789]},{"type":"Point","properties":{"Station_ID":"EMBM5","Station_Nam":"EMBARASS,MN","Latitude":"47.65810","Longitude":"-92.19580","Snowdepth":"5.000","Units":"in","Rept_Date":"2020-04-04 13"},"coordinates":[1184,7468]},{"type":"Point","properties":{"Station_ID":"BABM5","Station_Nam":"BABBITT","Latitude":"47.71210","Longitude":"-91.95330","Snowdepth":"5.000","Units":"in","Rept_Date":"2020-04-04 12"},"coordinates":[1240,7501]},{"type":"Point","properties":{"Station_ID":"CAN-NB-97","Station_Nam":"NEW MARYLAND 0.6 NW, CAN","Latitude":"45.90112","Longitude":"-66.68739","Snowdepth":"4.700","Units":"in","Rept_Date":"2020-04-04 13"},"coordinates":[7170,6375]},{"type":"Point","properties":{"Station_ID":"WRSM5","Station_Nam":"WRENSHALL","Latitude":"46.61550","Longitude":"-92.38380","Snowdepth":"4.000","Units":"in","Rept_Date":"2020-04-04 13"},"coordinates":[1139,6819]},{"type":"Point","properties":{"Station_ID":"WI-SR-1","Station_Nam":"HAYWARD 9.2 NNE, WI","Latitude":"46.13255","Longitude":"-91.40500","Snowdepth":"4.000","Units":"in","Rept_Date":"2020-04-04 12"},"coordinates":[1369,6519]},{"type":"Point","properties":{"Station_ID":"TOPM1","Station_Nam":"TOPSFIELD","Latitude":"45.43470","Longitude":"-67.72020","Snowdepth":"4.000","Units":"in","Rept_Date":"2020-04-04 10"},"coordinates":[6928,6084]},{"type":"Point","properties":{"Station_ID":"SSMM4","Station_Nam":"SAULT STE MARIE","Latitude":"46.48660","Longitude":"-84.40250","Snowdepth":"4.000","Units":"in","Rept_Date":"2020-04-04 12"},"coordinates":[3013,6739]},{"type":"Point","properties":{"Station_ID":"RLWM5","Station_Nam":"CAMP NORRIS DNR","Latitude":"48.61000","Longitude":"-95.18170","Snowdepth":"4.000","Units":"in","Rept_Date":"2020-04-04 14"},"coordinates":[483,8060]},{"type":"Point","properties":{"Station_ID":"PDGM4","Station_Nam":"PAULDING","Latitude":"46.39760","Longitude":"-89.17940","Snowdepth":"4.000","Units":"in","Rept_Date":"2020-04-04 12"},"coordinates":[1891,6683]},{"type":"Point","properties":{"Station_ID":"MNV905PW","Station_Nam":"ROOSEVELT 5.3 N","Latitude":"48.87933","Longitude":"-95.08224","Snowdepth":"4.000","Units":"in","Rept_Date":"2020-04-04 12"},"coordinates":[506,8227]},{"type":"Point","properties":{"Station_ID":"MIEM4","Station_Nam":"MICHIGAMME 3WNW","Latitude":"46.54530","Longitude":"-88.18000","Snowdepth":"4.000","Units":"in","Rept_Date":"2020-04-04 12"},"coordinates":[2126,6775]},{"type":"Point","properties":{"Station_ID":"LGRN8","Station_Nam":"LIDGERWOOD,ND","Latitude":"46.06670","Longitude":"-97.16670","Snowdepth":"4.000","Units":"in","Rept_Date":"2020-04-04 12"},"coordinates":[17,6478]},{"type":"Point","properties":{"Station_ID":"IWOM4","Station_Nam":"IRONWOOD#2","Latitude":"46.46520","Longitude":"-90.13820","Snowdepth":"4.000","Units":"in","Rept_Date":"2020-04-04 12"},"coordinates":[1666,6725]},{"type":"Point","properties":{"Station_ID":"GRBM5","Station_Nam":"GRAND RAPIDS 12N","Latitude":"47.39800","Longitude":"-93.51330","Snowdepth":"4.000","Units":"in","Rept_Date":"2020-04-04 12"},"coordinates":[874,7306]},{"type":"Point","properties":{"Station_ID":"FDRN8","Station_Nam":"FARGO 3S","Latitude":"46.82930","Longitude":"-96.79620","Snowdepth":"4.000","Units":"in","Rept_Date":"2020-04-04 21"},"coordinates":[104,6952]},{"type":"Point","properties":{"Station_ID":"FAR","Station_Nam":"HECTOR INTERNATIONAL ARPT","Latitude":"46.91560","Longitude":"-96.81440","Snowdepth":"4.000","Units":"in","Rept_Date":"2020-04-05 00"},"coordinates":[100,7006]},{"type":"Point","properties":{"Station_ID":"ELYM5","Station_Nam":"ELY","Latitude":"47.90560","Longitude":"-91.82830","Snowdepth":"4.000","Units":"in","Rept_Date":"2020-04-04 14"},"coordinates":[1270,7622]},{"type":"Point","properties":{"Station_ID":"BBEM4","Station_Nam":"BIG BAY 9SW","Latitude":"46.74620","Longitude":"-87.88160","Snowdepth":"4.000","Units":"in","Rept_Date":"2020-04-04 12"},"coordinates":[2196,6900]},{"type":"Point","properties":{"Station_ID":"ANJM4","Station_Nam":"SNOW PAID OBSERVER FOR KANJ","Latitude":"46.48670","Longitude":"-84.40260","Snowdepth":"4.000","Units":"in","Rept_Date":"2020-04-04 18"},"coordinates":[3013,6739]},{"type":"Point","properties":{"Station_ID":"ANJ","Station_Nam":"SAULT STE MARIE","Latitude":"46.46670","Longitude":"-84.36670","Snowdepth":"4.000","Units":"in","Rept_Date":"2020-04-05 00"},"coordinates":[3021,6726]},{"type":"Point","properties":{"Station_ID":"WI-IR-2","Station_Nam":"MERCER 2.0 SE, WI","Latitude":"46.14749","Longitude":"-90.03097","Snowdepth":"3.800","Units":"in","Rept_Date":"2020-04-04 13"},"coordinates":[1692,6528]},{"type":"Point","properties":{"Station_ID":"CAN-NS-163","Station_Nam":"SYDNEY MINES 2.2 WNW, CAN","Latitude":"46.24851","Longitude":"-60.25161","Snowdepth":"3.500","Units":"in","Rept_Date":"2020-04-04 12"},"coordinates":[8681,6591]},{"type":"Point","properties":{"Station_ID":"CATQ6","Station_Nam":"CAT LAKE","Latitude":"51.72690","Longitude":"-91.82210","Snowdepth":"3.110","Units":"in","Rept_Date":"2020-04-04 22"},"coordinates":[1271,9999]},{"type":"Point","properties":{"Station_ID":"WTNM4","Station_Nam":"WATTON 2WSW","Latitude":"46.52660","Longitude":"-88.64240","Snowdepth":"3.000","Units":"in","Rept_Date":"2020-04-04 12"},"coordinates":[2017,6764]},{"type":"Point","properties":{"Station_ID":"WI-PR-6","Station_Nam":"PHILLIPS 1.3 S, WI","Latitude":"45.67677","Longitude":"-90.39543","Snowdepth":"3.000","Units":"in","Rept_Date":"2020-04-04 12"},"coordinates":[1606,6235]},{"type":"Point","properties":{"Station_ID":"TAKW3","Station_Nam":"RICE RESERVOIR NO. 2","Latitude":"45.53770","Longitude":"-89.73220","Snowdepth":"3.000","Units":"in","Rept_Date":"2020-04-04 12"},"coordinates":[1762,6148]},{"type":"Point","properties":{"Station_ID":"SRAW3","Station_Nam":"SARONA","Latitude":"45.80250","Longitude":"-91.86700","Snowdepth":"3.000","Units":"in","Rept_Date":"2020-04-04 13"},"coordinates":[1261,6313]},{"type":"Point","properties":{"Station_ID":"MN8O09O3","Station_Nam":"ORR 3.6 E","Latitude":"48.04403","Longitude":"-92.75427","Snowdepth":"3.000","Units":"in","Rept_Date":"2020-04-04 11"},"coordinates":[1052,7708]},{"type":"Point","properties":{"Station_ID":"ME-FR-4","Station_Nam":"NEW SHARON 2.0 NW, ME","Latitude":"44.66582","Longitude":"-70.02720","Snowdepth":"3.000","Units":"in","Rept_Date":"2020-04-04 12"},"coordinates":[6386,5606]},{"type":"Point","properties":{"Station_ID":"LEIM5","Station_Nam":"ORR 3E","Latitude":"48.05810","Longitude":"-92.75220","Snowdepth":"3.000","Units":"in","Rept_Date":"2020-04-04 11"},"coordinates":[1053,7716]},{"type":"Point","properties":{"Station_ID":"INL","Station_Nam":"FALLS INTERNATIONAL ARPT","Latitude":"48.56640","Longitude":"-93.40310","Snowdepth":"3.000","Units":"in","Rept_Date":"2020-04-05 00"},"coordinates":[900,8033]},{"type":"Point","properties":{"Station_ID":"IFSM5","Station_Nam":"INTERNATIONAL FALLS SNOW","Latitude":"48.57780","Longitude":"-93.39640","Snowdepth":"3.000","Units":"in","Rept_Date":"2020-04-04 12"},"coordinates":[902,8040]},{"type":"Point","properties":{"Station_ID":"GLDM4","Station_Nam":"GLADSTONE NO. 2","Latitude":"45.84330","Longitude":"-87.03910","Snowdepth":"3.000","Units":"in","Rept_Date":"2020-04-04 12"},"coordinates":[2394,6339]},{"type":"Point","properties":{"Station_ID":"BGBM4","Station_Nam":"BIG BAY 1NW","Latitude":"46.83250","Longitude":"-87.75040","Snowdepth":"3.000","Units":"in","Rept_Date":"2020-04-04 12"},"coordinates":[2227,6954]},{"type":"Point","properties":{"Station_ID":"WI-BR-18","Station_Nam":"CHETEK 5.8 SW, WI","Latitude":"45.24953","Longitude":"-91.72425","Snowdepth":"2.700","Units":"in","Rept_Date":"2020-04-04 13"},"coordinates":[1294,5969]},{"type":"Point","properties":{"Station_ID":"WI-TY-2","Station_Nam":"SHELDON 8.1 ENE, WI","Latitude":"45.35598","Longitude":"-90.80296","Snowdepth":"2.500","Units":"in","Rept_Date":"2020-04-04 13"},"coordinates":[1510,6035]},{"type":"Point","properties":{"Station_ID":"WI-SR-5","Station_Nam":"HAYWARD 9.7 NE, WI","Latitude":"46.12030","Longitude":"-91.35370","Snowdepth":"2.500","Units":"in","Rept_Date":"2020-04-04 14"},"coordinates":[1381,6511]},{"type":"Point","properties":{"Station_ID":"WI-RS-3","Station_Nam":"BRUCE 1.9 E, WI","Latitude":"45.45415","Longitude":"-91.23510","Snowdepth":"2.500","Units":"in","Rept_Date":"2020-04-04 13"},"coordinates":[1409,6096]},{"type":"Point","properties":{"Station_ID":"WI-DN-15","Station_Nam":"MENOMONIE 0.9 NW, WI","Latitude":"44.89832","Longitude":"-91.92398","Snowdepth":"2.500","Units":"in","Rept_Date":"2020-04-04 13"},"coordinates":[1247,5751]},{"type":"Point","properties":{"Station_ID":"WI-BR-2","Station_Nam":"CHETEK 2.0 SE, WI","Latitude":"45.29427","Longitude":"-91.62470","Snowdepth":"2.500","Units":"in","Rept_Date":"2020-04-04 13"},"coordinates":[1318,5997]},{"type":"Point","properties":{"Station_ID":"WI-BY-2","Station_Nam":"MELLEN 18.6 SW, WI","Latitude":"46.16937","Longitude":"-90.98090","Snowdepth":"2.400","Units":"in","Rept_Date":"2020-04-04 13"},"coordinates":[1469,6541]},{"type":"Point","properties":{"Station_ID":"WI-DN-1","Station_Nam":"BOYCEVILLE 3.3 N, WI","Latitude":"45.08913","Longitude":"-92.02760","Snowdepth":"2.300","Units":"in","Rept_Date":"2020-04-04 13"},"coordinates":[1223,5869]},{"type":"Point","properties":{"Station_ID":"MN-LK-5","Station_Nam":"TWO HARBORS 9.7 NNE, MN","Latitude":"47.16560","Longitude":"-91.61950","Snowdepth":"2.200","Units":"in","Rept_Date":"2020-04-04 13"},"coordinates":[1319,7161]},{"type":"Point","properties":{"Station_ID":"WI-RS-1","Station_Nam":"LADYSMITH 2.8 WNW, WI","Latitude":"45.48180","Longitude":"-91.14680","Snowdepth":"2.000","Units":"in","Rept_Date":"2020-04-04 13"},"coordinates":[1430,6114]},{"type":"Point","properties":{"Station_ID":"WI-PR-8","Station_Nam":"PHILLIPS 0.4 SSW, WI","Latitude":"45.69086","Longitude":"-90.40200","Snowdepth":"2.000","Units":"in","Rept_Date":"2020-04-04 13"},"coordinates":[1605,6244]},{"type":"Point","properties":{"Station_ID":"WI-PR-2","Station_Nam":"BUTTERNUT 5.9 SW, WI","Latitude":"45.96501","Longitude":"-90.59750","Snowdepth":"2.000","Units":"in","Rept_Date":"2020-04-04 12"},"coordinates":[1559,6414]},{"type":"Point","properties":{"Station_ID":"WI-DG-20","Station_Nam":"SOLON SPRINGS 1.2 W, WI","Latitude":"46.35217","Longitude":"-91.84405","Snowdepth":"2.000","Units":"in","Rept_Date":"2020-04-04 13"},"coordinates":[1266,6655]},{"type":"Point","properties":{"Station_ID":"WI-BY-22","Station_Nam":"MASON 11.5 WNW, WI","Latitude":"46.50198","Longitude":"-91.28339","Snowdepth":"2.000","Units":"in","Rept_Date":"2020-04-04 14"},"coordinates":[1398,6748]},{"type":"Point","properties":{"Station_ID":"WI-AS-4","Station_Nam":"ASHLAND 0.5 WNW, WI","Latitude":"46.58240","Longitude":"-90.88390","Snowdepth":"2.000","Units":"in","Rept_Date":"2020-04-04 13"},"coordinates":[1491,6798]},{"type":"Point","properties":{"Station_ID":"VT-ES-3","Station_Nam":"LUNENBURG 2.3 NNW, VT","Latitude":"44.49324","Longitude":"-71.70446","Snowdepth":"2.000","Units":"in","Rept_Date":"2020-04-04 12"},"coordinates":[5993,5499]},{"type":"Point","properties":{"Station_ID":"NH-CS-4","Station_Nam":"PITTSBURG 6.1 NE, NH","Latitude":"45.11060","Longitude":"-71.29760","Snowdepth":"2.000","Units":"in","Rept_Date":"2020-04-04 12"},"coordinates":[6088,5883]},{"type":"Point","properties":{"Station_ID":"MTLT1","Station_Nam":"GATLINBURG,TN","Latitude":"35.65500","Longitude":"-83.44110","Snowdepth":"2.000","Units":"in","Rept_Date":"2020-04-04 12"},"coordinates":[3238,0]},{"type":"Point","properties":{"Station_ID":"MN4R4TSR","Station_Nam":"KNIFE RIVER 0.8 NNW","Latitude":"46.96007","Longitude":"-91.78365","Snowdepth":"2.000","Units":"in","Rept_Date":"2020-04-04 11"},"coordinates":[1280,7033]},{"type":"Point","properties":{"Station_ID":"MN-SL-108","Station_Nam":"IRON JUNCTION 3.4 NNW, MN","Latitude":"47.46150","Longitude":"-92.63130","Snowdepth":"2.000","Units":"in","Rept_Date":"2020-04-04 13"},"coordinates":[1081,7345]},{"type":"Point","properties":{"Station_ID":"LBKV1","Station_Nam":"LYE BROOK","Latitude":"43.05000","Longitude":"-73.03330","Snowdepth":"2.000","Units":"in","Rept_Date":"2020-04-05 06"},"coordinates":[5681,4601]},{"type":"Point","properties":{"Station_ID":"IRMM4","Station_Nam":"WWTP","Latitude":"46.46670","Longitude":"-90.18330","Snowdepth":"2.000","Units":"in","Rept_Date":"2020-04-04 12"},"coordinates":[1656,6726]},{"type":"Point","properties":{"Station_ID":"COTM5","Station_Nam":"COTTON","Latitude":"47.16870","Longitude":"-92.46290","Snowdepth":"2.000","Units":"in","Rept_Date":"2020-04-04 15"},"coordinates":[1121,7163]},{"type":"Point","properties":{"Station_ID":"CORV1","Station_Nam":"CORINTH","Latitude":"44.00690","Longitude":"-72.31940","Snowdepth":"2.000","Units":"in","Rept_Date":"2020-04-04 11"},"coordinates":[5848,5196]},{"type":"Point","properties":{"Station_ID":"CMKW3","Station_Nam":"CLAM LAKE 4W","Latitude":"46.16940","Longitude":"-90.98080","Snowdepth":"2.000","Units":"in","Rept_Date":"2020-04-04 12"},"coordinates":[1469,6541]},{"type":"Point","properties":{"Station_ID":"AWXW3","Station_Nam":"ASHLAND","Latitude":"46.58240","Longitude":"-90.88390","Snowdepth":"2.000","Units":"in","Rept_Date":"2020-04-04 12"},"coordinates":[1491,6798]},{"type":"Point","properties":{"Station_ID":"8D3","Station_Nam":"SISSETON MUNICIPAL AP","Latitude":"45.67080","Longitude":"-96.99610","Snowdepth":"2.000","Units":"in","Rept_Date":"2020-04-04 12"},"coordinates":[57,6231]},{"type":"Point","properties":{"Station_ID":"WI-CH-14","Station_Nam":"BLOOMER 7.9 NE, WI","Latitude":"45.17347","Longitude":"-91.36354","Snowdepth":"1.900","Units":"in","Rept_Date":"2020-04-04 14"},"coordinates":[1379,5922]},{"type":"Point","properties":{"Station_ID":"WI-DN-5","Station_Nam":"ELK MOUND 1.3 NE, WI","Latitude":"44.88627","Longitude":"-91.66680","Snowdepth":"1.500","Units":"in","Rept_Date":"2020-04-04 13"},"coordinates":[1308,5743]},{"type":"Point","properties":{"Station_ID":"CAN-PE-10","Station_Nam":"NEW LONDON 1.6 ENE, CA","Latitude":"46.46985","Longitude":"-63.49200","Snowdepth":"1.500","Units":"in","Rept_Date":"2020-04-04 12"},"coordinates":[7920,6728]},{"type":"Point","properties":{"Station_ID":"WI-SC-44","Station_Nam":"NEW RICHMOND 4.4 SW, WI","Latitude":"45.08201","Longitude":"-92.60651","Snowdepth":"1.300","Units":"in","Rept_Date":"2020-04-04 14"},"coordinates":[1087,5865]},{"type":"Point","properties":{"Station_ID":"WI-PR-7","Station_Nam":"BRANTWOOD 7.4 S, WI","Latitude":"45.45450","Longitude":"-90.10249","Snowdepth":"1.300","Units":"in","Rept_Date":"2020-04-04 10"},"coordinates":[1675,6097]},{"type":"Point","properties":{"Station_ID":"WI-BT-14","Station_Nam":"OAKLAND 9.0 ENE, WI","Latitude":"45.95184","Longitude":"-92.21653","Snowdepth":"1.200","Units":"in","Rept_Date":"2020-04-04 13"},"coordinates":[1179,6406]},{"type":"Point","properties":{"Station_ID":"WI-CH-10","Station_Nam":"CHIPPEWA FALLS 0.6 SSE, WI","Latitude":"44.92452","Longitude":"-91.38623","Snowdepth":"1.100","Units":"in","Rept_Date":"2020-04-04 13"},"coordinates":[1374,5767]},{"type":"Point","properties":{"Station_ID":"WTRM4","Station_Nam":"WATERSMEET 12WSW","Latitude":"46.22310","Longitude":"-89.40850","Snowdepth":"1.000","Units":"in","Rept_Date":"2020-04-04 11"},"coordinates":[1838,6575]},{"type":"Point","properties":{"Station_ID":"WRUM5","Station_Nam":"WARROAD 4W","Latitude":"48.89600","Longitude":"-95.40700","Snowdepth":"1.000","Units":"in","Rept_Date":"2020-04-05 04"},"coordinates":[430,8238]},{"type":"Point","properties":{"Station_ID":"WRTS2","Station_Nam":"WATERTOWN,SD","Latitude":"44.90280","Longitude":"-97.11360","Snowdepth":"1.000","Units":"in","Rept_Date":"2020-04-04 14"},"coordinates":[29,5753]},{"type":"Point","properties":{"Station_ID":"WI-SC-24","Station_Nam":"DEER PARK 2.6 SSE, WI","Latitude":"45.15739","Longitude":"-92.35759","Snowdepth":"1.000","Units":"in","Rept_Date":"2020-04-04 13"},"coordinates":[1146,5912]},{"type":"Point","properties":{"Station_ID":"WI-PC-5","Station_Nam":"RIVER FALLS 1.2 SSW, WI","Latitude":"44.84032","Longitude":"-92.63500","Snowdepth":"1.000","Units":"in","Rept_Date":"2020-04-04 13"},"coordinates":[1080,5715]},{"type":"Point","properties":{"Station_ID":"WI-PC-10","Station_Nam":"RIVER FALLS 1.4 S, WI","Latitude":"44.83580","Longitude":"-92.62100","Snowdepth":"1.000","Units":"in","Rept_Date":"2020-04-04 13"},"coordinates":[1084,5712]},{"type":"Point","properties":{"Station_ID":"WI-ON-6","Station_Nam":"RHINELANDER 5.2 N, WI","Latitude":"45.71388","Longitude":"-89.42150","Snowdepth":"1.000","Units":"in","Rept_Date":"2020-04-04 14"},"coordinates":[1835,6258]},{"type":"Point","properties":{"Station_ID":"WI-LN-2","Station_Nam":"MERRILL 7.0 W, WI","Latitude":"45.17746","Longitude":"-89.84820","Snowdepth":"1.000","Units":"in","Rept_Date":"2020-04-04 12"},"coordinates":[1734,5924]},{"type":"Point","properties":{"Station_ID":"WI-EC-4","Station_Nam":"EAU CLAIRE 2.8 W, WI","Latitude":"44.81720","Longitude":"-91.55000","Snowdepth":"1.000","Units":"in","Rept_Date":"2020-04-04 13"},"coordinates":[1335,5700]},{"type":"Point","properties":{"Station_ID":"WI-EC-25","Station_Nam":"EAU CLAIRE 5.4 SSE, WI","Latitude":"44.75300","Longitude":"-91.43830","Snowdepth":"1.000","Units":"in","Rept_Date":"2020-04-04 14"},"coordinates":[1361,5660]},{"type":"Point","properties":{"Station_ID":"WI-CH-7","Station_Nam":"CHIPPEWA FALLS 1.2 E, WI","Latitude":"44.92920","Longitude":"-91.36730","Snowdepth":"1.000","Units":"in","Rept_Date":"2020-04-04 13"},"coordinates":[1378,5770]},{"type":"Point","properties":{"Station_ID":"WHTM5","Station_Nam":"WHEATON,MN","Latitude":"45.80000","Longitude":"-96.48330","Snowdepth":"1.000","Units":"in","Rept_Date":"2020-04-04 13"},"coordinates":[177,6312]},{"type":"Point","properties":{"Station_ID":"TOHM5","Station_Nam":"TWO HARBORS WWTP","Latitude":"47.01760","Longitude":"-91.66480","Snowdepth":"1.000","Units":"in","Rept_Date":"2020-04-04 12"},"coordinates":[1308,7069]},{"type":"Point","properties":{"Station_ID":"SIWS2","Station_Nam":"SISSETON 3W","Latitude":"45.65870","Longitude":"-97.12450","Snowdepth":"1.000","Units":"in","Rept_Date":"2020-04-04 12"},"coordinates":[27,6224]},{"type":"Point","properties":{"Station_ID":"SD-RB-1","Station_Nam":"SISSETON 3.8 W, SD","Latitude":"45.65865","Longitude":"-97.12370","Snowdepth":"1.000","Units":"in","Rept_Date":"2020-04-04 13"},"coordinates":[27,6224]},{"type":"Point","properties":{"Station_ID":"RWGM5","Station_Nam":"RED WING","Latitude":"44.57120","Longitude":"-92.52830","Snowdepth":"1.000","Units":"in","Rept_Date":"2020-04-04 13"},"coordinates":[1105,5547]},{"type":"Point","properties":{"Station_ID":"RVFW3","Station_Nam":"RIVER FALLS","Latitude":"44.85440","Longitude":"-92.61220","Snowdepth":"1.000","Units":"in","Rept_Date":"2020-04-04 10"},"coordinates":[1086,5723]},{"type":"Point","properties":{"Station_ID":"RLKW3","Station_Nam":"REST LAKE","Latitude":"46.12220","Longitude":"-89.87720","Snowdepth":"1.000","Units":"in","Rept_Date":"2020-04-04 13"},"coordinates":[1728,6512]},{"type":"Point","properties":{"Station_ID":"RFDM1","Station_Nam":"RUMFORD 7SW","Latitude":"44.49470","Longitude":"-70.65640","Snowdepth":"1.000","Units":"in","Rept_Date":"2020-04-04 12"},"coordinates":[6239,5500]},{"type":"Point","properties":{"Station_ID":"PERV1","Station_Nam":"PERU","Latitude":"43.26670","Longitude":"-72.90000","Snowdepth":"1.000","Units":"in","Rept_Date":"2020-04-04 11"},"coordinates":[5712,4736]},{"type":"Point","properties":{"Station_ID":"NH-GR-49","Station_Nam":"PLYMOUTH 3.7 N, NH","Latitude":"43.79048","Longitude":"-71.68413","Snowdepth":"1.000","Units":"in","Rept_Date":"2020-04-04 12"},"coordinates":[5997,5061]},{"type":"Point","properties":{"Station_ID":"MWTM1","Station_Nam":"MILLINOCKET WWTP","Latitude":"45.64030","Longitude":"-68.67480","Snowdepth":"1.000","Units":"in","Rept_Date":"2020-04-04 11"},"coordinates":[6704,6212]},{"type":"Point","properties":{"Station_ID":"MNEY8CTB","Station_Nam":"MIDLAND JUNCTION 2.2 ENE","Latitude":"44.33041","Longitude":"-91.95891","Snowdepth":"1.000","Units":"in","Rept_Date":"2020-04-04 13"},"coordinates":[1239,5397]},{"type":"Point","properties":{"Station_ID":"MNDI83EN","Station_Nam":"ELGIN 2.2 SSW","Latitude":"44.10044","Longitude":"-92.26947","Snowdepth":"1.000","Units":"in","Rept_Date":"2020-04-04 12"},"coordinates":[1166,5254]},{"type":"Point","properties":{"Station_ID":"MN4QO5TH","Station_Nam":"TWO HARBORS 0.7 ESE","Latitude":"47.03297","Longitude":"-91.65673","Snowdepth":"1.000","Units":"in","Rept_Date":"2020-04-04 12"},"coordinates":[1310,7079]},{"type":"Point","properties":{"Station_ID":"MN0GWSNW","Station_Nam":"LAKE ELMO 2.9 SE","Latitude":"44.97220","Longitude":"-92.83065","Snowdepth":"1.000","Units":"in","Rept_Date":"2020-04-04 12"},"coordinates":[1035,5797]},{"type":"Point","properties":{"Station_ID":"MN-SE-2","Station_Nam":"OWATONNA 0.8 E, MN","Latitude":"44.09170","Longitude":"-93.21380","Snowdepth":"1.000","Units":"in","Rept_Date":"2020-04-04 13"},"coordinates":[945,5249]},{"type":"Point","properties":{"Station_ID":"MN-GH-4","Station_Nam":"NERSTRAND 4.2 E, MN","Latitude":"44.34247","Longitude":"-92.97920","Snowdepth":"1.000","Units":"in","Rept_Date":"2020-04-04 13"},"coordinates":[1000,5405]},{"type":"Point","properties":{"Station_ID":"MN-GH-3","Station_Nam":"LAKE CITY 1.2 NNW, MN","Latitude":"44.45597","Longitude":"-92.29070","Snowdepth":"1.000","Units":"in","Rept_Date":"2020-04-04 13"},"coordinates":[1161,5475]},{"type":"Point","properties":{"Station_ID":"MN-GH-28","Station_Nam":"CANNON FALLS 0.5 SE, MN","Latitude":"44.50866","Longitude":"-92.89526","Snowdepth":"1.000","Units":"in","Rept_Date":"2020-04-04 14"},"coordinates":[1019,5508]},{"type":"Point","properties":{"Station_ID":"MN-DK-104","Station_Nam":"HASTINGS 1.6 NW, MN","Latitude":"44.74458","Longitude":"-92.88035","Snowdepth":"1.000","Units":"in","Rept_Date":"2020-04-04 13"},"coordinates":[1023,5655]},{"type":"Point","properties":{"Station_ID":"MN-BM-15","Station_Nam":"BEMIDJI 7.8 ENE, MN","Latitude":"47.52043","Longitude":"-94.72121","Snowdepth":"1.000","Units":"in","Rept_Date":"2020-04-04 13"},"coordinates":[591,7382]},{"type":"Point","properties":{"Station_ID":"MN-BK-6","Station_Nam":"LAKE PARK 6.0 S, MN","Latitude":"46.79850","Longitude":"-96.12180","Snowdepth":"1.000","Units":"in","Rept_Date":"2020-04-04 13"},"coordinates":[262,6933]},{"type":"Point","properties":{"Station_ID":"MLLW3","Station_Nam":"MERRILL 8W","Latitude":"45.17810","Longitude":"-89.84810","Snowdepth":"1.000","Units":"in","Rept_Date":"2020-04-04 11"},"coordinates":[1735,5925]},{"type":"Point","properties":{"Station_ID":"MI-CP-14","Station_Nam":"SAULT STE. MARIE 2.2 E, MI","Latitude":"46.48933","Longitude":"-84.31971","Snowdepth":"1.000","Units":"in","Rept_Date":"2020-04-04 12"},"coordinates":[3032,6740]},{"type":"Point","properties":{"Station_ID":"ME-OX-2","Station_Nam":"HARTFORD 1.4 N, ME","Latitude":"44.39318","Longitude":"-70.34760","Snowdepth":"1.000","Units":"in","Rept_Date":"2020-04-04 12"},"coordinates":[6311,5436]},{"type":"Point","properties":{"Station_ID":"MAIW3","Station_Nam":"MADELINE ISLAND","Latitude":"46.78330","Longitude":"-90.76670","Snowdepth":"1.000","Units":"in","Rept_Date":"2020-04-04 13"},"coordinates":[1519,6923]},{"type":"Point","properties":{"Station_ID":"LCFW3","Station_Nam":"LA CROSSE 4NNW","Latitude":"43.86690","Longitude":"-91.27250","Snowdepth":"1.000","Units":"in","Rept_Date":"2020-04-04 12"},"coordinates":[1400,5109]},{"type":"Point","properties":{"Station_ID":"LAKM5","Station_Nam":"LAKE CITY","Latitude":"44.43630","Longitude":"-92.27930","Snowdepth":"1.000","Units":"in","Rept_Date":"2020-04-04 12"},"coordinates":[1164,5463]},{"type":"Point","properties":{"Station_ID":"JIMW3","Station_Nam":"JIM FALLS 3NW","Latitude":"45.08270","Longitude":"-91.33130","Snowdepth":"1.000","Units":"in","Rept_Date":"2020-04-04 11"},"coordinates":[1386,5865]},{"type":"Point","properties":{"Station_ID":"JCBM4","Station_Nam":"JACOBSVILLE","Latitude":"47.00830","Longitude":"-88.43180","Snowdepth":"1.000","Units":"in","Rept_Date":"2020-04-04 11"},"coordinates":[2067,7063]},{"type":"Point","properties":{"Station_ID":"HURW3","Station_Nam":"HURLEY","Latitude":"46.46250","Longitude":"-90.19550","Snowdepth":"1.000","Units":"in","Rept_Date":"2020-04-04 13"},"coordinates":[1653,6724]},{"type":"Point","properties":{"Station_ID":"GGRM4","Station_Nam":"GREEN GARDEN NO.2","Latitude":"46.45330","Longitude":"-87.30380","Snowdepth":"1.000","Units":"in","Rept_Date":"2020-04-04 13"},"coordinates":[2332,6718]},{"type":"Point","properties":{"Station_ID":"EVRW3","Station_Nam":"EAGLE RIVER-4 E","Latitude":"45.91890","Longitude":"-89.15280","Snowdepth":"1.000","Units":"in","Rept_Date":"2020-04-04 12"},"coordinates":[1898,6386]},{"type":"Point","properties":{"Station_ID":"EGRW3","Station_Nam":"EAGLE RIVER-SOUTH","Latitude":"45.91360","Longitude":"-89.24360","Snowdepth":"1.000","Units":"in","Rept_Date":"2020-04-04 12"},"coordinates":[1876,6382]},{"type":"Point","properties":{"Station_ID":"EGNM5","Station_Nam":"ELGIN 2SSW","Latitude":"44.09700","Longitude":"-92.27010","Snowdepth":"1.000","Units":"in","Rept_Date":"2020-04-04 12"},"coordinates":[1166,5252]},{"type":"Point","properties":{"Station_ID":"CHPW3","Station_Nam":"CHIPPEWA FALLS","Latitude":"44.92770","Longitude":"-91.40810","Snowdepth":"1.000","Units":"in","Rept_Date":"2020-04-04 13"},"coordinates":[1368,5769]},{"type":"Point","properties":{"Station_ID":"CAN-NB-16","Station_Nam":"DORCHESTER 1.0 SSE, CAN","Latitude":"45.89160","Longitude":"-64.51269","Snowdepth":"1.000","Units":"in","Rept_Date":"2020-04-04 12"},"coordinates":[7681,6369]},{"type":"Point","properties":{"Station_ID":"BTLN3","Station_Nam":"BARTLETT","Latitude":"44.08380","Longitude":"-71.29340","Snowdepth":"1.000","Units":"in","Rept_Date":"2020-04-04 11"},"coordinates":[6089,5244]},{"type":"Point","properties":{"Station_ID":"BMRW3","Station_Nam":"BLOOMER","Latitude":"45.09070","Longitude":"-91.48640","Snowdepth":"1.000","Units":"in","Rept_Date":"2020-04-04 13"},"coordinates":[1350,5870]},{"type":"Point","properties":{"Station_ID":"BKEM5","Station_Nam":"BRECKENRIDGE 4NE","Latitude":"46.30470","Longitude":"-96.52170","Snowdepth":"1.000","Units":"in","Rept_Date":"2020-04-04 12"},"coordinates":[168,6626]},{"type":"Point","properties":{"Station_ID":"BAGM4","Station_Nam":"BARAGA 7NW","Latitude":"46.82100","Longitude":"-88.60590","Snowdepth":"1.000","Units":"in","Rept_Date":"2020-04-04 12"},"coordinates":[2026,6947]},{"type":"Point","properties":{"Station_ID":"AVTW3","Station_Nam":"ARBOR VITAE-JOHNSON LAKE","Latitude":"45.89940","Longitude":"-89.72670","Snowdepth":"1.000","Units":"in","Rept_Date":"2020-04-04 11"},"coordinates":[1763,6373]},{"type":"Point","properties":{"Station_ID":"ALTM5","Station_Nam":"ALTURA 5W","Latitude":"44.06330","Longitude":"-92.03970","Snowdepth":"1.000","Units":"in","Rept_Date":"2020-04-04 12"},"coordinates":[1220,5231]},{"type":"Point","properties":{"Station_ID":"AGSW3","Station_Nam":"AUGUSTA RANGER STATION","Latitude":"44.68250","Longitude":"-91.13570","Snowdepth":"1.000","Units":"in","Rept_Date":"2020-04-04 13"},"coordinates":[1432,5616]}]}},"arcs":[],"transform":{"scale":[0.004260890089008902,0.0016073507350735073],"translate":[-97.2386,35.655]}}