{"type":"Topology","objects":{"snowdepth_geo":{"type":"GeometryCollection","name":"snowdepth","crs":{"type":"name","properties":{"name":"urn:ogc:def:crs:OGC:1.3:CRS84"}},"geometries":[{"type":"Point","properties":{"Station_ID":"PRKM4","Station_Nam":"MUNISING EAST","Latitude":"46.42580","Longitude":"-86.62000","Snowdepth":"76.500","Units":"in","Rept_Date":"2020-12-05 06"},"coordinates":[4047,6701]},{"type":"Point","properties":{"Station_ID":"OH-CY-58","Station_Nam":"SOUTH EUCLID 0.2 ESE, OH","Latitude":"41.52358","Longitude":"-81.52191","Snowdepth":"10.500","Units":"in","Rept_Date":"2020-12-04 13"},"coordinates":[6025,3651]},{"type":"Point","properties":{"Station_ID":"41.5236_081.5219","Station_Nam":"South Euclid  Trained Spotter (CLE1186)","Latitude":"41.52356","Longitude":"-81.52192","Snowdepth":"10.500","Units":"in","Rept_Date":"2020-12-04 13"},"coordinates":[6025,3651]},{"type":"Point","properties":{"Station_ID":"OH-CY-54","Station_Nam":"SEVEN HILLS 0.6 NNE, OH","Latitude":"41.38811","Longitude":"-81.67098","Snowdepth":"10.000","Units":"in","Rept_Date":"2020-12-04 12"},"coordinates":[5968,3567]},{"type":"Point","properties":{"Station_ID":"MTLT1","Station_Nam":"GATLINBURG,TN","Latitude":"35.65500","Longitude":"-83.44110","Snowdepth":"10.000","Units":"in","Rept_Date":"2020-12-04 13"},"coordinates":[5281,0]},{"type":"Point","properties":{"Station_ID":"41.3881_081.6710","Station_Nam":"1 NNE Seven Hills  CoCoRaHS (OH-CY-54)","Latitude":"41.38810","Longitude":"-81.67100","Snowdepth":"10.000","Units":"in","Rept_Date":"2020-12-04 12"},"coordinates":[5968,3567]},{"type":"Point","properties":{"Station_ID":"TRIQ6","Station_Nam":"TRIO LAKE","Latitude":"49.22880","Longitude":"-87.22920","Snowdepth":"9.490","Units":"in","Rept_Date":"2020-12-05 06"},"coordinates":[3810,8445]},{"type":"Point","properties":{"Station_ID":"CAN-ON-452","Station_Nam":"CHATSWORTH 1.8 ENE - GSCA, CAN","Latitude":"44.46118","Longitude":"-80.87506","Snowdepth":"9.100","Units":"in","Rept_Date":"2020-12-04 12"},"coordinates":[6276,5479]},{"type":"Point","properties":{"Station_ID":"OH-PT-9","Station_Nam":"HIRAM 0.4 N, OH","Latitude":"41.31595","Longitude":"-81.14340","Snowdepth":"9.000","Units":"in","Rept_Date":"2020-12-04 12"},"coordinates":[6172,3522]},{"type":"Point","properties":{"Station_ID":"OH-CY-39","Station_Nam":"WESTLAKE 0.5 SSW, OH","Latitude":"41.44795","Longitude":"-81.93260","Snowdepth":"9.000","Units":"in","Rept_Date":"2020-12-04 13"},"coordinates":[5866,3604]},{"type":"Point","properties":{"Station_ID":"HVJP1","Station_Nam":"HIDDEN VALLEY COOP","Latitude":"40.04200","Longitude":"-79.25660","Snowdepth":"9.000","Units":"in","Rept_Date":"2020-12-04 13"},"coordinates":[6905,2729]},{"type":"Point","properties":{"Station_ID":"41.4480_081.9326","Station_Nam":"1 SSW Westlake  CoCoRaHS (OH-CY-39)","Latitude":"41.44800","Longitude":"-81.93260","Snowdepth":"9.000","Units":"in","Rept_Date":"2020-12-04 13"},"coordinates":[5866,3604]},{"type":"Point","properties":{"Station_ID":"41.3160_081.1434","Station_Nam":"N Hiram  CoCoRaHS (OH-PT-9)","Latitude":"41.31600","Longitude":"-81.14340","Snowdepth":"9.000","Units":"in","Rept_Date":"2020-12-04 12"},"coordinates":[6172,3522]},{"type":"Point","properties":{"Station_ID":"41.3151_081.1434","Station_Nam":"HIRAM (CLE2220)","Latitude":"41.31510","Longitude":"-81.14340","Snowdepth":"9.000","Units":"in","Rept_Date":"2020-12-04 14"},"coordinates":[6172,3521]},{"type":"Point","properties":{"Station_ID":"OH-ER-5","Station_Nam":"WAKEMAN 4.6 NNE, OH","Latitude":"41.31902","Longitude":"-82.37730","Snowdepth":"8.500","Units":"in","Rept_Date":"2020-12-04 12"},"coordinates":[5693,3524]},{"type":"Point","properties":{"Station_ID":"CAN-ON-5","Station_Nam":"OWEN SOUND 1.5 NW - GSCA, CAN","Latitude":"44.57837","Longitude":"-80.95461","Snowdepth":"8.500","Units":"in","Rept_Date":"2020-12-04 13"},"coordinates":[6246,5552]},{"type":"Point","properties":{"Station_ID":"OH-CY-42","Station_Nam":"STRONGSVILLE 1.3 SE, OH","Latitude":"41.29815","Longitude":"-81.81507","Snowdepth":"8.000","Units":"in","Rept_Date":"2020-12-04 13"},"coordinates":[5912,3511]},{"type":"Point","properties":{"Station_ID":"LAUP1","Station_Nam":"1.5MI S OF RT 30 ON SMIT (LAUREL RIDGE)","Latitude":"40.05000","Longitude":"-79.22060","Snowdepth":"8.000","Units":"in","Rept_Date":"2020-12-04 12"},"coordinates":[6919,2734]},{"type":"Point","properties":{"Station_ID":"CAN-ON-491","Station_Nam":"MILVERTON 1.1 ESE- CANWARN, CAN","Latitude":"43.56074","Longitude":"-80.90887","Snowdepth":"8.000","Units":"in","Rept_Date":"2020-12-04 11"},"coordinates":[6263,4918]},{"type":"Point","properties":{"Station_ID":"41.2982_081.8151","Station_Nam":"1 SE Strongsville  Trained Spotter (CLE1180)","Latitude":"41.29818","Longitude":"-81.81507","Snowdepth":"8.000","Units":"in","Rept_Date":"2020-12-04 13"},"coordinates":[5912,3511]},{"type":"Point","properties":{"Station_ID":"DVLQ6","Station_Nam":"DEVIOUS LAKE","Latitude":"49.19890","Longitude":"-87.76440","Snowdepth":"7.600","Units":"in","Rept_Date":"2020-12-05 06"},"coordinates":[3603,8426]},{"type":"Point","properties":{"Station_ID":"OH-LR-8","Station_Nam":"ELYRIA 0.4 SE, OH","Latitude":"41.37628","Longitude":"-82.09920","Snowdepth":"7.500","Units":"in","Rept_Date":"2020-12-04 12"},"coordinates":[5801,3559]},{"type":"Point","properties":{"Station_ID":"OH-LK-9","Station_Nam":"WILLOUGHBY 2.9 SW, OH","Latitude":"41.61506","Longitude":"-81.44592","Snowdepth":"7.500","Units":"in","Rept_Date":"2020-12-04 12"},"coordinates":[6055,3708]},{"type":"Point","properties":{"Station_ID":"OH-CY-24","Station_Nam":"PARMA 1.9 NNW, OH","Latitude":"41.40881","Longitude":"-81.74480","Snowdepth":"7.500","Units":"in","Rept_Date":"2020-12-04 13"},"coordinates":[5939,3580]},{"type":"Point","properties":{"Station_ID":"41.6151_081.4459","Station_Nam":"3 SW Willoughby  CoCoRaHS (OH-LK-9)","Latitude":"41.61510","Longitude":"-81.44590","Snowdepth":"7.500","Units":"in","Rept_Date":"2020-12-04 12"},"coordinates":[6055,3708]},{"type":"Point","properties":{"Station_ID":"41.4088_081.7448","Station_Nam":"2 NNW Parma  CoCoRaHS (OH-CY-24)","Latitude":"41.40880","Longitude":"-81.74480","Snowdepth":"7.500","Units":"in","Rept_Date":"2020-12-04 13"},"coordinates":[5939,3580]},{"type":"Point","properties":{"Station_ID":"AUDQ6","Station_Nam":"AUDEN","Latitude":"48.52600","Longitude":"-82.57570","Snowdepth":"7.170","Units":"in","Rept_Date":"2020-12-05 06"},"coordinates":[5616,8008]},{"type":"Point","properties":{"Station_ID":"PTLQ6","Station_Nam":"PORTAGE LAKE","Latitude":"49.06950","Longitude":"-86.65940","Snowdepth":"7.010","Units":"in","Rept_Date":"2020-12-05 06"},"coordinates":[4032,8346]},{"type":"Point","properties":{"Station_ID":"SBOP1","Station_Nam":"SPRINGBORO","Latitude":"41.81660","Longitude":"-80.43330","Snowdepth":"7.000","Units":"in","Rept_Date":"2020-12-04 12"},"coordinates":[6448,3833]},{"type":"Point","properties":{"Station_ID":"PA-CW-8","Station_Nam":"SPRINGBORO 3.0 WNW, PA","Latitude":"41.81654","Longitude":"-80.42540","Snowdepth":"7.000","Units":"in","Rept_Date":"2020-12-04 12"},"coordinates":[6451,3833]},{"type":"Point","properties":{"Station_ID":"OH-LR-25","Station_Nam":"NORTH RIDGEVILLE 2.5 NE, OH","Latitude":"41.41550","Longitude":"-81.98440","Snowdepth":"7.000","Units":"in","Rept_Date":"2020-12-04 12"},"coordinates":[5846,3584]},{"type":"Point","properties":{"Station_ID":"41.8166_080.4333","Station_Nam":"3 WNW Springboro  Co-Op Observer (SBOP1)","Latitude":"41.81660","Longitude":"-80.43330","Snowdepth":"7.000","Units":"in","Rept_Date":"2020-12-04 12"},"coordinates":[6448,3833]},{"type":"Point","properties":{"Station_ID":"41.8165_080.4254","Station_Nam":"3 WNW Springboro  CoCoRaHS (PA-CW-8)","Latitude":"41.81650","Longitude":"-80.42540","Snowdepth":"7.000","Units":"in","Rept_Date":"2020-12-04 12"},"coordinates":[6451,3833]},{"type":"Point","properties":{"Station_ID":"41.4155_081.9844","Station_Nam":"3 NE North Ridgeville  CoCoRaHS (OH-LR-25)","Latitude":"41.41550","Longitude":"-81.98440","Snowdepth":"7.000","Units":"in","Rept_Date":"2020-12-04 12"},"coordinates":[5846,3584]},{"type":"Point","properties":{"Station_ID":"WV-PR-10","Station_Nam":"TERRA ALTA 4.9 NNE, WV","Latitude":"39.51024","Longitude":"-79.51024","Snowdepth":"6.800","Units":"in","Rept_Date":"2020-12-04 13"},"coordinates":[6806,2399]},{"type":"Point","properties":{"Station_ID":"PA-ER-15","Station_Nam":"NORTH EAST 2.0 S, PA","Latitude":"42.18390","Longitude":"-79.83230","Snowdepth":"6.200","Units":"in","Rept_Date":"2020-12-04 13"},"coordinates":[6681,4062]},{"type":"Point","properties":{"Station_ID":"42.1839_079.8323","Station_Nam":"2 S North East  CoCoRaHS (PA-ER-15)","Latitude":"42.18390","Longitude":"-79.83230","Snowdepth":"6.200","Units":"in","Rept_Date":"2020-12-04 13"},"coordinates":[6681,4062]},{"type":"Point","properties":{"Station_ID":"PA-CW-18","Station_Nam":"CONNEAUT LAKE 1.3 WNW, PA","Latitude":"41.60816","Longitude":"-80.33371","Snowdepth":"6.000","Units":"in","Rept_Date":"2020-12-04 12"},"coordinates":[6487,3704]},{"type":"Point","properties":{"Station_ID":"OH-MD-2","Station_Nam":"BRUNSWICK 0.5 NE, OH","Latitude":"41.24980","Longitude":"-81.81330","Snowdepth":"6.000","Units":"in","Rept_Date":"2020-12-04 12"},"coordinates":[5912,3481]},{"type":"Point","properties":{"Station_ID":"BKBW2","Station_Nam":"DAVIS.","Latitude":"39.09830","Longitude":"-79.43190","Snowdepth":"6.000","Units":"in","Rept_Date":"2020-12-04 12"},"coordinates":[6837,2142]},{"type":"Point","properties":{"Station_ID":"41.3476_082.0754","Station_Nam":"3 SE Elyria  Trained Spotter (X4130821)","Latitude":"41.34759","Longitude":"-82.07538","Snowdepth":"6.000","Units":"in","Rept_Date":"2020-12-04 13"},"coordinates":[5811,3542]},{"type":"Point","properties":{"Station_ID":"CAN-ON-620","Station_Nam":"GOODERHAM 3.4 SSW, CAN","Latitude":"44.87690","Longitude":"-78.39265","Snowdepth":"5.700","Units":"in","Rept_Date":"2020-12-04 12"},"coordinates":[7240,5737]},{"type":"Point","properties":{"Station_ID":"FTHQ6","Station_Nam":"FORT HOPE","Latitude":"51.55820","Longitude":"-87.90510","Snowdepth":"5.590","Units":"in","Rept_Date":"2020-12-05 06"},"coordinates":[3548,9894]},{"type":"Point","properties":{"Station_ID":"PA-FR-1","Station_Nam":"TIONESTA 7.3 SSE, PA","Latitude":"41.39404","Longitude":"-79.41310","Snowdepth":"5.500","Units":"in","Rept_Date":"2020-12-04 12"},"coordinates":[6844,3571]},{"type":"Point","properties":{"Station_ID":"CAN-ON-804","Station_Nam":"KEMBLE 1.6 S - GSCA, CAN","Latitude":"44.71013","Longitude":"-80.92735","Snowdepth":"5.500","Units":"in","Rept_Date":"2020-12-04 13"},"coordinates":[6256,5634]},{"type":"Point","properties":{"Station_ID":"OGIQ6","Station_Nam":"OGOKI CAMP","Latitude":"50.76680","Longitude":"-87.85820","Snowdepth":"5.280","Units":"in","Rept_Date":"2020-12-05 06"},"coordinates":[3566,9402]},{"type":"Point","properties":{"Station_ID":"KABQ6","Station_Nam":"CAB LAKE","Latitude":"49.59950","Longitude":"-89.17990","Snowdepth":"5.240","Units":"in","Rept_Date":"2020-12-05 06"},"coordinates":[3053,8675]},{"type":"Point","properties":{"Station_ID":"PRGN6","Station_Nam":"PERRYSBURG","Latitude":"42.46470","Longitude":"-79.00310","Snowdepth":"5.000","Units":"in","Rept_Date":"2020-12-04 12"},"coordinates":[7003,4237]},{"type":"Point","properties":{"Station_ID":"PA-VN-22","Station_Nam":"FRANKLIN 1.4 SSW, PA","Latitude":"41.37283","Longitude":"-79.85013","Snowdepth":"5.000","Units":"in","Rept_Date":"2020-12-04 11"},"coordinates":[6674,3557]},{"type":"Point","properties":{"Station_ID":"OH-CY-14","Station_Nam":"CLEVELAND 7.0 SW, OH","Latitude":"41.45224","Longitude":"-81.81475","Snowdepth":"5.000","Units":"in","Rept_Date":"2020-12-05 03"},"coordinates":[5912,3607]},{"type":"Point","properties":{"Station_ID":"CAN-ON-451","Station_Nam":"OWEN SOUND 1.2 N - GSCA, CAN","Latitude":"44.58092","Longitude":"-80.93025","Snowdepth":"5.000","Units":"in","Rept_Date":"2020-12-04 13"},"coordinates":[6255,5553]},{"type":"Point","properties":{"Station_ID":"CAAW2","Station_Nam":"CANAAN VALLEY","Latitude":"39.05890","Longitude":"-79.44030","Snowdepth":"5.000","Units":"in","Rept_Date":"2020-12-04 14"},"coordinates":[6833,2118]},{"type":"Point","properties":{"Station_ID":"41.2019_081.6342","Station_Nam":"1 N Bath  Trained Spotter (CLE2148)","Latitude":"41.20192","Longitude":"-81.63420","Snowdepth":"5.000","Units":"in","Rept_Date":"2020-12-04 13"},"coordinates":[5982,3451]},{"type":"Point","properties":{"Station_ID":"SOCQ6","Station_Nam":"SOCKET LAKE","Latitude":"50.77870","Longitude":"-91.79300","Snowdepth":"4.720","Units":"in","Rept_Date":"2020-12-05 06"},"coordinates":[2039,9409]},{"type":"Point","properties":{"Station_ID":"CAN-ON-118","Station_Nam":"DURHAM 1.4 S, CAN","Latitude":"44.16525","Longitude":"-80.82064","Snowdepth":"4.500","Units":"in","Rept_Date":"2020-12-04 12"},"coordinates":[6298,5295]},{"type":"Point","properties":{"Station_ID":"41.2098_081.3548","Station_Nam":"2 SSW Streetsboro  CoCoRaHS (OH-PT-8)","Latitude":"41.20980","Longitude":"-81.35480","Snowdepth":"4.500","Units":"in","Rept_Date":"2020-12-04 12"},"coordinates":[6090,3456]},{"type":"Point","properties":{"Station_ID":"CAN-ON-784","Station_Nam":"KOMOKA 3.1 W, CAN","Latitude":"42.96000","Longitude":"-81.43805","Snowdepth":"4.300","Units":"in","Rept_Date":"2020-12-04 13"},"coordinates":[6058,4545]},{"type":"Point","properties":{"Station_ID":"CATQ6","Station_Nam":"CAT LAKE","Latitude":"51.72690","Longitude":"-91.82210","Snowdepth":"4.290","Units":"in","Rept_Date":"2020-12-05 06"},"coordinates":[2028,9999]},{"type":"Point","properties":{"Station_ID":"MI-BG-3","Station_Nam":"THREE LAKES, MI","Latitude":"46.55730","Longitude":"-88.20770","Snowdepth":"4.200","Units":"in","Rept_Date":"2020-12-04 13"},"coordinates":[3431,6783]},{"type":"Point","properties":{"Station_ID":"SVBQ6","Station_Nam":"SAVANT BASE","Latitude":"50.28730","Longitude":"-90.65670","Snowdepth":"4.170","Units":"in","Rept_Date":"2020-12-05 06"},"coordinates":[2480,9103]},{"type":"Point","properties":{"Station_ID":"WRRP1","Station_Nam":"ALLEGHENY RIVER AT WARREN","Latitude":"41.84380","Longitude":"-79.15000","Snowdepth":"4.000","Units":"in","Rept_Date":"2020-12-04 12"},"coordinates":[6946,3850]},{"type":"Point","properties":{"Station_ID":"WNDP1","Station_Nam":"WINDBER COUNTY CLUB","Latitude":"40.28780","Longitude":"-78.77530","Snowdepth":"4.000","Units":"in","Rept_Date":"2020-12-04 12"},"coordinates":[7091,2882]},{"type":"Point","properties":{"Station_ID":"WLFM5","Station_Nam":"WOLF RIDGE ENVIRON LEARNING CENTER","Latitude":"47.38240","Longitude":"-91.19730","Snowdepth":"4.000","Units":"in","Rept_Date":"2020-12-04 13"},"coordinates":[2270,7296]},{"type":"Point","properties":{"Station_ID":"TSVP1","Station_Nam":"TITUSVILLE,PA","Latitude":"41.63330","Longitude":"-79.70000","Snowdepth":"4.000","Units":"in","Rept_Date":"2020-12-04 12"},"coordinates":[6732,3719]},{"type":"Point","properties":{"Station_ID":"SMRP1","Station_Nam":"SOMERSET,PA","Latitude":"40.00000","Longitude":"-79.08330","Snowdepth":"4.000","Units":"in","Rept_Date":"2020-12-04 13"},"coordinates":[6972,2703]},{"type":"Point","properties":{"Station_ID":"PDLM4","Station_Nam":"PAINESDALE","Latitude":"47.04160","Longitude":"-88.67170","Snowdepth":"4.000","Units":"in","Rept_Date":"2020-12-04 13"},"coordinates":[3251,7084]},{"type":"Point","properties":{"Station_ID":"OH-AS-5","Station_Nam":"SULLIVAN 1.1 NNE, OH","Latitude":"41.04200","Longitude":"-82.21260","Snowdepth":"4.000","Units":"in","Rept_Date":"2020-12-04 12"},"coordinates":[5757,3351]},{"type":"Point","properties":{"Station_ID":"NALN6","Station_Nam":"CATTARAUGUS","Latitude":"42.32450","Longitude":"-78.86700","Snowdepth":"4.000","Units":"in","Rept_Date":"2020-12-04 13"},"coordinates":[7056,4149]},{"type":"Point","properties":{"Station_ID":"MI-HG-20","Station_Nam":"CALUMET 1.1 SSW, MI","Latitude":"47.23165","Longitude":"-88.45823","Snowdepth":"4.000","Units":"in","Rept_Date":"2020-12-04 11"},"coordinates":[3333,7202]},{"type":"Point","properties":{"Station_ID":"MD-GR-4","Station_Nam":"MC HENRY 4.8 SSE, MD","Latitude":"39.48539","Longitude":"-79.31830","Snowdepth":"4.000","Units":"in","Rept_Date":"2020-12-04 13"},"coordinates":[6881,2383]},{"type":"Point","properties":{"Station_ID":"CVWP1","Station_Nam":"CHANDLER VALLEY 1SE","Latitude":"41.93010","Longitude":"-79.29700","Snowdepth":"4.000","Units":"in","Rept_Date":"2020-12-04 12"},"coordinates":[6889,3904]},{"type":"Point","properties":{"Station_ID":"BAYW2","Station_Nam":"BAYARD COOP","Latitude":"39.27280","Longitude":"-79.36830","Snowdepth":"4.000","Units":"in","Rept_Date":"2020-12-04 12"},"coordinates":[6861,2251]},{"type":"Point","properties":{"Station_ID":"41.6333_079.7000","Station_Nam":"TITUSVILLE  CO-OP OBSERVER (TSVP1)","Latitude":"41.63330","Longitude":"-79.70000","Snowdepth":"4.000","Units":"in","Rept_Date":"2020-12-04 12"},"coordinates":[6732,3719]},{"type":"Point","properties":{"Station_ID":"41.0420_082.2126","Station_Nam":"1 NNE Sullivan  CoCoRaHS (OH-AS-5)","Latitude":"41.04200","Longitude":"-82.21260","Snowdepth":"4.000","Units":"in","Rept_Date":"2020-12-04 12"},"coordinates":[5757,3351]},{"type":"Point","properties":{"Station_ID":"PA-ER-2","Station_Nam":"ERIE 5.6 SW, PA","Latitude":"42.06086","Longitude":"-80.15260","Snowdepth":"3.800","Units":"in","Rept_Date":"2020-12-04 12"},"coordinates":[6557,3985]},{"type":"Point","properties":{"Station_ID":"WV-MG-16","Station_Nam":"MORGANTOWN 5.9 SW, WV","Latitude":"39.56615","Longitude":"-80.01490","Snowdepth":"3.500","Units":"in","Rept_Date":"2020-12-04 12"},"coordinates":[6610,2433]},{"type":"Point","properties":{"Station_ID":"PA-FR-2","Station_Nam":"MARIENVILLE 5.3 W, PA","Latitude":"41.45710","Longitude":"-79.18150","Snowdepth":"3.500","Units":"in","Rept_Date":"2020-12-04 11"},"coordinates":[6934,3610]},{"type":"Point","properties":{"Station_ID":"NY-ER-158","Station_Nam":"EAST AURORA 2.7 SSE, NY","Latitude":"42.72936","Longitude":"-78.60561","Snowdepth":"3.500","Units":"in","Rept_Date":"2020-12-04 12"},"coordinates":[7157,4401]},{"type":"Point","properties":{"Station_ID":"MN-CN-36","Station_Nam":"CLOQUET 3.4 ENE, MN","Latitude":"46.74146","Longitude":"-92.42698","Snowdepth":"3.500","Units":"in","Rept_Date":"2020-12-04 13"},"coordinates":[1793,6897]},{"type":"Point","properties":{"Station_ID":"WV-PR-11","Station_Nam":"THOMAS 7.4 N, WV","Latitude":"39.25361","Longitude":"-79.51055","Snowdepth":"3.200","Units":"in","Rept_Date":"2020-12-04 12"},"coordinates":[6806,2239]},{"type":"Point","properties":{"Station_ID":"CAN-ON-593","Station_Nam":"KITCHENER 4.5 E, CAN","Latitude":"43.45147","Longitude":"-80.43180","Snowdepth":"3.100","Units":"in","Rept_Date":"2020-12-04 14"},"coordinates":[6448,4851]},{"type":"Point","properties":{"Station_ID":"CAN-MB-368","Station_Nam":"WHITESHELL 1.3 NE, CAN","Latitude":"49.74405","Longitude":"-95.19123","Snowdepth":"3.100","Units":"in","Rept_Date":"2020-12-04 14"},"coordinates":[720,8765]},{"type":"Point","properties":{"Station_ID":"YNG","Station_Nam":"YOUNGSTOWN-WARREN REG AIRPRT","Latitude":"41.25890","Longitude":"-80.67610","Snowdepth":"3.000","Units":"in","Rept_Date":"2020-12-05 00"},"coordinates":[6354,3486]},{"type":"Point","properties":{"Station_ID":"OKLM2","Station_Nam":"SINES DEEP CREEK LAKE","Latitude":"39.52270","Longitude":"-79.41310","Snowdepth":"3.000","Units":"in","Rept_Date":"2020-12-04 11"},"coordinates":[6844,2406]},{"type":"Point","properties":{"Station_ID":"OH-PT-10","Station_Nam":"KENT 3.6 NE, OH","Latitude":"41.20083","Longitude":"-81.33890","Snowdepth":"3.000","Units":"in","Rept_Date":"2020-12-04 13"},"coordinates":[6096,3450]},{"type":"Point","properties":{"Station_ID":"NY-ER-65","Station_Nam":"BOSTON 1.5 NE, NY","Latitude":"42.65470","Longitude":"-78.72010","Snowdepth":"3.000","Units":"in","Rept_Date":"2020-12-04 12"},"coordinates":[7113,4355]},{"type":"Point","properties":{"Station_ID":"NY-CQ-39","Station_Nam":"GERRY 0.8 N, NY","Latitude":"42.20500","Longitude":"-79.24700","Snowdepth":"3.000","Units":"in","Rept_Date":"2020-12-04 13"},"coordinates":[6908,4075]},{"type":"Point","properties":{"Station_ID":"NY-CQ-22","Station_Nam":"FREDONIA 0.8 WNW, NY","Latitude":"42.44414","Longitude":"-79.34610","Snowdepth":"3.000","Units":"in","Rept_Date":"2020-12-04 10"},"coordinates":[6870,4224]},{"type":"Point","properties":{"Station_ID":"MN-CK-18","Station_Nam":"GRAND MARAIS 4.4 WSW, MN","Latitude":"47.74462","Longitude":"-90.43796","Snowdepth":"3.000","Units":"in","Rept_Date":"2020-12-04 13"},"coordinates":[2565,7521]},{"type":"Point","properties":{"Station_ID":"MD-GR-9","Station_Nam":"MOUNTAIN LAKE PARK 0.4 E, MD","Latitude":"39.40407","Longitude":"-79.37220","Snowdepth":"3.000","Units":"in","Rept_Date":"2020-12-04 11"},"coordinates":[6860,2332]},{"type":"Point","properties":{"Station_ID":"LEIM5","Station_Nam":"ORR 3E","Latitude":"48.05810","Longitude":"-92.75220","Snowdepth":"3.000","Units":"in","Rept_Date":"2020-12-04 12"},"coordinates":[1667,7716]},{"type":"Point","properties":{"Station_ID":"KYNG","Station_Nam":"YOUNGSTOWN-WARREN REG AIRPRT","Latitude":"41.25000","Longitude":"-80.66666","Snowdepth":"3.000","Units":"in","Rept_Date":"2020-12-05 00"},"coordinates":[6357,3481]},{"type":"Point","properties":{"Station_ID":"HERM4","Station_Nam":"HERMAN,MI","Latitude":"46.65000","Longitude":"-88.33330","Snowdepth":"3.000","Units":"in","Rept_Date":"2020-12-04 13"},"coordinates":[3382,6840]},{"type":"Point","properties":{"Station_ID":"DLHM5","Station_Nam":"DULUTH NWS","Latitude":"46.83680","Longitude":"-92.21080","Snowdepth":"3.000","Units":"in","Rept_Date":"2020-12-05 06"},"coordinates":[1877,6957]},{"type":"Point","properties":{"Station_ID":"DLH","Station_Nam":"DULUTH, MN","Latitude":"46.83690","Longitude":"-92.21030","Snowdepth":"3.000","Units":"in","Rept_Date":"2020-12-05 00"},"coordinates":[1877,6957]},{"type":"Point","properties":{"Station_ID":"COKM5","Station_Nam":"COOK","Latitude":"47.85060","Longitude":"-92.69250","Snowdepth":"3.000","Units":"in","Rept_Date":"2020-12-04 12"},"coordinates":[1690,7587]},{"type":"Point","properties":{"Station_ID":"CLE","Station_Nam":"CLEVELAND, OH","Latitude":"41.41170","Longitude":"-81.84970","Snowdepth":"3.000","Units":"in","Rept_Date":"2020-12-05 00"},"coordinates":[5898,3581]},{"type":"Point","properties":{"Station_ID":"BNDM5","Station_Nam":"ELY 25E","Latitude":"47.97190","Longitude":"-91.44860","Snowdepth":"3.000","Units":"in","Rept_Date":"2020-12-04 13"},"coordinates":[2173,7663]},{"type":"Point","properties":{"Station_ID":"BDFP1","Station_Nam":"BRADFORD,PA","Latitude":"41.95000","Longitude":"-78.73330","Snowdepth":"3.000","Units":"in","Rept_Date":"2020-12-04 13"},"coordinates":[7108,3916]},{"type":"Point","properties":{"Station_ID":"BABM5","Station_Nam":"BABBITT","Latitude":"47.71210","Longitude":"-91.95330","Snowdepth":"3.000","Units":"in","Rept_Date":"2020-12-04 13"},"coordinates":[1977,7501]},{"type":"Point","properties":{"Station_ID":"41.2008_081.3389","Station_Nam":"4 NE Kent  CoCoRaHS (OH-PT-10)","Latitude":"41.20080","Longitude":"-81.33890","Snowdepth":"3.000","Units":"in","Rept_Date":"2020-12-04 13"},"coordinates":[6096,3450]},{"type":"Point","properties":{"Station_ID":"OH-SM-39","Station_Nam":"TALLMADGE 0.8 NNE, OH","Latitude":"41.11402","Longitude":"-81.41970","Snowdepth":"2.800","Units":"in","Rept_Date":"2020-12-04 12"},"coordinates":[6065,3396]},{"type":"Point","properties":{"Station_ID":"CAN-ON-220","Station_Nam":"DEEP RIVER 1.5 SE - MNRF, CAN","Latitude":"46.09592","Longitude":"-77.47853","Snowdepth":"2.800","Units":"in","Rept_Date":"2020-12-04 12"},"coordinates":[7595,6496]},{"type":"Point","properties":{"Station_ID":"41.1140_081.4197","Station_Nam":"1 NNE Tallmadge  CoCoRaHS (OH-SM-39)","Latitude":"41.11400","Longitude":"-81.41970","Snowdepth":"2.800","Units":"in","Rept_Date":"2020-12-04 12"},"coordinates":[6065,3396]},{"type":"Point","properties":{"Station_ID":"CAN-ON-771","Station_Nam":"KENORA 8.7 NNE - CANWARN, CAN","Latitude":"49.84171","Longitude":"-94.44386","Snowdepth":"2.700","Units":"in","Rept_Date":"2020-12-04 13"},"coordinates":[1010,8826]},{"type":"Point","properties":{"Station_ID":"PA-AL-1","Station_Nam":"BRIDGEVILLE 1.4 SW, PA","Latitude":"40.34174","Longitude":"-80.12290","Snowdepth":"2.500","Units":"in","Rept_Date":"2020-12-04 12"},"coordinates":[6568,2916]},{"type":"Point","properties":{"Station_ID":"OH-CY-21","Station_Nam":"BRECKSVILLE 1.7 SE, OH","Latitude":"41.29094","Longitude":"-81.59475","Snowdepth":"2.500","Units":"in","Rept_Date":"2020-12-04 12"},"coordinates":[5997,3506]},{"type":"Point","properties":{"Station_ID":"NY-OD-2","Station_Nam":"POINT ROCK 0.6 SE, NY","Latitude":"43.37335","Longitude":"-75.53840","Snowdepth":"2.500","Units":"in","Rept_Date":"2020-12-04 13"},"coordinates":[8348,4802]},{"type":"Point","properties":{"Station_ID":"NY-ER-166","Station_Nam":"BOSTON 2.5 NE, NY","Latitude":"42.65480","Longitude":"-78.70300","Snowdepth":"2.500","Units":"in","Rept_Date":"2020-12-04 12"},"coordinates":[7119,4355]},{"type":"Point","properties":{"Station_ID":"41.2909_081.5948","Station_Nam":"2 SE Brecksville  CoCoRaHS (OH-CY-21)","Latitude":"41.29090","Longitude":"-81.59480","Snowdepth":"2.500","Units":"in","Rept_Date":"2020-12-04 12"},"coordinates":[5997,3506]},{"type":"Point","properties":{"Station_ID":"OH-MD-1","Station_Nam":"WADSWORTH 4.7 WNW, OH","Latitude":"41.04276","Longitude":"-81.81930","Snowdepth":"2.300","Units":"in","Rept_Date":"2020-12-04 12"},"coordinates":[5910,3352]},{"type":"Point","properties":{"Station_ID":"NY-HR-18","Station_Nam":"SALISBURY CENTER 1.8 NW, NY","Latitude":"43.16260","Longitude":"-74.80880","Snowdepth":"2.300","Units":"in","Rept_Date":"2020-12-04 11"},"coordinates":[8631,4671]},{"type":"Point","properties":{"Station_ID":"41.0428_081.8193","Station_Nam":"5 WNW Wadsworth  CoCoRaHS (OH-MD-1)","Latitude":"41.04280","Longitude":"-81.81930","Snowdepth":"2.300","Units":"in","Rept_Date":"2020-12-04 10"},"coordinates":[5910,3352]},{"type":"Point","properties":{"Station_ID":"WV-WT-1","Station_Nam":"NEW MARTINSVILLE 6.5 E, WV","Latitude":"39.64898","Longitude":"-80.73820","Snowdepth":"2.000","Units":"in","Rept_Date":"2020-12-04 13"},"coordinates":[6330,2485]},{"type":"Point","properties":{"Station_ID":"WV-PR-8","Station_Nam":"KINGWOOD 0.6 E, WV","Latitude":"39.47199","Longitude":"-79.67155","Snowdepth":"2.000","Units":"in","Rept_Date":"2020-12-04 12"},"coordinates":[6744,2375]},{"type":"Point","properties":{"Station_ID":"WRSM5","Station_Nam":"WRENSHALL","Latitude":"46.61550","Longitude":"-92.38380","Snowdepth":"2.000","Units":"in","Rept_Date":"2020-12-04 14"},"coordinates":[1810,6819]},{"type":"Point","properties":{"Station_ID":"WI-VL-9","Station_Nam":"LAND O' LAKES 11.7 W, WI","Latitude":"46.19023","Longitude":"-89.45790","Snowdepth":"2.000","Units":"in","Rept_Date":"2020-12-04 13"},"coordinates":[2945,6554]},{"type":"Point","properties":{"Station_ID":"TOGM5","Station_Nam":"CELINA 2E","Latitude":"47.86630","Longitude":"-93.02660","Snowdepth":"2.000","Units":"in","Rept_Date":"2020-12-04 15"},"coordinates":[1561,7597]},{"type":"Point","properties":{"Station_ID":"STWO1","Station_Nam":"MONROE FALLS","Latitude":"41.13110","Longitude":"-81.40000","Snowdepth":"2.000","Units":"in","Rept_Date":"2020-12-04 12"},"coordinates":[6073,3407]},{"type":"Point","properties":{"Station_ID":"SNOW2","Station_Nam":"SNOWSHOE","Latitude":"38.39900","Longitude":"-79.99490","Snowdepth":"2.000","Units":"in","Rept_Date":"2020-12-04 11"},"coordinates":[6618,1707]},{"type":"Point","properties":{"Station_ID":"PBZP1","Station_Nam":"MOON TOWNSHIP","Latitude":"40.53190","Longitude":"-80.21720","Snowdepth":"2.000","Units":"in","Rept_Date":"2020-12-04 12"},"coordinates":[6532,3034]},{"type":"Point","properties":{"Station_ID":"PA-ER-5","Station_Nam":"NORTH EAST 1.2 WNW, PA","Latitude":"42.22058","Longitude":"-79.85510","Snowdepth":"2.000","Units":"in","Rept_Date":"2020-12-04 13"},"coordinates":[6672,4085]},{"type":"Point","properties":{"Station_ID":"PA-EL-1","Station_Nam":"ST. MARYS 1.7 SE, PA","Latitude":"41.41069","Longitude":"-78.53480","Snowdepth":"2.000","Units":"in","Rept_Date":"2020-12-04 11"},"coordinates":[7185,3581]},{"type":"Point","properties":{"Station_ID":"PA-BV-11","Station_Nam":"NEW BRIGHTON 3.0 NE, PA","Latitude":"40.76937","Longitude":"-80.27285","Snowdepth":"2.000","Units":"in","Rept_Date":"2020-12-04 13"},"coordinates":[6510,3182]},{"type":"Point","properties":{"Station_ID":"PA-AL-108","Station_Nam":"CORAOPOLIS 2.0 WNW, PA","Latitude":"40.52560","Longitude":"-80.19665","Snowdepth":"2.000","Units":"in","Rept_Date":"2020-12-04 12"},"coordinates":[6540,3030]},{"type":"Point","properties":{"Station_ID":"OH-SM-5","Station_Nam":"CUYAHOGA FALLS 1.1 ESE, OH","Latitude":"41.16228","Longitude":"-81.50370","Snowdepth":"2.000","Units":"in","Rept_Date":"2020-12-04 12"},"coordinates":[6032,3426]},{"type":"Point","properties":{"Station_ID":"OH-RS-8","Station_Nam":"CHILLICOTHE 5.8 NW, OH","Latitude":"39.38350","Longitude":"-83.07710","Snowdepth":"2.000","Units":"in","Rept_Date":"2020-12-04 12"},"coordinates":[5422,2320]},{"type":"Point","properties":{"Station_ID":"OH-MW-4","Station_Nam":"MOUNT GILEAD 4.9 ESE, OH","Latitude":"40.51426","Longitude":"-82.75561","Snowdepth":"2.000","Units":"in","Rept_Date":"2020-12-04 12"},"coordinates":[5547,3023]},{"type":"Point","properties":{"Station_ID":"NY-ER-56","Station_Nam":"COLDEN 1.4 NNW, NY","Latitude":"42.64740","Longitude":"-78.71120","Snowdepth":"2.000","Units":"in","Rept_Date":"2020-12-04 12"},"coordinates":[7116,4350]},{"type":"Point","properties":{"Station_ID":"NY-CQ-35","Station_Nam":"FALCONER 0.3 WSW, NY","Latitude":"42.11766","Longitude":"-79.20278","Snowdepth":"2.000","Units":"in","Rept_Date":"2020-12-04 12"},"coordinates":[6925,4021]},{"type":"Point","properties":{"Station_ID":"NC-ML-15","Station_Nam":"BULADEAN 1.3 ESE, NC","Latitude":"36.10222","Longitude":"-82.17261","Snowdepth":"2.000","Units":"in","Rept_Date":"2020-12-04 13"},"coordinates":[5773,278]},{"type":"Point","properties":{"Station_ID":"MXON6","Station_Nam":"MEXICO","Latitude":"43.43830","Longitude":"-76.26560","Snowdepth":"2.000","Units":"in","Rept_Date":"2020-12-04 12"},"coordinates":[8065,4842]},{"type":"Point","properties":{"Station_ID":"MWN","Station_Nam":"MOUNT WASHINGTON","Latitude":"44.26670","Longitude":"-71.30000","Snowdepth":"2.000","Units":"in","Rept_Date":"2020-12-04 12"},"coordinates":[9992,5358]},{"type":"Point","properties":{"Station_ID":"MOSO1","Station_Nam":"MOSQUITO CREEK DAM","Latitude":"41.28830","Longitude":"-80.76470","Snowdepth":"2.000","Units":"in","Rept_Date":"2020-12-04 12"},"coordinates":[6319,3505]},{"type":"Point","properties":{"Station_ID":"MN-SL-15","Station_Nam":"CHISHOLM 0.4 WSW, MN","Latitude":"47.48557","Longitude":"-92.88690","Snowdepth":"2.000","Units":"in","Rept_Date":"2020-12-04 13"},"coordinates":[1615,7360]},{"type":"Point","properties":{"Station_ID":"MN-SL-14","Station_Nam":"DULUTH 4.1 NNE, MN","Latitude":"46.83569","Longitude":"-92.06600","Snowdepth":"2.000","Units":"in","Rept_Date":"2020-12-04 12"},"coordinates":[1933,6956]},{"type":"Point","properties":{"Station_ID":"MMTN7","Station_Nam":"MOUNT MITCHELL STATE PARK","Latitude":"35.75940","Longitude":"-82.27110","Snowdepth":"2.000","Units":"in","Rept_Date":"2020-12-04 14"},"coordinates":[5735,65]},{"type":"Point","properties":{"Station_ID":"MMNV1","Station_Nam":"MT. MANSFIELD","Latitude":"44.52480","Longitude":"-72.81540","Snowdepth":"2.000","Units":"in","Rept_Date":"2020-12-04 21"},"coordinates":[9404,5518]},{"type":"Point","properties":{"Station_ID":"MIEM4","Station_Nam":"MICHIGAMME 3WNW","Latitude":"46.54530","Longitude":"-88.18000","Snowdepth":"2.000","Units":"in","Rept_Date":"2020-12-04 13"},"coordinates":[3441,6775]},{"type":"Point","properties":{"Station_ID":"MI-IR-1","Station_Nam":"TROUT CREEK 9.6 SSE, MI","Latitude":"46.35963","Longitude":"-88.91219","Snowdepth":"2.000","Units":"in","Rept_Date":"2020-12-04 13"},"coordinates":[3157,6660]},{"type":"Point","properties":{"Station_ID":"MCRW2","Station_Nam":"RUPERT 4N","Latitude":"38.01800","Longitude":"-80.68250","Snowdepth":"2.000","Units":"in","Rept_Date":"2020-12-04 12"},"coordinates":[6351,1470]},{"type":"Point","properties":{"Station_ID":"LTVN6","Station_Nam":"LITTLE VALLEY","Latitude":"42.24730","Longitude":"-78.81250","Snowdepth":"2.000","Units":"in","Rept_Date":"2020-12-04 12"},"coordinates":[7077,4101]},{"type":"Point","properties":{"Station_ID":"LNOW3","Station_Nam":"LAND O LAKES","Latitude":"46.19000","Longitude":"-89.45700","Snowdepth":"2.000","Units":"in","Rept_Date":"2020-12-04 13"},"coordinates":[2946,6554]},{"type":"Point","properties":{"Station_ID":"LAPP1","Station_Nam":"LAPORTE,PA","Latitude":"41.42470","Longitude":"-76.49250","Snowdepth":"2.000","Units":"in","Rept_Date":"2020-12-04 11"},"coordinates":[7977,3590]},{"type":"Point","properties":{"Station_ID":"KNXI3","Station_Nam":"KNOX WWTP","Latitude":"41.30530","Longitude":"-86.62850","Snowdepth":"2.000","Units":"in","Rept_Date":"2020-12-04 13"},"coordinates":[4044,3515]},{"type":"Point","properties":{"Station_ID":"KMWN","Station_Nam":"MOUNT WASHINGTON","Latitude":"44.26666","Longitude":"-71.30000","Snowdepth":"2.000","Units":"in","Rept_Date":"2020-12-05 06"},"coordinates":[9992,5358]},{"type":"Point","properties":{"Station_ID":"KCLE","Station_Nam":"CLEVELAND-HOPKINS INTERNATIONAL","Latitude":"41.40000","Longitude":"-81.85000","Snowdepth":"2.000","Units":"in","Rept_Date":"2020-12-05 06"},"coordinates":[5898,3574]},{"type":"Point","properties":{"Station_ID":"INL","Station_Nam":"FALLS INTERNATIONAL ARPT","Latitude":"48.56640","Longitude":"-93.40310","Snowdepth":"2.000","Units":"in","Rept_Date":"2020-12-05 00"},"coordinates":[1414,8033]},{"type":"Point","properties":{"Station_ID":"INDP1","Station_Nam":"INDIANA","Latitude":"40.59670","Longitude":"-79.11780","Snowdepth":"2.000","Units":"in","Rept_Date":"2020-12-04 12"},"coordinates":[6958,3074]},{"type":"Point","properties":{"Station_ID":"IFSM5","Station_Nam":"INTERNATIONAL FALLS SNOW","Latitude":"48.57780","Longitude":"-93.39640","Snowdepth":"2.000","Units":"in","Rept_Date":"2020-12-04 12"},"coordinates":[1417,8040]},{"type":"Point","properties":{"Station_ID":"HVAW2","Station_Nam":"HACKER VALLEY","Latitude":"38.61950","Longitude":"-80.38210","Snowdepth":"2.000","Units":"in","Rept_Date":"2020-12-04 12"},"coordinates":[6468,1844]},{"type":"Point","properties":{"Station_ID":"HGHN6","Station_Nam":"HIGHMARKET","Latitude":"43.60510","Longitude":"-75.55430","Snowdepth":"2.000","Units":"in","Rept_Date":"2020-12-04 11"},"coordinates":[8341,4946]},{"type":"Point","properties":{"Station_ID":"FLDM5","Station_Nam":"FLOODWOOD,MN","Latitude":"47.00000","Longitude":"-92.91670","Snowdepth":"2.000","Units":"in","Rept_Date":"2020-12-04 14"},"coordinates":[1603,7058]},{"type":"Point","properties":{"Station_ID":"EMBM5","Station_Nam":"EMBARASS,MN","Latitude":"47.65810","Longitude":"-92.19580","Snowdepth":"2.000","Units":"in","Rept_Date":"2020-12-04 12"},"coordinates":[1883,7468]},{"type":"Point","properties":{"Station_ID":"EBNP1","Station_Nam":"EBENSBURG,PA","Latitude":"40.46810","Longitude":"-78.72890","Snowdepth":"2.000","Units":"in","Rept_Date":"2020-12-04 13"},"coordinates":[7109,2994]},{"type":"Point","properties":{"Station_ID":"COTM5","Station_Nam":"COTTON","Latitude":"47.16870","Longitude":"-92.46290","Snowdepth":"2.000","Units":"in","Rept_Date":"2020-12-04 13"},"coordinates":[1779,7163]},{"type":"Point","properties":{"Station_ID":"CODN6","Station_Nam":"COLDEN","Latitude":"42.64720","Longitude":"-78.71110","Snowdepth":"2.000","Units":"in","Rept_Date":"2020-12-04 12"},"coordinates":[7116,4350]},{"type":"Point","properties":{"Station_ID":"CLCO1","Station_Nam":"CHILLICOTHE 6 NW","Latitude":"39.38350","Longitude":"-83.07730","Snowdepth":"2.000","Units":"in","Rept_Date":"2020-12-04 12"},"coordinates":[5422,2320]},{"type":"Point","properties":{"Station_ID":"CAN-ON-192","Station_Nam":"STRATHROY 14.9 SSW, CAN","Latitude":"42.84097","Longitude":"-81.70844","Snowdepth":"2.000","Units":"in","Rept_Date":"2020-12-04 13"},"coordinates":[5953,4471]},{"type":"Point","properties":{"Station_ID":"CAN-ON-187","Station_Nam":"WATERLOO 1.9 E - UOFW, CAN","Latitude":"43.47024","Longitude":"-80.50634","Snowdepth":"2.000","Units":"in","Rept_Date":"2020-12-04 13"},"coordinates":[6420,4862]},{"type":"Point","properties":{"Station_ID":"BYSO1","Station_Nam":"BUCYRUS,OH","Latitude":"40.81280","Longitude":"-82.96670","Snowdepth":"2.000","Units":"in","Rept_Date":"2020-12-04 12"},"coordinates":[5465,3209]},{"type":"Point","properties":{"Station_ID":"BTNW2","Station_Nam":"BURTON","Latitude":"39.64670","Longitude":"-80.40670","Snowdepth":"2.000","Units":"in","Rept_Date":"2020-12-04 12"},"coordinates":[6458,2483]},{"type":"Point","properties":{"Station_ID":"BERM4","Station_Nam":"BERGLAND DAM","Latitude":"46.58690","Longitude":"-89.54750","Snowdepth":"2.000","Units":"in","Rept_Date":"2020-12-04 13"},"coordinates":[2911,6801]},{"type":"Point","properties":{"Station_ID":"BBEM4","Station_Nam":"BIG BAY 9SW","Latitude":"46.74620","Longitude":"-87.88160","Snowdepth":"2.000","Units":"in","Rept_Date":"2020-12-04 13"},"coordinates":[3557,6900]},{"type":"Point","properties":{"Station_ID":"ACEP1","Station_Nam":"DONEGAL 2 NW","Latitude":"40.13470","Longitude":"-79.40720","Snowdepth":"2.000","Units":"in","Rept_Date":"2020-12-04 12"},"coordinates":[6846,2787]},{"type":"Point","properties":{"Station_ID":"42.2206_079.8551","Station_Nam":"1 WNW North East  CoCoRaHS (PA-ER-5)","Latitude":"42.22060","Longitude":"-79.85510","Snowdepth":"2.000","Units":"in","Rept_Date":"2020-12-04 13"},"coordinates":[6672,4085]},{"type":"Point","properties":{"Station_ID":"41.2883_080.7647","Station_Nam":"Mosquito Creek Lake  Co-Op Observer (MOSO1)","Latitude":"41.28830","Longitude":"-80.76470","Snowdepth":"2.000","Units":"in","Rept_Date":"2020-12-04 12"},"coordinates":[6319,3505]},{"type":"Point","properties":{"Station_ID":"41.1623_081.5037","Station_Nam":"1 ESE Cuyahoga Falls  CoCoRaHS (OH-SM-5)","Latitude":"41.16230","Longitude":"-81.50370","Snowdepth":"2.000","Units":"in","Rept_Date":"2020-12-04 12"},"coordinates":[6032,3426]},{"type":"Point","properties":{"Station_ID":"41.1311_081.4000","Station_Nam":"MONROE FALLS  CO-OP OBSERVER (STWO1)","Latitude":"41.13110","Longitude":"-81.40000","Snowdepth":"2.000","Units":"in","Rept_Date":"2020-12-04 12"},"coordinates":[6073,3407]},{"type":"Point","properties":{"Station_ID":"40.8128_082.9667","Station_Nam":"BUCYRUS  CO-OP OBSERVER (BYSO1)","Latitude":"40.81280","Longitude":"-82.96670","Snowdepth":"2.000","Units":"in","Rept_Date":"2020-12-04 12"},"coordinates":[5465,3209]},{"type":"Point","properties":{"Station_ID":"40.5143_082.7556","Station_Nam":"5 ESE Mount Gilead  CoCoRaHS (OH-MW-4)","Latitude":"40.51430","Longitude":"-82.75560","Snowdepth":"2.000","Units":"in","Rept_Date":"2020-12-04 11"},"coordinates":[5547,3023]},{"type":"Point","properties":{"Station_ID":"PA-VN-5","Station_Nam":"SENECA 0.7 NNE, PA","Latitude":"41.38455","Longitude":"-79.69790","Snowdepth":"1.900","Units":"in","Rept_Date":"2020-12-04 12"},"coordinates":[6733,3565]},{"type":"Point","properties":{"Station_ID":"WI-SR-1","Station_Nam":"HAYWARD 9.2 NNE, WI","Latitude":"46.13255","Longitude":"-91.40500","Snowdepth":"1.600","Units":"in","Rept_Date":"2020-12-04 12"},"coordinates":[2190,6519]},{"type":"Point","properties":{"Station_ID":"IN-LP-73","Station_Nam":"MILL CREEK 1.9 NNE, IN","Latitude":"41.60739","Longitude":"-86.52419","Snowdepth":"1.600","Units":"in","Rept_Date":"2020-12-04 13"},"coordinates":[4084,3703]},{"type":"Point","properties":{"Station_ID":"CAN-ON-646","Station_Nam":"MISSISSAUGA 6.4 SSE - CANWARN, CAN","Latitude":"43.53417","Longitude":"-79.62089","Snowdepth":"1.600","Units":"in","Rept_Date":"2020-12-04 13"},"coordinates":[6763,4902]},{"type":"Point","properties":{"Station_ID":"CAN-ON-525","Station_Nam":"WOODSTOCK 1.2 ENE, CAN","Latitude":"43.13734","Longitude":"-80.73688","Snowdepth":"1.600","Units":"in","Rept_Date":"2020-12-04 12"},"coordinates":[6330,4655]},{"type":"Point","properties":{"Station_ID":"WV-DD-1","Station_Nam":"CENTER POINT 2.2 NNW, WV","Latitude":"39.41954","Longitude":"-80.65610","Snowdepth":"1.500","Units":"in","Rept_Date":"2020-12-04 12"},"coordinates":[6361,2342]},{"type":"Point","properties":{"Station_ID":"PA-CM-4","Station_Nam":"BELMONT 0.1 NE, PA","Latitude":"40.28347","Longitude":"-78.89010","Snowdepth":"1.500","Units":"in","Rept_Date":"2020-12-04 13"},"coordinates":[7047,2880]},{"type":"Point","properties":{"Station_ID":"OH-MK-12","Station_Nam":"NORWICH 1.1 SE, OH","Latitude":"39.97526","Longitude":"-81.77666","Snowdepth":"1.500","Units":"in","Rept_Date":"2020-12-04 12"},"coordinates":[5927,2688]},{"type":"Point","properties":{"Station_ID":"OH-FR-87","Station_Nam":"WESTERVILLE 4.3 ESE, OH","Latitude":"40.09415","Longitude":"-82.84499","Snowdepth":"1.500","Units":"in","Rept_Date":"2020-12-04 13"},"coordinates":[5512,2762]},{"type":"Point","properties":{"Station_ID":"OH-CW-3","Station_Nam":"BUCYRUS 1.0 NW, OH","Latitude":"40.81455","Longitude":"-82.98480","Snowdepth":"1.500","Units":"in","Rept_Date":"2020-12-04 12"},"coordinates":[5458,3210]},{"type":"Point","properties":{"Station_ID":"NY-OS-38","Station_Nam":"MEXICO COOP, NY","Latitude":"43.43830","Longitude":"-76.26570","Snowdepth":"1.500","Units":"in","Rept_Date":"2020-12-04 12"},"coordinates":[8065,4842]},{"type":"Point","properties":{"Station_ID":"NY-CQ-34","Station_Nam":"KENNEDY 2.6 SE, NY","Latitude":"42.12567","Longitude":"-79.07235","Snowdepth":"1.500","Units":"in","Rept_Date":"2020-12-04 13"},"coordinates":[6976,4026]},{"type":"Point","properties":{"Station_ID":"NC-AS-2","Station_Nam":"CRESTON 2.8 SW, NC","Latitude":"36.40750","Longitude":"-81.66890","Snowdepth":"1.500","Units":"in","Rept_Date":"2020-12-04 14"},"coordinates":[5968,468]},{"type":"Point","properties":{"Station_ID":"MN-SL-108","Station_Nam":"IRON JUNCTION 3.4 NNW, MN","Latitude":"47.46150","Longitude":"-92.63130","Snowdepth":"1.500","Units":"in","Rept_Date":"2020-12-04 13"},"coordinates":[1714,7345]},{"type":"Point","properties":{"Station_ID":"MN-CK-6","Station_Nam":"GRAND MARAIS 4.4 W, MN","Latitude":"47.74865","Longitude":"-90.43760","Snowdepth":"1.500","Units":"in","Rept_Date":"2020-12-04 13"},"coordinates":[2565,7524]},{"type":"Point","properties":{"Station_ID":"CAN-ON-103","Station_Nam":"CALEDONIA 12.4 NW, CA","Latitude":"43.14246","Longitude":"-80.06960","Snowdepth":"1.500","Units":"in","Rept_Date":"2020-12-04 12"},"coordinates":[6589,4658]},{"type":"Point","properties":{"Station_ID":"40.8146_082.9848","Station_Nam":"1 NW Bucyrus  CoCoRaHS (OH-CW-3)","Latitude":"40.81460","Longitude":"-82.98480","Snowdepth":"1.500","Units":"in","Rept_Date":"2020-12-04 11"},"coordinates":[5458,3210]},{"type":"Point","properties":{"Station_ID":"PA-AL-74","Station_Nam":"PITTSBURGH 3.6 NNW, PA","Latitude":"40.48879","Longitude":"-80.00055","Snowdepth":"1.300","Units":"in","Rept_Date":"2020-12-04 11"},"coordinates":[6616,3007]},{"type":"Point","properties":{"Station_ID":"41.3763_082.0992","Station_Nam":"Elyria  Trained Spotter (CLE1010)","Latitude":"41.37628","Longitude":"-82.09918","Snowdepth":"1.300","Units":"in","Rept_Date":"2020-12-04 10"},"coordinates":[5801,3559]},{"type":"Point","properties":{"Station_ID":"PA-PT-2","Station_Nam":"ROULETTE 1.8 NNE, PA","Latitude":"41.80759","Longitude":"-78.14140","Snowdepth":"1.200","Units":"in","Rept_Date":"2020-12-04 12"},"coordinates":[7337,3828]},{"type":"Point","properties":{"Station_ID":"CAN-ON-707","Station_Nam":"HARROW 5.6 WSW, CAN","Latitude":"42.00895","Longitude":"-82.97658","Snowdepth":"1.200","Units":"in","Rept_Date":"2020-12-04 11"},"coordinates":[5461,3953]},{"type":"Point","properties":{"Station_ID":"CAN-ON-285","Station_Nam":"LEAMINGTON 3.0 N, CAN","Latitude":"42.07693","Longitude":"-82.59744","Snowdepth":"1.200","Units":"in","Rept_Date":"2020-12-04 11"},"coordinates":[5608,3995]},{"type":"Point","properties":{"Station_ID":"MBGM7","Station_Nam":"MISSOURI BOTANICAL GARDENS","Latitude":"38.61280","Longitude":"-90.26080","Snowdepth":"1.100","Units":"in","Rept_Date":"2020-12-05 06"},"coordinates":[2634,1840]},{"type":"Point","properties":{"Station_ID":"HLSN3","Station_Nam":"HERMIT LAKE SNOTEL","Latitude":"44.26130","Longitude":"-71.28320","Snowdepth":"1.020","Units":"in","Rept_Date":"2020-12-05 06"},"coordinates":[9999,5354]},{"type":"Point","properties":{"Station_ID":"YALM4","Station_Nam":"YALE,MI","Latitude":"43.15000","Longitude":"-82.80000","Snowdepth":"1.000","Units":"in","Rept_Date":"2020-12-04 11"},"coordinates":[5529,4663]},{"type":"Point","properties":{"Station_ID":"WV-NC-4","Station_Nam":"CRAIGSVILLE 0.6 NE, WV","Latitude":"38.33698","Longitude":"-80.64520","Snowdepth":"1.000","Units":"in","Rept_Date":"2020-12-04 12"},"coordinates":[6366,1669]},{"type":"Point","properties":{"Station_ID":"WTNM4","Station_Nam":"WATTON 2WSW","Latitude":"46.52660","Longitude":"-88.64240","Snowdepth":"1.000","Units":"in","Rept_Date":"2020-12-04 13"},"coordinates":[3262,6764]},{"type":"Point","properties":{"Station_ID":"WRUM5","Station_Nam":"WARROAD 4W","Latitude":"48.89600","Longitude":"-95.40700","Snowdepth":"1.000","Units":"in","Rept_Date":"2020-12-05 04"},"coordinates":[637,8238]},{"type":"Point","properties":{"Station_ID":"WRSN6","Station_Nam":"WARSAW 6SW","Latitude":"42.68550","Longitude":"-78.22020","Snowdepth":"1.000","Units":"in","Rept_Date":"2020-12-04 12"},"coordinates":[7307,4374]},{"type":"Point","properties":{"Station_ID":"WI-IR-3","Station_Nam":"PENCE 0.1 E, WI","Latitude":"46.41555","Longitude":"-90.27013","Snowdepth":"1.000","Units":"in","Rept_Date":"2020-12-04 13"},"coordinates":[2630,6695]},{"type":"Point","properties":{"Station_ID":"WI-DG-20","Station_Nam":"SOLON SPRINGS 1.2 W, WI","Latitude":"46.35217","Longitude":"-91.84405","Snowdepth":"1.000","Units":"in","Rept_Date":"2020-12-04 13"},"coordinates":[2019,6655]},{"type":"Point","properties":{"Station_ID":"WI-BY-29","Station_Nam":"BAYFIELD 5.1 NNW, WI","Latitude":"46.88063","Longitude":"-90.85854","Snowdepth":"1.000","Units":"in","Rept_Date":"2020-12-04 13"},"coordinates":[2402,6984]},{"type":"Point","properties":{"Station_ID":"VT-OL-2","Station_Nam":"BARTON 3.0 ENE, VT","Latitude":"44.75863","Longitude":"-72.11680","Snowdepth":"1.000","Units":"in","Rept_Date":"2020-12-04 12"},"coordinates":[9675,5664]},{"type":"Point","properties":{"Station_ID":"VT-OL-12","Station_Nam":"GREENSBORO 3.9 NNE, VT","Latitude":"44.63100","Longitude":"-72.28000","Snowdepth":"1.000","Units":"in","Rept_Date":"2020-12-04 14"},"coordinates":[9612,5584]},{"type":"Point","properties":{"Station_ID":"SUAW3","Station_Nam":"SUAMICO","Latitude":"44.60190","Longitude":"-88.09780","Snowdepth":"1.000","Units":"in","Rept_Date":"2020-12-04 18"},"coordinates":[3473,5566]},{"type":"Point","properties":{"Station_ID":"SPPP1","Station_Nam":"SLIPPERY ROCK","Latitude":"41.05600","Longitude":"-80.05950","Snowdepth":"1.000","Units":"in","Rept_Date":"2020-12-04 13"},"coordinates":[6593,3360]},{"type":"Point","properties":{"Station_ID":"RNMT1","Station_Nam":"ROAN MOUNTAIN 2SE","Latitude":"36.18470","Longitude":"-83.04670","Snowdepth":"1.000","Units":"in","Rept_Date":"2020-12-04 13"},"coordinates":[5434,330]},{"type":"Point","properties":{"Station_ID":"PNYP1","Station_Nam":"MAHONING LAKE","Latitude":"40.92500","Longitude":"-79.28250","Snowdepth":"1.000","Units":"in","Rept_Date":"2020-12-04 13"},"coordinates":[6895,3279]},{"type":"Point","properties":{"Station_ID":"PHEW3","Station_Nam":"PHELPS","Latitude":"46.06630","Longitude":"-89.07520","Snowdepth":"1.000","Units":"in","Rept_Date":"2020-12-04 13"},"coordinates":[3094,6477]},{"type":"Point","properties":{"Station_ID":"PEKN6","Station_Nam":"PECK LAKE","Latitude":"43.11500","Longitude":"-74.42360","Snowdepth":"1.000","Units":"in","Rept_Date":"2020-12-04 12"},"coordinates":[8780,4641]},{"type":"Point","properties":{"Station_ID":"PDGM4","Station_Nam":"PAULDING","Latitude":"46.39760","Longitude":"-89.17940","Snowdepth":"1.000","Units":"in","Rept_Date":"2020-12-04 13"},"coordinates":[3054,6683]},{"type":"Point","properties":{"Station_ID":"PALP1","Station_Nam":"PORT ALLEGANY,PA","Latitude":"41.81670","Longitude":"-78.28330","Snowdepth":"1.000","Units":"in","Rept_Date":"2020-12-04 12"},"coordinates":[7282,3833]},{"type":"Point","properties":{"Station_ID":"PA-CR-1","Station_Nam":"EMPORIUM 2.6 S, PA","Latitude":"41.47342","Longitude":"-78.24330","Snowdepth":"1.000","Units":"in","Rept_Date":"2020-12-04 13"},"coordinates":[7298,3620]},{"type":"Point","properties":{"Station_ID":"PA-BT-40","Station_Nam":"CABOT 1.6 WNW, PA","Latitude":"40.77250","Longitude":"-79.79560","Snowdepth":"1.000","Units":"in","Rept_Date":"2020-12-04 12"},"coordinates":[6695,3184]},{"type":"Point","properties":{"Station_ID":"PA-AL-69","Station_Nam":"GIBSONIA 1.2 NE, PA","Latitude":"40.64052","Longitude":"-79.95061","Snowdepth":"1.000","Units":"in","Rept_Date":"2020-12-04 11"},"coordinates":[6635,3102]},{"type":"Point","properties":{"Station_ID":"OH-OT-9","Station_Nam":"PORT CLINTON 6.8 W, OH","Latitude":"41.52388","Longitude":"-83.06833","Snowdepth":"1.000","Units":"in","Rept_Date":"2020-12-04 13"},"coordinates":[5425,3651]},{"type":"Point","properties":{"Station_ID":"OH-LC-1","Station_Nam":"ALEXANDRIA 2.1 NNW, OH","Latitude":"40.11817","Longitude":"-82.62647","Snowdepth":"1.000","Units":"in","Rept_Date":"2020-12-04 12"},"coordinates":[5597,2777]},{"type":"Point","properties":{"Station_ID":"OH-FR-8","Station_Nam":"NEW ALBANY 2.8 SSE, OH","Latitude":"40.04029","Longitude":"-82.79800","Snowdepth":"1.000","Units":"in","Rept_Date":"2020-12-04 12"},"coordinates":[5530,2728]},{"type":"Point","properties":{"Station_ID":"OH-FL-13","Station_Nam":"SWANTON 4.0 S, OH","Latitude":"41.52721","Longitude":"-83.90665","Snowdepth":"1.000","Units":"in","Rept_Date":"2020-12-04 13"},"coordinates":[5100,3653]},{"type":"Point","properties":{"Station_ID":"OH-CN-14","Station_Nam":"WILMINGTON 7.4 NNW, OH","Latitude":"39.54607","Longitude":"-83.87280","Snowdepth":"1.000","Units":"in","Rept_Date":"2020-12-04 12"},"coordinates":[5113,2421]},{"type":"Point","properties":{"Station_ID":"OH-CN-10","Station_Nam":"WILMINGTON 2.2 N, OH","Latitude":"39.47452","Longitude":"-83.83610","Snowdepth":"1.000","Units":"in","Rept_Date":"2020-12-04 12"},"coordinates":[5127,2376]},{"type":"Point","properties":{"Station_ID":"OH-CB-8","Station_Nam":"HANOVERTON 0.4 ENE, OH","Latitude":"40.75696","Longitude":"-80.92919","Snowdepth":"1.000","Units":"in","Rept_Date":"2020-12-04 09"},"coordinates":[6255,3174]},{"type":"Point","properties":{"Station_ID":"NY-HM-9","Station_Nam":"HOFFMEISTER 2.0 E, NY","Latitude":"43.38695","Longitude":"-74.67723","Snowdepth":"1.000","Units":"in","Rept_Date":"2020-12-04 13"},"coordinates":[8682,4810]},{"type":"Point","properties":{"Station_ID":"NY-ER-63","Station_Nam":"GLENWOOD 1.5 SE, NY","Latitude":"42.60195","Longitude":"-78.63910","Snowdepth":"1.000","Units":"in","Rept_Date":"2020-12-04 13"},"coordinates":[7144,4322]},{"type":"Point","properties":{"Station_ID":"NY-CR-5","Station_Nam":"MARATHON 1.0 NW, NY","Latitude":"42.45161","Longitude":"-76.04370","Snowdepth":"1.000","Units":"in","Rept_Date":"2020-12-04 12"},"coordinates":[8151,4228]},{"type":"Point","properties":{"Station_ID":"NC-ML-1","Station_Nam":"BAKERSVILLE 5.4 N, NC","Latitude":"36.09200","Longitude":"-82.17500","Snowdepth":"1.000","Units":"in","Rept_Date":"2020-12-04 12"},"coordinates":[5772,272]},{"type":"Point","properties":{"Station_ID":"MRVP1","Station_Nam":"MURRYSVILLE","Latitude":"40.41220","Longitude":"-79.72610","Snowdepth":"1.000","Units":"in","Rept_Date":"2020-12-04 12"},"coordinates":[6722,2960]},{"type":"Point","properties":{"Station_ID":"MQT","Station_Nam":"MARQUETTE, MI","Latitude":"46.53140","Longitude":"-87.54920","Snowdepth":"1.000","Units":"in","Rept_Date":"2020-12-05 06"},"coordinates":[3686,6767]},{"type":"Point","properties":{"Station_ID":"MNBW2","Station_Nam":"MT. NEBO 1S","Latitude":"38.18790","Longitude":"-80.84840","Snowdepth":"1.000","Units":"in","Rept_Date":"2020-12-04 12"},"coordinates":[6287,1576]},{"type":"Point","properties":{"Station_ID":"MI-HG-1","Station_Nam":"HOUGHTON 1.6 ESE, MI","Latitude":"47.10774","Longitude":"-88.52940","Snowdepth":"1.000","Units":"in","Rept_Date":"2020-12-04 13"},"coordinates":[3306,7125]},{"type":"Point","properties":{"Station_ID":"MECN6","Station_Nam":"MECKLENBURG 4 SW","Latitude":"42.44220","Longitude":"-76.75740","Snowdepth":"1.000","Units":"in","Rept_Date":"2020-12-04 12"},"coordinates":[7874,4223]},{"type":"Point","properties":{"Station_ID":"LVDW3","Station_Nam":"LAC VIEUX DESERT","Latitude":"46.12110","Longitude":"-89.07580","Snowdepth":"1.000","Units":"in","Rept_Date":"2020-12-04 13"},"coordinates":[3094,6511]},{"type":"Point","properties":{"Station_ID":"LBRM5","Station_Nam":"LAKE BRONSON DAM","Latitude":"48.72410","Longitude":"-96.62180","Snowdepth":"1.000","Units":"in","Rept_Date":"2020-12-04 14"},"coordinates":[165,8131]},{"type":"Point","properties":{"Station_ID":"KABM5","Station_Nam":"KABETOGAMA LAKE VISITOR CTR","Latitude":"48.40880","Longitude":"-93.04840","Snowdepth":"1.000","Units":"in","Rept_Date":"2020-12-04 13"},"coordinates":[1552,7935]},{"type":"Point","properties":{"Station_ID":"JSTN6","Station_Nam":"JAMESTOWN 4 ENE","Latitude":"42.11000","Longitude":"-79.15910","Snowdepth":"1.000","Units":"in","Rept_Date":"2020-12-04 12"},"coordinates":[6942,4016]},{"type":"Point","properties":{"Station_ID":"JEFV1","Station_Nam":"JEFFERSONVILLE","Latitude":"44.58430","Longitude":"-72.78700","Snowdepth":"1.000","Units":"in","Rept_Date":"2020-12-04 12"},"coordinates":[9415,5555]},{"type":"Point","properties":{"Station_ID":"IWOM4","Station_Nam":"IRONWOOD#2","Latitude":"46.46520","Longitude":"-90.13820","Snowdepth":"1.000","Units":"in","Rept_Date":"2020-12-04 13"},"coordinates":[2681,6725]},{"type":"Point","properties":{"Station_ID":"HUNO1","Station_Nam":"HUNTSVILLE 3 N","Latitude":"40.47990","Longitude":"-83.81270","Snowdepth":"1.000","Units":"in","Rept_Date":"2020-12-04 12"},"coordinates":[5136,3002]},{"type":"Point","properties":{"Station_ID":"HUBN3","Station_Nam":"HUBBARD BROOK","Latitude":"43.93330","Longitude":"-71.71670","Snowdepth":"1.000","Units":"in","Rept_Date":"2020-12-05 06"},"coordinates":[9831,5150]},{"type":"Point","properties":{"Station_ID":"HBHM4","Station_Nam":"HARBOR BEACH,MI","Latitude":"43.83330","Longitude":"-82.63330","Snowdepth":"1.000","Units":"in","Rept_Date":"2020-12-04 13"},"coordinates":[5594,5088]},{"type":"Point","properties":{"Station_ID":"GRMP1","Station_Nam":"GRAMPIAN, PA","Latitude":"40.96660","Longitude":"-78.58710","Snowdepth":"1.000","Units":"in","Rept_Date":"2020-12-04 10"},"coordinates":[7164,3305]},{"type":"Point","properties":{"Station_ID":"FRKN6","Station_Nam":"FRANKLINVILLE","Latitude":"42.32940","Longitude":"-78.46350","Snowdepth":"1.000","Units":"in","Rept_Date":"2020-12-04 12"},"coordinates":[7212,4152]},{"type":"Point","properties":{"Station_ID":"ELYM5","Station_Nam":"ELY","Latitude":"47.90560","Longitude":"-91.82830","Snowdepth":"1.000","Units":"in","Rept_Date":"2020-12-04 14"},"coordinates":[2026,7622]},{"type":"Point","properties":{"Station_ID":"CTRO1","Station_Nam":"CENTERBURG,OH","Latitude":"40.30000","Longitude":"-82.65000","Snowdepth":"1.000","Units":"in","Rept_Date":"2020-12-04 13"},"coordinates":[5588,2890]},{"type":"Point","properties":{"Station_ID":"CLKM4","Station_Nam":"CLARKSBURG","Latitude":"46.49910","Longitude":"-87.84500","Snowdepth":"1.000","Units":"in","Rept_Date":"2020-12-04 12"},"coordinates":[3571,6747]},{"type":"Point","properties":{"Station_ID":"CLAP1","Station_Nam":"PINEY LAKE","Latitude":"41.19220","Longitude":"-79.43560","Snowdepth":"1.000","Units":"in","Rept_Date":"2020-12-04 12"},"coordinates":[6835,3445]},{"type":"Point","properties":{"Station_ID":"CJRP1","Station_Nam":"COUDERSPORT 7SE","Latitude":"41.73920","Longitude":"-77.97110","Snowdepth":"1.000","Units":"in","Rept_Date":"2020-12-04 12"},"coordinates":[7403,3785]},{"type":"Point","properties":{"Station_ID":"CFLP1","Station_Nam":"DAM","Latitude":"39.80000","Longitude":"-79.36670","Snowdepth":"1.000","Units":"in","Rept_Date":"2020-12-04 13"},"coordinates":[6862,2579]},{"type":"Point","properties":{"Station_ID":"CAN-MB-56","Station_Nam":"WINNIPEG 7.6 ENE, CAN","Latitude":"49.93264","Longitude":"-97.04752","Snowdepth":"1.000","Units":"in","Rept_Date":"2020-12-04 14"},"coordinates":[0,8883]},{"type":"Point","properties":{"Station_ID":"BRAM5","Station_Nam":"BRAINERD","Latitude":"46.34320","Longitude":"-94.20900","Snowdepth":"1.000","Units":"in","Rept_Date":"2020-12-04 13"},"coordinates":[1102,6650]},{"type":"Point","properties":{"Station_ID":"BOON6","Station_Nam":"BOONVILLE 4 SSW","Latitude":"43.43610","Longitude":"-75.36970","Snowdepth":"1.000","Units":"in","Rept_Date":"2020-12-04 12"},"coordinates":[8413,4841]},{"type":"Point","properties":{"Station_ID":"BKNW2","Station_Nam":"BUCKHANNON","Latitude":"38.98030","Longitude":"-80.22010","Snowdepth":"1.000","Units":"in","Rept_Date":"2020-12-04 12"},"coordinates":[6531,2069]},{"type":"Point","properties":{"Station_ID":"BDAM4","Station_Nam":"BAD AXE,MI","Latitude":"43.81670","Longitude":"-83.00000","Snowdepth":"1.000","Units":"in","Rept_Date":"2020-12-04 12"},"coordinates":[5452,5078]},{"type":"Point","properties":{"Station_ID":"AVTW3","Station_Nam":"ARBOR VITAE-JOHNSON LAKE","Latitude":"45.89940","Longitude":"-89.72670","Snowdepth":"1.000","Units":"in","Rept_Date":"2020-12-04 12"},"coordinates":[2841,6373]},{"type":"Point","properties":{"Station_ID":"APXM4","Station_Nam":"GAYLORD 9SSW","Latitude":"44.90720","Longitude":"-84.71880","Snowdepth":"1.000","Units":"in","Rept_Date":"2020-12-05 06"},"coordinates":[4785,5756]},{"type":"Point","properties":{"Station_ID":"ALXO1","Station_Nam":"ALEXANDRIA 2 NNW","Latitude":"40.11810","Longitude":"-82.62640","Snowdepth":"1.000","Units":"in","Rept_Date":"2020-12-04 12"},"coordinates":[5597,2777]},{"type":"Point","properties":{"Station_ID":"41.5239_083.0683","Station_Nam":"7 W Port Clinton  CoCoRaHS (OH-OT-9)","Latitude":"41.52390","Longitude":"-83.06830","Snowdepth":"1.000","Units":"in","Rept_Date":"2020-12-04 13"},"coordinates":[5425,3651]},{"type":"Point","properties":{"Station_ID":"41.3190_082.3773","Station_Nam":"5 NNE Wakeman  CoCoRaHS (OH-ER-5)","Latitude":"41.31900","Longitude":"-82.37730","Snowdepth":"1.000","Units":"in","Rept_Date":"2020-12-04 12"},"coordinates":[5693,3524]}]}},"arcs":[],"transform":{"scale":[0.002576689668966898,0.0016073507350735073],"translate":[-97.04752,35.655]}}