{"type":"Topology","objects":{"snowdepth_geo":{"type":"GeometryCollection","geometries":[{"type":"Point","coordinates":[-83.4289,35.6108],"properties":{"Station_ID":"NFGT1","Station_Nam":"NEW FOUND GAP","Latitude":"35.61080","Longitude":"-83.42890","Snowdepth":"84.320","Units":"in","Rept_Date":"2025-03-24 20"}},{"type":"Point","coordinates":[-72.8154,44.5248],"properties":{"Station_ID":"MMNV1","Station_Nam":"MT. MANSFIELD","Latitude":"44.52480","Longitude":"-72.81540","Snowdepth":"82.000","Units":"in","Rept_Date":"2025-03-24 20"}},{"type":"Point","coordinates":[-86.62,46.4258],"properties":{"Station_ID":"PRKM4","Station_Nam":"MUNISING EAST","Latitude":"46.42580","Longitude":"-86.62000","Snowdepth":"76.500","Units":"in","Rept_Date":"2025-03-25 06"}},{"type":"Point","coordinates":[-88.4679,47.2455],"properties":{"Station_ID":"CLUM4","Station_Nam":"CALUMET-TAMARACK","Latitude":"47.24550","Longitude":"-88.46790","Snowdepth":"49.000","Units":"in","Rept_Date":"2025-03-24 13"}},{"type":"Point","coordinates":[-88.6717,47.0416],"properties":{"Station_ID":"PDLM4","Station_Nam":"PAINESDALE","Latitude":"47.04160","Longitude":"-88.67170","Snowdepth":"42.000","Units":"in","Rept_Date":"2025-03-24 12"}},{"type":"Point","coordinates":[-86.6625,46.4121],"properties":{"Station_ID":"MNSM4","Station_Nam":"MUNISING","Latitude":"46.41210","Longitude":"-86.66250","Snowdepth":"38.000","Units":"in","Rept_Date":"2025-03-24 11"}},{"type":"Point","coordinates":[-69.6747,50.7925],"properties":{"Station_ID":"CQOU","Station_Nam":"CQOU","Latitude":"50.79250","Longitude":"-69.67470","Snowdepth":"33.543","Units":"in","Rept_Date":"2025-03-24 12"}},{"type":"Point","coordinates":[-71.2833,44.2613],"properties":{"Station_ID":"HTLN3","Station_Nam":"HERMIT LAKE SNOWPLOT","Latitude":"44.26130","Longitude":"-71.28330","Snowdepth":"33.000","Units":"in","Rept_Date":"2025-03-24 09"}},{"type":"Point","coordinates":[-71.1955,44.2594],"properties":{"Station_ID":"CRNN3","Station_Nam":"CARTER NOTCH","Latitude":"44.25940","Longitude":"-71.19550","Snowdepth":"33.000","Units":"in","Rept_Date":"2025-03-24 11"}},{"type":"Point","coordinates":[-82.5757,48.526],"properties":{"Station_ID":"AUDQ6","Station_Nam":"AUDEN","Latitude":"48.52600","Longitude":"-82.57570","Snowdepth":"32.240","Units":"in","Rept_Date":"2025-03-25 06"}},{"type":"Point","coordinates":[-75.1,50.7236],"properties":{"Station_ID":"CQLB","Station_Nam":"CQLB","Latitude":"50.72360","Longitude":"-75.10000","Snowdepth":"31.220","Units":"in","Rept_Date":"2025-03-24 12"}},{"type":"Point","coordinates":[-87.2292,49.2288],"properties":{"Station_ID":"TRIQ6","Station_Nam":"TRIO LAKE","Latitude":"49.22880","Longitude":"-87.22920","Snowdepth":"29.690","Units":"in","Rept_Date":"2025-03-25 06"}},{"type":"Point","coordinates":[-67.1394,51.1114],"properties":{"Station_ID":"CQGD","Station_Nam":"CQGD","Latitude":"51.11140","Longitude":"-67.13940","Snowdepth":"29.528","Units":"in","Rept_Date":"2025-03-24 12"}},{"type":"Point","coordinates":[-86.6594,49.0695],"properties":{"Station_ID":"PTLQ6","Station_Nam":"PORTAGE LAKE","Latitude":"49.06950","Longitude":"-86.65940","Snowdepth":"29.090","Units":"in","Rept_Date":"2025-03-25 06"}},{"type":"Point","coordinates":[-68.8236,50.6617],"properties":{"Station_ID":"CMLZ","Station_Nam":"CMLZ","Latitude":"50.66170","Longitude":"-68.82360","Snowdepth":"27.953","Units":"in","Rept_Date":"2025-03-24 12"}},{"type":"Point","coordinates":[-87.8582,50.7668],"properties":{"Station_ID":"OGIQ6","Station_Nam":"OGOKI CAMP","Latitude":"50.76680","Longitude":"-87.85820","Snowdepth":"27.640","Units":"in","Rept_Date":"2025-03-25 06"}},{"type":"Point","coordinates":[-91.793,50.7787],"properties":{"Station_ID":"SOCQ6","Station_Nam":"SOCKET LAKE","Latitude":"50.77870","Longitude":"-91.79300","Snowdepth":"27.520","Units":"in","Rept_Date":"2025-03-25 06"}},{"type":"Point","coordinates":[-88.5795,47.1364],"properties":{"Station_ID":"QNCM4","Station_Nam":"QUINCY HILL","Latitude":"47.13640","Longitude":"-88.57950","Snowdepth":"27.000","Units":"in","Rept_Date":"2025-03-24 14"}},{"type":"Point","coordinates":[-74.4039,50.8328],"properties":{"Station_ID":"CQFT","Station_Nam":"CQFT","Latitude":"50.83280","Longitude":"-74.40390","Snowdepth":"26.614","Units":"in","Rept_Date":"2025-03-24 12"}},{"type":"Point","coordinates":[-88.6926,47.13156],"properties":{"Station_ID":"MI-HG-21","Station_Nam":"ATLANTIC MINE 3.9 NW, MI","Latitude":"47.13156","Longitude":"-88.69260","Snowdepth":"26.000","Units":"in","Rept_Date":"2025-03-24 11"}},{"type":"Point","coordinates":[-88.3333,46.65],"properties":{"Station_ID":"HERM4","Station_Nam":"HERMAN,MI","Latitude":"46.65000","Longitude":"-88.33330","Snowdepth":"26.000","Units":"in","Rept_Date":"2025-03-24 12"}},{"type":"Point","coordinates":[-87.7644,49.1989],"properties":{"Station_ID":"DVLQ6","Station_Nam":"DEVIOUS LAKE","Latitude":"49.19890","Longitude":"-87.76440","Snowdepth":"25.790","Units":"in","Rept_Date":"2025-03-25 06"}},{"type":"Point","coordinates":[-90.6567,50.2873],"properties":{"Station_ID":"SVBQ6","Station_Nam":"SAVANT BASE","Latitude":"50.28730","Longitude":"-90.65670","Snowdepth":"24.920","Units":"in","Rept_Date":"2025-03-25 06"}},{"type":"Point","coordinates":[-74.2064,48.855],"properties":{"Station_ID":"CQGO","Station_Nam":"CQGO","Latitude":"48.85500","Longitude":"-74.20640","Snowdepth":"24.842","Units":"in","Rept_Date":"2025-03-24 12"}},{"type":"Point","coordinates":[-88.2077,46.5573],"properties":{"Station_ID":"MI-BG-3","Station_Nam":"THREE LAKES, MI","Latitude":"46.55730","Longitude":"-88.20770","Snowdepth":"23.500","Units":"in","Rept_Date":"2025-03-24 12"}},{"type":"Point","coordinates":[-69.3569,49.66],"properties":{"Station_ID":"CQTV","Station_Nam":"CQTV","Latitude":"49.66000","Longitude":"-69.35690","Snowdepth":"23.465","Units":"in","Rept_Date":"2025-03-24 12"}},{"type":"Point","coordinates":[-70.0806,51.3283],"properties":{"Station_ID":"CQCX","Station_Nam":"CQCX","Latitude":"51.32830","Longitude":"-70.08060","Snowdepth":"22.323","Units":"in","Rept_Date":"2025-03-24 12"}},{"type":"Point","coordinates":[-88.417,47.2752],"properties":{"Station_ID":"KSGM4","Station_Nam":"KEARSARGE","Latitude":"47.27520","Longitude":"-88.41700","Snowdepth":"22.000","Units":"in","Rept_Date":"2025-03-24 12"}},{"type":"Point","coordinates":[-86.9375,50.6386],"properties":{"Station_ID":"ANAQ6","Station_Nam":"ANACONDA","Latitude":"50.63860","Longitude":"-86.93750","Snowdepth":"21.930","Units":"in","Rept_Date":"2025-03-25 06"}},{"type":"Point","coordinates":[-91.8221,51.7269],"properties":{"Station_ID":"CATQ6","Station_Nam":"CAT LAKE","Latitude":"51.72690","Longitude":"-91.82210","Snowdepth":"21.260","Units":"in","Rept_Date":"2025-03-25 06"}},{"type":"Point","coordinates":[-88.5294,47.10774],"properties":{"Station_ID":"MI-HG-1","Station_Nam":"HOUGHTON 1.6 ESE, MI","Latitude":"47.10774","Longitude":"-88.52940","Snowdepth":"21.000","Units":"in","Rept_Date":"2025-03-24 12"}},{"type":"Point","coordinates":[-88.5983,47.13273],"properties":{"Station_ID":"54021_MADIS","Station_Nam":"HANCOCK 0.1 ENE, MI","Latitude":"47.13273","Longitude":"-88.59830","Snowdepth":"21.000","Units":"in","Rept_Date":"2025-03-24 14"}},{"type":"Point","coordinates":[-71.4944,44.1959],"properties":{"Station_ID":"ZFHN3","Station_Nam":"ZEALAND FALLS HUT","Latitude":"44.19590","Longitude":"-71.49440","Snowdepth":"20.000","Units":"in","Rept_Date":"2025-03-24 11"}},{"type":"Point","coordinates":[-75.5543,43.6051],"properties":{"Station_ID":"HGHN6","Station_Nam":"HIGHMARKET","Latitude":"43.60510","Longitude":"-75.55430","Snowdepth":"20.000","Units":"in","Rept_Date":"2025-03-24 12"}},{"type":"Point","coordinates":[-88.854,46.8944],"properties":{"Station_ID":"57011_MADIS","Station_Nam":"TWIN LAKES 0.2 SW, MI","Latitude":"46.89440","Longitude":"-88.85400","Snowdepth":"20.000","Units":"in","Rept_Date":"2025-03-24 12"}},{"type":"Point","coordinates":[-72.5719,51.0578],"properties":{"Station_ID":"CQTM","Station_Nam":"CQTM","Latitude":"51.05780","Longitude":"-72.57190","Snowdepth":"19.921","Units":"in","Rept_Date":"2025-03-24 12"}},{"type":"Point","coordinates":[-76.5983,47.8275],"properties":{"Station_ID":"CQCU","Station_Nam":"CQCU","Latitude":"47.82750","Longitude":"-76.59830","Snowdepth":"19.567","Units":"in","Rept_Date":"2025-03-24 12"}},{"type":"Point","coordinates":[-75.5384,43.37335],"properties":{"Station_ID":"NY-OD-2","Station_Nam":"POINT ROCK 0.6 SE, NY","Latitude":"43.37335","Longitude":"-75.53840","Snowdepth":"19.000","Units":"in","Rept_Date":"2025-03-24 12"}},{"type":"Point","coordinates":[-84.28515,46.50299],"properties":{"Station_ID":"CAN-ON-915","Station_Nam":"SAULT STE. MARIE 3.9 ESE, CAN","Latitude":"46.50299","Longitude":"-84.28515","Snowdepth":"18.900","Units":"in","Rept_Date":"2025-03-24 12"}},{"type":"Point","coordinates":[-93.216,48.59631],"properties":{"Station_ID":"MN-KC-20","Station_Nam":"INTERNATIONAL FALLS 8.8 E, MN","Latitude":"48.59631","Longitude":"-93.21600","Snowdepth":"18.000","Units":"in","Rept_Date":"2025-03-24 12"}},{"type":"Point","coordinates":[-84.4026,46.4867],"properties":{"Station_ID":"ANJM4","Station_Nam":"SNOW PAID OBSERVER FOR KANJ","Latitude":"46.48670","Longitude":"-84.40260","Snowdepth":"18.000","Units":"in","Rept_Date":"2025-03-24 18"}},{"type":"Point","coordinates":[-94.2577,52.1145],"properties":{"Station_ID":"POPQ6","Station_Nam":"POPLAR HILL","Latitude":"52.11450","Longitude":"-94.25770","Snowdepth":"17.830","Units":"in","Rept_Date":"2025-03-25 06"}},{"type":"Point","coordinates":[-67.6264,49.6472],"properties":{"Station_ID":"CQGT","Station_Nam":"CQGT","Latitude":"49.64720","Longitude":"-67.62640","Snowdepth":"17.716","Units":"in","Rept_Date":"2025-03-24 12"}},{"type":"Point","coordinates":[-86.95857,46.5029],"properties":{"Station_ID":"MI-AG-8","Station_Nam":"AU TRAIN 7.8 NW, MI","Latitude":"46.50290","Longitude":"-86.95857","Snowdepth":"17.700","Units":"in","Rept_Date":"2025-03-24 12"}},{"type":"Point","coordinates":[-66.13279,47.90803],"properties":{"Station_ID":"CAN-NB-50","Station_Nam":"DOYLEVILLE 2.4 WNW, CAN","Latitude":"47.90803","Longitude":"-66.13279","Snowdepth":"17.700","Units":"in","Rept_Date":"2025-03-24 12"}},{"type":"Point","coordinates":[-74.8088,43.1626],"properties":{"Station_ID":"NY-HR-18","Station_Nam":"SALISBURY CENTER 1.8 NW, NY","Latitude":"43.16260","Longitude":"-74.80880","Snowdepth":"17.500","Units":"in","Rept_Date":"2025-03-24 11"}},{"type":"Point","coordinates":[-90.30508,47.8062],"properties":{"Station_ID":"MN-CK-29","Station_Nam":"GRAND MARAIS 3.8 NNE, MN","Latitude":"47.80620","Longitude":"-90.30508","Snowdepth":"17.500","Units":"in","Rept_Date":"2025-03-24 12"}},{"type":"Point","coordinates":[-84.4025,46.4866],"properties":{"Station_ID":"SSMM4","Station_Nam":"SAULT STE MARIE","Latitude":"46.48660","Longitude":"-84.40250","Snowdepth":"17.000","Units":"in","Rept_Date":"2025-03-24 11"}},{"type":"Point","coordinates":[-84.31971,46.48933],"properties":{"Station_ID":"MI-CP-14","Station_Nam":"SAULT STE. MARIE 2.2 E, MI","Latitude":"46.48933","Longitude":"-84.31971","Snowdepth":"17.000","Units":"in","Rept_Date":"2025-03-24 11"}},{"type":"Point","coordinates":[-86.72684,50.1891],"properties":{"Station_ID":"CAN-ON-335","Station_Nam":"NAKINA 1.6 NW - MNRF, CAN","Latitude":"50.18910","Longitude":"-86.72684","Snowdepth":"16.900","Units":"in","Rept_Date":"2025-03-24 12"}},{"type":"Point","coordinates":[-88.7038,49.19],"properties":{"Station_ID":"NONQ6","Station_Nam":"NONWATIN","Latitude":"49.19000","Longitude":"-88.70380","Snowdepth":"16.340","Units":"in","Rept_Date":"2025-03-25 06"}},{"type":"Point","coordinates":[-72.2011,51.4528],"properties":{"Station_ID":"CQCO","Station_Nam":"CQCO","Latitude":"51.45280","Longitude":"-72.20110","Snowdepth":"16.260","Units":"in","Rept_Date":"2025-03-24 12"}},{"type":"Point","coordinates":[-69.0772,47.0711],"properties":{"Station_ID":"ALSM1","Station_Nam":"ALLAGASH SNOW COURSE","Latitude":"47.07110","Longitude":"-69.07720","Snowdepth":"16.200","Units":"in","Rept_Date":"2025-03-24 21"}},{"type":"Point","coordinates":[-71.3093,44.3326],"properties":{"Station_ID":"GKBN3","Station_Nam":"GRAY KNOB","Latitude":"44.33260","Longitude":"-71.30930","Snowdepth":"16.000","Units":"in","Rept_Date":"2025-03-24 14"}},{"type":"Point","coordinates":[-89.5475,46.5869],"properties":{"Station_ID":"BERM4","Station_Nam":"BERGLAND DAM","Latitude":"46.58690","Longitude":"-89.54750","Snowdepth":"16.000","Units":"in","Rept_Date":"2025-03-24 12"}},{"type":"Point","coordinates":[-70.4719,50.1033],"properties":{"Station_ID":"CQMA","Station_Nam":"CQMA","Latitude":"50.10330","Longitude":"-70.47190","Snowdepth":"15.945","Units":"in","Rept_Date":"2025-03-24 12"}},{"type":"Point","coordinates":[-86.70099,50.21269],"properties":{"Station_ID":"CAN-ON-224","Station_Nam":"NAKINA 3.8 N - MNRF, CAN","Latitude":"50.21269","Longitude":"-86.70099","Snowdepth":"15.700","Units":"in","Rept_Date":"2025-03-24 13"}},{"type":"Point","coordinates":[-68.5272,46.9317],"properties":{"Station_ID":"WNTM1","Station_Nam":"WINTERVILLE SNOW COURSE","Latitude":"46.93170","Longitude":"-68.52720","Snowdepth":"14.600","Units":"in","Rept_Date":"2025-03-24 19"}},{"type":"Point","coordinates":[-91.4716,48.7067],"properties":{"Station_ID":"ATIQ6","Station_Nam":"ATIKOKAN","Latitude":"48.70670","Longitude":"-91.47160","Snowdepth":"14.090","Units":"in","Rept_Date":"2025-03-25 06"}},{"type":"Point","coordinates":[-73.8067,47.8461],"properties":{"Station_ID":"CQWE","Station_Nam":"CQWE","Latitude":"47.84610","Longitude":"-73.80670","Snowdepth":"13.937","Units":"in","Rept_Date":"2025-03-24 12"}},{"type":"Point","coordinates":[-87.9051,51.5582],"properties":{"Station_ID":"FTHQ6","Station_Nam":"FORT HOPE","Latitude":"51.55820","Longitude":"-87.90510","Snowdepth":"13.740","Units":"in","Rept_Date":"2025-03-25 06"}},{"type":"Point","coordinates":[-90.87444,48.14388],"properties":{"Station_ID":"MN-CK-56","Station_Nam":"GRAND MARAIS 36.2 NW, MN","Latitude":"48.14388","Longitude":"-90.87444","Snowdepth":"13.500","Units":"in","Rept_Date":"2025-03-24 12"}},{"type":"Point","coordinates":[-89.1799,49.5995],"properties":{"Station_ID":"KABQ6","Station_Nam":"CAB LAKE","Latitude":"49.59950","Longitude":"-89.17990","Snowdepth":"13.390","Units":"in","Rept_Date":"2025-03-25 06"}},{"type":"Point","coordinates":[-70.2528,48.9203],"properties":{"Station_ID":"CQLM","Station_Nam":"CQLM","Latitude":"48.92030","Longitude":"-70.25280","Snowdepth":"13.189","Units":"in","Rept_Date":"2025-03-24 12"}},{"type":"Point","coordinates":[-87.8816,46.7462],"properties":{"Station_ID":"BBEM4","Station_Nam":"BIG BAY 9SW","Latitude":"46.74620","Longitude":"-87.88160","Snowdepth":"13.000","Units":"in","Rept_Date":"2025-03-24 12"}},{"type":"Point","coordinates":[-66.9111,51.5217],"properties":{"Station_ID":"CMFU","Station_Nam":"CMFU","Latitude":"51.52170","Longitude":"-66.91110","Snowdepth":"12.835","Units":"in","Rept_Date":"2025-03-24 12"}},{"type":"Point","coordinates":[-84.303,46.503],"properties":{"Station_ID":"CAN-ON-757","Station_Nam":"SAULT STE. MARIE 2.8 ESE - GLFC, CAN","Latitude":"46.50300","Longitude":"-84.30300","Snowdepth":"12.600","Units":"in","Rept_Date":"2025-03-24 12"}},{"type":"Point","coordinates":[-72.2824,44.1944],"properties":{"Station_ID":"VT-CL-3","Station_Nam":"GROTON 4.4 WSW, VT","Latitude":"44.19440","Longitude":"-72.28240","Snowdepth":"12.300","Units":"in","Rept_Date":"2025-03-24 10"}},{"type":"Point","coordinates":[-88.6424,46.5266],"properties":{"Station_ID":"WTNM4","Station_Nam":"WATTON 2WSW","Latitude":"46.52660","Longitude":"-88.64240","Snowdepth":"12.000","Units":"in","Rept_Date":"2025-03-24 12"}},{"type":"Point","coordinates":[-68.8406,51.2833],"properties":{"Station_ID":"CMRL","Station_Nam":"CMRL","Latitude":"51.28330","Longitude":"-68.84060","Snowdepth":"11.890","Units":"in","Rept_Date":"2025-03-24 12"}},{"type":"Point","coordinates":[-73.9228,50.2708],"properties":{"Station_ID":"CQLI","Station_Nam":"CQLI","Latitude":"50.27080","Longitude":"-73.92280","Snowdepth":"11.732","Units":"in","Rept_Date":"2025-03-24 12"}},{"type":"Point","coordinates":[-87.4503,46.28397],"properties":{"Station_ID":"61591_MADIS","Station_Nam":"GWINN 0.7 SW, MI","Latitude":"46.28397","Longitude":"-87.45030","Snowdepth":"11.500","Units":"in","Rept_Date":"2025-03-24 13"}},{"type":"Point","coordinates":[-68.3142,46.2078],"properties":{"Station_ID":"KNCM1","Station_Nam":"KNOWLES CORNER - MCOOP","Latitude":"46.20780","Longitude":"-68.31420","Snowdepth":"11.200","Units":"in","Rept_Date":"2025-03-24 18"}},{"type":"Point","coordinates":[-87.5492,46.5314],"properties":{"Station_ID":"MQT","Station_Nam":"MARQUETTE, MI","Latitude":"46.53140","Longitude":"-87.54920","Snowdepth":"11.000","Units":"in","Rept_Date":"2025-03-25 06"}},{"type":"Point","coordinates":[-94.44386,49.84171],"properties":{"Station_ID":"CAN-ON-771","Station_Nam":"KENORA 8.7 NNE - CANWARN, CAN","Latitude":"49.84171","Longitude":"-94.44386","Snowdepth":"11.000","Units":"in","Rept_Date":"2025-03-24 12"}},{"type":"Point","coordinates":[-89.97119,47.83922],"properties":{"Station_ID":"MN-CK-7","Station_Nam":"HOVLAND 0.1 NE, MN","Latitude":"47.83922","Longitude":"-89.97119","Snowdepth":"10.700","Units":"in","Rept_Date":"2025-03-24 12"}},{"type":"Point","coordinates":[-90.76895,48.09619],"properties":{"Station_ID":"MN-CK-57","Station_Nam":"GRAND MARAIS 30.5 NW, MN","Latitude":"48.09619","Longitude":"-90.76895","Snowdepth":"10.500","Units":"in","Rept_Date":"2025-03-24 13"}},{"type":"Point","coordinates":[-75.845,49.2906],"properties":{"Station_ID":"CQMD","Station_Nam":"CQMD","Latitude":"49.29060","Longitude":"-75.84500","Snowdepth":"10.039","Units":"in","Rept_Date":"2025-03-24 12"}},{"type":"Point","coordinates":[-94.2555,47.8359],"properties":{"Station_ID":"NOHM5","Station_Nam":"NORTHOME","Latitude":"47.83590","Longitude":"-94.25550","Snowdepth":"10.000","Units":"in","Rept_Date":"2025-03-24 12"}},{"type":"Point","coordinates":[-88.91219,46.35963],"properties":{"Station_ID":"MI-IR-1","Station_Nam":"TROUT CREEK 9.6 SSE, MI","Latitude":"46.35963","Longitude":"-88.91219","Snowdepth":"10.000","Units":"in","Rept_Date":"2025-03-24 12"}},{"type":"Point","coordinates":[-73.0333,43.05],"properties":{"Station_ID":"LBKV1","Station_Nam":"LYE BROOK","Latitude":"43.05000","Longitude":"-73.03330","Snowdepth":"10.000","Units":"in","Rept_Date":"2025-03-25 06"}},{"type":"Point","coordinates":[-93.3964,48.5778],"properties":{"Station_ID":"IFSM5","Station_Nam":"INTL FALLS SNOW","Latitude":"48.57780","Longitude":"-93.39640","Snowdepth":"10.000","Units":"in","Rept_Date":"2025-03-24 12"}},{"type":"Point","coordinates":[-71.4127,44.2196],"properties":{"Station_ID":"CAWN3","Station_Nam":"CRAWFORD NOTCH","Latitude":"44.21960","Longitude":"-71.41270","Snowdepth":"10.000","Units":"in","Rept_Date":"2025-03-24 11"}},{"type":"Point","coordinates":[-79.81035,44.50564],"properties":{"Station_ID":"CAN-ON-245","Station_Nam":"PHELPSTON 3.1 ESE, CAN","Latitude":"44.50564","Longitude":"-79.81035","Snowdepth":"10.000","Units":"in","Rept_Date":"2025-03-24 11"}},{"type":"Point","coordinates":[-89.09222,44.95139],"properties":{"Station_ID":"WI-SW-13","Station_Nam":"BIRNAMWOOD 5.9 ENE, WI","Latitude":"44.95139","Longitude":"-89.09222","Snowdepth":"9.400","Units":"in","Rept_Date":"2025-03-24 12"}},{"type":"Point","coordinates":[-67.9318,46.597],"properties":{"Station_ID":"WFDM1","Station_Nam":"WESTFIELD NEPP","Latitude":"46.59700","Longitude":"-67.93180","Snowdepth":"9.200","Units":"in","Rept_Date":"2025-03-24 16"}},{"type":"Point","coordinates":[-88.7416,45.1452],"properties":{"Station_ID":"WLKW3","Station_Nam":"WHITE LAKE 1 SE","Latitude":"45.14520","Longitude":"-88.74160","Snowdepth":"9.000","Units":"in","Rept_Date":"2025-03-24 13"}},{"type":"Point","coordinates":[-94.10155,47.82442],"properties":{"Station_ID":"MN-IT-80","Station_Nam":"NORTHOME 8.4 ESE, MN","Latitude":"47.82442","Longitude":"-94.10155","Snowdepth":"9.000","Units":"in","Rept_Date":"2025-03-24 12"}},{"type":"Point","coordinates":[-72.8333,44.5333],"properties":{"Station_ID":"MMSV1","Station_Nam":"MOUNT MANSFIELD","Latitude":"44.53330","Longitude":"-72.83330","Snowdepth":"9.000","Units":"in","Rept_Date":"2025-03-25 06"}},{"type":"Point","coordinates":[-87.845,46.4991],"properties":{"Station_ID":"CLKM4","Station_Nam":"CLARKSBURG","Latitude":"46.49910","Longitude":"-87.84500","Snowdepth":"9.000","Units":"in","Rept_Date":"2025-03-24 11"}},{"type":"Point","coordinates":[-93.03482,48.42954],"properties":{"Station_ID":"MN-SL-171","Station_Nam":"KABETOGAMA 0.7 SSW, MN","Latitude":"48.42954","Longitude":"-93.03482","Snowdepth":"8.500","Units":"in","Rept_Date":"2025-03-24 11"}},{"type":"Point","coordinates":[-89.6169,44.9731],"properties":{"Station_ID":"WUNW3","Station_Nam":"WAUSAU-NORTHEAST","Latitude":"44.97310","Longitude":"-89.61690","Snowdepth":"8.000","Units":"in","Rept_Date":"2025-03-24 11"}},{"type":"Point","coordinates":[-88.45639,45.184],"properties":{"Station_ID":"WI-OC-8","Station_Nam":"MOUNTAIN 0.9 E, WI","Latitude":"45.18400","Longitude":"-88.45639","Snowdepth":"8.000","Units":"in","Rept_Date":"2025-03-24 12"}},{"type":"Point","coordinates":[-88.4899,45.17239],"properties":{"Station_ID":"WI-OC-1","Station_Nam":"MOUNTAIN 1.1 SW, WI","Latitude":"45.17239","Longitude":"-88.48990","Snowdepth":"8.000","Units":"in","Rept_Date":"2025-03-24 12"}},{"type":"Point","coordinates":[-88.6278,46.0555],"properties":{"Station_ID":"STMM4","Station_Nam":"STAMBAUGH 2SSE","Latitude":"46.05550","Longitude":"-88.62780","Snowdepth":"8.000","Units":"in","Rept_Date":"2025-03-24 12"}},{"type":"Point","coordinates":[-89.306,44.6271],"properties":{"Station_ID":"RSTW3","Station_Nam":"ROSHOLT","Latitude":"44.62710","Longitude":"-89.30600","Snowdepth":"8.000","Units":"in","Rept_Date":"2025-03-24 12"}},{"type":"Point","coordinates":[-89.6617,45.1786],"properties":{"Station_ID":"RRLW3","Station_Nam":"MERRILL,WI","Latitude":"45.17860","Longitude":"-89.66170","Snowdepth":"8.000","Units":"in","Rept_Date":"2025-03-24 13"}},{"type":"Point","coordinates":[-84.3239,46.1864],"properties":{"Station_ID":"PICM4","Station_Nam":"PICKFORD 3NE","Latitude":"46.18640","Longitude":"-84.32390","Snowdepth":"8.000","Units":"in","Rept_Date":"2025-03-24 22"}},{"type":"Point","coordinates":[-85.6472,45.1322],"properties":{"Station_ID":"NPTM4","Station_Nam":"NORTHPORT 2W","Latitude":"45.13220","Longitude":"-85.64720","Snowdepth":"8.000","Units":"in","Rept_Date":"2025-03-24 12"}},{"type":"Point","coordinates":[-88.4939,45.1722],"properties":{"Station_ID":"MOUW3","Station_Nam":"MOUNTAIN 1 SW","Latitude":"45.17220","Longitude":"-88.49390","Snowdepth":"8.000","Units":"in","Rept_Date":"2025-03-24 12"}},{"type":"Point","coordinates":[-90.43796,47.74462],"properties":{"Station_ID":"MN-CK-18","Station_Nam":"GRAND MARAIS 4.4 WSW, MN","Latitude":"47.74462","Longitude":"-90.43796","Snowdepth":"8.000","Units":"in","Rept_Date":"2025-03-24 12"}},{"type":"Point","coordinates":[-88.08416,45.82719],"properties":{"Station_ID":"MI-DC-6","Station_Nam":"IRON MOUNTAIN 1.1 W, MI","Latitude":"45.82719","Longitude":"-88.08416","Snowdepth":"8.000","Units":"in","Rept_Date":"2025-03-24 12"}},{"type":"Point","coordinates":[-87.3779,46.3341],"properties":{"Station_ID":"KISM4","Station_Nam":"K.I. SAWYER WWTP","Latitude":"46.33410","Longitude":"-87.37790","Snowdepth":"8.000","Units":"in","Rept_Date":"2025-03-24 12"}},{"type":"Point","coordinates":[-93.9,48.6167],"properties":{"Station_ID":"INDM5","Station_Nam":"INDUS,MN","Latitude":"48.61670","Longitude":"-93.90000","Snowdepth":"8.000","Units":"in","Rept_Date":"2025-03-24 12"}},{"type":"Point","coordinates":[-90.3282,47.7518],"properties":{"Station_ID":"GMRM5","Station_Nam":"GRAND MARIAS WATER TREATMENT PLANT","Latitude":"47.75180","Longitude":"-90.32820","Snowdepth":"8.000","Units":"in","Rept_Date":"2025-03-24 11"}},{"type":"Point","coordinates":[-89.1528,45.9189],"properties":{"Station_ID":"EVRW3","Station_Nam":"EAGLE RIVER-4 E","Latitude":"45.91890","Longitude":"-89.15280","Snowdepth":"8.000","Units":"in","Rept_Date":"2025-03-24 12"}},{"type":"Point","coordinates":[-88.3786,44.9958],"properties":{"Station_ID":"BREW3","Station_Nam":"SURING","Latitude":"44.99580","Longitude":"-88.37860","Snowdepth":"8.000","Units":"in","Rept_Date":"2025-03-24 14"}},{"type":"Point","coordinates":[-91.4486,47.9719],"properties":{"Station_ID":"BNDM5","Station_Nam":"ELY 25E","Latitude":"47.97190","Longitude":"-91.44860","Snowdepth":"8.000","Units":"in","Rept_Date":"2025-03-24 16"}},{"type":"Point","coordinates":[-88.9038,45.6736],"properties":{"Station_ID":"AGNW3","Station_Nam":"ARGONNE-1.5 NW","Latitude":"45.67360","Longitude":"-88.90380","Snowdepth":"8.000","Units":"in","Rept_Date":"2025-03-24 13"}},{"type":"Point","coordinates":[-87.8119,45.4825],"properties":{"Station_ID":"ABGW3","Station_Nam":"AMBERG 9 E","Latitude":"45.48250","Longitude":"-87.81190","Snowdepth":"8.000","Units":"in","Rept_Date":"2025-03-24 13"}},{"type":"Point","coordinates":[-89.6159,44.97329],"properties":{"Station_ID":"55131_MADIS","Station_Nam":"WAUSAU 1.6 ENE, WI","Latitude":"44.97329","Longitude":"-89.61590","Snowdepth":"8.000","Units":"in","Rept_Date":"2025-03-24 11"}},{"type":"Point","coordinates":[-90.27013,46.41555],"properties":{"Station_ID":"WI-IR-3","Station_Nam":"PENCE 0.1 E, WI","Latitude":"46.41555","Longitude":"-90.27013","Snowdepth":"7.500","Units":"in","Rept_Date":"2025-03-24 12"}},{"type":"Point","coordinates":[-89.0223,44.71955],"properties":{"Station_ID":"WI-SW-3","Station_Nam":"TIGERTON 2.4 SE, WI","Latitude":"44.71955","Longitude":"-89.02230","Snowdepth":"7.200","Units":"in","Rept_Date":"2025-03-24 13"}},{"type":"Point","coordinates":[-88.01019,45.48772],"properties":{"Station_ID":"WI-MR-3","Station_Nam":"AMBERG 1.3 SW, WI","Latitude":"45.48772","Longitude":"-88.01019","Snowdepth":"7.000","Units":"in","Rept_Date":"2025-03-24 13"}},{"type":"Point","coordinates":[-90.1696,46.388],"properties":{"Station_ID":"WI-IR-6","Station_Nam":"HURLEY 4.1 SSE, WI","Latitude":"46.38800","Longitude":"-90.16960","Snowdepth":"7.000","Units":"in","Rept_Date":"2025-03-24 12"}},{"type":"Point","coordinates":[-87.24702,45.06007],"properties":{"Station_ID":"WI-DR-24","Station_Nam":"EGG HARBOR 2.4 ENE, WI","Latitude":"45.06007","Longitude":"-87.24702","Snowdepth":"7.000","Units":"in","Rept_Date":"2025-03-24 12"}},{"type":"Point","coordinates":[-67.1205,45.0853],"properties":{"Station_ID":"ROBM1","Station_Nam":"ROBBINSTON","Latitude":"45.08530","Longitude":"-67.12050","Snowdepth":"7.000","Units":"in","Rept_Date":"2025-03-25 04"}},{"type":"Point","coordinates":[-89.41,45.6222],"properties":{"Station_ID":"RHRW3","Station_Nam":"RHINELANDER WJFW TV-12","Latitude":"45.62220","Longitude":"-89.41000","Snowdepth":"7.000","Units":"in","Rept_Date":"2025-03-25 02"}},{"type":"Point","coordinates":[-89.1794,46.3976],"properties":{"Station_ID":"PDGM4","Station_Nam":"PAULDING","Latitude":"46.39760","Longitude":"-89.17940","Snowdepth":"7.000","Units":"in","Rept_Date":"2025-03-24 12"}},{"type":"Point","coordinates":[-90.4376,47.74865],"properties":{"Station_ID":"MN-CK-6","Station_Nam":"GRAND MARAIS 4.4 W, MN","Latitude":"47.74865","Longitude":"-90.43760","Snowdepth":"7.000","Units":"in","Rept_Date":"2025-03-24 12"}},{"type":"Point","coordinates":[-86.28266,45.99042],"properties":{"Station_ID":"MI-SH-1","Station_Nam":"MANISTIQUE 2.7 NW, MI","Latitude":"45.99042","Longitude":"-86.28266","Snowdepth":"7.000","Units":"in","Rept_Date":"2025-03-24 10"}},{"type":"Point","coordinates":[-86.5485,45.89815],"properties":{"Station_ID":"MI-DL-1","Station_Nam":"GARDEN CORNERS 0.8 NW, MI","Latitude":"45.89815","Longitude":"-86.54850","Snowdepth":"7.000","Units":"in","Rept_Date":"2025-03-24 12"}},{"type":"Point","coordinates":[-90.1833,46.4667],"properties":{"Station_ID":"IRMM4","Station_Nam":"WWTP","Latitude":"46.46670","Longitude":"-90.18330","Snowdepth":"7.000","Units":"in","Rept_Date":"2025-03-24 12"}},{"type":"Point","coordinates":[-86.5485,45.8983],"properties":{"Station_ID":"GDCM4","Station_Nam":"GARDEN CORNERS","Latitude":"45.89830","Longitude":"-86.54850","Snowdepth":"7.000","Units":"in","Rept_Date":"2025-03-24 12"}},{"type":"Point","coordinates":[-88.2583,45.9336],"properties":{"Station_ID":"FLNW3","Station_Nam":"FLORENCE","Latitude":"45.93360","Longitude":"-88.25830","Snowdepth":"7.000","Units":"in","Rept_Date":"2025-03-24 12"}},{"type":"Point","coordinates":[-87.2292,45.1242],"properties":{"Station_ID":"FISW3","Station_Nam":"FISH CREEK 1 E WWTP","Latitude":"45.12420","Longitude":"-87.22920","Snowdepth":"7.000","Units":"in","Rept_Date":"2025-03-24 14"}},{"type":"Point","coordinates":[-87.0406,45.7438],"properties":{"Station_ID":"ESAM4","Station_Nam":"ESCANABA","Latitude":"45.74380","Longitude":"-87.04060","Snowdepth":"7.000","Units":"in","Rept_Date":"2025-03-24 11"}},{"type":"Point","coordinates":[-88.9044,44.87],"properties":{"Station_ID":"BOWW3","Station_Nam":"STOCKBRIDGE-MUNSEE RESERVATION","Latitude":"44.87000","Longitude":"-88.90440","Snowdepth":"7.000","Units":"in","Rept_Date":"2025-03-24 12"}},{"type":"Point","coordinates":[-88.6059,46.821],"properties":{"Station_ID":"BAGM4","Station_Nam":"BARAGA 7NW","Latitude":"46.82100","Longitude":"-88.60590","Snowdepth":"7.000","Units":"in","Rept_Date":"2025-03-24 12"}},{"type":"Point","coordinates":[-89.15,45.1333],"properties":{"Station_ID":"ANTW3","Station_Nam":"ANTIGO,WI","Latitude":"45.13330","Longitude":"-89.15000","Snowdepth":"7.000","Units":"in","Rept_Date":"2025-03-24 13"}},{"type":"Point","coordinates":[-88.4544,46.2347],"properties":{"Station_ID":"AMAM4","Station_Nam":"AMASA 1W","Latitude":"46.23470","Longitude":"-88.45440","Snowdepth":"7.000","Units":"in","Rept_Date":"2025-03-24 13"}},{"type":"Point","coordinates":[-88.0856,45.78378],"properties":{"Station_ID":"62681_MADIS","Station_Nam":"AURORA 0.7 E, WI","Latitude":"45.78378","Longitude":"-88.08560","Snowdepth":"7.000","Units":"in","Rept_Date":"2025-03-24 12"}},{"type":"Point","coordinates":[-89.26314,44.41345],"properties":{"Station_ID":"WI-PT-19","Station_Nam":"AMHERST 2.6 SSE, WI","Latitude":"44.41345","Longitude":"-89.26314","Snowdepth":"6.500","Units":"in","Rept_Date":"2025-03-24 12"}},{"type":"Point","coordinates":[-89.69321,44.95812],"properties":{"Station_ID":"WI-MT-24","Station_Nam":"WAUSAU 2.4 W, WI","Latitude":"44.95812","Longitude":"-89.69321","Snowdepth":"6.500","Units":"in","Rept_Date":"2025-03-24 13"}},{"type":"Point","coordinates":[-87.11326,45.20296],"properties":{"Station_ID":"WI-DR-6","Station_Nam":"SISTER BAY 1.3 NNE, WI","Latitude":"45.20296","Longitude":"-87.11326","Snowdepth":"6.500","Units":"in","Rept_Date":"2025-03-24 12"}},{"type":"Point","coordinates":[-90.761,47.62394],"properties":{"Station_ID":"MN-CK-3","Station_Nam":"TOFTE 4.9 NE, MN","Latitude":"47.62394","Longitude":"-90.76100","Snowdepth":"6.500","Units":"in","Rept_Date":"2025-03-24 12"}},{"type":"Point","coordinates":[-91.1973,47.3824],"properties":{"Station_ID":"WLFM5","Station_Nam":"WOLF RIDGE ENVIRON LEARNING CENTER","Latitude":"47.38240","Longitude":"-91.19730","Snowdepth":"6.000","Units":"in","Rept_Date":"2025-03-24 12"}},{"type":"Point","coordinates":[-90.10473,45.5273],"properties":{"Station_ID":"WI-PR-14","Station_Nam":"BRANTWOOD 2.5 S, WI","Latitude":"45.52730","Longitude":"-90.10473","Snowdepth":"6.000","Units":"in","Rept_Date":"2025-03-24 12"}},{"type":"Point","coordinates":[-89.9896,45.1518],"properties":{"Station_ID":"WI-LN-8","Station_Nam":"MERRILL 14.1 W, WI","Latitude":"45.15180","Longitude":"-89.98960","Snowdepth":"6.000","Units":"in","Rept_Date":"2025-03-24 12"}},{"type":"Point","coordinates":[-89.73248,45.4576],"properties":{"Station_ID":"WI-LN-7","Station_Nam":"TOMAHAWK 1.2 SSW, WI","Latitude":"45.45760","Longitude":"-89.73248","Snowdepth":"6.000","Units":"in","Rept_Date":"2025-03-24 12"}},{"type":"Point","coordinates":[-84.4397,45.1702],"properties":{"Station_ID":"VANM4","Station_Nam":"VANDERBILT 11ENE","Latitude":"45.17020","Longitude":"-84.43970","Snowdepth":"6.000","Units":"in","Rept_Date":"2025-03-24 12"}},{"type":"Point","coordinates":[-89.5855,44.5113],"properties":{"Station_ID":"STPW3","Station_Nam":"STEVENS POINT","Latitude":"44.51130","Longitude":"-89.58550","Snowdepth":"6.000","Units":"in","Rept_Date":"2025-03-24 12"}},{"type":"Point","coordinates":[-88.7378,44.7358],"properties":{"Station_ID":"PELW3","Station_Nam":"PELLA 3SE","Latitude":"44.73580","Longitude":"-88.73780","Snowdepth":"6.000","Units":"in","Rept_Date":"2025-03-24 10"}},{"type":"Point","coordinates":[-89.8481,45.1781],"properties":{"Station_ID":"MLLW3","Station_Nam":"MERRILL 8W","Latitude":"45.17810","Longitude":"-89.84810","Snowdepth":"6.000","Units":"in","Rept_Date":"2025-03-24 11"}},{"type":"Point","coordinates":[-86.1065,44.53976],"properties":{"Station_ID":"MI-BZ-1","Station_Nam":"BENZONIA 5.3 S, MI","Latitude":"44.53976","Longitude":"-86.10650","Snowdepth":"6.000","Units":"in","Rept_Date":"2025-03-24 14"}},{"type":"Point","coordinates":[-90.1333,44.6411],"properties":{"Station_ID":"MFDW3","Station_Nam":"MARSHFIELD EXP FARM","Latitude":"44.64110","Longitude":"-90.13330","Snowdepth":"6.000","Units":"in","Rept_Date":"2025-03-24 12"}},{"type":"Point","coordinates":[-85.8352,44.855],"properties":{"Station_ID":"MAPM4","Station_Nam":"MAPLE CITY 1E","Latitude":"44.85500","Longitude":"-85.83520","Snowdepth":"6.000","Units":"in","Rept_Date":"2025-03-24 23"}},{"type":"Point","coordinates":[-89.457,46.19],"properties":{"Station_ID":"LNOW3","Station_Nam":"LAND O LAKES","Latitude":"46.19000","Longitude":"-89.45700","Snowdepth":"6.000","Units":"in","Rept_Date":"2025-03-24 12"}},{"type":"Point","coordinates":[-90.1382,46.4652],"properties":{"Station_ID":"IWOM4","Station_Nam":"IRONWOOD#2","Latitude":"46.46520","Longitude":"-90.13820","Snowdepth":"6.000","Units":"in","Rept_Date":"2025-03-24 12"}},{"type":"Point","coordinates":[-88.0403,45.8758],"properties":{"Station_ID":"IMNM4","Station_Nam":"IRON MOUTAIN 5N","Latitude":"45.87580","Longitude":"-88.04030","Snowdepth":"6.000","Units":"in","Rept_Date":"2025-03-24 12"}},{"type":"Point","coordinates":[-71.7167,43.9333],"properties":{"Station_ID":"HUBN3","Station_Nam":"HUBBARD BROOK","Latitude":"43.93330","Longitude":"-71.71670","Snowdepth":"6.000","Units":"in","Rept_Date":"2025-03-25 06"}},{"type":"Point","coordinates":[-87.3547,46.4908],"properties":{"Station_ID":"HRVM4","Station_Nam":"HARVEY","Latitude":"46.49080","Longitude":"-87.35470","Snowdepth":"6.000","Units":"in","Rept_Date":"2025-03-24 11"}},{"type":"Point","coordinates":[-87.0391,45.8433],"properties":{"Station_ID":"GLDM4","Station_Nam":"GLADSTONE NO. 2","Latitude":"45.84330","Longitude":"-87.03910","Snowdepth":"6.000","Units":"in","Rept_Date":"2025-03-24 11"}},{"type":"Point","coordinates":[-91.8283,47.9056],"properties":{"Station_ID":"ELYM5","Station_Nam":"ELY","Latitude":"47.90560","Longitude":"-91.82830","Snowdepth":"6.000","Units":"in","Rept_Date":"2025-03-24 13"}},{"type":"Point","coordinates":[-89.1133,44.6398],"properties":{"Station_ID":"BFSW3","Station_Nam":"BIG FALLS-5 NW","Latitude":"44.63980","Longitude":"-89.11330","Snowdepth":"6.000","Units":"in","Rept_Date":"2025-03-24 12"}},{"type":"Point","coordinates":[-88.0575,45.425],"properties":{"Station_ID":"ASTW3","Station_Nam":"ATHELSTANE","Latitude":"45.42500","Longitude":"-88.05750","Snowdepth":"6.000","Units":"in","Rept_Date":"2025-03-24 11"}},{"type":"Point","coordinates":[-89.2639,44.4128],"properties":{"Station_ID":"AMHW3","Station_Nam":"AMHERST-3 SE","Latitude":"44.41280","Longitude":"-89.26390","Snowdepth":"6.000","Units":"in","Rept_Date":"2025-03-24 12"}},{"type":"Point","coordinates":[-89.3464,44.3083],"properties":{"Station_ID":"AMDW3","Station_Nam":"ALMOND-5 NE","Latitude":"44.30830","Longitude":"-89.34640","Snowdepth":"6.000","Units":"in","Rept_Date":"2025-03-24 13"}},{"type":"Point","coordinates":[-90.14067,46.51845],"properties":{"Station_ID":"MI-GG-8","Station_Nam":"IRONWOOD 4.5 N, MI","Latitude":"46.51845","Longitude":"-90.14067","Snowdepth":"5.800","Units":"in","Rept_Date":"2025-03-24 12"}},{"type":"Point","coordinates":[-89.4579,46.19023],"properties":{"Station_ID":"WI-VL-9","Station_Nam":"LAND O' LAKES 11.7 W, WI","Latitude":"46.19023","Longitude":"-89.45790","Snowdepth":"5.500","Units":"in","Rept_Date":"2025-03-24 12"}},{"type":"Point","coordinates":[-89.8482,45.17746],"properties":{"Station_ID":"WI-LN-2","Station_Nam":"MERRILL 7.0 W, WI","Latitude":"45.17746","Longitude":"-89.84820","Snowdepth":"5.500","Units":"in","Rept_Date":"2025-03-24 11"}},{"type":"Point","coordinates":[-85.1475,45.18639],"properties":{"Station_ID":"MI-CX-7","Station_Nam":"EAST JORDAN 2.1 NNW, MI","Latitude":"45.18639","Longitude":"-85.14750","Snowdepth":"5.500","Units":"in","Rept_Date":"2025-03-24 20"}},{"type":"Point","coordinates":[-85.051,44.89981],"properties":{"Station_ID":"MI-AT-6","Station_Nam":"MANCELONA 0.5 ESE, MI","Latitude":"44.89981","Longitude":"-85.05100","Snowdepth":"5.500","Units":"in","Rept_Date":"2025-03-24 12"}},{"type":"Point","coordinates":[-73.7381,47.2564],"properties":{"Station_ID":"CQGA","Station_Nam":"CQGA","Latitude":"47.25640","Longitude":"-73.73810","Snowdepth":"5.472","Units":"in","Rept_Date":"2025-03-24 12"}},{"type":"Point","coordinates":[-91.80234,47.86804],"properties":{"Station_ID":"MN-SL-388","Station_Nam":"ELY 3.5 SE, MN","Latitude":"47.86804","Longitude":"-91.80234","Snowdepth":"5.400","Units":"in","Rept_Date":"2025-03-24 12"}},{"type":"Point","coordinates":[-88.31156,44.6678],"properties":{"Station_ID":"WI-SW-5","Station_Nam":"PULASKI 3.7 W, WI","Latitude":"44.66780","Longitude":"-88.31156","Snowdepth":"5.000","Units":"in","Rept_Date":"2025-03-24 13"}},{"type":"Point","coordinates":[-89.4215,45.71388],"properties":{"Station_ID":"WI-ON-6","Station_Nam":"RHINELANDER 5.2 N, WI","Latitude":"45.71388","Longitude":"-89.42150","Snowdepth":"5.000","Units":"in","Rept_Date":"2025-03-24 13"}},{"type":"Point","coordinates":[-89.48293,45.7014],"properties":{"Station_ID":"WI-ON-14","Station_Nam":"RHINELANDER 5.5 NW, WI","Latitude":"45.70140","Longitude":"-89.48293","Snowdepth":"5.000","Units":"in","Rept_Date":"2025-03-24 11"}},{"type":"Point","coordinates":[-72.8326,43.29092],"properties":{"Station_ID":"VT-BN-3","Station_Nam":"LANDGROVE 1.1 NNE, VT","Latitude":"43.29092","Longitude":"-72.83260","Snowdepth":"5.000","Units":"in","Rept_Date":"2025-03-24 11"}},{"type":"Point","coordinates":[-90.4122,46.3678],"properties":{"Station_ID":"UPSW3","Station_Nam":"UPSON,WI","Latitude":"46.36780","Longitude":"-90.41220","Snowdepth":"5.000","Units":"in","Rept_Date":"2025-03-24 23"}},{"type":"Point","coordinates":[-88.6183,44.7631],"properties":{"Station_ID":"SHHW3","Station_Nam":"SHAWANO 2SSW","Latitude":"44.76310","Longitude":"-88.61830","Snowdepth":"5.000","Units":"in","Rept_Date":"2025-03-24 13"}},{"type":"Point","coordinates":[-89.4508,45.5986],"properties":{"Station_ID":"RHIW3","Station_Nam":"RHINELANDER","Latitude":"45.59860","Longitude":"-89.45080","Snowdepth":"5.000","Units":"in","Rept_Date":"2025-03-24 12"}},{"type":"Point","coordinates":[-86.4011,45.7961],"properties":{"Station_ID":"PARM4","Station_Nam":"PARENT BAY","Latitude":"45.79610","Longitude":"-86.40110","Snowdepth":"5.000","Units":"in","Rept_Date":"2025-03-24 20"}},{"type":"Point","coordinates":[-86.2513,45.9512],"properties":{"Station_ID":"MTQM4","Station_Nam":"MANISTIQUE WWTP","Latitude":"45.95120","Longitude":"-86.25130","Snowdepth":"5.000","Units":"in","Rept_Date":"2025-03-24 11"}},{"type":"Point","coordinates":[-89.7322,45.8863],"properties":{"Station_ID":"MQRW3","Station_Nam":"MINOCQUA","Latitude":"45.88630","Longitude":"-89.73220","Snowdepth":"5.000","Units":"in","Rept_Date":"2025-03-24 11"}},{"type":"Point","coordinates":[-91.86887,47.91158],"properties":{"Station_ID":"MN-SL-276","Station_Nam":"ELY 0.9 WNW, MN","Latitude":"47.91158","Longitude":"-91.86887","Snowdepth":"5.000","Units":"in","Rept_Date":"2025-03-24 12"}},{"type":"Point","coordinates":[-84.73582,45.86422],"properties":{"Station_ID":"MI-MC-5","Station_Nam":"ST. IGNACE 0.6 WSW, MI","Latitude":"45.86422","Longitude":"-84.73582","Snowdepth":"5.000","Units":"in","Rept_Date":"2025-03-24 11"}},{"type":"Point","coordinates":[-85.70346,44.64622],"properties":{"Station_ID":"MI-GT-28","Station_Nam":"GRAWN 1.3 SSW, MI","Latitude":"44.64622","Longitude":"-85.70346","Snowdepth":"5.000","Units":"in","Rept_Date":"2025-03-24 11"}},{"type":"Point","coordinates":[-84.46313,44.80464],"properties":{"Station_ID":"MI-CF-9","Station_Nam":"GRAYLING 15.8 NE, MI","Latitude":"44.80464","Longitude":"-84.46313","Snowdepth":"5.000","Units":"in","Rept_Date":"2025-03-24 11"}},{"type":"Point","coordinates":[-92.7522,48.0581],"properties":{"Station_ID":"LEIM5","Station_Nam":"ORR 3E","Latitude":"48.05810","Longitude":"-92.75220","Snowdepth":"5.000","Units":"in","Rept_Date":"2025-03-24 11"}},{"type":"Point","coordinates":[-71.3,44.26666],"properties":{"Station_ID":"KMWN","Station_Nam":"MOUNT WASHINGTON","Latitude":"44.26666","Longitude":"-71.30000","Snowdepth":"5.000","Units":"in","Rept_Date":"2025-03-25 06"}},{"type":"Point","coordinates":[-68.81666,44.8],"properties":{"Station_ID":"KBGR","Station_Nam":"BANGOR INTL AIRPORT","Latitude":"44.80000","Longitude":"-68.81666","Snowdepth":"5.000","Units":"in","Rept_Date":"2025-03-25 06"}},{"type":"Point","coordinates":[-74.2756,43.755],"properties":{"Station_ID":"INDN6","Station_Nam":"INDIAN LAKE","Latitude":"43.75500","Longitude":"-74.27560","Snowdepth":"5.000","Units":"in","Rept_Date":"2025-03-24 12"}},{"type":"Point","coordinates":[-90.1955,46.4625],"properties":{"Station_ID":"HURW3","Station_Nam":"HURLEY","Latitude":"46.46250","Longitude":"-90.19550","Snowdepth":"5.000","Units":"in","Rept_Date":"2025-03-24 13"}},{"type":"Point","coordinates":[-94.2228,47.2467],"properties":{"Station_ID":"FEDM5","Station_Nam":"LEECH LAKE DAM","Latitude":"47.24670","Longitude":"-94.22280","Snowdepth":"5.000","Units":"in","Rept_Date":"2025-03-24 13"}},{"type":"Point","coordinates":[-87.1536,45.1708],"properties":{"Station_ID":"EPMW3","Station_Nam":"EPHRAIM-1 NE WWTP","Latitude":"45.17080","Longitude":"-87.15360","Snowdepth":"5.000","Units":"in","Rept_Date":"2025-03-24 12"}},{"type":"Point","coordinates":[-85.1477,45.1863],"properties":{"Station_ID":"EJNM4","Station_Nam":"EAST JORDAN 2NW","Latitude":"45.18630","Longitude":"-85.14770","Snowdepth":"5.000","Units":"in","Rept_Date":"2025-03-24 20"}},{"type":"Point","coordinates":[-92.6925,47.8506],"properties":{"Station_ID":"COKM5","Station_Nam":"COOK","Latitude":"47.85060","Longitude":"-92.69250","Snowdepth":"5.000","Units":"in","Rept_Date":"2025-03-24 11"}},{"type":"Point","coordinates":[-84.4725,45.6527],"properties":{"Station_ID":"CHBM4","Station_Nam":"CHEBOYGAN","Latitude":"45.65270","Longitude":"-84.47250","Snowdepth":"5.000","Units":"in","Rept_Date":"2025-03-24 12"}},{"type":"Point","coordinates":[-68.8133,44.8044],"properties":{"Station_ID":"BGRM1","Station_Nam":"BANGOR FSS","Latitude":"44.80440","Longitude":"-68.81330","Snowdepth":"5.000","Units":"in","Rept_Date":"2025-03-25 06"}},{"type":"Point","coordinates":[-89.7267,45.8994],"properties":{"Station_ID":"AVTW3","Station_Nam":"ARBOR VITAE-JOHNSON LAKE","Latitude":"45.89940","Longitude":"-89.72670","Snowdepth":"5.000","Units":"in","Rept_Date":"2025-03-24 11"}},{"type":"Point","coordinates":[-89.78677,44.52553],"properties":{"Station_ID":"WI-PT-8","Station_Nam":"RUDOLPH 2.1 NNE, WI","Latitude":"44.52553","Longitude":"-89.78677","Snowdepth":"4.500","Units":"in","Rept_Date":"2025-03-24 10"}},{"type":"Point","coordinates":[-65.5069,46.99343],"properties":{"Station_ID":"CAN-NB-11","Station_Nam":"MIRAMICHI 3.3 S, CAN","Latitude":"46.99343","Longitude":"-65.50690","Snowdepth":"4.500","Units":"in","Rept_Date":"2025-03-24 10"}},{"type":"Point","coordinates":[-68.5431,49.8239],"properties":{"Station_ID":"CQIQ","Station_Nam":"CQIQ","Latitude":"49.82390","Longitude":"-68.54310","Snowdepth":"4.488","Units":"in","Rept_Date":"2025-03-24 12"}},{"type":"Point","coordinates":[-89.0778,44.35038],"properties":{"Station_ID":"68941_MADIS","Station_Nam":"WAUPACA 0.3 SSW, WI","Latitude":"44.35038","Longitude":"-89.07780","Snowdepth":"4.100","Units":"in","Rept_Date":"2025-03-24 12"}},{"type":"Point","coordinates":[-89.4085,46.2231],"properties":{"Station_ID":"WTRM4","Station_Nam":"WATERSMEET 12WSW","Latitude":"46.22310","Longitude":"-89.40850","Snowdepth":"4.000","Units":"in","Rept_Date":"2025-03-24 11"}},{"type":"Point","coordinates":[-89.23812,44.17764],"properties":{"Station_ID":"WI-WH-7","Station_Nam":"WILD ROSE 0.5 E, WI","Latitude":"44.17764","Longitude":"-89.23812","Snowdepth":"4.000","Units":"in","Rept_Date":"2025-03-24 10"}},{"type":"Point","coordinates":[-89.54716,44.44225],"properties":{"Station_ID":"WI-PT-23","Station_Nam":"PLOVER 1.4 S, WI","Latitude":"44.44225","Longitude":"-89.54716","Snowdepth":"4.000","Units":"in","Rept_Date":"2025-03-24 12"}},{"type":"Point","coordinates":[-90.5975,45.96501],"properties":{"Station_ID":"WI-PR-2","Station_Nam":"BUTTERNUT 5.9 SW, WI","Latitude":"45.96501","Longitude":"-90.59750","Snowdepth":"4.000","Units":"in","Rept_Date":"2025-03-24 11"}},{"type":"Point","coordinates":[-90.85854,46.88063],"properties":{"Station_ID":"WI-BY-29","Station_Nam":"BAYFIELD 5.1 NNW, WI","Latitude":"46.88063","Longitude":"-90.85854","Snowdepth":"4.000","Units":"in","Rept_Date":"2025-03-24 12"}},{"type":"Point","coordinates":[-88.09457,44.5518],"properties":{"Station_ID":"WI-BN-48","Station_Nam":"HOWARD 1.7 SSW, WI","Latitude":"44.55180","Longitude":"-88.09457","Snowdepth":"4.000","Units":"in","Rept_Date":"2025-03-24 12"}},{"type":"Point","coordinates":[-72.4435,44.8916],"properties":{"Station_ID":"VT-OL-1","Station_Nam":"WESTFIELD 0.7 WNW, VT","Latitude":"44.89160","Longitude":"-72.44350","Snowdepth":"4.000","Units":"in","Rept_Date":"2025-03-24 11"}},{"type":"Point","coordinates":[-93.0266,47.8663],"properties":{"Station_ID":"TOGM5","Station_Nam":"CELINA 2E","Latitude":"47.86630","Longitude":"-93.02660","Snowdepth":"4.000","Units":"in","Rept_Date":"2025-03-24 13"}},{"type":"Point","coordinates":[-90.0899,44.8175],"properties":{"Station_ID":"STRW3","Station_Nam":"STRATFORD 1NW","Latitude":"44.81750","Longitude":"-90.08990","Snowdepth":"4.000","Units":"in","Rept_Date":"2025-03-24 11"}},{"type":"Point","coordinates":[-88.3117,44.9931],"properties":{"Station_ID":"SNGW3","Station_Nam":"SURING-4 E-HWY. DEPT.","Latitude":"44.99310","Longitude":"-88.31170","Snowdepth":"4.000","Units":"in","Rept_Date":"2025-03-24 12"}},{"type":"Point","coordinates":[-84.9511,45.3612],"properties":{"Station_ID":"PTYM4","Station_Nam":"PETOSKEY NCMC","Latitude":"45.36120","Longitude":"-84.95110","Snowdepth":"4.000","Units":"in","Rept_Date":"2025-03-24 12"}},{"type":"Point","coordinates":[-89.5453,44.4428],"properties":{"Station_ID":"PLOW3","Station_Nam":"PLOVER","Latitude":"44.44280","Longitude":"-89.54530","Snowdepth":"4.000","Units":"in","Rept_Date":"2025-03-24 12"}},{"type":"Point","coordinates":[-72.9,43.2667],"properties":{"Station_ID":"PERV1","Station_Nam":"PERU","Latitude":"43.26670","Longitude":"-72.90000","Snowdepth":"4.000","Units":"in","Rept_Date":"2025-03-24 11"}},{"type":"Point","coordinates":[-74.4236,43.115],"properties":{"Station_ID":"PEKN6","Station_Nam":"PECK LAKE","Latitude":"43.11500","Longitude":"-74.42360","Snowdepth":"4.000","Units":"in","Rept_Date":"2025-03-24 11"}},{"type":"Point","coordinates":[-74.45287,43.4549],"properties":{"Station_ID":"NY-HM-10","Station_Nam":"LAKE PLEASANT 2.3 WSW, NY","Latitude":"43.45490","Longitude":"-74.45287","Snowdepth":"4.000","Units":"in","Rept_Date":"2025-03-24 11"}},{"type":"Point","coordinates":[-71.90238,43.29531],"properties":{"Station_ID":"NH-MR-60","Station_Nam":"SOUTH SUTTON 1.3 SE, NH","Latitude":"43.29531","Longitude":"-71.90238","Snowdepth":"4.000","Units":"in","Rept_Date":"2025-03-24 12"}},{"type":"Point","coordinates":[-71.3415,43.80976],"properties":{"Station_ID":"NH-CR-26","Station_Nam":"CENTER SANDWICH 4.9 E, NH","Latitude":"43.80976","Longitude":"-71.34150","Snowdepth":"4.000","Units":"in","Rept_Date":"2025-03-24 11"}},{"type":"Point","coordinates":[-85.5162,46.3515],"properties":{"Station_ID":"NCFM4","Station_Nam":"NEWBERRY-LUCE COUNTY ROAD COMMISSION","Latitude":"46.35150","Longitude":"-85.51620","Snowdepth":"4.000","Units":"in","Rept_Date":"2025-03-24 12"}},{"type":"Point","coordinates":[-84.1158,44.6466],"properties":{"Station_ID":"MYOM4","Station_Nam":"MIO WWTP","Latitude":"44.64660","Longitude":"-84.11580","Snowdepth":"4.000","Units":"in","Rept_Date":"2025-03-24 12"}},{"type":"Point","coordinates":[-71.3,44.2667],"properties":{"Station_ID":"MWN","Station_Nam":"MOUNT WASHINGTON","Latitude":"44.26670","Longitude":"-71.30000","Snowdepth":"4.000","Units":"in","Rept_Date":"2025-03-24 12"}},{"type":"Point","coordinates":[-93.6936,47.60215],"properties":{"Station_ID":"MN-IT-47","Station_Nam":"MARCELL 0.7 NNW, MN","Latitude":"47.60215","Longitude":"-93.69360","Snowdepth":"4.000","Units":"in","Rept_Date":"2025-03-24 13"}},{"type":"Point","coordinates":[-87.21344,46.33748],"properties":{"Station_ID":"MI-MQ-34","Station_Nam":"SKANDIA 3.0 SSE, MI","Latitude":"46.33748","Longitude":"-87.21344","Snowdepth":"4.000","Units":"in","Rept_Date":"2025-03-24 11"}},{"type":"Point","coordinates":[-85.95783,44.22875],"properties":{"Station_ID":"MI-MN-1","Station_Nam":"WELLSTON 0.8 N, MI","Latitude":"44.22875","Longitude":"-85.95783","Snowdepth":"4.000","Units":"in","Rept_Date":"2025-03-24 14"}},{"type":"Point","coordinates":[-84.9754,45.4345],"properties":{"Station_ID":"MI-EM-5","Station_Nam":"HARBOR SPRINGS 0.7 ENE, MI","Latitude":"45.43450","Longitude":"-84.97540","Snowdepth":"4.000","Units":"in","Rept_Date":"2025-03-24 11"}},{"type":"Point","coordinates":[-88.18,46.5453],"properties":{"Station_ID":"MIEM4","Station_Nam":"MICHIGAMME 3WNW","Latitude":"46.54530","Longitude":"-88.18000","Snowdepth":"4.000","Units":"in","Rept_Date":"2025-03-24 12"}},{"type":"Point","coordinates":[-83.2958,44.6497],"properties":{"Station_ID":"HRSM4","Station_Nam":"HARRISVILLE STATE PARK","Latitude":"44.64970","Longitude":"-83.29580","Snowdepth":"4.000","Units":"in","Rept_Date":"2025-03-24 12"}},{"type":"Point","coordinates":[-97.0833,47.9333],"properties":{"Station_ID":"GRFN8","Station_Nam":"UNIVERSITY","Latitude":"47.93330","Longitude":"-97.08330","Snowdepth":"4.000","Units":"in","Rept_Date":"2025-03-25 05"}},{"type":"Point","coordinates":[-87.3038,46.4533],"properties":{"Station_ID":"GGRM4","Station_Nam":"GREEN GARDEN NO.2","Latitude":"46.45330","Longitude":"-87.30380","Snowdepth":"4.000","Units":"in","Rept_Date":"2025-03-24 12"}},{"type":"Point","coordinates":[-71.3425,43.8099],"properties":{"Station_ID":"ESDN3","Station_Nam":"EAST SANDWICH","Latitude":"43.80990","Longitude":"-71.34250","Snowdepth":"4.000","Units":"in","Rept_Date":"2025-03-24 10"}},{"type":"Point","coordinates":[-85.1322,45.1519],"properties":{"Station_ID":"EJDM4","Station_Nam":"EAST JORDAN","Latitude":"45.15190","Longitude":"-85.13220","Snowdepth":"4.000","Units":"in","Rept_Date":"2025-03-24 12"}},{"type":"Point","coordinates":[-94.6147,47.3847],"properties":{"Station_ID":"CSLM5","Station_Nam":"CASS LAKE,MN","Latitude":"47.38470","Longitude":"-94.61470","Snowdepth":"4.000","Units":"in","Rept_Date":"2025-03-24 13"}},{"type":"Point","coordinates":[-88.7483,44.6227],"properties":{"Station_ID":"CNTW3","Station_Nam":"CLINTONVILLE","Latitude":"44.62270","Longitude":"-88.74830","Snowdepth":"4.000","Units":"in","Rept_Date":"2025-03-24 11"}},{"type":"Point","coordinates":[-85.2672,45.3172],"properties":{"Station_ID":"CHRM4","Station_Nam":"CHARLEVOIX","Latitude":"45.31720","Longitude":"-85.26720","Snowdepth":"4.000","Units":"in","Rept_Date":"2025-03-24 12"}},{"type":"Point","coordinates":[-87.4833,46.0667],"properties":{"Station_ID":"AROM4","Station_Nam":"ARNOLD,MI","Latitude":"46.06670","Longitude":"-87.48330","Snowdepth":"4.000","Units":"in","Rept_Date":"2025-03-24 12"}},{"type":"Point","coordinates":[-84.7188,44.9072],"properties":{"Station_ID":"APXM4","Station_Nam":"GAYLORD 9SSW","Latitude":"44.90720","Longitude":"-84.71880","Snowdepth":"4.000","Units":"in","Rept_Date":"2025-03-25 06"}},{"type":"Point","coordinates":[-68.41194,47.28995],"properties":{"Station_ID":"CAN-NB-134","Station_Nam":"ST. HILAIRE 0.4 W - SAJESS, CAN","Latitude":"47.28995","Longitude":"-68.41194","Snowdepth":"3.900","Units":"in","Rept_Date":"2025-03-24 11"}},{"type":"Point","coordinates":[-89.6247,46.1284],"properties":{"Station_ID":"WI-VL-14","Station_Nam":"BOULDER JUNCTION 1.4 NE, WI","Latitude":"46.12840","Longitude":"-89.62470","Snowdepth":"3.500","Units":"in","Rept_Date":"2025-03-24 12"}},{"type":"Point","coordinates":[-73.02,42.82],"properties":{"Station_ID":"VT-BN-12","Station_Nam":"STAMFORD 5.0 NNE, VT","Latitude":"42.82000","Longitude":"-73.02000","Snowdepth":"3.500","Units":"in","Rept_Date":"2025-03-24 20"}},{"type":"Point","coordinates":[-91.955,47.875],"properties":{"Station_ID":"MN-SL-323","Station_Nam":"ELY 5.2 WSW, MN","Latitude":"47.87500","Longitude":"-91.95500","Snowdepth":"3.500","Units":"in","Rept_Date":"2025-03-24 12"}},{"type":"Point","coordinates":[-94.89088,48.76335],"properties":{"Station_ID":"MN-LW-5","Station_Nam":"WILLIAMS 2.9 E, MN","Latitude":"48.76335","Longitude":"-94.89088","Snowdepth":"3.500","Units":"in","Rept_Date":"2025-03-24 12"}},{"type":"Point","coordinates":[-94.21266,46.91588],"properties":{"Station_ID":"MN-CS-81","Station_Nam":"LONGVILLE 4.9 S, MN","Latitude":"46.91588","Longitude":"-94.21266","Snowdepth":"3.500","Units":"in","Rept_Date":"2025-03-24 12"}},{"type":"Point","coordinates":[-89.28143,46.85396],"properties":{"Station_ID":"MI-ON-4","Station_Nam":"ONTONAGON 1.8 ESE, MI","Latitude":"46.85396","Longitude":"-89.28143","Snowdepth":"3.500","Units":"in","Rept_Date":"2025-03-24 12"}},{"type":"Point","coordinates":[-85.67803,44.68445],"properties":{"Station_ID":"MI-GT-30","Station_Nam":"TRAVERSE CITY 6.1 SW, MI","Latitude":"44.68445","Longitude":"-85.67803","Snowdepth":"3.500","Units":"in","Rept_Date":"2025-03-24 11"}},{"type":"Point","coordinates":[-85.51189,44.7337],"properties":{"Station_ID":"MI-GT-25","Station_Nam":"TRAVERSE CITY 4.7 ESE, MI","Latitude":"44.73370","Longitude":"-85.51189","Snowdepth":"3.500","Units":"in","Rept_Date":"2025-03-24 11"}},{"type":"Point","coordinates":[-85.48426,44.59871],"properties":{"Station_ID":"MI-GT-21","Station_Nam":"KINGSLEY 2.7 ENE, MI","Latitude":"44.59871","Longitude":"-85.48426","Snowdepth":"3.500","Units":"in","Rept_Date":"2025-03-24 12"}},{"type":"Point","coordinates":[-81.97569,45.89842],"properties":{"Station_ID":"CAN-ON-1019","Station_Nam":"SHEGUIANDAH 4.1 W, CAN","Latitude":"45.89842","Longitude":"-81.97569","Snowdepth":"3.500","Units":"in","Rept_Date":"2025-03-24 11"}},{"type":"Point","coordinates":[-90.12315,44.3012],"properties":{"Station_ID":"WI-WD-13","Station_Nam":"BABCOCK 0.6 W, WI","Latitude":"44.30120","Longitude":"-90.12315","Snowdepth":"3.000","Units":"in","Rept_Date":"2025-03-24 12"}},{"type":"Point","coordinates":[-91.1124,45.77802],"properties":{"Station_ID":"WI-SR-19","Station_Nam":"OJIBWA 1.4 S, WI","Latitude":"45.77802","Longitude":"-91.11240","Snowdepth":"3.000","Units":"in","Rept_Date":"2025-03-24 12"}},{"type":"Point","coordinates":[-90.39543,45.67677],"properties":{"Station_ID":"WI-PR-6","Station_Nam":"PHILLIPS 1.3 S, WI","Latitude":"45.67677","Longitude":"-90.39543","Snowdepth":"3.000","Units":"in","Rept_Date":"2025-03-24 11"}},{"type":"Point","coordinates":[-87.9735,44.46772],"properties":{"Station_ID":"WI-BN-14","Station_Nam":"GREEN BAY 3.8 SSE, WI","Latitude":"44.46772","Longitude":"-87.97350","Snowdepth":"3.000","Units":"in","Rept_Date":"2025-03-24 12"}},{"type":"Point","coordinates":[-85.9394,44.2586],"properties":{"Station_ID":"WELM4","Station_Nam":"WELLSTON TIPPY DAM","Latitude":"44.25860","Longitude":"-85.93940","Snowdepth":"3.000","Units":"in","Rept_Date":"2025-03-24 12"}},{"type":"Point","coordinates":[-84.2011,44.2541],"properties":{"Station_ID":"WBRM4","Station_Nam":"WEST BRANCH 3SE","Latitude":"44.25410","Longitude":"-84.20110","Snowdepth":"3.000","Units":"in","Rept_Date":"2025-03-24 12"}},{"type":"Point","coordinates":[-92.2858,47.7553],"properties":{"Station_ID":"TOWM5","Station_Nam":"TOWER,MN","Latitude":"47.75530","Longitude":"-92.28580","Snowdepth":"3.000","Units":"in","Rept_Date":"2025-03-24 12"}},{"type":"Point","coordinates":[-85.512,44.7338],"properties":{"Station_ID":"TCEM4","Station_Nam":"TRAVERSE CITY 4.7ESE","Latitude":"44.73380","Longitude":"-85.51200","Snowdepth":"3.000","Units":"in","Rept_Date":"2025-03-24 11"}},{"type":"Point","coordinates":[-90.2892,44.7539],"properties":{"Station_ID":"SPCW3","Station_Nam":"SPENCER-WWTP","Latitude":"44.75390","Longitude":"-90.28920","Snowdepth":"3.000","Units":"in","Rept_Date":"2025-03-24 12"}},{"type":"Point","coordinates":[-87.3333,44.8667],"properties":{"Station_ID":"SBEW3","Station_Nam":"EXP. FARM","Latitude":"44.86670","Longitude":"-87.33330","Snowdepth":"3.000","Units":"in","Rept_Date":"2025-03-24 12"}},{"type":"Point","coordinates":[-88.1108,44.4978],"properties":{"Station_ID":"RNBW3","Station_Nam":"WFO GREEN BAY","Latitude":"44.49780","Longitude":"-88.11080","Snowdepth":"3.000","Units":"in","Rept_Date":"2025-03-25 05"}},{"type":"Point","coordinates":[-85.5,43.8667],"properties":{"Station_ID":"RDCM4","Station_Nam":"WASTE WATER TREATMENT PLANT","Latitude":"43.86670","Longitude":"-85.50000","Snowdepth":"3.000","Units":"in","Rept_Date":"2025-03-24 11"}},{"type":"Point","coordinates":[-87.7356,45.0281],"properties":{"Station_ID":"PSHW3","Station_Nam":"PESHTIGO","Latitude":"45.02810","Longitude":"-87.73560","Snowdepth":"3.000","Units":"in","Rept_Date":"2025-03-24 12"}},{"type":"Point","coordinates":[-90.3,45.5478],"properties":{"Station_ID":"PRNW3","Station_Nam":"PRENTICE,WI","Latitude":"45.54780","Longitude":"-90.30000","Snowdepth":"3.000","Units":"in","Rept_Date":"2025-03-24 13"}},{"type":"Point","coordinates":[-87.8803,44.8947],"properties":{"Station_ID":"OONW3","Station_Nam":"OCONTO-1 NW-HWY. DEPT.","Latitude":"44.89470","Longitude":"-87.88030","Snowdepth":"3.000","Units":"in","Rept_Date":"2025-03-24 12"}},{"type":"Point","coordinates":[-88.7522,44.3906],"properties":{"Station_ID":"NLDW3","Station_Nam":"NEW LONDON-WWTP","Latitude":"44.39060","Longitude":"-88.75220","Snowdepth":"3.000","Units":"in","Rept_Date":"2025-03-24 12"}},{"type":"Point","coordinates":[-87.6236,45.0983],"properties":{"Station_ID":"MRIW3","Station_Nam":"MARINETTE","Latitude":"45.09830","Longitude":"-87.62360","Snowdepth":"3.000","Units":"in","Rept_Date":"2025-03-24 12"}},{"type":"Point","coordinates":[-93.87514,47.33564],"properties":{"Station_ID":"MN-IT-10","Station_Nam":"DEER RIVER 3.7 W, MN","Latitude":"47.33564","Longitude":"-93.87514","Snowdepth":"3.000","Units":"in","Rept_Date":"2025-03-24 13"}},{"type":"Point","coordinates":[-84.1028,44.7476],"properties":{"Station_ID":"MI-OD-4","Station_Nam":"MIO 6.2 NNE, MI","Latitude":"44.74760","Longitude":"-84.10280","Snowdepth":"3.000","Units":"in","Rept_Date":"2025-03-24 11"}},{"type":"Point","coordinates":[-87.433,46.56288],"properties":{"Station_ID":"MI-MQ-33","Station_Nam":"MARQUETTE 2.0 WNW, MI","Latitude":"46.56288","Longitude":"-87.43300","Snowdepth":"3.000","Units":"in","Rept_Date":"2025-03-24 12"}},{"type":"Point","coordinates":[-87.7567,46.4055],"properties":{"Station_ID":"MI-MQ-19","Station_Nam":"ISHPEMING 7.2 SW, MI","Latitude":"46.40550","Longitude":"-87.75670","Snowdepth":"3.000","Units":"in","Rept_Date":"2025-03-24 10"}},{"type":"Point","coordinates":[-90.0722,46.1683],"properties":{"Station_ID":"MERW3","Station_Nam":"MERCER,WI","Latitude":"46.16830","Longitude":"-90.07220","Snowdepth":"3.000","Units":"in","Rept_Date":"2025-03-24 13"}},{"type":"Point","coordinates":[-84.0232,44.4199],"properties":{"Station_ID":"LUPM4","Station_Nam":"LUPTON 1S","Latitude":"44.41990","Longitude":"-84.02320","Snowdepth":"3.000","Units":"in","Rept_Date":"2025-03-24 12"}},{"type":"Point","coordinates":[-83.7022,44.5358],"properties":{"Station_ID":"GLNM4","Station_Nam":"GLENNIE 2SE","Latitude":"44.53580","Longitude":"-83.70220","Snowdepth":"3.000","Units":"in","Rept_Date":"2025-03-24 11"}},{"type":"Point","coordinates":[-86.21,44.648],"properties":{"Station_ID":"FRKM4","Station_Nam":"FRANKFORT 2NE","Latitude":"44.64800","Longitude":"-86.21000","Snowdepth":"3.000","Units":"in","Rept_Date":"2025-03-24 22"}},{"type":"Point","coordinates":[-87.3969,44.6978],"properties":{"Station_ID":"FORW3","Station_Nam":"FORESTVILLE-4E","Latitude":"44.69780","Longitude":"-87.39690","Snowdepth":"3.000","Units":"in","Rept_Date":"2025-03-24 12"}},{"type":"Point","coordinates":[-85.3653,44.5848],"properties":{"Station_ID":"FLAM4","Station_Nam":"FIFE LAKE 2WNW","Latitude":"44.58480","Longitude":"-85.36530","Snowdepth":"3.000","Units":"in","Rept_Date":"2025-03-24 11"}},{"type":"Point","coordinates":[-85.5696,46.128],"properties":{"Station_ID":"ENGM4","Station_Nam":"ENGADINE MDOT","Latitude":"46.12800","Longitude":"-85.56960","Snowdepth":"3.000","Units":"in","Rept_Date":"2025-03-24 11"}},{"type":"Point","coordinates":[-87.8119,44.3513],"properties":{"Station_ID":"DENW3","Station_Nam":"DENMARK WWTP","Latitude":"44.35130","Longitude":"-87.81190","Snowdepth":"3.000","Units":"in","Rept_Date":"2025-03-24 13"}},{"type":"Point","coordinates":[-86.9167,46.3333],"properties":{"Station_ID":"CEFM4","Station_Nam":"EXPERIMENT FARM #2","Latitude":"46.33330","Longitude":"-86.91670","Snowdepth":"3.000","Units":"in","Rept_Date":"2025-03-24 12"}},{"type":"Point","coordinates":[-83.6841,44.2933],"properties":{"Station_ID":"MI-IC-6","Station_Nam":"NATIONAL CITY 4.5 NNE, MI","Latitude":"44.29330","Longitude":"-83.68410","Snowdepth":"2.800","Units":"in","Rept_Date":"2025-03-24 13"}},{"type":"Point","coordinates":[-90.33349,45.14421],"properties":{"Station_ID":"WI-TY-3","Station_Nam":"MEDFORD 0.8 ENE, WI","Latitude":"45.14421","Longitude":"-90.33349","Snowdepth":"2.500","Units":"in","Rept_Date":"2025-03-24 12"}},{"type":"Point","coordinates":[-90.49886,46.01638],"properties":{"Station_ID":"WI-AS-31","Station_Nam":"BUTTERNUT 0.2 NNW, WI","Latitude":"46.01638","Longitude":"-90.49886","Snowdepth":"2.500","Units":"in","Rept_Date":"2025-03-24 11"}},{"type":"Point","coordinates":[-83.4992,44.28322],"properties":{"Station_ID":"MI-IC-3","Station_Nam":"EAST TAWAS 0.8 WSW, MI","Latitude":"44.28322","Longitude":"-83.49920","Snowdepth":"2.500","Units":"in","Rept_Date":"2025-03-24 12"}},{"type":"Point","coordinates":[-72.6383,48.1392],"properties":{"Station_ID":"CQLP","Station_Nam":"CQLP","Latitude":"48.13920","Longitude":"-72.63830","Snowdepth":"2.480","Units":"in","Rept_Date":"2025-03-24 12"}},{"type":"Point","coordinates":[-91.28339,46.50198],"properties":{"Station_ID":"WI-BY-22","Station_Nam":"MASON 11.5 WNW, WI","Latitude":"46.50198","Longitude":"-91.28339","Snowdepth":"2.400","Units":"in","Rept_Date":"2025-03-24 13"}},{"type":"Point","coordinates":[-77.9385,39.69766],"properties":{"Station_ID":"015MD_MADIS","Station_Nam":"CLEAR SPRING 3 N","Latitude":"39.69766","Longitude":"-77.93850","Snowdepth":"2.360","Units":"in","Rept_Date":"2025-03-25 06"}},{"type":"Point","coordinates":[-73.4594,48.4889],"properties":{"Station_ID":"CQWG","Station_Nam":"CQWG","Latitude":"48.48890","Longitude":"-73.45940","Snowdepth":"2.283","Units":"in","Rept_Date":"2025-03-24 12"}},{"type":"Point","coordinates":[-93.69765,47.34204],"properties":{"Station_ID":"MN-IT-19","Station_Nam":"COHASSET 7.6 NNW, MN","Latitude":"47.34204","Longitude":"-93.69765","Snowdepth":"2.100","Units":"in","Rept_Date":"2025-03-24 12"}},{"type":"Point","coordinates":[-95.407,48.896],"properties":{"Station_ID":"WRUM5","Station_Nam":"WARROAD 4W","Latitude":"48.89600","Longitude":"-95.40700","Snowdepth":"2.000","Units":"in","Rept_Date":"2025-03-25 03"}},{"type":"Point","coordinates":[-89.782,44.33823],"properties":{"Station_ID":"WI-WD-2","Station_Nam":"WISCONSIN RAPIDS 4.6 SSE, WI","Latitude":"44.33823","Longitude":"-89.78200","Snowdepth":"2.000","Units":"in","Rept_Date":"2025-03-24 14"}},{"type":"Point","coordinates":[-91.1468,45.4818],"properties":{"Station_ID":"WI-RS-1","Station_Nam":"LADYSMITH 2.8 WNW, WI","Latitude":"45.48180","Longitude":"-91.14680","Snowdepth":"2.000","Units":"in","Rept_Date":"2025-03-24 12"}},{"type":"Point","coordinates":[-87.5785,44.17294],"properties":{"Station_ID":"WI-MC-22","Station_Nam":"TWO RIVERS 1.2 N, WI","Latitude":"44.17294","Longitude":"-87.57850","Snowdepth":"2.000","Units":"in","Rept_Date":"2025-03-24 12"}},{"type":"Point","coordinates":[-90.42463,44.87209],"properties":{"Station_ID":"WI-CK-3","Station_Nam":"COLBY 5.9 WSW, WI","Latitude":"44.87209","Longitude":"-90.42463","Snowdepth":"2.000","Units":"in","Rept_Date":"2025-03-25 00"}},{"type":"Point","coordinates":[-88.5839,44.4389],"properties":{"Station_ID":"SHIW3","Station_Nam":"SHIOCTON","Latitude":"44.43890","Longitude":"-88.58390","Snowdepth":"2.000","Units":"in","Rept_Date":"2025-03-24 12"}},{"type":"Point","coordinates":[-69.7167,45.5833],"properties":{"Station_ID":"RKWM1","Station_Nam":"MOOSEHEAD LAKE","Latitude":"45.58330","Longitude":"-69.71670","Snowdepth":"2.000","Units":"in","Rept_Date":"2025-03-24 11"}},{"type":"Point","coordinates":[-90.5517,44.9461],"properties":{"Station_ID":"OWEW3","Station_Nam":"OWEN 1E","Latitude":"44.94610","Longitude":"-90.55170","Snowdepth":"2.000","Units":"in","Rept_Date":"2025-03-24 11"}},{"type":"Point","coordinates":[-71.9767,43.4189],"properties":{"Station_ID":"NLNN3","Station_Nam":"NEW LONDON","Latitude":"43.41890","Longitude":"-71.97670","Snowdepth":"2.000","Units":"in","Rept_Date":"2025-03-24 11"}},{"type":"Point","coordinates":[-87.9636,44.0042],"properties":{"Station_ID":"NAZW3","Station_Nam":"ST. NAZIANZ-2 W","Latitude":"44.00420","Longitude":"-87.96360","Snowdepth":"2.000","Units":"in","Rept_Date":"2025-03-24 12"}},{"type":"Point","coordinates":[-87.3795,46.5458],"properties":{"Station_ID":"MRQM4","Station_Nam":"MARQUETTE WFP","Latitude":"46.54580","Longitude":"-87.37950","Snowdepth":"2.000","Units":"in","Rept_Date":"2025-03-24 12"}},{"type":"Point","coordinates":[-92.93065,47.4266],"properties":{"Station_ID":"MN-SL-339","Station_Nam":"HIBBING 2.1 NNE, MN","Latitude":"47.42660","Longitude":"-92.93065","Snowdepth":"2.000","Units":"in","Rept_Date":"2025-03-24 12"}},{"type":"Point","coordinates":[-92.6313,47.4615],"properties":{"Station_ID":"MN-SL-108","Station_Nam":"IRON JUNCTION 3.4 NNW, MN","Latitude":"47.46150","Longitude":"-92.63130","Snowdepth":"2.000","Units":"in","Rept_Date":"2025-03-24 08"}},{"type":"Point","coordinates":[-94.72121,47.52043],"properties":{"Station_ID":"MN-BM-15","Station_Nam":"BEMIDJI 7.8 ENE, MN","Latitude":"47.52043","Longitude":"-94.72121","Snowdepth":"2.000","Units":"in","Rept_Date":"2025-03-24 12"}},{"type":"Point","coordinates":[-84.5847,44.11865],"properties":{"Station_ID":"MI-GL-4","Station_Nam":"GLADWIN 10.4 NNW, MI","Latitude":"44.11865","Longitude":"-84.58470","Snowdepth":"2.000","Units":"in","Rept_Date":"2025-03-24 13"}},{"type":"Point","coordinates":[-87.6117,45.111],"properties":{"Station_ID":"MENM4","Station_Nam":"MENOMINEE NO.2","Latitude":"45.11100","Longitude":"-87.61170","Snowdepth":"2.000","Units":"in","Rept_Date":"2025-03-24 13"}},{"type":"Point","coordinates":[-70.0272,44.66582],"properties":{"Station_ID":"ME-FR-4","Station_Nam":"NEW SHARON 2.0 NW, ME","Latitude":"44.66582","Longitude":"-70.02720","Snowdepth":"2.000","Units":"in","Rept_Date":"2025-03-24 11"}},{"type":"Point","coordinates":[-68.1439,47.0108],"properties":{"Station_ID":"ME-AR-18","Station_Nam":"NEW SWEDEN 4.9 NNW, ME","Latitude":"47.01080","Longitude":"-68.14390","Snowdepth":"2.000","Units":"in","Rept_Date":"2025-03-24 11"}},{"type":"Point","coordinates":[-85.205,44.3088],"properties":{"Station_ID":"LKCM4","Station_Nam":"LAKE CITY EXP FARM","Latitude":"44.30880","Longitude":"-85.20500","Snowdepth":"2.000","Units":"in","Rept_Date":"2025-03-24 12"}},{"type":"Point","coordinates":[-96.6218,48.7241],"properties":{"Station_ID":"LBRM5","Station_Nam":"LAKE BRONSON DAM","Latitude":"48.72410","Longitude":"-96.62180","Snowdepth":"2.000","Units":"in","Rept_Date":"2025-03-24 13"}},{"type":"Point","coordinates":[-84.6773,44.3447],"properties":{"Station_ID":"HTLM4","Station_Nam":"SNOW PAID OBSERVER FOR KHTL","Latitude":"44.34470","Longitude":"-84.67730","Snowdepth":"2.000","Units":"in","Rept_Date":"2025-03-24 18"}},{"type":"Point","coordinates":[-91.127,45.2237],"properties":{"Station_ID":"HOLW3","Station_Nam":"HOLCOMBE","Latitude":"45.22370","Longitude":"-91.12700","Snowdepth":"2.000","Units":"in","Rept_Date":"2025-03-24 11"}},{"type":"Point","coordinates":[-83.7219,44.4625],"properties":{"Station_ID":"HALM4","Station_Nam":"LOUD DAM","Latitude":"44.46250","Longitude":"-83.72190","Snowdepth":"2.000","Units":"in","Rept_Date":"2025-03-24 13"}},{"type":"Point","coordinates":[-84.4908,43.9758],"properties":{"Station_ID":"GLAM4","Station_Nam":"GLADWIN","Latitude":"43.97580","Longitude":"-84.49080","Snowdepth":"2.000","Units":"in","Rept_Date":"2025-03-24 11"}},{"type":"Point","coordinates":[-88.0136,45.2353],"properties":{"Station_ID":"CVZW3","Station_Nam":"WISCONSIN PUBLIC SERVICE","Latitude":"45.23530","Longitude":"-88.01360","Snowdepth":"2.000","Units":"in","Rept_Date":"2025-03-24 11"}},{"type":"Point","coordinates":[-90.9808,46.1694],"properties":{"Station_ID":"CMKW3","Station_Nam":"CLAM LAKE 4W","Latitude":"46.16940","Longitude":"-90.98080","Snowdepth":"2.000","Units":"in","Rept_Date":"2025-03-24 12"}},{"type":"Point","coordinates":[-97.04752,49.93264],"properties":{"Station_ID":"CAN-MB-56","Station_Nam":"WINNIPEG 7.6 ENE, CAN","Latitude":"49.93264","Longitude":"-97.04752","Snowdepth":"2.000","Units":"in","Rept_Date":"2025-03-24 13"}},{"type":"Point","coordinates":[-69.8119,45.6602],"properties":{"Station_ID":"BRAM1","Station_Nam":"BRASSUA DAM","Latitude":"45.66020","Longitude":"-69.81190","Snowdepth":"2.000","Units":"in","Rept_Date":"2025-03-24 11"}},{"type":"Point","coordinates":[-90.959,45.5555],"properties":{"Station_ID":"BGFW3","Station_Nam":"BIG FALLS HYDRO","Latitude":"45.55550","Longitude":"-90.95900","Snowdepth":"2.000","Units":"in","Rept_Date":"2025-03-24 12"}},{"type":"Point","coordinates":[-83.5597,45.0311],"properties":{"Station_ID":"ALPM4","Station_Nam":"SNOW PAID OBSERVER FOR KAPN","Latitude":"45.03110","Longitude":"-83.55970","Snowdepth":"2.000","Units":"in","Rept_Date":"2025-03-24 18"}},{"type":"Point","coordinates":[-74.091,44.40915],"properties":{"Station_ID":"58111_MADIS","Station_Nam":"BLOOMINGDALE 0.2 NW, NY","Latitude":"44.40915","Longitude":"-74.09100","Snowdepth":"2.000","Units":"in","Rept_Date":"2025-03-24 11"}},{"type":"Point","coordinates":[-92.0251,46.89158],"properties":{"Station_ID":"56581_MADIS","Station_Nam":"DULUTH 8.4 NNE, MN","Latitude":"46.89158","Longitude":"-92.02510","Snowdepth":"2.000","Units":"in","Rept_Date":"2025-03-24 12"}},{"type":"Point","coordinates":[-91.8659,46.55521],"properties":{"Station_ID":"WI-DG-31","Station_Nam":"POPLAR 4.1 WSW, WI","Latitude":"46.55521","Longitude":"-91.86590","Snowdepth":"1.800","Units":"in","Rept_Date":"2025-03-24 12"}},{"type":"Point","coordinates":[-76.6234,39.39474],"properties":{"Station_ID":"013MD_MADIS","Station_Nam":"TOWSON 1 WSW","Latitude":"39.39474","Longitude":"-76.62340","Snowdepth":"1.690","Units":"in","Rept_Date":"2025-03-25 06"}},{"type":"Point","coordinates":[-78.07606,44.39679],"properties":{"Station_ID":"CAN-ON-891","Station_Nam":"WARSAW 6.0 SE, CAN","Latitude":"44.39679","Longitude":"-78.07606","Snowdepth":"1.600","Units":"in","Rept_Date":"2025-03-24 11"}},{"type":"Point","coordinates":[-67.32532,46.98305],"properties":{"Station_ID":"CAN-NB-105","Station_Nam":"SISSON BROOK 3.8 E, CAN","Latitude":"46.98305","Longitude":"-67.32532","Snowdepth":"1.600","Units":"in","Rept_Date":"2025-03-24 11"}},{"type":"Point","coordinates":[-75.6147,48.8722],"properties":{"Station_ID":"CQYR","Station_Nam":"CQYR","Latitude":"48.87220","Longitude":"-75.61470","Snowdepth":"1.535","Units":"in","Rept_Date":"2025-03-24 12"}},{"type":"Point","coordinates":[-89.93526,44.26305],"properties":{"Station_ID":"WI-WD-7","Station_Nam":"NEKOOSA 3.7 SSW, WI","Latitude":"44.26305","Longitude":"-89.93526","Snowdepth":"1.500","Units":"in","Rept_Date":"2025-03-24 12"}},{"type":"Point","coordinates":[-88.3437,44.2452],"properties":{"Station_ID":"WI-OG-36","Station_Nam":"APPLETON 3.0 ESE, WI","Latitude":"44.24520","Longitude":"-88.34370","Snowdepth":"1.500","Units":"in","Rept_Date":"2025-03-24 12"}},{"type":"Point","coordinates":[-89.52332,43.97269],"properties":{"Station_ID":"WI-MQ-7","Station_Nam":"WESTFIELD 6.3 NNW, WI","Latitude":"43.97269","Longitude":"-89.52332","Snowdepth":"1.500","Units":"in","Rept_Date":"2025-03-24 13"}},{"type":"Point","coordinates":[-91.7462,46.5839],"properties":{"Station_ID":"WI-DG-16","Station_Nam":"POPLAR 2.0 E, WI","Latitude":"46.58390","Longitude":"-91.74620","Snowdepth":"1.500","Units":"in","Rept_Date":"2025-03-24 12"}},{"type":"Point","coordinates":[-90.98092,46.16937],"properties":{"Station_ID":"WI-BY-2","Station_Nam":"CLAM LAKE 4 W, WI","Latitude":"46.16937","Longitude":"-90.98092","Snowdepth":"1.500","Units":"in","Rept_Date":"2025-03-24 12"}},{"type":"Point","coordinates":[-72.28,44.631],"properties":{"Station_ID":"VT-OL-12","Station_Nam":"GREENSBORO 3.9 NNE, VT","Latitude":"44.63100","Longitude":"-72.28000","Snowdepth":"1.500","Units":"in","Rept_Date":"2025-03-24 11"}},{"type":"Point","coordinates":[-73.81069,43.51784],"properties":{"Station_ID":"NY-WR-10","Station_Nam":"WARRENSBURG 2.1 WNW, NY","Latitude":"43.51784","Longitude":"-73.81069","Snowdepth":"1.500","Units":"in","Rept_Date":"2025-03-24 12"}},{"type":"Point","coordinates":[-95.0522,46.9286],"properties":{"Station_ID":"MN-HB-40","Station_Nam":"PARK RAPIDS 1.0 NNE, MN","Latitude":"46.92860","Longitude":"-95.05220","Snowdepth":"1.500","Units":"in","Rept_Date":"2025-03-24 12"}},{"type":"Point","coordinates":[-84.25089,44.24814],"properties":{"Station_ID":"MI-OG-6","Station_Nam":"WEST BRANCH 2.1 SSW, MI","Latitude":"44.24814","Longitude":"-84.25089","Snowdepth":"1.500","Units":"in","Rept_Date":"2025-03-24 11"}},{"type":"Point","coordinates":[-85.6419,43.6063],"properties":{"Station_ID":"MI-NW-8","Station_Nam":"WHITE CLOUD 7.5 ENE, MI","Latitude":"43.60630","Longitude":"-85.64190","Snowdepth":"1.500","Units":"in","Rept_Date":"2025-03-24 11"}},{"type":"Point","coordinates":[-86.42278,43.97882],"properties":{"Station_ID":"MI-MS-8","Station_Nam":"LUDINGTON 1.8 NE, MI","Latitude":"43.97882","Longitude":"-86.42278","Snowdepth":"1.500","Units":"in","Rept_Date":"2025-03-24 11"}},{"type":"Point","coordinates":[-80.93025,44.58092],"properties":{"Station_ID":"CAN-ON-451","Station_Nam":"OWEN SOUND 1.2 N - GSCA, CAN","Latitude":"44.58092","Longitude":"-80.93025","Snowdepth":"1.400","Units":"in","Rept_Date":"2025-03-24 12"}},{"type":"Point","coordinates":[-91.405,46.13255],"properties":{"Station_ID":"WI-SR-1","Station_Nam":"HAYWARD 9.2 NNE, WI","Latitude":"46.13255","Longitude":"-91.40500","Snowdepth":"1.300","Units":"in","Rept_Date":"2025-03-24 11"}},{"type":"Point","coordinates":[-89.71167,44.28201],"properties":{"Station_ID":"WI-PT-25","Station_Nam":"WISCONSIN RAPIDS 9.8 SE, WI","Latitude":"44.28201","Longitude":"-89.71167","Snowdepth":"1.300","Units":"in","Rept_Date":"2025-03-24 12"}},{"type":"Point","coordinates":[-90.82435,44.81428],"properties":{"Station_ID":"WI-CK-10","Station_Nam":"THORP 10.1 S, WI","Latitude":"44.81428","Longitude":"-90.82435","Snowdepth":"1.300","Units":"in","Rept_Date":"2025-03-24 11"}},{"type":"Point","coordinates":[-95.26951,47.08653],"properties":{"Station_ID":"MN-BK-16","Station_Nam":"PARK RAPIDS 15.3 NW, MN","Latitude":"47.08653","Longitude":"-95.26951","Snowdepth":"1.300","Units":"in","Rept_Date":"2025-03-24 13"}},{"type":"Point","coordinates":[-79.48559,43.97005],"properties":{"Station_ID":"CAN-ON-552","Station_Nam":"AURORA 3.3 SSW, CAN","Latitude":"43.97005","Longitude":"-79.48559","Snowdepth":"1.300","Units":"in","Rept_Date":"2025-03-24 11"}},{"type":"Point","coordinates":[-91.9325,46.5142],"properties":{"Station_ID":"57341_MADIS","Station_Nam":"SOUTH RANGE 7.0 SSE, WI","Latitude":"46.51420","Longitude":"-91.93250","Snowdepth":"1.300","Units":"in","Rept_Date":"2025-03-24 12"}},{"type":"Point","coordinates":[-76.8431,38.59709],"properties":{"Station_ID":"010MD_MADIS","Station_Nam":"WALDORF 4 ESE","Latitude":"38.59709","Longitude":"-76.84310","Snowdepth":"1.300","Units":"in","Rept_Date":"2025-03-25 06"}},{"type":"Point","coordinates":[-89.19808,44.18572],"properties":{"Station_ID":"WI-WH-16","Station_Nam":"WILD ROSE 2.6 ENE, WI","Latitude":"44.18572","Longitude":"-89.19808","Snowdepth":"1.200","Units":"in","Rept_Date":"2025-03-24 12"}},{"type":"Point","coordinates":[-63.7413,46.42975],"properties":{"Station_ID":"CAN-PE-72","Station_Nam":"SUMMERSIDE 5.5 NE, CAN","Latitude":"46.42975","Longitude":"-63.74130","Snowdepth":"1.200","Units":"in","Rept_Date":"2025-03-24 11"}},{"type":"Point","coordinates":[-64.0188,46.693],"properties":{"Station_ID":"CAN-PE-54","Station_Nam":"FOXLEY RIVER 0.6 W - MCPEI, CAN","Latitude":"46.69300","Longitude":"-64.01880","Snowdepth":"1.200","Units":"in","Rept_Date":"2025-03-24 11"}},{"type":"Point","coordinates":[-78.77438,43.91886],"properties":{"Station_ID":"CAN-ON-1023","Station_Nam":"COURTICE 1.7 NE, CAN","Latitude":"43.91886","Longitude":"-78.77438","Snowdepth":"1.200","Units":"in","Rept_Date":"2025-03-24 11"}},{"type":"Point","coordinates":[-65.05609,46.71424],"properties":{"Station_ID":"CAN-NB-96","Station_Nam":"SAINT-IGNACE 2.6 NE, CAN","Latitude":"46.71424","Longitude":"-65.05609","Snowdepth":"1.200","Units":"in","Rept_Date":"2025-03-24 10"}},{"type":"Point","coordinates":[-65.46217,45.71691],"properties":{"Station_ID":"CAN-NB-28","Station_Nam":"SUSSEX CORNER 1.4 NE - KWRC, CAN","Latitude":"45.71691","Longitude":"-65.46217","Snowdepth":"1.200","Units":"in","Rept_Date":"2025-03-24 09"}},{"type":"Point","coordinates":[-84.21729,43.64412],"properties":{"Station_ID":"MI-MD-10","Station_Nam":"MIDLAND 1.5 NNE, MI","Latitude":"43.64412","Longitude":"-84.21729","Snowdepth":"1.100","Units":"in","Rept_Date":"2025-03-24 10"}},{"type":"Point","coordinates":[-75.6992,38.17779],"properties":{"Station_ID":"011MD_MADIS","Station_Nam":"PRINCESS ANNE 2 S","Latitude":"38.17779","Longitude":"-75.69920","Snowdepth":"1.020","Units":"in","Rept_Date":"2025-03-25 06"}},{"type":"Point","coordinates":[-88.4513,44.1737],"properties":{"Station_ID":"WI-WN-9","Station_Nam":"NEENAH 1.1 ENE, WI","Latitude":"44.17370","Longitude":"-88.45130","Snowdepth":"1.000","Units":"in","Rept_Date":"2025-03-24 12"}},{"type":"Point","coordinates":[-87.78791,43.77983],"properties":{"Station_ID":"WI-SB-30","Station_Nam":"SHEBOYGAN 3.7 NW, WI","Latitude":"43.77983","Longitude":"-87.78791","Snowdepth":"1.000","Units":"in","Rept_Date":"2025-03-24 13"}},{"type":"Point","coordinates":[-87.7349,43.7356],"properties":{"Station_ID":"WI-SB-19","Station_Nam":"SHEBOYGAN 0.7 SSW, WI","Latitude":"43.73560","Longitude":"-87.73490","Snowdepth":"1.000","Units":"in","Rept_Date":"2025-03-24 13"}},{"type":"Point","coordinates":[-87.91054,43.81185],"properties":{"Station_ID":"WI-SB-18","Station_Nam":"PLYMOUTH 5.4 NE, WI","Latitude":"43.81185","Longitude":"-87.91054","Snowdepth":"1.000","Units":"in","Rept_Date":"2025-03-24 12"}},{"type":"Point","coordinates":[-89.8305,44.3994],"properties":{"Station_ID":"WIRW3","Station_Nam":"WIS RAPIDS GRAND AV B","Latitude":"44.39940","Longitude":"-89.83050","Snowdepth":"1.000","Units":"in","Rept_Date":"2025-03-24 12"}},{"type":"Point","coordinates":[-87.55086,44.16221],"properties":{"Station_ID":"WI-MC-29","Station_Nam":"TWO RIVERS 1.6 ENE, WI","Latitude":"44.16221","Longitude":"-87.55086","Snowdepth":"1.000","Units":"in","Rept_Date":"2025-03-24 11"}},{"type":"Point","coordinates":[-87.64477,44.23228],"properties":{"Station_ID":"WI-MC-16","Station_Nam":"MISHICOT 0.1 NNW, WI","Latitude":"44.23228","Longitude":"-87.64477","Snowdepth":"1.000","Units":"in","Rept_Date":"2025-03-24 13"}},{"type":"Point","coordinates":[-87.94202,44.03991],"properties":{"Station_ID":"WI-MC-15","Station_Nam":"VALDERS 3.3 WSW, WI","Latitude":"44.03991","Longitude":"-87.94202","Snowdepth":"1.000","Units":"in","Rept_Date":"2025-03-24 12"}},{"type":"Point","coordinates":[-91.49898,44.76858],"properties":{"Station_ID":"WI-EC-23","Station_Nam":"EAU CLAIRE 3.7 S, WI","Latitude":"44.76858","Longitude":"-91.49898","Snowdepth":"1.000","Units":"in","Rept_Date":"2025-03-24 13"}},{"type":"Point","coordinates":[-91.84405,46.35217],"properties":{"Station_ID":"WI-DG-20","Station_Nam":"SOLON SPRINGS 1.2 W, WI","Latitude":"46.35217","Longitude":"-91.84405","Snowdepth":"1.000","Units":"in","Rept_Date":"2025-03-24 12"}},{"type":"Point","coordinates":[-91.3673,44.9292],"properties":{"Station_ID":"WI-CH-7","Station_Nam":"CHIPPEWA FALLS 1.2 E, WI","Latitude":"44.92920","Longitude":"-91.36730","Snowdepth":"1.000","Units":"in","Rept_Date":"2025-03-24 12"}},{"type":"Point","coordinates":[-91.38623,44.92452],"properties":{"Station_ID":"WI-CH-10","Station_Nam":"CHIPPEWA FALLS 0.6 SSE, WI","Latitude":"44.92452","Longitude":"-91.38623","Snowdepth":"1.000","Units":"in","Rept_Date":"2025-03-24 12"}},{"type":"Point","coordinates":[-90.96005,46.64576],"properties":{"Station_ID":"WI-BY-52","Station_Nam":"WASHBURN 3.7 WSW, WI","Latitude":"46.64576","Longitude":"-90.96005","Snowdepth":"1.000","Units":"in","Rept_Date":"2025-03-24 12"}},{"type":"Point","coordinates":[-91.35727,46.49439],"properties":{"Station_ID":"WI-BY-51","Station_Nam":"IRON RIVER 5.4 SSE, WI","Latitude":"46.49439","Longitude":"-91.35727","Snowdepth":"1.000","Units":"in","Rept_Date":"2025-03-24 12"}},{"type":"Point","coordinates":[-91.07856,46.59742],"properties":{"Station_ID":"WI-BY-14","Station_Nam":"ASHLAND 9.8 W, WI","Latitude":"46.59742","Longitude":"-91.07856","Snowdepth":"1.000","Units":"in","Rept_Date":"2025-03-24 11"}},{"type":"Point","coordinates":[-91.6648,47.0176],"properties":{"Station_ID":"TOHM5","Station_Nam":"TWO HARBORS WWTP","Latitude":"47.01760","Longitude":"-91.66480","Snowdepth":"1.000","Units":"in","Rept_Date":"2025-03-24 12"}},{"type":"Point","coordinates":[-88.3495,43.8378],"properties":{"Station_ID":"TAHW3","Station_Nam":"TAYCHEEDAH","Latitude":"43.83780","Longitude":"-88.34950","Snowdepth":"1.000","Units":"in","Rept_Date":"2025-03-24 12"}},{"type":"Point","coordinates":[-83.8977,44.0126],"properties":{"Station_ID":"STAM4","Station_Nam":"STANDISH 4NE","Latitude":"44.01260","Longitude":"-83.89770","Snowdepth":"1.000","Units":"in","Rept_Date":"2025-03-24 12"}},{"type":"Point","coordinates":[-93.3667,46.8167],"properties":{"Station_ID":"SDYM5","Station_Nam":"DAM","Latitude":"46.81670","Longitude":"-93.36670","Snowdepth":"1.000","Units":"in","Rept_Date":"2025-03-24 13"}},{"type":"Point","coordinates":[-96.6561,46.7769],"properties":{"Station_ID":"SBNM5","Station_Nam":"SABIN","Latitude":"46.77690","Longitude":"-96.65610","Snowdepth":"1.000","Units":"in","Rept_Date":"2025-03-24 12"}},{"type":"Point","coordinates":[-97.2386,48.9742],"properties":{"Station_ID":"PBAN8","Station_Nam":"SITE 1-3MI.N","Latitude":"48.97420","Longitude":"-97.23860","Snowdepth":"1.000","Units":"in","Rept_Date":"2025-03-24 11"}},{"type":"Point","coordinates":[-84.5281,43.6114],"properties":{"Station_ID":"OILM4","Station_Nam":"OIL CITY 3E","Latitude":"43.61140","Longitude":"-84.52810","Snowdepth":"1.000","Units":"in","Rept_Date":"2025-03-24 11"}},{"type":"Point","coordinates":[-73.71838,43.68223],"properties":{"Station_ID":"NY-WR-21","Station_Nam":"BRANT LAKE 1.7 ENE, NY","Latitude":"43.68223","Longitude":"-73.71838","Snowdepth":"1.000","Units":"in","Rept_Date":"2025-03-24 11"}},{"type":"Point","coordinates":[-73.8786,43.12684],"properties":{"Station_ID":"NY-SR-22","Station_Nam":"GREENFIELD CENTER 1.6 W, NY","Latitude":"43.12684","Longitude":"-73.87860","Snowdepth":"1.000","Units":"in","Rept_Date":"2025-03-24 12"}},{"type":"Point","coordinates":[-73.8978,43.8335],"properties":{"Station_ID":"NY-ES-6","Station_Nam":"OLMSTEDVILLE 4.6 NNE, NY","Latitude":"43.83350","Longitude":"-73.89780","Snowdepth":"1.000","Units":"in","Rept_Date":"2025-03-24 12"}},{"type":"Point","coordinates":[-90.535,44.5378],"properties":{"Station_ID":"NELW3","Station_Nam":"NEILLSVILLE 3ESE","Latitude":"44.53780","Longitude":"-90.53500","Snowdepth":"1.000","Units":"in","Rept_Date":"2025-03-24 12"}},{"type":"Point","coordinates":[-96.91997,46.84662],"properties":{"Station_ID":"ND-CS-79","Station_Nam":"WEST FARGO 2.1 SSW, ND","Latitude":"46.84662","Longitude":"-96.91997","Snowdepth":"1.000","Units":"in","Rept_Date":"2025-03-24 12"}},{"type":"Point","coordinates":[-73.8969,43.6611],"properties":{"Station_ID":"NCKN6","Station_Nam":"NORTH CREEK 5 SE","Latitude":"43.66110","Longitude":"-73.89690","Snowdepth":"1.000","Units":"in","Rept_Date":"2025-03-24 11"}},{"type":"Point","coordinates":[-72.0333,43.7833],"properties":{"Station_ID":"MSRN3","Station_Nam":"MASCOMA RIVER","Latitude":"43.78330","Longitude":"-72.03330","Snowdepth":"1.000","Units":"in","Rept_Date":"2025-03-25 06"}},{"type":"Point","coordinates":[-86.2745,43.197],"properties":{"Station_ID":"MSNM4","Station_Nam":"MUSKEGON SNOW PAID","Latitude":"43.19700","Longitude":"-86.27450","Snowdepth":"1.000","Units":"in","Rept_Date":"2025-03-25 01"}},{"type":"Point","coordinates":[-91.34024,43.87973],"properties":{"Station_ID":"MN-WN-24","Station_Nam":"LA CRESCENT 4.0 NNW, MN","Latitude":"43.87973","Longitude":"-91.34024","Snowdepth":"1.000","Units":"in","Rept_Date":"2025-03-24 12"}},{"type":"Point","coordinates":[-92.01263,46.84257],"properties":{"Station_ID":"MN-SL-216","Station_Nam":"DULUTH 6.0 NE, MN","Latitude":"46.84257","Longitude":"-92.01263","Snowdepth":"1.000","Units":"in","Rept_Date":"2025-03-24 11"}},{"type":"Point","coordinates":[-91.86218,47.24692],"properties":{"Station_ID":"MN-SL-160","Station_Nam":"BRIMSON 2.0 S, MN","Latitude":"47.24692","Longitude":"-91.86218","Snowdepth":"1.000","Units":"in","Rept_Date":"2025-03-24 12"}},{"type":"Point","coordinates":[-93.40368,47.2454],"properties":{"Station_ID":"MN-IT-39","Station_Nam":"BOVEY 3.5 S, MN","Latitude":"47.24540","Longitude":"-93.40368","Snowdepth":"1.000","Units":"in","Rept_Date":"2025-03-24 12"}},{"type":"Point","coordinates":[-93.4294,47.28842],"properties":{"Station_ID":"MN-IT-38","Station_Nam":"COLERAINE 0.7 S, MN","Latitude":"47.28842","Longitude":"-93.42940","Snowdepth":"1.000","Units":"in","Rept_Date":"2025-03-24 12"}},{"type":"Point","coordinates":[-93.43497,47.48855],"properties":{"Station_ID":"MN-IT-23","Station_Nam":"BOVEY 13.4 N, MN","Latitude":"47.48855","Longitude":"-93.43497","Snowdepth":"1.000","Units":"in","Rept_Date":"2025-03-24 12"}},{"type":"Point","coordinates":[-93.55036,47.31165],"properties":{"Station_ID":"MN-IT-17","Station_Nam":"GRAND RAPIDS 6.1 N, MN","Latitude":"47.31165","Longitude":"-93.55036","Snowdepth":"1.000","Units":"in","Rept_Date":"2025-03-24 12"}},{"type":"Point","coordinates":[-94.29969,46.63421],"properties":{"Station_ID":"MN-CW-77","Station_Nam":"PEQUOT LAKES 3.2 N, MN","Latitude":"46.63421","Longitude":"-94.29969","Snowdepth":"1.000","Units":"in","Rept_Date":"2025-03-24 12"}},{"type":"Point","coordinates":[-93.89394,46.84036],"properties":{"Station_ID":"MN-CS-42","Station_Nam":"OUTING 2.9 ENE, MN","Latitude":"46.84036","Longitude":"-93.89394","Snowdepth":"1.000","Units":"in","Rept_Date":"2025-03-24 12"}},{"type":"Point","coordinates":[-84.97319,43.37974],"properties":{"Station_ID":"MI-MT-8","Station_Nam":"EDMORE 3.8 ESE, MI","Latitude":"43.37974","Longitude":"-84.97319","Snowdepth":"1.000","Units":"in","Rept_Date":"2025-03-24 13"}},{"type":"Point","coordinates":[-70.3476,44.39318],"properties":{"Station_ID":"ME-OX-2","Station_Nam":"HARTFORD 1.4 N, ME","Latitude":"44.39318","Longitude":"-70.34760","Snowdepth":"1.000","Units":"in","Rept_Date":"2025-03-24 12"}},{"type":"Point","coordinates":[-93.5333,43.4],"properties":{"Station_ID":"LMLI4","Station_Nam":"LAKE MILLS,IA","Latitude":"43.40000","Longitude":"-93.53330","Snowdepth":"1.000","Units":"in","Rept_Date":"2025-03-24 12"}},{"type":"Point","coordinates":[-85.56666,44.73333],"properties":{"Station_ID":"KTVC","Station_Nam":"CHERRY CAPITAL AIRPORT","Latitude":"44.73333","Longitude":"-85.56666","Snowdepth":"1.000","Units":"in","Rept_Date":"2025-03-25 00"}},{"type":"Point","coordinates":[-87.505,44.4628],"properties":{"Station_ID":"KKKW3","Station_Nam":"KEWAUNEE","Latitude":"44.46280","Longitude":"-87.50500","Snowdepth":"1.000","Units":"in","Rept_Date":"2025-03-24 12"}},{"type":"Point","coordinates":[-97.18333,47.95],"properties":{"Station_ID":"KGFK","Station_Nam":"GRAND FORKS INTERNATIONAL","Latitude":"47.95000","Longitude":"-97.18333","Snowdepth":"1.000","Units":"in","Rept_Date":"2025-03-24 18"}},{"type":"Point","coordinates":[-96.2667,47.7167],"properties":{"Station_ID":"GLRM5","Station_Nam":"GLACIAL RIDGE","Latitude":"47.71670","Longitude":"-96.26670","Snowdepth":"1.000","Units":"in","Rept_Date":"2025-03-25 06"}},{"type":"Point","coordinates":[-94.35,46.4119],"properties":{"Station_ID":"GLLM5","Station_Nam":"GULL LAKE DAM","Latitude":"46.41190","Longitude":"-94.35000","Snowdepth":"1.000","Units":"in","Rept_Date":"2025-03-24 13"}},{"type":"Point","coordinates":[-86.0333,43.45],"properties":{"Station_ID":"FREM4","Station_Nam":"FREMONT,MI","Latitude":"43.45000","Longitude":"-86.03330","Snowdepth":"1.000","Units":"in","Rept_Date":"2025-03-24 11"}},{"type":"Point","coordinates":[-96.7962,46.8293],"properties":{"Station_ID":"FDRN8","Station_Nam":"FARGO 3S","Latitude":"46.82930","Longitude":"-96.79620","Snowdepth":"1.000","Units":"in","Rept_Date":"2025-03-24 21"}},{"type":"Point","coordinates":[-70.1564,44.6893],"properties":{"Station_ID":"FARM1","Station_Nam":"FARMINGTON","Latitude":"44.68930","Longitude":"-70.15640","Snowdepth":"1.000","Units":"in","Rept_Date":"2025-03-24 11"}},{"type":"Point","coordinates":[-92.1958,47.6581],"properties":{"Station_ID":"EMBM5","Station_Nam":"EMBARASS,MN","Latitude":"47.65810","Longitude":"-92.19580","Snowdepth":"1.000","Units":"in","Rept_Date":"2025-03-24 11"}},{"type":"Point","coordinates":[-91.4879,44.8665],"properties":{"Station_ID":"EAU","Station_Nam":"CHIPPEWA VALLEY RGNL ARPT","Latitude":"44.86650","Longitude":"-91.48790","Snowdepth":"1.000","Units":"in","Rept_Date":"2025-03-24 12"}},{"type":"Point","coordinates":[-94.1106,46.6693],"properties":{"Station_ID":"CRLM5","Station_Nam":"CROSS LAKE DAM","Latitude":"46.66930","Longitude":"-94.11060","Snowdepth":"1.000","Units":"in","Rept_Date":"2025-03-24 13"}},{"type":"Point","coordinates":[-72.3194,44.0069],"properties":{"Station_ID":"CORV1","Station_Nam":"CORINTH","Latitude":"44.00690","Longitude":"-72.31940","Snowdepth":"1.000","Units":"in","Rept_Date":"2025-03-24 11"}},{"type":"Point","coordinates":[-88.15,44.0333],"properties":{"Station_ID":"CHIW3","Station_Nam":"CHILTON,WI","Latitude":"44.03330","Longitude":"-88.15000","Snowdepth":"1.000","Units":"in","Rept_Date":"2025-03-24 12"}},{"type":"Point","coordinates":[-62.8174,46.20115],"properties":{"Station_ID":"CAN-PE-43","Station_Nam":"GLENCOE 0.3 W, CAN","Latitude":"46.20115","Longitude":"-62.81740","Snowdepth":"1.000","Units":"in","Rept_Date":"2025-03-24 10"}},{"type":"Point","coordinates":[-79.58289,43.95645],"properties":{"Station_ID":"CAN-ON-883","Station_Nam":"KING CITY 5.4 NW, CAN","Latitude":"43.95645","Longitude":"-79.58289","Snowdepth":"1.000","Units":"in","Rept_Date":"2025-03-24 12"}},{"type":"Point","coordinates":[-80.92735,44.71013],"properties":{"Station_ID":"CAN-ON-804","Station_Nam":"KEMBLE 1.6 S - GSCA, CAN","Latitude":"44.71013","Longitude":"-80.92735","Snowdepth":"1.000","Units":"in","Rept_Date":"2025-03-24 12"}},{"type":"Point","coordinates":[-80.95461,44.57837],"properties":{"Station_ID":"CAN-ON-5","Station_Nam":"OWEN SOUND 1.5 NW - GSCA, CAN","Latitude":"44.57837","Longitude":"-80.95461","Snowdepth":"1.000","Units":"in","Rept_Date":"2025-03-24 12"}},{"type":"Point","coordinates":[-64.18848,45.96081],"properties":{"Station_ID":"CAN-NB-57","Station_Nam":"JOLICURE 2.8 NE, CAN","Latitude":"45.96081","Longitude":"-64.18848","Snowdepth":"1.000","Units":"in","Rept_Date":"2025-03-24 11"}},{"type":"Point","coordinates":[-91.5919,46.5378],"properties":{"Station_ID":"BRSW3","Station_Nam":"BRULE RANGER STATION","Latitude":"46.53780","Longitude":"-91.59190","Snowdepth":"1.000","Units":"in","Rept_Date":"2025-03-24 15"}},{"type":"Point","coordinates":[-91.8624,47.2472],"properties":{"Station_ID":"BRMM5","Station_Nam":"BRIMSON 2S","Latitude":"47.24720","Longitude":"-91.86240","Snowdepth":"1.000","Units":"in","Rept_Date":"2025-03-24 12"}},{"type":"Point","coordinates":[-88.0667,44.1833],"properties":{"Station_ID":"BRLW3","Station_Nam":"BRILLION,WI","Latitude":"44.18330","Longitude":"-88.06670","Snowdepth":"1.000","Units":"in","Rept_Date":"2025-03-24 11"}},{"type":"Point","coordinates":[-75.3697,43.4361],"properties":{"Station_ID":"BOON6","Station_Nam":"BOONVILLE 4 SSW","Latitude":"43.43610","Longitude":"-75.36970","Snowdepth":"1.000","Units":"in","Rept_Date":"2025-03-24 11"}},{"type":"Point","coordinates":[-85.4833,43.7],"properties":{"Station_ID":"BGRM4","Station_Nam":"WATER WORKS","Latitude":"43.70000","Longitude":"-85.48330","Snowdepth":"1.000","Units":"in","Rept_Date":"2025-03-24 11"}},{"type":"Point","coordinates":[-90.8642,46.7867],"properties":{"Station_ID":"BFHW3","Station_Nam":"BAYFIELD FISH HATCHERY","Latitude":"46.78670","Longitude":"-90.86420","Snowdepth":"1.000","Units":"in","Rept_Date":"2025-03-24 13"}},{"type":"Point","coordinates":[-86.1311,44.5316],"properties":{"Station_ID":"BEUM4","Station_Nam":"BEULAH 7SSW","Latitude":"44.53160","Longitude":"-86.13110","Snowdepth":"1.000","Units":"in","Rept_Date":"2025-03-24 12"}},{"type":"Point","coordinates":[-84.0189,43.6253],"properties":{"Station_ID":"AUBM4","Station_Nam":"AUBURN 2NE","Latitude":"43.62530","Longitude":"-84.01890","Snowdepth":"1.000","Units":"in","Rept_Date":"2025-03-24 10"}},{"type":"Point","coordinates":[-84.1404,45.0047],"properties":{"Station_ID":"ATLM4","Station_Nam":"ATLANTA","Latitude":"45.00470","Longitude":"-84.14040","Snowdepth":"1.000","Units":"in","Rept_Date":"2025-03-24 11"}},{"type":"Point","coordinates":[-88.4377,44.2769],"properties":{"Station_ID":"APPW3","Station_Nam":"APPLETON","Latitude":"44.27690","Longitude":"-88.43770","Snowdepth":"1.000","Units":"in","Rept_Date":"2025-03-24 10"}},{"type":"Point","coordinates":[-91.1356,44.6825],"properties":{"Station_ID":"AGSW3","Station_Nam":"AUGUSTA RANGER STATION","Latitude":"44.68250","Longitude":"-91.13560","Snowdepth":"1.000","Units":"in","Rept_Date":"2025-03-24 13"}}]}},"arcs":[],"bbox":[-97.2386,35.6108,-62.8174,52.1145]}
