{"type":"Topology","objects":{"snowdepth_geo":{"type":"GeometryCollection","name":"snowdepth","crs":{"type":"name","properties":{"name":"urn:ogc:def:crs:OGC:1.3:CRS84"}},"geometries":[{"type":"Point","properties":{"Station_ID":"PRKM4","Station_Nam":"MUNISING EAST","Latitude":"46.42580","Longitude":"-86.62000","Snowdepth":"76.500","Units":"in","Rept_Date":"2020-11-21 06"},"coordinates":[2749,3654]},{"type":"Point","properties":{"Station_ID":"TRIQ6","Station_Nam":"TRIO LAKE","Latitude":"49.22880","Longitude":"-87.22920","Snowdepth":"8.820","Units":"in","Rept_Date":"2020-11-21 06"},"coordinates":[2592,7009]},{"type":"Point","properties":{"Station_ID":"QOU","Station_Nam":"QOU","Latitude":"50.79250","Longitude":"-69.67470","Snowdepth":"8.465","Units":"in","Rept_Date":"2020-11-20 12"},"coordinates":[7136,8881]},{"type":"Point","properties":{"Station_ID":"MFU","Station_Nam":"MFU","Latitude":"51.52170","Longitude":"-66.91110","Snowdepth":"6.732","Units":"in","Rept_Date":"2020-11-20 12"},"coordinates":[7852,9753]},{"type":"Point","properties":{"Station_ID":"QGT","Station_Nam":"QGT","Latitude":"49.64720","Longitude":"-67.62640","Snowdepth":"6.417","Units":"in","Rept_Date":"2020-11-20 12"},"coordinates":[7667,7510]},{"type":"Point","properties":{"Station_ID":"MLZ","Station_Nam":"MLZ","Latitude":"50.66170","Longitude":"-68.82360","Snowdepth":"6.142","Units":"in","Rept_Date":"2020-11-20 12"},"coordinates":[7357,8724]},{"type":"Point","properties":{"Station_ID":"QTV","Station_Nam":"QTV","Latitude":"49.66000","Longitude":"-69.35690","Snowdepth":"6.024","Units":"in","Rept_Date":"2020-11-20 12"},"coordinates":[7219,7525]},{"type":"Point","properties":{"Station_ID":"QMA","Station_Nam":"QMA","Latitude":"50.10330","Longitude":"-70.47190","Snowdepth":"5.591","Units":"in","Rept_Date":"2020-11-20 12"},"coordinates":[6930,8056]},{"type":"Point","properties":{"Station_ID":"QIQ","Station_Nam":"QIQ","Latitude":"49.82390","Longitude":"-68.54310","Snowdepth":"5.197","Units":"in","Rept_Date":"2020-11-20 12"},"coordinates":[7429,7721]},{"type":"Point","properties":{"Station_ID":"QLM","Station_Nam":"QLM","Latitude":"48.92030","Longitude":"-70.25280","Snowdepth":"5.039","Units":"in","Rept_Date":"2020-11-20 12"},"coordinates":[6987,6640]},{"type":"Point","properties":{"Station_ID":"CLQM5","Station_Nam":"CLOQUET","Latitude":"46.70470","Longitude":"-92.52530","Snowdepth":"5.000","Units":"in","Rept_Date":"2020-11-20 14"},"coordinates":[1220,3988]},{"type":"Point","properties":{"Station_ID":"CAN-NS-61","Station_Nam":"ASPY  BAY 0.9 SW, CA","Latitude":"46.91621","Longitude":"-60.49460","Snowdepth":"5.000","Units":"in","Rept_Date":"2020-11-20 11"},"coordinates":[9513,4241]},{"type":"Point","properties":{"Station_ID":"QLB","Station_Nam":"QLB","Latitude":"50.72360","Longitude":"-75.10000","Snowdepth":"4.882","Units":"in","Rept_Date":"2020-11-20 12"},"coordinates":[5732,8798]},{"type":"Point","properties":{"Station_ID":"AUDQ6","Station_Nam":"AUDEN","Latitude":"48.52600","Longitude":"-82.57570","Snowdepth":"4.530","Units":"in","Rept_Date":"2020-11-21 06"},"coordinates":[3796,6168]},{"type":"Point","properties":{"Station_ID":"DVLQ6","Station_Nam":"DEVIOUS LAKE","Latitude":"49.19890","Longitude":"-87.76440","Snowdepth":"4.450","Units":"in","Rept_Date":"2020-11-21 06"},"coordinates":[2453,6973]},{"type":"Point","properties":{"Station_ID":"QCX","Station_Nam":"QCX","Latitude":"51.32830","Longitude":"-70.08060","Snowdepth":"4.252","Units":"in","Rept_Date":"2020-11-20 12"},"coordinates":[7031,9522]},{"type":"Point","properties":{"Station_ID":"WLFM5","Station_Nam":"WOLF RIDGE ENVIRON LEARNING CENTER","Latitude":"47.38240","Longitude":"-91.19730","Snowdepth":"4.000","Units":"in","Rept_Date":"2020-11-20 13"},"coordinates":[1564,4799]},{"type":"Point","properties":{"Station_ID":"MWN","Station_Nam":"MOUNT WASHINGTON","Latitude":"44.26670","Longitude":"-71.30000","Snowdepth":"4.000","Units":"in","Rept_Date":"2020-11-20 12"},"coordinates":[6716,1069]},{"type":"Point","properties":{"Station_ID":"MMNV1","Station_Nam":"MT. MANSFIELD","Latitude":"44.52480","Longitude":"-72.81540","Snowdepth":"4.000","Units":"in","Rept_Date":"2020-11-20 21"},"coordinates":[6323,1378]},{"type":"Point","properties":{"Station_ID":"CAN-NS-39","Station_Nam":"ST. ANNS 2.8 NW, CA","Latitude":"46.25082","Longitude":"-60.64340","Snowdepth":"4.000","Units":"in","Rept_Date":"2020-11-20 12"},"coordinates":[9475,3444]},{"type":"Point","properties":{"Station_ID":"PTLQ6","Station_Nam":"PORTAGE LAKE","Latitude":"49.06950","Longitude":"-86.65940","Snowdepth":"3.980","Units":"in","Rept_Date":"2020-11-21 06"},"coordinates":[2739,6818]},{"type":"Point","properties":{"Station_ID":"QLI","Station_Nam":"QLI","Latitude":"50.27080","Longitude":"-73.92280","Snowdepth":"3.740","Units":"in","Rept_Date":"2020-11-20 12"},"coordinates":[6037,8256]},{"type":"Point","properties":{"Station_ID":"QGO","Station_Nam":"QGO","Latitude":"48.85500","Longitude":"-74.20640","Snowdepth":"3.622","Units":"in","Rept_Date":"2020-11-20 12"},"coordinates":[5963,6561]},{"type":"Point","properties":{"Station_ID":"FTHQ6","Station_Nam":"FORT HOPE","Latitude":"51.55820","Longitude":"-87.90510","Snowdepth":"3.620","Units":"in","Rept_Date":"2020-11-21 06"},"coordinates":[2417,9797]},{"type":"Point","properties":{"Station_ID":"OGIQ6","Station_Nam":"OGOKI CAMP","Latitude":"50.76680","Longitude":"-87.85820","Snowdepth":"3.500","Units":"in","Rept_Date":"2020-11-21 06"},"coordinates":[2429,8850]},{"type":"Point","properties":{"Station_ID":"QCO","Station_Nam":"QCO","Latitude":"51.45280","Longitude":"-72.20110","Snowdepth":"3.307","Units":"in","Rept_Date":"2020-11-20 12"},"coordinates":[6482,9671]},{"type":"Point","properties":{"Station_ID":"MN-SL-14","Station_Nam":"DULUTH 4.1 NNE, MN","Latitude":"46.83569","Longitude":"-92.06600","Snowdepth":"3.000","Units":"in","Rept_Date":"2020-11-20 12"},"coordinates":[1339,4144]},{"type":"Point","properties":{"Station_ID":"MN-CN-36","Station_Nam":"CLOQUET 3.4 ENE, MN","Latitude":"46.74146","Longitude":"-92.42698","Snowdepth":"3.000","Units":"in","Rept_Date":"2020-11-20 13"},"coordinates":[1246,4032]},{"type":"Point","properties":{"Station_ID":"KMWN","Station_Nam":"MOUNT WASHINGTON","Latitude":"44.26666","Longitude":"-71.30000","Snowdepth":"3.000","Units":"in","Rept_Date":"2020-11-21 06"},"coordinates":[6716,1069]},{"type":"Point","properties":{"Station_ID":"FLDM5","Station_Nam":"FLOODWOOD,MN","Latitude":"47.00000","Longitude":"-92.91670","Snowdepth":"3.000","Units":"in","Rept_Date":"2020-11-20 14"},"coordinates":[1119,4341]},{"type":"Point","properties":{"Station_ID":"FISM1","Station_Nam":"FORT KENT COOP","Latitude":"47.23850","Longitude":"-68.61240","Snowdepth":"3.000","Units":"in","Rept_Date":"2020-11-20 12"},"coordinates":[7412,4626]},{"type":"Point","properties":{"Station_ID":"DLHM5","Station_Nam":"DULUTH NWS","Latitude":"46.83680","Longitude":"-92.21080","Snowdepth":"3.000","Units":"in","Rept_Date":"2020-11-21 06"},"coordinates":[1302,4146]},{"type":"Point","properties":{"Station_ID":"DLH","Station_Nam":"DULUTH, MN","Latitude":"46.83690","Longitude":"-92.21030","Snowdepth":"3.000","Units":"in","Rept_Date":"2020-11-21 00"},"coordinates":[1302,4146]},{"type":"Point","properties":{"Station_ID":"CAN-NS-74","Station_Nam":"BADDECK FORKS 2.5 E, CAN","Latitude":"46.18550","Longitude":"-60.73426","Snowdepth":"3.000","Units":"in","Rept_Date":"2020-11-20 11"},"coordinates":[9451,3366]},{"type":"Point","properties":{"Station_ID":"CAN-MB-32","Station_Nam":"PINAWA 1.0 SW, CA","Latitude":"50.14747","Longitude":"-95.89020","Snowdepth":"3.000","Units":"in","Rept_Date":"2020-11-20 13"},"coordinates":[349,8108]},{"type":"Point","properties":{"Station_ID":"BNDM5","Station_Nam":"ELY 25E","Latitude":"47.97190","Longitude":"-91.44860","Snowdepth":"3.000","Units":"in","Rept_Date":"2020-11-20 13"},"coordinates":[1499,5504]},{"type":"Point","properties":{"Station_ID":"KABQ6","Station_Nam":"CAB LAKE","Latitude":"49.59950","Longitude":"-89.17990","Snowdepth":"2.910","Units":"in","Rept_Date":"2020-11-21 06"},"coordinates":[2086,7453]},{"type":"Point","properties":{"Station_ID":"CAN-MB-368","Station_Nam":"WHITESHELL 1.3 NE, CAN","Latitude":"49.74405","Longitude":"-95.19123","Snowdepth":"2.800","Units":"in","Rept_Date":"2020-11-20 14"},"coordinates":[530,7626]},{"type":"Point","properties":{"Station_ID":"QGD","Station_Nam":"QGD","Latitude":"51.11140","Longitude":"-67.13940","Snowdepth":"2.756","Units":"in","Rept_Date":"2020-11-20 12"},"coordinates":[7793,9262]},{"type":"Point","properties":{"Station_ID":"SOCQ6","Station_Nam":"SOCKET LAKE","Latitude":"50.77870","Longitude":"-91.79300","Snowdepth":"2.520","Units":"in","Rept_Date":"2020-11-21 06"},"coordinates":[1410,8864]},{"type":"Point","properties":{"Station_ID":"MN-SL-105","Station_Nam":"DULUTH 11.8 NNE, MN","Latitude":"46.94680","Longitude":"-92.03925","Snowdepth":"2.500","Units":"in","Rept_Date":"2020-11-20 14"},"coordinates":[1346,4277]},{"type":"Point","properties":{"Station_ID":"CATQ6","Station_Nam":"CAT LAKE","Latitude":"51.72690","Longitude":"-91.82210","Snowdepth":"2.440","Units":"in","Rept_Date":"2020-11-21 06"},"coordinates":[1402,9999]},{"type":"Point","properties":{"Station_ID":"QTM","Station_Nam":"QTM","Latitude":"51.05780","Longitude":"-72.57190","Snowdepth":"2.402","Units":"in","Rept_Date":"2020-11-20 12"},"coordinates":[6386,9198]},{"type":"Point","properties":{"Station_ID":"CAN-ON-771","Station_Nam":"KENORA 8.7 NNE - CANWARN, CAN","Latitude":"49.84171","Longitude":"-94.44386","Snowdepth":"2.300","Units":"in","Rept_Date":"2020-11-20 14"},"coordinates":[724,7742]},{"type":"Point","properties":{"Station_ID":"WI-BY-29","Station_Nam":"BAYFIELD 5.1 NNW, WI","Latitude":"46.88063","Longitude":"-90.85854","Snowdepth":"2.000","Units":"in","Rept_Date":"2020-11-20 13"},"coordinates":[1652,4198]},{"type":"Point","properties":{"Station_ID":"MN-SL-15","Station_Nam":"CHISHOLM 0.4 WSW, MN","Latitude":"47.48557","Longitude":"-92.88690","Snowdepth":"2.000","Units":"in","Rept_Date":"2020-11-20 13"},"coordinates":[1127,4922]},{"type":"Point","properties":{"Station_ID":"ME-AR-18","Station_Nam":"NEW SWEDEN 4.9 NNW, ME","Latitude":"47.01080","Longitude":"-68.14390","Snowdepth":"2.000","Units":"in","Rept_Date":"2020-11-20 12"},"coordinates":[7533,4354]},{"type":"Point","properties":{"Station_ID":"HGHN6","Station_Nam":"HIGHMARKET","Latitude":"43.60510","Longitude":"-75.55430","Snowdepth":"2.000","Units":"in","Rept_Date":"2020-11-20 11"},"coordinates":[5614,277]},{"type":"Point","properties":{"Station_ID":"COTM5","Station_Nam":"COTTON","Latitude":"47.16870","Longitude":"-92.46290","Snowdepth":"2.000","Units":"in","Rept_Date":"2020-11-20 12"},"coordinates":[1236,4543]},{"type":"Point","properties":{"Station_ID":"COKM5","Station_Nam":"COOK","Latitude":"47.85060","Longitude":"-92.69250","Snowdepth":"2.000","Units":"in","Rept_Date":"2020-11-20 12"},"coordinates":[1177,5359]},{"type":"Point","properties":{"Station_ID":"CAN-NS-94","Station_Nam":"MARGAREE FORKS 2.6 SSE CBN, CAN","Latitude":"46.30937","Longitude":"-61.07603","Snowdepth":"2.000","Units":"in","Rept_Date":"2020-11-20 12"},"coordinates":[9363,3514]},{"type":"Point","properties":{"Station_ID":"CAN-MB-56","Station_Nam":"WINNIPEG 7.6 ENE, CAN","Latitude":"49.93264","Longitude":"-97.04752","Snowdepth":"2.000","Units":"in","Rept_Date":"2020-11-20 14"},"coordinates":[49,7851]},{"type":"Point","properties":{"Station_ID":"BRAM5","Station_Nam":"BRAINERD","Latitude":"46.34320","Longitude":"-94.20900","Snowdepth":"2.000","Units":"in","Rept_Date":"2020-11-20 13"},"coordinates":[784,3555]},{"type":"Point","properties":{"Station_ID":"AVLV1","Station_Nam":"AVERILL","Latitude":"45.00570","Longitude":"-71.69030","Snowdepth":"2.000","Units":"in","Rept_Date":"2020-11-20 13"},"coordinates":[6615,1954]},{"type":"Point","properties":{"Station_ID":"SVBQ6","Station_Nam":"SAVANT BASE","Latitude":"50.28730","Longitude":"-90.65670","Snowdepth":"1.970","Units":"in","Rept_Date":"2020-11-21 06"},"coordinates":[1704,8276]},{"type":"Point","properties":{"Station_ID":"CAN-MB-399","Station_Nam":"OTTERBURNE 0.8 W, CAN","Latitude":"49.50282","Longitude":"-97.05332","Snowdepth":"1.800","Units":"in","Rept_Date":"2020-11-20 14"},"coordinates":[48,7337]},{"type":"Point","properties":{"Station_ID":"MRL","Station_Nam":"MRL","Latitude":"51.28330","Longitude":"-68.84060","Snowdepth":"1.772","Units":"in","Rept_Date":"2020-11-20 12"},"coordinates":[7352,9468]},{"type":"Point","properties":{"Station_ID":"QMD","Station_Nam":"QMD","Latitude":"49.29060","Longitude":"-75.84500","Snowdepth":"1.693","Units":"in","Rept_Date":"2020-11-20 12"},"coordinates":[5539,7083]},{"type":"Point","properties":{"Station_ID":"QFT","Station_Nam":"QFT","Latitude":"50.83280","Longitude":"-74.40390","Snowdepth":"1.693","Units":"in","Rept_Date":"2020-11-20 12"},"coordinates":[5912,8929]},{"type":"Point","properties":{"Station_ID":"QCU","Station_Nam":"QCU","Latitude":"47.82750","Longitude":"-76.59830","Snowdepth":"1.693","Units":"in","Rept_Date":"2020-11-20 12"},"coordinates":[5344,5332]},{"type":"Point","properties":{"Station_ID":"QGA","Station_Nam":"QGA","Latitude":"47.25640","Longitude":"-73.73810","Snowdepth":"1.614","Units":"in","Rept_Date":"2020-11-20 12"},"coordinates":[6084,4648]},{"type":"Point","properties":{"Station_ID":"VT-OL-12","Station_Nam":"GREENSBORO 3.9 NNE, VT","Latitude":"44.63100","Longitude":"-72.28000","Snowdepth":"1.500","Units":"in","Rept_Date":"2020-11-20 14"},"coordinates":[6462,1505]},{"type":"Point","properties":{"Station_ID":"VT-OL-1","Station_Nam":"WESTFIELD 0.7 WNW, VT","Latitude":"44.89160","Longitude":"-72.44350","Snowdepth":"1.500","Units":"in","Rept_Date":"2020-11-20 12"},"coordinates":[6420,1817]},{"type":"Point","properties":{"Station_ID":"MN-SL-108","Station_Nam":"IRON JUNCTION 3.4 NNW, MN","Latitude":"47.46150","Longitude":"-92.63130","Snowdepth":"1.500","Units":"in","Rept_Date":"2020-11-20 13"},"coordinates":[1193,4893]},{"type":"Point","properties":{"Station_ID":"CAN-NL-65","Station_Nam":"KIPPENS 0.7 NE, CA","Latitude":"48.55436","Longitude":"-58.61850","Snowdepth":"1.500","Units":"in","Rept_Date":"2020-11-20 12"},"coordinates":[9999,6202]},{"type":"Point","properties":{"Station_ID":"QLP","Station_Nam":"QLP","Latitude":"48.13920","Longitude":"-72.63830","Snowdepth":"1.496","Units":"in","Rept_Date":"2020-11-20 12"},"coordinates":[6369,5705]},{"type":"Point","properties":{"Station_ID":"QYR","Station_Nam":"QYR","Latitude":"48.87220","Longitude":"-75.61470","Snowdepth":"1.457","Units":"in","Rept_Date":"2020-11-20 12"},"coordinates":[5599,6582]},{"type":"Point","properties":{"Station_ID":"CAN-PE-54","Station_Nam":"FOXLEY RIVER 0.6 W - MCPEI, CAN","Latitude":"46.69300","Longitude":"-64.01880","Snowdepth":"1.200","Units":"in","Rept_Date":"2020-11-20 12"},"coordinates":[8601,3974]},{"type":"Point","properties":{"Station_ID":"CAN-MB-298","Station_Nam":"GARDENTON 4.2 W - SRRCD, CAN","Latitude":"49.09480","Longitude":"-96.75446","Snowdepth":"1.200","Units":"in","Rept_Date":"2020-11-20 13"},"coordinates":[125,6848]},{"type":"Point","properties":{"Station_ID":"CAN-NB-50","Station_Nam":"DOYLEVILLE 2.4 WNW, CAN","Latitude":"47.90803","Longitude":"-66.13279","Snowdepth":"1.100","Units":"in","Rept_Date":"2020-11-20 13"},"coordinates":[8054,5428]},{"type":"Point","properties":{"Station_ID":"QWE","Station_Nam":"QWE","Latitude":"47.84610","Longitude":"-73.80670","Snowdepth":"1.024","Units":"in","Rept_Date":"2020-11-20 12"},"coordinates":[6067,5354]},{"type":"Point","properties":{"Station_ID":"WRUM5","Station_Nam":"WARROAD 4W","Latitude":"48.89600","Longitude":"-95.40700","Snowdepth":"1.000","Units":"in","Rept_Date":"2020-11-21 05"},"coordinates":[474,6610]},{"type":"Point","properties":{"Station_ID":"WRSM5","Station_Nam":"WRENSHALL","Latitude":"46.61550","Longitude":"-92.38380","Snowdepth":"1.000","Units":"in","Rept_Date":"2020-11-20 14"},"coordinates":[1257,3881]},{"type":"Point","properties":{"Station_ID":"WI-IR-3","Station_Nam":"PENCE 0.1 E, WI","Latitude":"46.41555","Longitude":"-90.27013","Snowdepth":"1.000","Units":"in","Rept_Date":"2020-11-20 13"},"coordinates":[1804,3641]},{"type":"Point","properties":{"Station_ID":"VANM1","Station_Nam":"VAN BUREN","Latitude":"47.16600","Longitude":"-67.93900","Snowdepth":"1.000","Units":"in","Rept_Date":"2020-11-20 13"},"coordinates":[7586,4540]},{"type":"Point","properties":{"Station_ID":"SUTV1","Station_Nam":"SUTTON","Latitude":"44.61220","Longitude":"-72.04810","Snowdepth":"1.000","Units":"in","Rept_Date":"2020-11-20 12"},"coordinates":[6522,1483]},{"type":"Point","properties":{"Station_ID":"PDLM4","Station_Nam":"PAINESDALE","Latitude":"47.04160","Longitude":"-88.67170","Snowdepth":"1.000","Units":"in","Rept_Date":"2020-11-20 13"},"coordinates":[2218,4391]},{"type":"Point","properties":{"Station_ID":"PBAN8","Station_Nam":"SITE 1-3MI.N","Latitude":"48.97420","Longitude":"-97.23860","Snowdepth":"1.000","Units":"in","Rept_Date":"2020-11-20 12"},"coordinates":[0,6704]},{"type":"Point","properties":{"Station_ID":"NY-OD-2","Station_Nam":"POINT ROCK 0.6 SE, NY","Latitude":"43.37335","Longitude":"-75.53840","Snowdepth":"1.000","Units":"in","Rept_Date":"2020-11-20 12"},"coordinates":[5618,0]},{"type":"Point","properties":{"Station_ID":"NH-CS-4","Station_Nam":"PITTSBURG 6.1 NE, NH","Latitude":"45.11060","Longitude":"-71.29760","Snowdepth":"1.000","Units":"in","Rept_Date":"2020-11-20 12"},"coordinates":[6716,2079]},{"type":"Point","properties":{"Station_ID":"MIEM4","Station_Nam":"MICHIGAMME 3WNW","Latitude":"46.54530","Longitude":"-88.18000","Snowdepth":"1.000","Units":"in","Rept_Date":"2020-11-20 13"},"coordinates":[2345,3797]},{"type":"Point","properties":{"Station_ID":"LILM1","Station_Nam":"LILLE","Latitude":"47.27770","Longitude":"-68.10520","Snowdepth":"1.000","Units":"in","Rept_Date":"2020-11-20 12"},"coordinates":[7543,4673]},{"type":"Point","properties":{"Station_ID":"IRMM4","Station_Nam":"WWTP","Latitude":"46.46670","Longitude":"-90.18330","Snowdepth":"1.000","Units":"in","Rept_Date":"2020-11-20 13"},"coordinates":[1827,3703]},{"type":"Point","properties":{"Station_ID":"HURW3","Station_Nam":"HURLEY","Latitude":"46.46250","Longitude":"-90.19550","Snowdepth":"1.000","Units":"in","Rept_Date":"2020-11-20 14"},"coordinates":[1824,3698]},{"type":"Point","properties":{"Station_ID":"HUBN3","Station_Nam":"HUBBARD BROOK","Latitude":"43.93330","Longitude":"-71.71670","Snowdepth":"1.000","Units":"in","Rept_Date":"2020-11-21 06"},"coordinates":[6608,670]},{"type":"Point","properties":{"Station_ID":"EMBM5","Station_Nam":"EMBARASS,MN","Latitude":"47.65810","Longitude":"-92.19580","Snowdepth":"1.000","Units":"in","Rept_Date":"2020-11-20 12"},"coordinates":[1306,5129]},{"type":"Point","properties":{"Station_ID":"ELYM5","Station_Nam":"ELY","Latitude":"47.90560","Longitude":"-91.82830","Snowdepth":"1.000","Units":"in","Rept_Date":"2020-11-20 14"},"coordinates":[1401,5425]},{"type":"Point","properties":{"Station_ID":"CRLM5","Station_Nam":"CROSS LAKE DAM","Latitude":"46.66930","Longitude":"-94.11060","Snowdepth":"1.000","Units":"in","Rept_Date":"2020-11-20 14"},"coordinates":[810,3945]},{"type":"Point","properties":{"Station_ID":"CAN-PE-7","Station_Nam":"MORELL 1.4 NNW, CA","Latitude":"46.42741","Longitude":"-62.70870","Snowdepth":"1.000","Units":"in","Rept_Date":"2020-11-20 12"},"coordinates":[8940,3656]},{"type":"Point","properties":{"Station_ID":"CAN-PE-65","Station_Nam":"FORTUNE BRIDGE 0.9 SSE, CAN","Latitude":"46.34282","Longitude":"-62.37337","Snowdepth":"1.000","Units":"in","Rept_Date":"2020-11-20 13"},"coordinates":[9027,3554]}]}},"arcs":[],"transform":{"scale":[0.003862396239623963,0.0008354385438543854],"translate":[-97.2386,43.37335]}}