{"type":"Topology","objects":{"snowdepth_geo":{"type":"GeometryCollection","name":"snowdepth","crs":{"type":"name","properties":{"name":"urn:ogc:def:crs:OGC:1.3:CRS84"}},"geometries":[{"type":"Point","properties":{"Station_ID":"PRKM4","Station_Nam":"MUNISING EAST","Latitude":"46.42580","Longitude":"-86.62000","Snowdepth":"76.500","Units":"in","Rept_Date":"2019-12-01 06"},"coordinates":[2492,6808]},{"type":"Point","properties":{"Station_ID":"OGIQ6","Station_Nam":"OGOKI CAMP","Latitude":"50.76680","Longitude":"-87.85820","Snowdepth":"61.100","Units":"in","Rept_Date":"2019-12-01 06"},"coordinates":[2202,9421]},{"type":"Point","properties":{"Station_ID":"AUDQ6","Station_Nam":"AUDEN","Latitude":"48.52600","Longitude":"-82.57570","Snowdepth":"47.640","Units":"in","Rept_Date":"2019-12-01 06"},"coordinates":[3441,8072]},{"type":"Point","properties":{"Station_ID":"DVLQ6","Station_Nam":"DEVIOUS LAKE","Latitude":"49.19890","Longitude":"-87.76440","Snowdepth":"43.460","Units":"in","Rept_Date":"2019-12-01 06"},"coordinates":[2224,8477]},{"type":"Point","properties":{"Station_ID":"HTLN3","Station_Nam":"HERMIT LAKE SNOWPLOT","Latitude":"44.26130","Longitude":"-71.28330","Snowdepth":"22.000","Units":"in","Rept_Date":"2019-11-30 11"},"coordinates":[6092,5505]},{"type":"Point","properties":{"Station_ID":"CAN-NB-50","Station_Nam":"DOYLEVILLE 2.4 WNW, CAN","Latitude":"47.90803","Longitude":"-66.13279","Snowdepth":"18.900","Units":"in","Rept_Date":"2019-11-30 13"},"coordinates":[7300,7700]},{"type":"Point","properties":{"Station_ID":"BERM4","Station_Nam":"BERGLAND DAM","Latitude":"46.58690","Longitude":"-89.54750","Snowdepth":"18.000","Units":"in","Rept_Date":"2019-11-30 13"},"coordinates":[1805,6905]},{"type":"Point","properties":{"Station_ID":"PDLM4","Station_Nam":"PAINESDALE","Latitude":"47.04160","Longitude":"-88.67170","Snowdepth":"17.000","Units":"in","Rept_Date":"2019-11-30 13"},"coordinates":[2011,7179]},{"type":"Point","properties":{"Station_ID":"CBVM1","Station_Nam":"CARRABASSETT VALLEY","Latitude":"45.08040","Longitude":"-70.30310","Snowdepth":"17.000","Units":"in","Rept_Date":"2019-11-30 12"},"coordinates":[6322,5999]},{"type":"Point","properties":{"Station_ID":"MQT","Station_Nam":"MARQUETTE, MI","Latitude":"46.53140","Longitude":"-87.54920","Snowdepth":"16.000","Units":"in","Rept_Date":"2019-12-01 06"},"coordinates":[2274,6872]},{"type":"Point","properties":{"Station_ID":"BBEM4","Station_Nam":"BIG BAY 9SW","Latitude":"46.74620","Longitude":"-87.88160","Snowdepth":"16.000","Units":"in","Rept_Date":"2019-11-30 13"},"coordinates":[2196,7001]},{"type":"Point","properties":{"Station_ID":"QNCM4","Station_Nam":"QUINCY HILL","Latitude":"47.13640","Longitude":"-88.57950","Snowdepth":"15.000","Units":"in","Rept_Date":"2019-11-30 13"},"coordinates":[2032,7236]},{"type":"Point","properties":{"Station_ID":"HURW3","Station_Nam":"HURLEY","Latitude":"46.46250","Longitude":"-90.19550","Snowdepth":"15.000","Units":"in","Rept_Date":"2019-11-30 14"},"coordinates":[1653,6830]},{"type":"Point","properties":{"Station_ID":"NH-CS-10","Station_Nam":"RANDOLPH 1.4 NE, NH","Latitude":"44.38824","Longitude":"-71.26950","Snowdepth":"14.500","Units":"in","Rept_Date":"2019-11-30 12"},"coordinates":[6095,5582]},{"type":"Point","properties":{"Station_ID":"MI-BG-3","Station_Nam":"L'ANSE 17.8 SE, MI","Latitude":"46.55730","Longitude":"-88.20770","Snowdepth":"14.500","Units":"in","Rept_Date":"2019-11-30 13"},"coordinates":[2119,6887]},{"type":"Point","properties":{"Station_ID":"WI-IR-3","Station_Nam":"PENCE 0.1 E, WI","Latitude":"46.41555","Longitude":"-90.27013","Snowdepth":"14.000","Units":"in","Rept_Date":"2019-11-30 13"},"coordinates":[1635,6802]},{"type":"Point","properties":{"Station_ID":"MMNV1","Station_Nam":"MT. MANSFIELD","Latitude":"44.52480","Longitude":"-72.81540","Snowdepth":"14.000","Units":"in","Rept_Date":"2019-11-30 21"},"coordinates":[5732,5664]},{"type":"Point","properties":{"Station_ID":"MI-HG-18","Station_Nam":"CALUMET 0.7 W (TAMARACK), MI","Latitude":"47.24560","Longitude":"-88.46791","Snowdepth":"14.000","Units":"in","Rept_Date":"2019-11-30 13"},"coordinates":[2058,7302]},{"type":"Point","properties":{"Station_ID":"MI-HG-17","Station_Nam":"CALUMET 0.5 NE (CALUMET LAKE), MI","Latitude":"47.25300","Longitude":"-88.44652","Snowdepth":"14.000","Units":"in","Rept_Date":"2019-11-30 13"},"coordinates":[2063,7306]},{"type":"Point","properties":{"Station_ID":"IBLM5","Station_Nam":"ISABELLA 14W","Latitude":"47.59360","Longitude":"-91.65140","Snowdepth":"14.000","Units":"in","Rept_Date":"2019-11-30 15"},"coordinates":[1311,7511]},{"type":"Point","properties":{"Station_ID":"HERM4","Station_Nam":"HERMAN,MI","Latitude":"46.65000","Longitude":"-88.33330","Snowdepth":"14.000","Units":"in","Rept_Date":"2019-11-30 13"},"coordinates":[2090,6943]},{"type":"Point","properties":{"Station_ID":"ESGM1","Station_Nam":"EAST SANGERVILLE","Latitude":"45.13690","Longitude":"-69.28060","Snowdepth":"14.000","Units":"in","Rept_Date":"2019-11-30 12"},"coordinates":[6562,6033]},{"type":"Point","properties":{"Station_ID":"WTRM4","Station_Nam":"WATERSMEET 12WSW","Latitude":"46.22310","Longitude":"-89.40850","Snowdepth":"13.000","Units":"in","Rept_Date":"2019-11-30 12"},"coordinates":[1838,6686]},{"type":"Point","properties":{"Station_ID":"WRPW3","Station_Nam":"WATER PURIFICATION PLANT","Latitude":"44.38800","Longitude":"-89.80550","Snowdepth":"13.000","Units":"in","Rept_Date":"2019-11-30 12"},"coordinates":[1744,5582]},{"type":"Point","properties":{"Station_ID":"WI-VL-9","Station_Nam":"LAND O' LAKES 11.7 W, WI","Latitude":"46.19023","Longitude":"-89.45790","Snowdepth":"13.000","Units":"in","Rept_Date":"2019-11-30 13"},"coordinates":[1826,6667]},{"type":"Point","properties":{"Station_ID":"WI-VL-10","Station_Nam":"LAND O LAKES 4.3 WNW, WI","Latitude":"46.17440","Longitude":"-89.30380","Snowdepth":"13.000","Units":"in","Rept_Date":"2019-11-30 13"},"coordinates":[1862,6657]},{"type":"Point","properties":{"Station_ID":"SUAW3","Station_Nam":"SUAMICO","Latitude":"44.60190","Longitude":"-88.09780","Snowdepth":"13.000","Units":"in","Rept_Date":"2019-11-30 12"},"coordinates":[2145,5710]},{"type":"Point","properties":{"Station_ID":"PDGM4","Station_Nam":"PAULDING","Latitude":"46.39760","Longitude":"-89.17940","Snowdepth":"13.000","Units":"in","Rept_Date":"2019-11-30 13"},"coordinates":[1891,6791]},{"type":"Point","properties":{"Station_ID":"MI-HG-11","Station_Nam":"HOUGHTON 3.0 SSW, MI","Latitude":"47.07704","Longitude":"-88.59680","Snowdepth":"13.000","Units":"in","Rept_Date":"2019-11-30 13"},"coordinates":[2028,7200]},{"type":"Point","properties":{"Station_ID":"ME-AR-18","Station_Nam":"NEW SWEDEN 4.9 NNW, ME","Latitude":"47.01080","Longitude":"-68.14390","Snowdepth":"13.000","Units":"in","Rept_Date":"2019-11-30 12"},"coordinates":[6828,7160]},{"type":"Point","properties":{"Station_ID":"LVDW3","Station_Nam":"LAC VIEUX DESERT","Latitude":"46.12110","Longitude":"-89.07580","Snowdepth":"13.000","Units":"in","Rept_Date":"2019-11-30 14"},"coordinates":[1916,6625]},{"type":"Point","properties":{"Station_ID":"LNOW3","Station_Nam":"LAND O LAKES","Latitude":"46.19000","Longitude":"-89.45700","Snowdepth":"13.000","Units":"in","Rept_Date":"2019-11-30 13"},"coordinates":[1826,6666]},{"type":"Point","properties":{"Station_ID":"KISM4","Station_Nam":"K.I. SAWYER WWTP","Latitude":"46.33410","Longitude":"-87.37790","Snowdepth":"13.000","Units":"in","Rept_Date":"2019-11-30 13"},"coordinates":[2314,6753]},{"type":"Point","properties":{"Station_ID":"ME-PN-45","Station_Nam":"MILLINOCKET 2.7 ESE, ME","Latitude":"45.65002","Longitude":"-68.64472","Snowdepth":"12.800","Units":"in","Rept_Date":"2019-11-30 12"},"coordinates":[6711,6341]},{"type":"Point","properties":{"Station_ID":"WLFM5","Station_Nam":"WOLF RIDGE ENVIRON LEARNING CENTER","Latitude":"47.38240","Longitude":"-91.19730","Snowdepth":"12.000","Units":"in","Rept_Date":"2019-11-30 13"},"coordinates":[1418,7384]},{"type":"Point","properties":{"Station_ID":"WI-RS-1","Station_Nam":"LADYSMITH 2.8 WNW, WI","Latitude":"45.48180","Longitude":"-91.14680","Snowdepth":"12.000","Units":"in","Rept_Date":"2019-11-30 13"},"coordinates":[1430,6240]},{"type":"Point","properties":{"Station_ID":"WI-PR-7","Station_Nam":"BRANTWOOD 7.4 S, WI","Latitude":"45.45450","Longitude":"-90.10249","Snowdepth":"12.000","Units":"in","Rept_Date":"2019-11-30 10"},"coordinates":[1675,6224]},{"type":"Point","properties":{"Station_ID":"CLGM5","Station_Nam":"COLLEGEVILLE ST JOHN","Latitude":"45.57940","Longitude":"-94.39200","Snowdepth":"12.000","Units":"in","Rept_Date":"2019-12-01 00"},"coordinates":[668,6299]},{"type":"Point","properties":{"Station_ID":"AVLV1","Station_Nam":"AVERILL","Latitude":"45.00570","Longitude":"-71.69030","Snowdepth":"12.000","Units":"in","Rept_Date":"2019-11-30 13"},"coordinates":[5996,5954]},{"type":"Point","properties":{"Station_ID":"ATMM4","Station_Nam":"ATLANTIC MINE 5NW","Latitude":"47.15440","Longitude":"-88.71670","Snowdepth":"12.000","Units":"in","Rept_Date":"2019-11-30 15"},"coordinates":[2000,7247]},{"type":"Point","properties":{"Station_ID":"CAN-NB-97","Station_Nam":"NEW MARYLAND 0.6 NW, CAN","Latitude":"45.90112","Longitude":"-66.68739","Snowdepth":"11.600","Units":"in","Rept_Date":"2019-11-30 12"},"coordinates":[7170,6492]},{"type":"Point","properties":{"Station_ID":"WI-ON-8","Station_Nam":"HAZELHURST 2.1 SSE, WI","Latitude":"45.78186","Longitude":"-89.70330","Snowdepth":"11.000","Units":"in","Rept_Date":"2019-11-30 13"},"coordinates":[1768,6421]},{"type":"Point","properties":{"Station_ID":"WI-BY-2","Station_Nam":"MELLEN 18.6 SW, WI","Latitude":"46.16937","Longitude":"-90.98090","Snowdepth":"11.000","Units":"in","Rept_Date":"2019-11-30 13"},"coordinates":[1469,6654]},{"type":"Point","properties":{"Station_ID":"RLKW3","Station_Nam":"REST LAKE","Latitude":"46.12220","Longitude":"-89.87720","Snowdepth":"11.000","Units":"in","Rept_Date":"2019-11-30 14"},"coordinates":[1728,6626]},{"type":"Point","properties":{"Station_ID":"PHEW3","Station_Nam":"PHELPS","Latitude":"46.06630","Longitude":"-89.07520","Snowdepth":"11.000","Units":"in","Rept_Date":"2019-11-30 13"},"coordinates":[1916,6592]},{"type":"Point","properties":{"Station_ID":"MI-MQ-19","Station_Nam":"ISHPEMING 7.2 SW, MI","Latitude":"46.40550","Longitude":"-87.75670","Snowdepth":"11.000","Units":"in","Rept_Date":"2019-11-30 11"},"coordinates":[2225,6796]},{"type":"Point","properties":{"Station_ID":"MI-HG-16","Station_Nam":"SOUTH RANGE 12.6 WSW, MI","Latitude":"47.02452","Longitude":"-88.90350","Snowdepth":"11.000","Units":"in","Rept_Date":"2019-11-30 13"},"coordinates":[1956,7169]},{"type":"Point","properties":{"Station_ID":"MI-HG-12","Station_Nam":"DOLLAR BAY 0.2 ENE, MI","Latitude":"47.12067","Longitude":"-88.49895","Snowdepth":"11.000","Units":"in","Rept_Date":"2019-11-30 13"},"coordinates":[2051,7227]},{"type":"Point","properties":{"Station_ID":"MI-HG-1","Station_Nam":"HOUGHTON 1.6 ESE, MI","Latitude":"47.10774","Longitude":"-88.52940","Snowdepth":"11.000","Units":"in","Rept_Date":"2019-11-30 13"},"coordinates":[2044,7219]},{"type":"Point","properties":{"Station_ID":"JCBM4","Station_Nam":"JACOBSVILLE","Latitude":"47.00830","Longitude":"-88.43180","Snowdepth":"11.000","Units":"in","Rept_Date":"2019-11-30 12"},"coordinates":[2067,7159]},{"type":"Point","properties":{"Station_ID":"IRMM4","Station_Nam":"WWTP","Latitude":"46.46670","Longitude":"-90.18330","Snowdepth":"11.000","Units":"in","Rept_Date":"2019-11-30 13"},"coordinates":[1656,6833]},{"type":"Point","properties":{"Station_ID":"EVRW3","Station_Nam":"EAGLE RIVER-4 E","Latitude":"45.91890","Longitude":"-89.15280","Snowdepth":"11.000","Units":"in","Rept_Date":"2019-11-30 13"},"coordinates":[1898,6503]},{"type":"Point","properties":{"Station_ID":"COVM4","Station_Nam":"COVINGTON","Latitude":"46.55880","Longitude":"-88.54190","Snowdepth":"11.000","Units":"in","Rept_Date":"2019-11-30 13"},"coordinates":[2041,6888]},{"type":"Point","properties":{"Station_ID":"CMKW3","Station_Nam":"CLAM LAKE 4W","Latitude":"46.16940","Longitude":"-90.98080","Snowdepth":"11.000","Units":"in","Rept_Date":"2019-11-30 13"},"coordinates":[1469,6654]},{"type":"Point","properties":{"Station_ID":"CAN-NB-13","Station_Nam":"BATHURST 3.8 NW, CAN","Latitude":"47.64212","Longitude":"-65.68756","Snowdepth":"10.500","Units":"in","Rept_Date":"2019-11-30 11"},"coordinates":[7405,7540]},{"type":"Point","properties":{"Station_ID":"WI-PR-6","Station_Nam":"PHILLIPS 1.3 S, WI","Latitude":"45.67677","Longitude":"-90.39543","Snowdepth":"10.000","Units":"in","Rept_Date":"2019-11-30 12"},"coordinates":[1606,6357]},{"type":"Point","properties":{"Station_ID":"WI-PR-2","Station_Nam":"BUTTERNUT 5.9 SW, WI","Latitude":"45.96501","Longitude":"-90.59750","Snowdepth":"10.000","Units":"in","Rept_Date":"2019-11-30 12"},"coordinates":[1559,6531]},{"type":"Point","properties":{"Station_ID":"WI-BY-14","Station_Nam":"ASHLAND 9.8 W, WI","Latitude":"46.59742","Longitude":"-91.07856","Snowdepth":"10.000","Units":"in","Rept_Date":"2019-11-30 12"},"coordinates":[1446,6912]},{"type":"Point","properties":{"Station_ID":"STGW3","Station_Nam":"ST GERMAIN","Latitude":"45.91550","Longitude":"-89.48940","Snowdepth":"10.000","Units":"in","Rept_Date":"2019-11-30 12"},"coordinates":[1819,6501]},{"type":"Point","properties":{"Station_ID":"MWTM1","Station_Nam":"MILLINOCKET WWTP","Latitude":"45.64030","Longitude":"-68.67480","Snowdepth":"10.000","Units":"in","Rept_Date":"2019-11-30 12"},"coordinates":[6704,6336]},{"type":"Point","properties":{"Station_ID":"MI-HG-14","Station_Nam":"HOUGHTON 0.6 SE, MI","Latitude":"47.10847","Longitude":"-88.55235","Snowdepth":"10.000","Units":"in","Rept_Date":"2019-11-30 13"},"coordinates":[2039,7219]},{"type":"Point","properties":{"Station_ID":"KSGM4","Station_Nam":"KEARSARGE","Latitude":"47.27520","Longitude":"-88.41700","Snowdepth":"10.000","Units":"in","Rept_Date":"2019-11-30 13"},"coordinates":[2070,7320]},{"type":"Point","properties":{"Station_ID":"JKMM1","Station_Nam":"JACKMAN","Latitude":"45.62600","Longitude":"-70.24600","Snowdepth":"10.000","Units":"in","Rept_Date":"2019-11-30 12"},"coordinates":[6335,6327]},{"type":"Point","properties":{"Station_ID":"DLHM5","Station_Nam":"DULUTH NWS","Latitude":"46.83680","Longitude":"-92.21080","Snowdepth":"10.000","Units":"in","Rept_Date":"2019-12-01 00"},"coordinates":[1180,7056]},{"type":"Point","properties":{"Station_ID":"DLH","Station_Nam":"DULUTH, MN","Latitude":"46.83690","Longitude":"-92.21030","Snowdepth":"10.000","Units":"in","Rept_Date":"2019-12-01 00"},"coordinates":[1180,7056]},{"type":"Point","properties":{"Station_ID":"COUW3","Station_Nam":"COUDERAY,WI","Latitude":"45.86670","Longitude":"-91.45000","Snowdepth":"10.000","Units":"in","Rept_Date":"2019-11-30 22"},"coordinates":[1359,6472]},{"type":"Point","properties":{"Station_ID":"CARM1","Station_Nam":"CARIBOU WFO","Latitude":"46.86810","Longitude":"-68.01250","Snowdepth":"10.000","Units":"in","Rept_Date":"2019-12-01 04"},"coordinates":[6859,7075]},{"type":"Point","properties":{"Station_ID":"CAR","Station_Nam":"CARIBOU, ME","Latitude":"46.86830","Longitude":"-68.01360","Snowdepth":"10.000","Units":"in","Rept_Date":"2019-11-30 12"},"coordinates":[6859,7075]},{"type":"Point","properties":{"Station_ID":"BNDM5","Station_Nam":"ELY 25E","Latitude":"47.97190","Longitude":"-91.44860","Snowdepth":"10.000","Units":"in","Rept_Date":"2019-11-30 13"},"coordinates":[1359,7739]},{"type":"Point","properties":{"Station_ID":"PTLQ6","Station_Nam":"PORTAGE LAKE","Latitude":"49.06950","Longitude":"-86.65940","Snowdepth":"9.760","Units":"in","Rept_Date":"2019-12-01 06"},"coordinates":[2483,8400]},{"type":"Point","properties":{"Station_ID":"WI-PR-8","Station_Nam":"PHILLIPS 0.4 SSW, WI","Latitude":"45.69086","Longitude":"-90.40200","Snowdepth":"9.500","Units":"in","Rept_Date":"2019-11-30 13"},"coordinates":[1605,6366]},{"type":"Point","properties":{"Station_ID":"WRSM5","Station_Nam":"WRENSHALL","Latitude":"46.61550","Longitude":"-92.38380","Snowdepth":"9.000","Units":"in","Rept_Date":"2019-11-30 14"},"coordinates":[1139,6922]},{"type":"Point","properties":{"Station_ID":"WILW3","Station_Nam":"RESERVOIR","Latitude":"45.70000","Longitude":"-89.83330","Snowdepth":"9.000","Units":"in","Rept_Date":"2019-11-30 12"},"coordinates":[1738,6371]},{"type":"Point","properties":{"Station_ID":"WI-TY-2","Station_Nam":"SHELDON 8.1 ENE, WI","Latitude":"45.35598","Longitude":"-90.80296","Snowdepth":"9.000","Units":"in","Rept_Date":"2019-11-30 13"},"coordinates":[1510,6164]},{"type":"Point","properties":{"Station_ID":"WI-RS-3","Station_Nam":"BRUCE 1.9 E, WI","Latitude":"45.45415","Longitude":"-91.23510","Snowdepth":"9.000","Units":"in","Rept_Date":"2019-11-30 13"},"coordinates":[1409,6223]},{"type":"Point","properties":{"Station_ID":"WI-LN-2","Station_Nam":"MERRILL 7.0 W, WI","Latitude":"45.17746","Longitude":"-89.84820","Snowdepth":"9.000","Units":"in","Rept_Date":"2019-11-30 12"},"coordinates":[1734,6057]},{"type":"Point","properties":{"Station_ID":"WI-CH-7","Station_Nam":"CHIPPEWA FALLS 1.2 E, WI","Latitude":"44.92920","Longitude":"-91.36730","Snowdepth":"9.000","Units":"in","Rept_Date":"2019-11-30 13"},"coordinates":[1378,5907]},{"type":"Point","properties":{"Station_ID":"VANM1","Station_Nam":"VAN BUREN","Latitude":"47.16600","Longitude":"-67.93900","Snowdepth":"9.000","Units":"in","Rept_Date":"2019-11-30 13"},"coordinates":[6876,7254]},{"type":"Point","properties":{"Station_ID":"TWOM5","Station_Nam":"TWO HARBORS,MN","Latitude":"47.12580","Longitude":"-91.70750","Snowdepth":"9.000","Units":"in","Rept_Date":"2019-12-01 01"},"coordinates":[1298,7230]},{"type":"Point","properties":{"Station_ID":"SULW3","Station_Nam":"SUMMIT LAKE","Latitude":"45.37880","Longitude":"-89.19410","Snowdepth":"9.000","Units":"in","Rept_Date":"2019-11-30 17"},"coordinates":[1888,6178]},{"type":"Point","properties":{"Station_ID":"RHLW3","Station_Nam":"RHINELANDER 4NE","Latitude":"45.65270","Longitude":"-89.30740","Snowdepth":"9.000","Units":"in","Rept_Date":"2019-11-30 12"},"coordinates":[1861,6343]},{"type":"Point","properties":{"Station_ID":"RHIW3","Station_Nam":"RHINELANDER","Latitude":"45.59860","Longitude":"-89.45080","Snowdepth":"9.000","Units":"in","Rept_Date":"2019-11-30 13"},"coordinates":[1828,6310]},{"type":"Point","properties":{"Station_ID":"MLLW3","Station_Nam":"MERRILL 8W","Latitude":"45.17810","Longitude":"-89.84810","Snowdepth":"9.000","Units":"in","Rept_Date":"2019-11-30 12"},"coordinates":[1735,6057]},{"type":"Point","properties":{"Station_ID":"MI-HG-13","Station_Nam":"HOUGHTON 1.2 WNW, MI","Latitude":"47.12035","Longitude":"-88.58525","Snowdepth":"9.000","Units":"in","Rept_Date":"2019-11-30 13"},"coordinates":[2031,7226]},{"type":"Point","properties":{"Station_ID":"LKFM5","Station_Nam":"LAKEFIELD,MN","Latitude":"43.68330","Longitude":"-95.18330","Snowdepth":"9.000","Units":"in","Rept_Date":"2019-11-30 13"},"coordinates":[482,5158]},{"type":"Point","properties":{"Station_ID":"LILM1","Station_Nam":"LILLE","Latitude":"47.27770","Longitude":"-68.10520","Snowdepth":"9.000","Units":"in","Rept_Date":"2019-11-30 12"},"coordinates":[6837,7321]},{"type":"Point","properties":{"Station_ID":"KGFK","Station_Nam":"GRAND FORKS INTERNATIONAL","Latitude":"47.95000","Longitude":"-97.18333","Snowdepth":"9.000","Units":"in","Rept_Date":"2019-12-01 06"},"coordinates":[13,7726]},{"type":"Point","properties":{"Station_ID":"JMPW3","Station_Nam":"JUMP RIVER 1 NW","Latitude":"45.35610","Longitude":"-90.80250","Snowdepth":"9.000","Units":"in","Rept_Date":"2019-11-30 13"},"coordinates":[1511,6164]},{"type":"Point","properties":{"Station_ID":"GHMN3","Station_Nam":"PINKHAM NOTCH","Latitude":"44.25800","Longitude":"-71.25250","Snowdepth":"9.000","Units":"in","Rept_Date":"2019-11-30 10"},"coordinates":[6099,5504]},{"type":"Point","properties":{"Station_ID":"FAVT1","Station_Nam":"FAYETTEVILLE 8 WSW","Latitude":"35.11440","Longitude":"-86.71310","Snowdepth":"9.000","Units":"in","Rept_Date":"2019-11-30 12"},"coordinates":[2470,0]},{"type":"Point","properties":{"Station_ID":"EGRW3","Station_Nam":"EAGLE RIVER-SOUTH","Latitude":"45.91360","Longitude":"-89.24360","Snowdepth":"9.000","Units":"in","Rept_Date":"2019-11-30 13"},"coordinates":[1876,6500]},{"type":"Point","properties":{"Station_ID":"CNNW3","Station_Nam":"CRANDON","Latitude":"45.55110","Longitude":"-88.89830","Snowdepth":"9.000","Units":"in","Rept_Date":"2019-11-30 12"},"coordinates":[1957,6282]},{"type":"Point","properties":{"Station_ID":"BRDM1","Station_Nam":"BRIDGEWATER","Latitude":"46.42870","Longitude":"-67.84370","Snowdepth":"9.000","Units":"in","Rept_Date":"2019-11-30 23"},"coordinates":[6899,6810]},{"type":"Point","properties":{"Station_ID":"BALW3","Station_Nam":"BALDWIN","Latitude":"44.96330","Longitude":"-92.39050","Snowdepth":"9.000","Units":"in","Rept_Date":"2019-11-30 13"},"coordinates":[1138,5928]},{"type":"Point","properties":{"Station_ID":"WI-BY-15","Station_Nam":"BAYFIELD 1.7 SW, WI","Latitude":"46.79294","Longitude":"-90.84343","Snowdepth":"8.800","Units":"in","Rept_Date":"2019-11-30 13"},"coordinates":[1501,7029]},{"type":"Point","properties":{"Station_ID":"WI-ON-6","Station_Nam":"RHINELANDER 5.2 N, WI","Latitude":"45.71388","Longitude":"-89.42150","Snowdepth":"8.500","Units":"in","Rept_Date":"2019-11-30 14"},"coordinates":[1835,6380]},{"type":"Point","properties":{"Station_ID":"MN-SC-2","Station_Nam":"PRIOR LAKE 2.0 W, MN","Latitude":"44.71250","Longitude":"-93.46360","Snowdepth":"8.500","Units":"in","Rept_Date":"2019-11-30 10"},"coordinates":[886,5777]},{"type":"Point","properties":{"Station_ID":"MN-DK-73","Station_Nam":"LAKEVILLE 2.6 NNE, MN","Latitude":"44.71250","Longitude":"-93.23043","Snowdepth":"8.500","Units":"in","Rept_Date":"2019-11-30 13"},"coordinates":[941,5777]},{"type":"Point","properties":{"Station_ID":"MN-CV-40","Station_Nam":"EXCELSIOR 0.8 S, MN","Latitude":"44.88996","Longitude":"-93.56646","Snowdepth":"8.500","Units":"in","Rept_Date":"2019-11-30 13"},"coordinates":[862,5884]},{"type":"Point","properties":{"Station_ID":"FTHQ6","Station_Nam":"FORT HOPE","Latitude":"51.55820","Longitude":"-87.90510","Snowdepth":"8.110","Units":"in","Rept_Date":"2019-12-01 06"},"coordinates":[2191,9897]},{"type":"Point","properties":{"Station_ID":"WTNM4","Station_Nam":"WATTON 2WSW","Latitude":"46.52660","Longitude":"-88.64240","Snowdepth":"8.000","Units":"in","Rept_Date":"2019-11-30 13"},"coordinates":[2017,6869]},{"type":"Point","properties":{"Station_ID":"WI-PC-25","Station_Nam":"ELLSWORTH 2.6 SW, WI","Latitude":"44.71119","Longitude":"-92.51849","Snowdepth":"8.000","Units":"in","Rept_Date":"2019-11-30 13"},"coordinates":[1108,5776]},{"type":"Point","properties":{"Station_ID":"WI-DN-1","Station_Nam":"BOYCEVILLE 3.3 N, WI","Latitude":"45.08913","Longitude":"-92.02760","Snowdepth":"8.000","Units":"in","Rept_Date":"2019-11-30 13"},"coordinates":[1223,6004]},{"type":"Point","properties":{"Station_ID":"WI-CH-3","Station_Nam":"CORNELL 4.1 W, WI","Latitude":"45.17024","Longitude":"-91.23610","Snowdepth":"8.000","Units":"in","Rept_Date":"2019-11-30 14"},"coordinates":[1409,6053]},{"type":"Point","properties":{"Station_ID":"STMM4","Station_Nam":"STAMBAUGH 2SSE","Latitude":"46.05550","Longitude":"-88.62780","Snowdepth":"8.000","Units":"in","Rept_Date":"2019-11-30 13"},"coordinates":[2021,6585]},{"type":"Point","properties":{"Station_ID":"SRAW3","Station_Nam":"SARONA","Latitude":"45.80250","Longitude":"-91.86700","Snowdepth":"8.000","Units":"in","Rept_Date":"2019-11-30 14"},"coordinates":[1261,6433]},{"type":"Point","properties":{"Station_ID":"SAUW3","Station_Nam":"WAUSAU WSAW TV","Latitude":"44.94630","Longitude":"-89.62220","Snowdepth":"8.000","Units":"in","Rept_Date":"2019-12-01 06"},"coordinates":[1788,5918]},{"type":"Point","properties":{"Station_ID":"ROBW3","Station_Nam":"ROBERTS WWTP","Latitude":"44.97070","Longitude":"-92.56200","Snowdepth":"8.000","Units":"in","Rept_Date":"2019-11-30 14"},"coordinates":[1098,5932]},{"type":"Point","properties":{"Station_ID":"RHRW3","Station_Nam":"RHINELANDER WJFW TV-12","Latitude":"45.62220","Longitude":"-89.41000","Snowdepth":"8.000","Units":"in","Rept_Date":"2019-12-01 04"},"coordinates":[1837,6325]},{"type":"Point","properties":{"Station_ID":"RBLW3","Station_Nam":"RIB LAKE","Latitude":"45.31530","Longitude":"-90.20640","Snowdepth":"8.000","Units":"in","Rept_Date":"2019-11-30 18"},"coordinates":[1650,6140]},{"type":"Point","properties":{"Station_ID":"MRAM5","Station_Nam":"MORA","Latitude":"45.87760","Longitude":"-93.31470","Snowdepth":"8.000","Units":"in","Rept_Date":"2019-11-30 13"},"coordinates":[921,6478]},{"type":"Point","properties":{"Station_ID":"MNG0GYSN","Station_Nam":"LONSDALE 1.1 SSW","Latitude":"44.46445","Longitude":"-93.43293","Snowdepth":"8.000","Units":"in","Rept_Date":"2019-11-30 12"},"coordinates":[893,5628]},{"type":"Point","properties":{"Station_ID":"MN-RC-1","Station_Nam":"MONTGOMERY 3.2 ENE, MN","Latitude":"44.46400","Longitude":"-93.51980","Snowdepth":"8.000","Units":"in","Rept_Date":"2019-11-30 12"},"coordinates":[873,5627]},{"type":"Point","properties":{"Station_ID":"MN-DK-44","Station_Nam":"ROSEMOUNT 4.5 WSW, MN","Latitude":"44.72079","Longitude":"-93.14970","Snowdepth":"8.000","Units":"in","Rept_Date":"2019-11-30 13"},"coordinates":[960,5782]},{"type":"Point","properties":{"Station_ID":"MN-CV-1","Station_Nam":"CARVER 0.7 W, MN","Latitude":"44.75728","Longitude":"-93.64160","Snowdepth":"8.000","Units":"in","Rept_Date":"2019-11-30 13"},"coordinates":[844,5804]},{"type":"Point","properties":{"Station_ID":"HMYM1","Station_Nam":"HARMONY","Latitude":"44.94660","Longitude":"-69.54560","Snowdepth":"8.000","Units":"in","Rept_Date":"2019-11-30 12"},"coordinates":[6499,5918]},{"type":"Point","properties":{"Station_ID":"BABM5","Station_Nam":"BABBITT","Latitude":"47.71210","Longitude":"-91.95330","Snowdepth":"8.000","Units":"in","Rept_Date":"2019-11-30 13"},"coordinates":[1240,7583]},{"type":"Point","properties":{"Station_ID":"AVTW3","Station_Nam":"ARBOR VITAE-JOHNSON LAKE","Latitude":"45.89940","Longitude":"-89.72670","Snowdepth":"8.000","Units":"in","Rept_Date":"2019-11-30 12"},"coordinates":[1763,6491]},{"type":"Point","properties":{"Station_ID":"AURW3","Station_Nam":"AURORA","Latitude":"45.77000","Longitude":"-88.11810","Snowdepth":"8.000","Units":"in","Rept_Date":"2019-11-30 13"},"coordinates":[2141,6414]},{"type":"Point","properties":{"Station_ID":"AGNW3","Station_Nam":"ARGONNE-1.5 NW","Latitude":"45.67360","Longitude":"-88.90380","Snowdepth":"8.000","Units":"in","Rept_Date":"2019-11-30 13"},"coordinates":[1956,6356]},{"type":"Point","properties":{"Station_ID":"WI-CH-8","Station_Nam":"CHIPPEWA FALLS 4.4 NE, WI","Latitude":"44.98480","Longitude":"-91.33910","Snowdepth":"7.800","Units":"in","Rept_Date":"2019-11-30 14"},"coordinates":[1385,5941]},{"type":"Point","properties":{"Station_ID":"TRIQ6","Station_Nam":"TRIO LAKE","Latitude":"49.22880","Longitude":"-87.22920","Snowdepth":"7.520","Units":"in","Rept_Date":"2019-12-01 06"},"coordinates":[2349,8495]},{"type":"Point","properties":{"Station_ID":"CAN-NS-103","Station_Nam":"TRAFALGAR 4.9 WSW, CAN","Latitude":"45.26217","Longitude":"-62.72285","Snowdepth":"7.500","Units":"in","Rept_Date":"2019-11-30 12"},"coordinates":[8101,6108]},{"type":"Point","properties":{"Station_ID":"SVBQ6","Station_Nam":"SAVANT BASE","Latitude":"50.28730","Longitude":"-90.65670","Snowdepth":"7.440","Units":"in","Rept_Date":"2019-12-01 06"},"coordinates":[1545,9133]},{"type":"Point","properties":{"Station_ID":"WI-DG-20","Station_Nam":"SOLON SPRINGS 1.2 W, WI","Latitude":"46.35217","Longitude":"-91.84405","Snowdepth":"7.000","Units":"in","Rept_Date":"2019-11-30 13"},"coordinates":[1266,6764]},{"type":"Point","properties":{"Station_ID":"WI-BY-6","Station_Nam":"BARNES 2.2 S, WI","Latitude":"46.30264","Longitude":"-91.50320","Snowdepth":"7.000","Units":"in","Rept_Date":"2019-11-30 13"},"coordinates":[1346,6734]},{"type":"Point","properties":{"Station_ID":"WDOM5","Station_Nam":"WINDOM","Latitude":"43.87700","Longitude":"-95.11590","Snowdepth":"7.000","Units":"in","Rept_Date":"2019-11-30 14"},"coordinates":[498,5274]},{"type":"Point","properties":{"Station_ID":"SPRI4","Station_Nam":"SPIRIT LAKE","Latitude":"43.42310","Longitude":"-95.10000","Snowdepth":"7.000","Units":"in","Rept_Date":"2019-11-30 13"},"coordinates":[502,5001]},{"type":"Point","properties":{"Station_ID":"SIBI4","Station_Nam":"SIBLEY","Latitude":"43.40470","Longitude":"-95.74830","Snowdepth":"7.000","Units":"in","Rept_Date":"2019-11-30 13"},"coordinates":[350,4990]},{"type":"Point","properties":{"Station_ID":"MSP","Station_Nam":"MINNEAPOLIS-ST PAUL INTL AP","Latitude":"44.88310","Longitude":"-93.22890","Snowdepth":"7.000","Units":"in","Rept_Date":"2019-12-01 00"},"coordinates":[941,5880]},{"type":"Point","properties":{"Station_ID":"MQRW3","Station_Nam":"MINOCQUA","Latitude":"45.88630","Longitude":"-89.73220","Snowdepth":"7.000","Units":"in","Rept_Date":"2019-11-30 12"},"coordinates":[1762,6484]},{"type":"Point","properties":{"Station_ID":"MN-RM-99","Station_Nam":"ROSEVILLE 0.7 SSE, MN","Latitude":"45.00583","Longitude":"-93.15040","Snowdepth":"7.000","Units":"in","Rept_Date":"2019-11-30 13"},"coordinates":[959,5954]},{"type":"Point","properties":{"Station_ID":"MN-RM-2","Station_Nam":"NORTH SAINT PAUL 1.0 NNW, MN","Latitude":"45.02629","Longitude":"-93.00790","Snowdepth":"7.000","Units":"in","Rept_Date":"2019-11-30 13"},"coordinates":[993,5966]},{"type":"Point","properties":{"Station_ID":"MN-HN-181","Station_Nam":"MINNEAPOLIS 0.4 NE, MN","Latitude":"44.96708","Longitude":"-93.26222","Snowdepth":"7.000","Units":"in","Rept_Date":"2019-11-30 13"},"coordinates":[933,5930]},{"type":"Point","properties":{"Station_ID":"MN-CV-22","Station_Nam":"VICTORIA 1.6 WSW, MN","Latitude":"44.85670","Longitude":"-93.68640","Snowdepth":"7.000","Units":"in","Rept_Date":"2019-11-30 13"},"coordinates":[834,5864]},{"type":"Point","properties":{"Station_ID":"MLCM5","Station_Nam":"MILACA","Latitude":"45.75320","Longitude":"-93.66170","Snowdepth":"7.000","Units":"in","Rept_Date":"2019-11-30 13"},"coordinates":[839,6403]},{"type":"Point","properties":{"Station_ID":"MAIW3","Station_Nam":"MADELINE ISLAND","Latitude":"46.78330","Longitude":"-90.76670","Snowdepth":"7.000","Units":"in","Rept_Date":"2019-11-30 13"},"coordinates":[1519,7023]},{"type":"Point","properties":{"Station_ID":"KMSP","Station_Nam":"MINNEAPOLIS-ST PAUL INTERNATIONAL","Latitude":"44.86666","Longitude":"-93.21666","Snowdepth":"7.000","Units":"in","Rept_Date":"2019-12-01 06"},"coordinates":[944,5870]},{"type":"Point","properties":{"Station_ID":"JORM5","Station_Nam":"JORDAN 1SSW","Latitude":"44.65010","Longitude":"-93.63560","Snowdepth":"7.000","Units":"in","Rept_Date":"2019-11-30 11"},"coordinates":[846,5740]},{"type":"Point","properties":{"Station_ID":"IA-DK-11","Station_Nam":"SPIRIT LAKE 1.7 SW, IA","Latitude":"43.40694","Longitude":"-95.13694","Snowdepth":"7.000","Units":"in","Rept_Date":"2019-11-30 14"},"coordinates":[493,4991]},{"type":"Point","properties":{"Station_ID":"FISM1","Station_Nam":"FORT KENT COOP","Latitude":"47.23850","Longitude":"-68.61240","Snowdepth":"7.000","Units":"in","Rept_Date":"2019-11-30 12"},"coordinates":[6718,7297]},{"type":"Point","properties":{"Station_ID":"ELWW3","Station_Nam":"ELLSWORTH 1E","Latitude":"44.73030","Longitude":"-92.45860","Snowdepth":"7.000","Units":"in","Rept_Date":"2019-11-30 13"},"coordinates":[1122,5788]},{"type":"Point","properties":{"Station_ID":"DRDW3","Station_Nam":"DURAND","Latitude":"44.61970","Longitude":"-91.97950","Snowdepth":"7.000","Units":"in","Rept_Date":"2019-11-30 14"},"coordinates":[1234,5721]},{"type":"Point","properties":{"Station_ID":"CLKM4","Station_Nam":"CLARKSBURG","Latitude":"46.49910","Longitude":"-87.84500","Snowdepth":"7.000","Units":"in","Rept_Date":"2019-11-30 12"},"coordinates":[2205,6852]},{"type":"Point","properties":{"Station_ID":"CHPW3","Station_Nam":"CHIPPEWA FALLS","Latitude":"44.92770","Longitude":"-91.40810","Snowdepth":"7.000","Units":"in","Rept_Date":"2019-11-30 14"},"coordinates":[1368,5907]},{"type":"Point","properties":{"Station_ID":"CAN-PE-19","Station_Nam":"CHARLOTTETOWN 6.5 NNW, CAN","Latitude":"46.29235","Longitude":"-63.17271","Snowdepth":"6.900","Units":"in","Rept_Date":"2019-11-30 12"},"coordinates":[7995,6728]},{"type":"Point","properties":{"Station_ID":"WI-SC-24","Station_Nam":"DEER PARK 2.6 SSE, WI","Latitude":"45.15739","Longitude":"-92.35759","Snowdepth":"6.500","Units":"in","Rept_Date":"2019-11-30 13"},"coordinates":[1146,6045]},{"type":"Point","properties":{"Station_ID":"WI-SC-21","Station_Nam":"CLEAR LAKE 4.0 S, WI","Latitude":"45.19250","Longitude":"-92.27860","Snowdepth":"6.500","Units":"in","Rept_Date":"2019-11-30 14"},"coordinates":[1164,6066]},{"type":"Point","properties":{"Station_ID":"WI-DN-15","Station_Nam":"MENOMONIE 0.9 NW, WI","Latitude":"44.89832","Longitude":"-91.92398","Snowdepth":"6.500","Units":"in","Rept_Date":"2019-11-30 13"},"coordinates":[1247,5889]},{"type":"Point","properties":{"Station_ID":"MN-WC-5","Station_Nam":"WASECA 0.9 NNE, MN","Latitude":"44.09451","Longitude":"-93.49289","Snowdepth":"6.500","Units":"in","Rept_Date":"2019-11-30 13"},"coordinates":[879,5405]},{"type":"Point","properties":{"Station_ID":"CAN-NB-11","Station_Nam":"MIRAMICHI 3.3 S, CAN","Latitude":"46.99343","Longitude":"-65.50690","Snowdepth":"6.500","Units":"in","Rept_Date":"2019-11-30 12"},"coordinates":[7447,7150]},{"type":"Point","properties":{"Station_ID":"MN-WC-8","Station_Nam":"WASECA 2.0 N, MN","Latitude":"44.11194","Longitude":"-93.49972","Snowdepth":"6.400","Units":"in","Rept_Date":"2019-11-30 13"},"coordinates":[877,5416]},{"type":"Point","properties":{"Station_ID":"MN-TD-8","Station_Nam":"BROWERVILLE 0.4 NW, MN","Latitude":"46.08559","Longitude":"-94.87041","Snowdepth":"6.400","Units":"in","Rept_Date":"2019-11-30 22"},"coordinates":[556,6604]},{"type":"Point","properties":{"Station_ID":"CAN-PE-43","Station_Nam":"GLENCOE 0.3 W, CAN","Latitude":"46.20115","Longitude":"-62.81740","Snowdepth":"6.100","Units":"in","Rept_Date":"2019-11-30 12"},"coordinates":[8078,6673]},{"type":"Point","properties":{"Station_ID":"WNNM5","Station_Nam":"WINNEBAGO","Latitude":"43.76920","Longitude":"-94.18730","Snowdepth":"6.000","Units":"in","Rept_Date":"2019-11-30 13"},"coordinates":[716,5209]},{"type":"Point","properties":{"Station_ID":"WMRM5","Station_Nam":"WILLMAR 5N","Latitude":"45.19010","Longitude":"-95.05860","Snowdepth":"6.000","Units":"in","Rept_Date":"2019-11-30 12"},"coordinates":[512,6065]},{"type":"Point","properties":{"Station_ID":"WLKW3","Station_Nam":"WHITE LAKE 1 SE","Latitude":"45.14520","Longitude":"-88.74160","Snowdepth":"6.000","Units":"in","Rept_Date":"2019-11-30 14"},"coordinates":[1994,6038]},{"type":"Point","properties":{"Station_ID":"WI-PC-5","Station_Nam":"RIVER FALLS 1.2 SSW, WI","Latitude":"44.84032","Longitude":"-92.63500","Snowdepth":"6.000","Units":"in","Rept_Date":"2019-11-30 13"},"coordinates":[1080,5854]},{"type":"Point","properties":{"Station_ID":"WI-EC-5","Station_Nam":"ALTOONA 0.4 SW, WI","Latitude":"44.80128","Longitude":"-91.44819","Snowdepth":"6.000","Units":"in","Rept_Date":"2019-11-30 12"},"coordinates":[1359,5831]},{"type":"Point","properties":{"Station_ID":"WI-EC-23","Station_Nam":"EAU CLAIRE 3.7 S, WI","Latitude":"44.76858","Longitude":"-91.49898","Snowdepth":"6.000","Units":"in","Rept_Date":"2019-11-30 15"},"coordinates":[1347,5811]},{"type":"Point","properties":{"Station_ID":"WI-DN-5","Station_Nam":"ELK MOUND 1.3 NE, WI","Latitude":"44.88627","Longitude":"-91.66680","Snowdepth":"6.000","Units":"in","Rept_Date":"2019-11-30 13"},"coordinates":[1308,5882]},{"type":"Point","properties":{"Station_ID":"WI-BR-2","Station_Nam":"CHETEK 2.0 SE, WI","Latitude":"45.29427","Longitude":"-91.62470","Snowdepth":"6.000","Units":"in","Rept_Date":"2019-11-30 13"},"coordinates":[1318,6127]},{"type":"Point","properties":{"Station_ID":"WELM5","Station_Nam":"WELLS","Latitude":"43.74680","Longitude":"-93.73680","Snowdepth":"6.000","Units":"in","Rept_Date":"2019-11-30 14"},"coordinates":[822,5196]},{"type":"Point","properties":{"Station_ID":"TOPM1","Station_Nam":"TOPSFIELD","Latitude":"45.43470","Longitude":"-67.72020","Snowdepth":"6.000","Units":"in","Rept_Date":"2019-11-30 12"},"coordinates":[6928,6212]},{"type":"Point","properties":{"Station_ID":"TOGM5","Station_Nam":"CELINA 2E","Latitude":"47.86630","Longitude":"-93.02660","Snowdepth":"6.000","Units":"in","Rept_Date":"2019-11-30 14"},"coordinates":[989,7675]},{"type":"Point","properties":{"Station_ID":"TETM5","Station_Nam":"TETTEGOUCHE STATE PARK","Latitude":"47.33900","Longitude":"-91.19590","Snowdepth":"6.000","Units":"in","Rept_Date":"2019-11-30 14"},"coordinates":[1418,7358]},{"type":"Point","properties":{"Station_ID":"SCSM5","Station_Nam":"ST CLOUD STATE","Latitude":"45.55100","Longitude":"-94.14950","Snowdepth":"6.000","Units":"in","Rept_Date":"2019-11-30 12"},"coordinates":[725,6282]},{"type":"Point","properties":{"Station_ID":"RRLW3","Station_Nam":"MERRILL,WI","Latitude":"45.17860","Longitude":"-89.66170","Snowdepth":"6.000","Units":"in","Rept_Date":"2019-11-30 14"},"coordinates":[1778,6058]},{"type":"Point","properties":{"Station_ID":"PRDM4","Station_Nam":"PARADISE","Latitude":"46.60380","Longitude":"-85.03960","Snowdepth":"6.000","Units":"in","Rept_Date":"2019-11-30 11"},"coordinates":[2863,6915]},{"type":"Point","properties":{"Station_ID":"NUMM5","Station_Nam":"NEW ULM 3SE","Latitude":"44.29450","Longitude":"-94.40840","Snowdepth":"6.000","Units":"in","Rept_Date":"2019-11-30 12"},"coordinates":[664,5525]},{"type":"Point","properties":{"Station_ID":"MPXM5","Station_Nam":"CHANHASSEN WSFO","Latitude":"44.84960","Longitude":"-93.56440","Snowdepth":"6.000","Units":"in","Rept_Date":"2019-12-01 06"},"coordinates":[862,5860]},{"type":"Point","properties":{"Station_ID":"MNSM4","Station_Nam":"MUNISING","Latitude":"46.41210","Longitude":"-86.66250","Snowdepth":"6.000","Units":"in","Rept_Date":"2019-11-30 11"},"coordinates":[2482,6800]},{"type":"Point","properties":{"Station_ID":"MNJLCQKL","Station_Nam":"KIMBALL 2.6 NNW","Latitude":"45.34917","Longitude":"-94.31303","Snowdepth":"6.000","Units":"in","Rept_Date":"2019-11-30 12"},"coordinates":[687,6160]},{"type":"Point","properties":{"Station_ID":"MNF74YNU","Station_Nam":"NEW ULM 3.3 ESE","Latitude":"44.29029","Longitude":"-94.40196","Snowdepth":"6.000","Units":"in","Rept_Date":"2019-11-30 11"},"coordinates":[666,5523]},{"type":"Point","properties":{"Station_ID":"MNE9SLWI","Station_Nam":"LEAVENWORTH 5.4 S","Latitude":"44.14481","Longitude":"-94.78882","Snowdepth":"6.000","Units":"in","Rept_Date":"2019-11-30 13"},"coordinates":[575,5435]},{"type":"Point","properties":{"Station_ID":"MN7TCHCK","Station_Nam":"COOK 0.2 ENE","Latitude":"47.85225","Longitude":"-92.68378","Snowdepth":"6.000","Units":"in","Rept_Date":"2019-11-30 12"},"coordinates":[1069,7667]},{"type":"Point","properties":{"Station_ID":"MN-WR-40","Station_Nam":"CLEARWATER 5.4 SSE, MN","Latitude":"45.34795","Longitude":"-94.03374","Snowdepth":"6.000","Units":"in","Rept_Date":"2019-11-30 14"},"coordinates":[752,6160]},{"type":"Point","properties":{"Station_ID":"MN-SR-29","Station_Nam":"ALBANY 3.8 S, MN","Latitude":"45.57441","Longitude":"-94.55543","Snowdepth":"6.000","Units":"in","Rept_Date":"2019-11-30 13"},"coordinates":[630,6296]},{"type":"Point","properties":{"Station_ID":"MN-SH-10","Station_Nam":"BIG LAKE 5.6 NNE, MN","Latitude":"45.41409","Longitude":"-93.69190","Snowdepth":"6.000","Units":"in","Rept_Date":"2019-11-30 13"},"coordinates":[832,6199]},{"type":"Point","properties":{"Station_ID":"MN-SE-2","Station_Nam":"OWATONNA 0.8 E, MN","Latitude":"44.09170","Longitude":"-93.21380","Snowdepth":"6.000","Units":"in","Rept_Date":"2019-11-30 13"},"coordinates":[945,5403]},{"type":"Point","properties":{"Station_ID":"MN-RM-56","Station_Nam":"ROSEVILLE 1.6 NW, MN","Latitude":"45.03303","Longitude":"-93.17523","Snowdepth":"6.000","Units":"in","Rept_Date":"2019-11-30 15"},"coordinates":[954,5970]},{"type":"Point","properties":{"Station_ID":"MN-RM-15","Station_Nam":"ROSEVILLE 2.1 NW, MN","Latitude":"45.03502","Longitude":"-93.18620","Snowdepth":"6.000","Units":"in","Rept_Date":"2019-11-30 12"},"coordinates":[951,5971]},{"type":"Point","properties":{"Station_ID":"MN-OL-18","Station_Nam":"ROCHESTER 2.6 NE, MN","Latitude":"44.03975","Longitude":"-92.43750","Snowdepth":"6.000","Units":"in","Rept_Date":"2019-11-30 12"},"coordinates":[1127,5372]},{"type":"Point","properties":{"Station_ID":"MN-HN-78","Station_Nam":"RICHFIELD 1.9 WNW, MN","Latitude":"44.89129","Longitude":"-93.31410","Snowdepth":"6.000","Units":"in","Rept_Date":"2019-11-30 10"},"coordinates":[921,5885]},{"type":"Point","properties":{"Station_ID":"MN-HN-6","Station_Nam":"LONG LAKE 0.2 WSW, MN","Latitude":"44.98290","Longitude":"-93.57360","Snowdepth":"6.000","Units":"in","Rept_Date":"2019-11-30 13"},"coordinates":[860,5940]},{"type":"Point","properties":{"Station_ID":"MN-HN-240","Station_Nam":"BLOOMINGTON 3.1 E, MN","Latitude":"44.83704","Longitude":"-93.25318","Snowdepth":"6.000","Units":"in","Rept_Date":"2019-11-30 15"},"coordinates":[935,5852]},{"type":"Point","properties":{"Station_ID":"MN-DK-70","Station_Nam":"EAGAN 2.0 NNW, MN","Latitude":"44.84322","Longitude":"-93.17899","Snowdepth":"6.000","Units":"in","Rept_Date":"2019-11-30 14"},"coordinates":[953,5856]},{"type":"Point","properties":{"Station_ID":"MN-CK-3","Station_Nam":"TOFTE 4.9 NE, MN","Latitude":"47.62394","Longitude":"-90.76100","Snowdepth":"6.000","Units":"in","Rept_Date":"2019-11-30 13"},"coordinates":[1520,7529]},{"type":"Point","properties":{"Station_ID":"MN-BW-8","Station_Nam":"COMFREY 6.5 ENE, MN","Latitude":"44.15109","Longitude":"-94.78516","Snowdepth":"6.000","Units":"in","Rept_Date":"2019-11-30 13"},"coordinates":[576,5439]},{"type":"Point","properties":{"Station_ID":"MIEM4","Station_Nam":"MICHIGAMME 3WNW","Latitude":"46.54530","Longitude":"-88.18000","Snowdepth":"6.000","Units":"in","Rept_Date":"2019-11-30 13"},"coordinates":[2126,6880]},{"type":"Point","properties":{"Station_ID":"MEDW3","Station_Nam":"MEDFORD","Latitude":"45.13080","Longitude":"-90.34390","Snowdepth":"6.000","Units":"in","Rept_Date":"2019-11-30 14"},"coordinates":[1618,6029]},{"type":"Point","properties":{"Station_ID":"LEIM5","Station_Nam":"ORR 3E","Latitude":"48.05810","Longitude":"-92.75220","Snowdepth":"6.000","Units":"in","Rept_Date":"2019-11-30 12"},"coordinates":[1053,7791]},{"type":"Point","properties":{"Station_ID":"KIMM5","Station_Nam":"KIMBALL 3N","Latitude":"45.35330","Longitude":"-94.30560","Snowdepth":"6.000","Units":"in","Rept_Date":"2019-11-30 12"},"coordinates":[688,6163]},{"type":"Point","properties":{"Station_ID":"JIMW3","Station_Nam":"JIM FALLS 3NW","Latitude":"45.08270","Longitude":"-91.33130","Snowdepth":"6.000","Units":"in","Rept_Date":"2019-11-30 12"},"coordinates":[1386,6000]},{"type":"Point","properties":{"Station_ID":"ISEM5","Station_Nam":"ISLE 12N","Latitude":"46.31970","Longitude":"-93.50140","Snowdepth":"6.000","Units":"in","Rept_Date":"2019-11-30 14"},"coordinates":[877,6744]},{"type":"Point","properties":{"Station_ID":"IMNM4","Station_Nam":"IRON MOUTAIN 5N","Latitude":"45.87580","Longitude":"-88.04030","Snowdepth":"6.000","Units":"in","Rept_Date":"2019-12-01 01"},"coordinates":[2159,6477]},{"type":"Point","properties":{"Station_ID":"ILIM5","Station_Nam":"ISLAND LAKE","Latitude":"47.02400","Longitude":"-92.07000","Snowdepth":"6.000","Units":"in","Rept_Date":"2019-11-30 15"},"coordinates":[1213,7168]},{"type":"Point","properties":{"Station_ID":"FORM5","Station_Nam":"FOREST LAKE 5NE","Latitude":"45.33170","Longitude":"-92.89820","Snowdepth":"6.000","Units":"in","Rept_Date":"2019-11-30 13"},"coordinates":[1019,6150]},{"type":"Point","properties":{"Station_ID":"EGNM5","Station_Nam":"ELGIN 2SSW","Latitude":"44.09700","Longitude":"-92.27010","Snowdepth":"6.000","Units":"in","Rept_Date":"2019-11-30 13"},"coordinates":[1166,5407]},{"type":"Point","properties":{"Station_ID":"CORM1","Station_Nam":"CORINNA","Latitude":"44.91980","Longitude":"-69.24180","Snowdepth":"6.000","Units":"in","Rept_Date":"2019-11-30 16"},"coordinates":[6571,5902]},{"type":"Point","properties":{"Station_ID":"COKM5","Station_Nam":"COOK","Latitude":"47.85060","Longitude":"-92.69250","Snowdepth":"6.000","Units":"in","Rept_Date":"2019-11-30 12"},"coordinates":[1067,7666]},{"type":"Point","properties":{"Station_ID":"CLBW3","Station_Nam":"COLBY 6SW","Latitude":"44.87080","Longitude":"-90.42480","Snowdepth":"6.000","Units":"in","Rept_Date":"2019-12-01 04"},"coordinates":[1599,5872]},{"type":"Point","properties":{"Station_ID":"ANDM1","Station_Nam":"ANDOVER 2","Latitude":"44.65300","Longitude":"-70.79410","Snowdepth":"6.000","Units":"in","Rept_Date":"2019-11-30 12"},"coordinates":[6206,5741]},{"type":"Point","properties":{"Station_ID":"ADVM5","Station_Nam":"ANDOVER 1N","Latitude":"45.25340","Longitude":"-93.29270","Snowdepth":"6.000","Units":"in","Rept_Date":"2019-11-30 11"},"coordinates":[926,6103]},{"type":"Point","properties":{"Station_ID":"KABQ6","Station_Nam":"CAB LAKE","Latitude":"49.59950","Longitude":"-89.17990","Snowdepth":"5.980","Units":"in","Rept_Date":"2019-12-01 06"},"coordinates":[1891,8719]},{"type":"Point","properties":{"Station_ID":"ME-FR-22","Station_Nam":"FARMINGTON 4.8 NNW, ME","Latitude":"44.73396","Longitude":"-70.18007","Snowdepth":"5.800","Units":"in","Rept_Date":"2019-11-30 14"},"coordinates":[6350,5790]},{"type":"Point","properties":{"Station_ID":"WI-BY-1","Station_Nam":"BAYFIELD 8.8 N, WI","Latitude":"46.93855","Longitude":"-90.83490","Snowdepth":"5.500","Units":"in","Rept_Date":"2019-11-30 13"},"coordinates":[1503,7117]},{"type":"Point","properties":{"Station_ID":"WI-AS-4","Station_Nam":"ASHLAND 0.5 WNW, WI","Latitude":"46.58240","Longitude":"-90.88390","Snowdepth":"5.500","Units":"in","Rept_Date":"2019-11-30 13"},"coordinates":[1491,6903]},{"type":"Point","properties":{"Station_ID":"MN-WR-48","Station_Nam":"SAINT MICHAEL 2.5 SSW, MN","Latitude":"45.16700","Longitude":"-93.70530","Snowdepth":"5.500","Units":"in","Rept_Date":"2019-11-30 13"},"coordinates":[829,6051]},{"type":"Point","properties":{"Station_ID":"MN-SR-32","Station_Nam":"SAINT CLOUD 2.2 NW, MN","Latitude":"45.57548","Longitude":"-94.17583","Snowdepth":"5.500","Units":"in","Rept_Date":"2019-11-30 14"},"coordinates":[719,6296]},{"type":"Point","properties":{"Station_ID":"MN-SR-24","Station_Nam":"PAYNESVILLE 1.9 SSW, MN","Latitude":"45.35170","Longitude":"-94.73120","Snowdepth":"5.500","Units":"in","Rept_Date":"2019-11-30 13"},"coordinates":[588,6162]},{"type":"Point","properties":{"Station_ID":"MN-SC-33","Station_Nam":"SHAKOPEE 2.6 W, MN","Latitude":"44.78173","Longitude":"-93.52868","Snowdepth":"5.500","Units":"in","Rept_Date":"2019-11-30 14"},"coordinates":[871,5819]},{"type":"Point","properties":{"Station_ID":"MN-RM-54","Station_Nam":"SAINT PAUL 5.1 SW, MN","Latitude":"44.90390","Longitude":"-93.18820","Snowdepth":"5.500","Units":"in","Rept_Date":"2019-11-30 13"},"coordinates":[951,5892]},{"type":"Point","properties":{"Station_ID":"MN-LN-4","Station_Nam":"HENDRICKS 8.0 SE, MN","Latitude":"44.41266","Longitude":"-96.33647","Snowdepth":"5.500","Units":"in","Rept_Date":"2019-11-30 13"},"coordinates":[212,5597]},{"type":"Point","properties":{"Station_ID":"MN-CW-29","Station_Nam":"BRAINERD 7.7 SSE, MN","Latitude":"46.24996","Longitude":"-94.14576","Snowdepth":"5.500","Units":"in","Rept_Date":"2019-11-30 18"},"coordinates":[726,6702]},{"type":"Point","properties":{"Station_ID":"CATQ6","Station_Nam":"CAT LAKE","Latitude":"51.72690","Longitude":"-91.82210","Snowdepth":"5.310","Units":"in","Rept_Date":"2019-12-01 06"},"coordinates":[1271,9999]},{"type":"Point","properties":{"Station_ID":"MN-AA-85","Station_Nam":"LINO LAKES 1.8 W, MN","Latitude":"45.16640","Longitude":"-93.12063","Snowdepth":"5.300","Units":"in","Rept_Date":"2019-11-30 13"},"coordinates":[966,6050]},{"type":"Point","properties":{"Station_ID":"MN-HN-19","Station_Nam":"EDINA 1.3 SW, MN","Latitude":"44.87830","Longitude":"-93.37890","Snowdepth":"5.200","Units":"in","Rept_Date":"2019-11-30 14"},"coordinates":[906,5877]},{"type":"Point","properties":{"Station_ID":"SOCQ6","Station_Nam":"SOCKET LAKE","Latitude":"50.77870","Longitude":"-91.79300","Snowdepth":"5.160","Units":"in","Rept_Date":"2019-12-01 06"},"coordinates":[1278,9428]},{"type":"Point","properties":{"Station_ID":"CAN-QC-47","Station_Nam":"SAINTE-FOY 1.8 ENE, CAN","Latitude":"46.76934","Longitude":"-71.27124","Snowdepth":"5.100","Units":"in","Rept_Date":"2019-11-30 12"},"coordinates":[6094,7015]},{"type":"Point","properties":{"Station_ID":"CAN-PE-36","Station_Nam":"SPRING VALLEY 1.5 SE - MCPEI, CAN","Latitude":"46.48997","Longitude":"-63.61226","Snowdepth":"5.100","Units":"in","Rept_Date":"2019-11-30 12"},"coordinates":[7892,6847]},{"type":"Point","properties":{"Station_ID":"WLDM5","Station_Nam":"WILD RIVER STATE PARK","Latitude":"45.52310","Longitude":"-92.74890","Snowdepth":"5.000","Units":"in","Rept_Date":"2019-11-30 15"},"coordinates":[1054,6265]},{"type":"Point","properties":{"Station_ID":"WI-MT-1","Station_Nam":"SCHOFIELD 3.3 E, WI","Latitude":"44.91806","Longitude":"-89.54470","Snowdepth":"5.000","Units":"in","Rept_Date":"2019-11-30 13"},"coordinates":[1806,5901]},{"type":"Point","properties":{"Station_ID":"WI-BT-14","Station_Nam":"OAKLAND 9.0 ENE, WI","Latitude":"45.95184","Longitude":"-92.21653","Snowdepth":"5.000","Units":"in","Rept_Date":"2019-11-30 13"},"coordinates":[1179,6523]},{"type":"Point","properties":{"Station_ID":"WABM5","Station_Nam":"WABASHA","Latitude":"44.38500","Longitude":"-92.04860","Snowdepth":"5.000","Units":"in","Rept_Date":"2019-11-30 13"},"coordinates":[1218,5580]},{"type":"Point","properties":{"Station_ID":"VT-OL-12","Station_Nam":"GREENSBORO 3.9 NNE, VT","Latitude":"44.63100","Longitude":"-72.28000","Snowdepth":"5.000","Units":"in","Rept_Date":"2019-11-30 13"},"coordinates":[5858,5728]},{"type":"Point","properties":{"Station_ID":"VT-CL-3","Station_Nam":"GROTON 4.4 WSW, VT","Latitude":"44.19440","Longitude":"-72.28240","Snowdepth":"5.000","Units":"in","Rept_Date":"2019-11-30 11"},"coordinates":[5857,5465]},{"type":"Point","properties":{"Station_ID":"THLM5","Station_Nam":"THEILMAN 1SSW","Latitude":"44.28130","Longitude":"-92.19430","Snowdepth":"5.000","Units":"in","Rept_Date":"2019-11-30 13"},"coordinates":[1184,5518]},{"type":"Point","properties":{"Station_ID":"STIM5","Station_Nam":"STILLWATER 2SW","Latitude":"45.04540","Longitude":"-92.85220","Snowdepth":"5.000","Units":"in","Rept_Date":"2019-11-30 14"},"coordinates":[1029,5977]},{"type":"Point","properties":{"Station_ID":"SSMM4","Station_Nam":"SAULT STE MARIE","Latitude":"46.48660","Longitude":"-84.40250","Snowdepth":"5.000","Units":"in","Rept_Date":"2019-11-30 13"},"coordinates":[3013,6845]},{"type":"Point","properties":{"Station_ID":"SHDI4","Station_Nam":"SHELDON,IA","Latitude":"43.18080","Longitude":"-95.85280","Snowdepth":"5.000","Units":"in","Rept_Date":"2019-11-30 13"},"coordinates":[325,4855]},{"type":"Point","properties":{"Station_ID":"SANI4","Station_Nam":"ST ANSGAR","Latitude":"43.38170","Longitude":"-92.92320","Snowdepth":"5.000","Units":"in","Rept_Date":"2019-11-30 12"},"coordinates":[1013,4976]},{"type":"Point","properties":{"Station_ID":"RWGM5","Station_Nam":"RED WING","Latitude":"44.57120","Longitude":"-92.52830","Snowdepth":"5.000","Units":"in","Rept_Date":"2019-11-30 14"},"coordinates":[1105,5692]},{"type":"Point","properties":{"Station_ID":"OWAM5","Station_Nam":"OWATONNA","Latitude":"44.09760","Longitude":"-93.23180","Snowdepth":"5.000","Units":"in","Rept_Date":"2019-11-30 12"},"coordinates":[940,5407]},{"type":"Point","properties":{"Station_ID":"MWN","Station_Nam":"MOUNT WASHINGTON","Latitude":"44.26670","Longitude":"-71.30000","Snowdepth":"5.000","Units":"in","Rept_Date":"2019-12-01 05"},"coordinates":[6088,5509]},{"type":"Point","properties":{"Station_ID":"MRFS2","Station_Nam":"MADISON,SD","Latitude":"44.00000","Longitude":"-97.23330","Snowdepth":"5.000","Units":"in","Rept_Date":"2019-11-30 15"},"coordinates":[1,5348]},{"type":"Point","properties":{"Station_ID":"MNHZK4CP","Station_Nam":"WATERTOWN 0.8 NW","Latitude":"44.97073","Longitude":"-93.85906","Snowdepth":"5.000","Units":"in","Rept_Date":"2019-11-30 13"},"coordinates":[793,5932]},{"type":"Point","properties":{"Station_ID":"MNH7MKZS","Station_Nam":"HASTINGS 0.9 NW","Latitude":"44.74710","Longitude":"-92.87300","Snowdepth":"5.000","Units":"in","Rept_Date":"2019-11-30 11"},"coordinates":[1025,5798]},{"type":"Point","properties":{"Station_ID":"MN0HS1SL","Station_Nam":"NORTH SAINT PAUL 1.6 NW","Latitude":"45.02800","Longitude":"-93.01506","Snowdepth":"5.000","Units":"in","Rept_Date":"2019-11-30 13"},"coordinates":[991,5967]},{"type":"Point","properties":{"Station_ID":"MN-SR-9","Station_Nam":"SARTELL 1.4 SSE, MN","Latitude":"45.60179","Longitude":"-94.19910","Snowdepth":"5.000","Units":"in","Rept_Date":"2019-11-30 13"},"coordinates":[713,6312]},{"type":"Point","properties":{"Station_ID":"MN-SL-15","Station_Nam":"CHISHOLM 0.4 WSW, MN","Latitude":"47.48557","Longitude":"-92.88690","Snowdepth":"5.000","Units":"in","Rept_Date":"2019-11-30 13"},"coordinates":[1021,7446]},{"type":"Point","properties":{"Station_ID":"MN-SH-985","Station_Nam":"PRINCETON 3.3 WSW, MN","Latitude":"45.55211","Longitude":"-93.64481","Snowdepth":"5.000","Units":"in","Rept_Date":"2019-11-30 12"},"coordinates":[843,6282]},{"type":"Point","properties":{"Station_ID":"MN-RM-63","Station_Nam":"NORTH SAINT PAUL 1.0 NW, MN","Latitude":"45.02410","Longitude":"-93.01400","Snowdepth":"5.000","Units":"in","Rept_Date":"2019-11-30 13"},"coordinates":[991,5965]},{"type":"Point","properties":{"Station_ID":"MN-MT-6","Station_Nam":"FAIRMONT 0.7 E, MN","Latitude":"43.64501","Longitude":"-94.44860","Snowdepth":"5.000","Units":"in","Rept_Date":"2019-11-30 15"},"coordinates":[655,5135]},{"type":"Point","properties":{"Station_ID":"MN-MR-4","Station_Nam":"LITTLE FALLS 1.2 SW, MN","Latitude":"45.96886","Longitude":"-94.37720","Snowdepth":"5.000","Units":"in","Rept_Date":"2019-11-30 13"},"coordinates":[672,6533]},{"type":"Point","properties":{"Station_ID":"MN-HN-31","Station_Nam":"MAPLE GROVE 1.0 NNE, MN","Latitude":"45.12261","Longitude":"-93.45790","Snowdepth":"5.000","Units":"in","Rept_Date":"2019-11-30 16"},"coordinates":[887,6024]},{"type":"Point","properties":{"Station_ID":"MN-HN-30","Station_Nam":"PLYMOUTH 2.4 ENE, MN","Latitude":"45.04063","Longitude":"-93.41950","Snowdepth":"5.000","Units":"in","Rept_Date":"2019-11-30 13"},"coordinates":[896,5975]},{"type":"Point","properties":{"Station_ID":"MN-HN-110","Station_Nam":"EDINA 1.9 SSE, MN","Latitude":"44.86875","Longitude":"-93.33940","Snowdepth":"5.000","Units":"in","Rept_Date":"2019-11-30 13"},"coordinates":[915,5871]},{"type":"Point","properties":{"Station_ID":"MN-GH-28","Station_Nam":"CANNON FALLS 0.5 SE, MN","Latitude":"44.50866","Longitude":"-92.89526","Snowdepth":"5.000","Units":"in","Rept_Date":"2019-11-30 14"},"coordinates":[1019,5654]},{"type":"Point","properties":{"Station_ID":"MN-FM-10","Station_Nam":"WYKOFF 3.1 NW, MN","Latitude":"43.74340","Longitude":"-92.30650","Snowdepth":"5.000","Units":"in","Rept_Date":"2019-11-30 13"},"coordinates":[1158,5194]},{"type":"Point","properties":{"Station_ID":"MN-CW-22","Station_Nam":"FORT RIPLEY 0.8 N, MN","Latitude":"46.18089","Longitude":"-94.36510","Snowdepth":"5.000","Units":"in","Rept_Date":"2019-11-30 13"},"coordinates":[674,6661]},{"type":"Point","properties":{"Station_ID":"MN-CV-8","Station_Nam":"WATERTOWN 0.5 NNW, MN","Latitude":"44.96631","Longitude":"-93.84890","Snowdepth":"5.000","Units":"in","Rept_Date":"2019-11-30 11"},"coordinates":[796,5930]},{"type":"Point","properties":{"Station_ID":"MMLM5","Station_Nam":"DIVERSION","Latitude":"44.47060","Longitude":"-95.80000","Snowdepth":"5.000","Units":"in","Rept_Date":"2019-11-30 15"},"coordinates":[338,5631]},{"type":"Point","properties":{"Station_ID":"ME-SM-10","Station_Nam":"NORTH NEW PORTLAND 0.3 WSW, ME","Latitude":"44.92353","Longitude":"-70.02788","Snowdepth":"5.000","Units":"in","Rept_Date":"2019-11-30 12"},"coordinates":[6386,5904]},{"type":"Point","properties":{"Station_ID":"LAKM5","Station_Nam":"LAKE CITY","Latitude":"44.43630","Longitude":"-92.27930","Snowdepth":"5.000","Units":"in","Rept_Date":"2019-11-30 13"},"coordinates":[1164,5611]},{"type":"Point","properties":{"Station_ID":"KMWN","Station_Nam":"MOUNT WASHINGTON","Latitude":"44.26666","Longitude":"-71.30000","Snowdepth":"5.000","Units":"in","Rept_Date":"2019-12-01 06"},"coordinates":[6088,5509]},{"type":"Point","properties":{"Station_ID":"JEFN3","Station_Nam":"JEFFERSON","Latitude":"44.41690","Longitude":"-71.50080","Snowdepth":"5.000","Units":"in","Rept_Date":"2019-11-30 12"},"coordinates":[6040,5599]},{"type":"Point","properties":{"Station_ID":"HSTM5","Station_Nam":"HASTINGS DAM 2","Latitude":"44.75970","Longitude":"-92.86890","Snowdepth":"5.000","Units":"in","Rept_Date":"2019-11-30 12"},"coordinates":[1026,5805]},{"type":"Point","properties":{"Station_ID":"GLDM4","Station_Nam":"GLADSTONE NO. 2","Latitude":"45.84330","Longitude":"-87.03910","Snowdepth":"5.000","Units":"in","Rept_Date":"2019-11-30 12"},"coordinates":[2394,6458]},{"type":"Point","properties":{"Station_ID":"ETTW3","Station_Nam":"ETTRICK 4WNW","Latitude":"44.19000","Longitude":"-91.34240","Snowdepth":"5.000","Units":"in","Rept_Date":"2019-11-30 12"},"coordinates":[1384,5463]},{"type":"Point","properties":{"Station_ID":"EMBM5","Station_Nam":"EMBARASS,MN","Latitude":"47.65810","Longitude":"-92.19580","Snowdepth":"5.000","Units":"in","Rept_Date":"2019-11-30 13"},"coordinates":[1184,7550]},{"type":"Point","properties":{"Station_ID":"ELRW3","Station_Nam":"EAU CLAIRE 3SW","Latitude":"44.78780","Longitude":"-91.51650","Snowdepth":"5.000","Units":"in","Rept_Date":"2019-12-01 06"},"coordinates":[1343,5822]},{"type":"Point","properties":{"Station_ID":"EAU","Station_Nam":"CHIPPEWA VALLEY REGIONAL AIRPORT","Latitude":"44.86650","Longitude":"-91.48790","Snowdepth":"5.000","Units":"in","Rept_Date":"2019-12-01 00"},"coordinates":[1350,5870]},{"type":"Point","properties":{"Station_ID":"CAN-NB-18","Station_Nam":"MCLEOD HILL 1.1 ENE, CA","Latitude":"46.02725","Longitude":"-66.67460","Snowdepth":"5.000","Units":"in","Rept_Date":"2019-11-30 12"},"coordinates":[7173,6568]},{"type":"Point","properties":{"Station_ID":"AWXW3","Station_Nam":"ASHLAND","Latitude":"46.58240","Longitude":"-90.88390","Snowdepth":"5.000","Units":"in","Rept_Date":"2019-11-30 13"},"coordinates":[1491,6903]},{"type":"Point","properties":{"Station_ID":"ANJM4","Station_Nam":"SNOW PAID OBSERVER FOR KANJ","Latitude":"46.48670","Longitude":"-84.40260","Snowdepth":"5.000","Units":"in","Rept_Date":"2019-11-30 18"},"coordinates":[3013,6845]},{"type":"Point","properties":{"Station_ID":"ANJ","Station_Nam":"SAULT STE MARIE","Latitude":"46.46670","Longitude":"-84.36670","Snowdepth":"5.000","Units":"in","Rept_Date":"2019-12-01 00"},"coordinates":[3021,6833]},{"type":"Point","properties":{"Station_ID":"CAN-NS-94","Station_Nam":"MARGAREE FORKS 2.6 SSE CBN, CAN","Latitude":"46.30937","Longitude":"-61.07603","Snowdepth":"4.700","Units":"in","Rept_Date":"2019-11-30 13"},"coordinates":[8487,6738]},{"type":"Point","properties":{"Station_ID":"WI-MT-4","Station_Nam":"WAUSAU 1.7 ENE, WI","Latitude":"44.96943","Longitude":"-89.61090","Snowdepth":"4.500","Units":"in","Rept_Date":"2019-11-30 13"},"coordinates":[1790,5932]},{"type":"Point","properties":{"Station_ID":"MN-SL-108","Station_Nam":"IRON JUNCTION 3.4 NNW, MN","Latitude":"47.46150","Longitude":"-92.63130","Snowdepth":"4.500","Units":"in","Rept_Date":"2019-11-30 13"},"coordinates":[1081,7432]},{"type":"Point","properties":{"Station_ID":"MN-MW-8","Station_Nam":"AUSTIN 2.4 W, MN","Latitude":"43.67190","Longitude":"-93.02280","Snowdepth":"4.500","Units":"in","Rept_Date":"2019-11-30 13"},"coordinates":[989,5151]},{"type":"Point","properties":{"Station_ID":"MN-MR-13","Station_Nam":"LITTLE FALLS 8.0 NE, MN","Latitude":"46.06785","Longitude":"-94.24789","Snowdepth":"4.500","Units":"in","Rept_Date":"2019-11-30 13"},"coordinates":[702,6593]},{"type":"Point","properties":{"Station_ID":"MN-MC-16","Station_Nam":"HUTCHINSON 0.1 ENE, MN","Latitude":"44.88633","Longitude":"-94.37503","Snowdepth":"4.500","Units":"in","Rept_Date":"2019-11-30 17"},"coordinates":[672,5882]},{"type":"Point","properties":{"Station_ID":"MN-DK-112","Station_Nam":"HASTINGS 5.8 W, MN","Latitude":"44.72325","Longitude":"-92.97235","Snowdepth":"4.500","Units":"in","Rept_Date":"2019-11-30 13"},"coordinates":[1001,5784]},{"type":"Point","properties":{"Station_ID":"MN-CK-18","Station_Nam":"GRAND MARAIS 4.4 WSW, MN","Latitude":"47.74462","Longitude":"-90.43796","Snowdepth":"4.500","Units":"in","Rept_Date":"2019-11-30 13"},"coordinates":[1596,7602]},{"type":"Point","properties":{"Station_ID":"CAN-NB-98","Station_Nam":"HOYT 4.2 S, CAN","Latitude":"45.54763","Longitude":"-66.55440","Snowdepth":"4.500","Units":"in","Rept_Date":"2019-11-30 11"},"coordinates":[7201,6280]},{"type":"Point","properties":{"Station_ID":"MN-SL-139","Station_Nam":"DULUTH 1.2 SE, MN","Latitude":"46.77000","Longitude":"-92.08826","Snowdepth":"4.400","Units":"in","Rept_Date":"2019-11-30 12"},"coordinates":[1209,7015]},{"type":"Point","properties":{"Station_ID":"MN-CW-8","Station_Nam":"BRAINERD 11.5 E, MN","Latitude":"46.38556","Longitude":"-93.95720","Snowdepth":"4.300","Units":"in","Rept_Date":"2019-11-30 14"},"coordinates":[770,6784]},{"type":"Point","properties":{"Station_ID":"MN-RW-11","Station_Nam":"BELVIEW 0.3 S, MN","Latitude":"44.60224","Longitude":"-95.32848","Snowdepth":"4.100","Units":"in","Rept_Date":"2019-11-30 13"},"coordinates":[448,5711]},{"type":"Point","properties":{"Station_ID":"WRNM5","Station_Nam":"WORTHINGTON,MN","Latitude":"43.65440","Longitude":"-95.57920","Snowdepth":"4.000","Units":"in","Rept_Date":"2019-11-30 13"},"coordinates":[389,5140]},{"type":"Point","properties":{"Station_ID":"WIDM5","Station_Nam":"WINONA DAM 5A","Latitude":"44.08750","Longitude":"-91.67030","Snowdepth":"4.000","Units":"in","Rept_Date":"2019-11-30 14"},"coordinates":[1307,5401]},{"type":"Point","properties":{"Station_ID":"WI-PT-8","Station_Nam":"RUDOLPH 2.1 NNE, WI","Latitude":"44.52553","Longitude":"-89.78677","Snowdepth":"4.000","Units":"in","Rept_Date":"2019-11-30 12"},"coordinates":[1749,5665]},{"type":"Point","properties":{"Station_ID":"WI-PC-10","Station_Nam":"RIVER FALLS 1.4 S, WI","Latitude":"44.83580","Longitude":"-92.62100","Snowdepth":"4.000","Units":"in","Rept_Date":"2019-11-30 13"},"coordinates":[1084,5851]},{"type":"Point","properties":{"Station_ID":"WI-MT-14","Station_Nam":"MOSINEE 2.7 WSW, WI","Latitude":"44.77240","Longitude":"-89.73441","Snowdepth":"4.000","Units":"in","Rept_Date":"2019-11-30 12"},"coordinates":[1761,5813]},{"type":"Point","properties":{"Station_ID":"WACM5","Station_Nam":"WACONIA","Latitude":"44.85330","Longitude":"-93.80260","Snowdepth":"4.000","Units":"in","Rept_Date":"2019-11-30 12"},"coordinates":[806,5862]},{"type":"Point","properties":{"Station_ID":"TOHM5","Station_Nam":"TWO HARBORS WWTP","Latitude":"47.01760","Longitude":"-91.66480","Snowdepth":"4.000","Units":"in","Rept_Date":"2019-11-30 13"},"coordinates":[1308,7164]},{"type":"Point","properties":{"Station_ID":"SSSS2","Station_Nam":"MILBANK-36MI.NW","Latitude":"45.66670","Longitude":"-97.00000","Snowdepth":"4.000","Units":"in","Rept_Date":"2019-12-01 04"},"coordinates":[56,6351]},{"type":"Point","properties":{"Station_ID":"SPCW3","Station_Nam":"SPENCER-WWTP","Latitude":"44.75390","Longitude":"-90.28920","Snowdepth":"4.000","Units":"in","Rept_Date":"2019-11-30 13"},"coordinates":[1631,5802]},{"type":"Point","properties":{"Station_ID":"SIWS2","Station_Nam":"SISSETON 3W","Latitude":"45.65870","Longitude":"-97.12450","Snowdepth":"4.000","Units":"in","Rept_Date":"2019-11-30 13"},"coordinates":[27,6347]},{"type":"Point","properties":{"Station_ID":"SD-MH-41","Station_Nam":"SIOUX FALLS 3.9 SW, SD","Latitude":"43.50475","Longitude":"-96.78660","Snowdepth":"4.000","Units":"in","Rept_Date":"2019-11-30 13"},"coordinates":[106,5050]},{"type":"Point","properties":{"Station_ID":"SD-GT-9","Station_Nam":"LABOLT 0.1 WSW, SD","Latitude":"45.04956","Longitude":"-96.67698","Snowdepth":"4.000","Units":"in","Rept_Date":"2019-11-30 15"},"coordinates":[132,5980]},{"type":"Point","properties":{"Station_ID":"RFDM5","Station_Nam":"ROCKFORD","Latitude":"45.08960","Longitude":"-93.73990","Snowdepth":"4.000","Units":"in","Rept_Date":"2019-11-30 13"},"coordinates":[821,6004]},{"type":"Point","properties":{"Station_ID":"RCEM5","Station_Nam":"RICE","Latitude":"45.75760","Longitude":"-94.20720","Snowdepth":"4.000","Units":"in","Rept_Date":"2019-11-30 13"},"coordinates":[711,6406]},{"type":"Point","properties":{"Station_ID":"PTBN3","Station_Nam":"DAM WITHIN","Latitude":"45.05000","Longitude":"-71.38330","Snowdepth":"4.000","Units":"in","Rept_Date":"2019-11-30 12"},"coordinates":[6068,5980]},{"type":"Point","properties":{"Station_ID":"PIPM5","Station_Nam":"PIPESTONE,MN","Latitude":"44.01390","Longitude":"-96.32580","Snowdepth":"4.000","Units":"in","Rept_Date":"2019-11-30 14"},"coordinates":[214,5357]},{"type":"Point","properties":{"Station_ID":"ORCI4","Station_Nam":"ORANGE CITY","Latitude":"43.00080","Longitude":"-96.05390","Snowdepth":"4.000","Units":"in","Rept_Date":"2019-11-30 13"},"coordinates":[278,4747]},{"type":"Point","properties":{"Station_ID":"NWSM1","Station_Nam":"NEW SHARON","Latitude":"44.63520","Longitude":"-70.00020","Snowdepth":"4.000","Units":"in","Rept_Date":"2019-11-30 12"},"coordinates":[6393,5731]},{"type":"Point","properties":{"Station_ID":"MNDMBBNN","Station_Nam":"OWATONNA 3.5 W","Latitude":"44.08801","Longitude":"-93.29623","Snowdepth":"4.000","Units":"in","Rept_Date":"2019-11-30 13"},"coordinates":[925,5401]},{"type":"Point","properties":{"Station_ID":"MN6JKRHL","Station_Nam":"TOFTE 0.6 SSW","Latitude":"47.56557","Longitude":"-90.84117","Snowdepth":"4.000","Units":"in","Rept_Date":"2019-11-30 13"},"coordinates":[1501,7494]},{"type":"Point","properties":{"Station_ID":"MN-WR-42","Station_Nam":"HOWARD LAKE 1.2 NW, MN","Latitude":"45.07454","Longitude":"-94.08120","Snowdepth":"4.000","Units":"in","Rept_Date":"2019-11-30 14"},"coordinates":[741,5995]},{"type":"Point","properties":{"Station_ID":"MN-WG-74","Station_Nam":"OAKDALE 0.4 S, MN","Latitude":"44.98208","Longitude":"-92.96510","Snowdepth":"4.000","Units":"in","Rept_Date":"2019-11-30 13"},"coordinates":[1003,5939]},{"type":"Point","properties":{"Station_ID":"MN-SL-115","Station_Nam":"COTTON 5.7 ESE, MN","Latitude":"47.15142","Longitude":"-92.35772","Snowdepth":"4.000","Units":"in","Rept_Date":"2019-11-30 14"},"coordinates":[1146,7245]},{"type":"Point","properties":{"Station_ID":"MN-RV-8","Station_Nam":"BIRD ISLAND 7.2 SSE, MN","Latitude":"44.66542","Longitude":"-94.85440","Snowdepth":"4.000","Units":"in","Rept_Date":"2019-11-30 13"},"coordinates":[560,5749]},{"type":"Point","properties":{"Station_ID":"MN-RC-11","Station_Nam":"NEW PRAGUE 4.8 ESE, MN","Latitude":"44.51999","Longitude":"-93.48470","Snowdepth":"4.000","Units":"in","Rept_Date":"2019-11-30 11"},"coordinates":[881,5661]},{"type":"Point","properties":{"Station_ID":"MN-GH-4","Station_Nam":"NERSTRAND 4.2 E, MN","Latitude":"44.34247","Longitude":"-92.97920","Snowdepth":"4.000","Units":"in","Rept_Date":"2019-11-30 13"},"coordinates":[1000,5554]},{"type":"Point","properties":{"Station_ID":"MN-DS-9","Station_Nam":"ALEXANDRIA 0.5 W, MN","Latitude":"45.87828","Longitude":"-95.38273","Snowdepth":"4.000","Units":"in","Rept_Date":"2019-11-30 12"},"coordinates":[436,6479]},{"type":"Point","properties":{"Station_ID":"MN-CK-6","Station_Nam":"GRAND MARAIS 4.4 W, MN","Latitude":"47.74865","Longitude":"-90.43760","Snowdepth":"4.000","Units":"in","Rept_Date":"2019-11-30 13"},"coordinates":[1596,7605]},{"type":"Point","properties":{"Station_ID":"MIAM5","Station_Nam":"MILAN 1NW","Latitude":"45.12190","Longitude":"-95.92690","Snowdepth":"4.000","Units":"in","Rept_Date":"2019-12-01 00"},"coordinates":[308,6023]},{"type":"Point","properties":{"Station_ID":"ME-FR-4","Station_Nam":"NEW SHARON 2.0 NW, ME","Latitude":"44.66582","Longitude":"-70.02720","Snowdepth":"4.000","Units":"in","Rept_Date":"2019-11-30 12"},"coordinates":[6386,5749]},{"type":"Point","properties":{"Station_ID":"LUCW3","Station_Nam":"LUCK","Latitude":"45.57330","Longitude":"-92.48520","Snowdepth":"4.000","Units":"in","Rept_Date":"2019-11-30 16"},"coordinates":[1116,6295]},{"type":"Point","properties":{"Station_ID":"LNGM5","Station_Nam":"LONG PRAIRIE","Latitude":"45.96460","Longitude":"-94.88920","Snowdepth":"4.000","Units":"in","Rept_Date":"2019-11-30 13"},"coordinates":[551,6531]},{"type":"Point","properties":{"Station_ID":"KABM5","Station_Nam":"KABETOGAMA LAKE VISITOR CTR","Latitude":"48.40880","Longitude":"-93.04840","Snowdepth":"4.000","Units":"in","Rept_Date":"2019-11-30 13"},"coordinates":[983,8002]},{"type":"Point","properties":{"Station_ID":"INL","Station_Nam":"FALLS INTERNATIONAL ARPT","Latitude":"48.56640","Longitude":"-93.40310","Snowdepth":"4.000","Units":"in","Rept_Date":"2019-12-01 00"},"coordinates":[900,8097]},{"type":"Point","properties":{"Station_ID":"IFSM5","Station_Nam":"INTERNATIONAL FALLS SNOW","Latitude":"48.57780","Longitude":"-93.39640","Snowdepth":"4.000","Units":"in","Rept_Date":"2019-12-01 00"},"coordinates":[902,8104]},{"type":"Point","properties":{"Station_ID":"IA-SX-10","Station_Nam":"SIOUX CENTER 0.4 N, IA","Latitude":"43.08191","Longitude":"-96.17177","Snowdepth":"4.000","Units":"in","Rept_Date":"2019-11-30 12"},"coordinates":[250,4796]},{"type":"Point","properties":{"Station_ID":"HAWI4","Station_Nam":"HAWARDEN,IA","Latitude":"43.99750","Longitude":"-96.49810","Snowdepth":"4.000","Units":"in","Rept_Date":"2019-11-30 13"},"coordinates":[174,5347]},{"type":"Point","properties":{"Station_ID":"FUHS2","Station_Nam":"SIOUX FALLS,SD","Latitude":"43.49310","Longitude":"-96.71330","Snowdepth":"4.000","Units":"in","Rept_Date":"2019-11-30 13"},"coordinates":[123,5043]},{"type":"Point","properties":{"Station_ID":"EVYI4","Station_Nam":"EVERLY,IA","Latitude":"43.18330","Longitude":"-95.36670","Snowdepth":"4.000","Units":"in","Rept_Date":"2019-11-30 13"},"coordinates":[439,4857]},{"type":"Point","properties":{"Station_ID":"COTM5","Station_Nam":"COTTON","Latitude":"47.16870","Longitude":"-92.46290","Snowdepth":"4.000","Units":"in","Rept_Date":"2019-11-30 12"},"coordinates":[1121,7255]},{"type":"Point","properties":{"Station_ID":"CLDM5","Station_Nam":"CALEDONIA","Latitude":"43.63090","Longitude":"-91.50270","Snowdepth":"4.000","Units":"in","Rept_Date":"2019-11-30 13"},"coordinates":[1346,5126]},{"type":"Point","properties":{"Station_ID":"CHES2","Station_Nam":"CHESTER 2N","Latitude":"43.92830","Longitude":"-96.93160","Snowdepth":"4.000","Units":"in","Rept_Date":"2019-11-30 13"},"coordinates":[72,5305]},{"type":"Point","properties":{"Station_ID":"BTHM5","Station_Nam":"BLUE EARTH 1S","Latitude":"43.62370","Longitude":"-94.09470","Snowdepth":"4.000","Units":"in","Rept_Date":"2019-11-30 14"},"coordinates":[738,5122]},{"type":"Point","properties":{"Station_ID":"BRLN3","Station_Nam":"BERLIN","Latitude":"44.45350","Longitude":"-71.18540","Snowdepth":"4.000","Units":"in","Rept_Date":"2019-11-30 16"},"coordinates":[6115,5621]},{"type":"Point","properties":{"Station_ID":"BRAM5","Station_Nam":"BRAINERD","Latitude":"46.34320","Longitude":"-94.20900","Snowdepth":"4.000","Units":"in","Rept_Date":"2019-11-30 13"},"coordinates":[711,6759]},{"type":"Point","properties":{"Station_ID":"BMRW3","Station_Nam":"BLOOMER","Latitude":"45.09070","Longitude":"-91.48640","Snowdepth":"4.000","Units":"in","Rept_Date":"2019-11-30 14"},"coordinates":[1350,6005]},{"type":"Point","properties":{"Station_ID":"BDIM5","Station_Nam":"BIRD ISLAND 7SSE","Latitude":"44.66490","Longitude":"-94.85460","Snowdepth":"4.000","Units":"in","Rept_Date":"2019-11-30 13"},"coordinates":[560,5748]},{"type":"Point","properties":{"Station_ID":"ASTW3","Station_Nam":"ATHELSTANE","Latitude":"45.42500","Longitude":"-88.05750","Snowdepth":"4.000","Units":"in","Rept_Date":"2019-11-30 12"},"coordinates":[2155,6206]},{"type":"Point","properties":{"Station_ID":"ARX","Station_Nam":"LA CROSSE, WI","Latitude":"43.82280","Longitude":"-91.19190","Snowdepth":"4.000","Units":"in","Rept_Date":"2019-12-01 06"},"coordinates":[1419,5242]},{"type":"Point","properties":{"Station_ID":"CAN-NB-1","Station_Nam":"FREDERICTON 4.0 SSE, CA","Latitude":"45.92897","Longitude":"-66.62830","Snowdepth":"3.900","Units":"in","Rept_Date":"2019-11-30 11"},"coordinates":[7184,6509]},{"type":"Point","properties":{"Station_ID":"CAN-ON-621","Station_Nam":"THUNDER BAY 4.2 WSW - MNRF, CAN","Latitude":"48.39163","Longitude":"-89.29107","Snowdepth":"3.800","Units":"in","Rept_Date":"2019-11-30 12"},"coordinates":[1865,7992]},{"type":"Point","properties":{"Station_ID":"WI-OC-1","Station_Nam":"MOUNTAIN 1.1 SW, WI","Latitude":"45.17239","Longitude":"-88.48990","Snowdepth":"3.500","Units":"in","Rept_Date":"2019-11-30 13"},"coordinates":[2053,6054]},{"type":"Point","properties":{"Station_ID":"MN-TD-4","Station_Nam":"HEWITT 1.1 N, MN","Latitude":"46.34065","Longitude":"-95.09450","Snowdepth":"3.500","Units":"in","Rept_Date":"2019-11-30 14"},"coordinates":[503,6757]},{"type":"Point","properties":{"Station_ID":"MN-PS-6","Station_Nam":"EDGERTON 0.2 WSW, MN","Latitude":"43.87444","Longitude":"-96.13328","Snowdepth":"3.500","Units":"in","Rept_Date":"2019-11-30 12"},"coordinates":[259,5273]},{"type":"Point","properties":{"Station_ID":"CAN-PE-50","Station_Nam":"BEDFORD CORNER 3.9 WNW, CAN","Latitude":"46.34628","Longitude":"-63.06157","Snowdepth":"3.500","Units":"in","Rept_Date":"2019-11-30 11"},"coordinates":[8021,6760]},{"type":"Point","properties":{"Station_ID":"SD-RB-4","Station_Nam":"SISSETON 10.4 ENE, SD","Latitude":"45.69480","Longitude":"-96.83480","Snowdepth":"3.100","Units":"in","Rept_Date":"2019-11-30 13"},"coordinates":[95,6368]},{"type":"Point","properties":{"Station_ID":"CAN-ON-757","Station_Nam":"SAULT STE. MARIE 2.8 ESE - GLFC, CAN","Latitude":"46.50300","Longitude":"-84.30300","Snowdepth":"3.100","Units":"in","Rept_Date":"2019-11-30 13"},"coordinates":[3036,6855]},{"type":"Point","properties":{"Station_ID":"WUNW3","Station_Nam":"WAUSAU-NORTHEAST","Latitude":"44.97310","Longitude":"-89.61690","Snowdepth":"3.000","Units":"in","Rept_Date":"2019-11-30 12"},"coordinates":[1789,5934]},{"type":"Point","properties":{"Station_ID":"WRTS2","Station_Nam":"WATERTOWN,SD","Latitude":"44.90280","Longitude":"-97.11360","Snowdepth":"3.000","Units":"in","Rept_Date":"2019-11-30 15"},"coordinates":[29,5892]},{"type":"Point","properties":{"Station_ID":"WRIM5","Station_Nam":"WRIGHT 3E","Latitude":"46.68040","Longitude":"-92.95420","Snowdepth":"3.000","Units":"in","Rept_Date":"2019-11-30 12"},"coordinates":[1006,6962]},{"type":"Point","properties":{"Station_ID":"VT-WS-30","Station_Nam":"WOODBURY 3.4 NNW, VT","Latitude":"44.48825","Longitude":"-72.43258","Snowdepth":"3.000","Units":"in","Rept_Date":"2019-11-30 12"},"coordinates":[5822,5642]},{"type":"Point","properties":{"Station_ID":"VQAW3","Station_Nam":"VIROQUA","Latitude":"43.55970","Longitude":"-90.87560","Snowdepth":"3.000","Units":"in","Rept_Date":"2019-11-30 13"},"coordinates":[1493,5083]},{"type":"Point","properties":{"Station_ID":"THRM5","Station_Nam":"THORHULT,MN","Latitude":"48.21670","Longitude":"-95.25000","Snowdepth":"3.000","Units":"in","Rept_Date":"2019-11-30 23"},"coordinates":[467,7886]},{"type":"Point","properties":{"Station_ID":"SWEI4","Station_Nam":"SWEA CITY,IA","Latitude":"43.38530","Longitude":"-94.25000","Snowdepth":"3.000","Units":"in","Rept_Date":"2019-11-30 12"},"coordinates":[701,4978]},{"type":"Point","properties":{"Station_ID":"SD-MH-8","Station_Nam":"HARTFORD 6.4 S, SD","Latitude":"43.53128","Longitude":"-96.95020","Snowdepth":"3.000","Units":"in","Rept_Date":"2019-11-30 14"},"coordinates":[68,5066]},{"type":"Point","properties":{"Station_ID":"SD-MH-1","Station_Nam":"SIOUX FALLS 5.0 SE ARPT, SD","Latitude":"43.52360","Longitude":"-96.66780","Snowdepth":"3.000","Units":"in","Rept_Date":"2019-11-30 13"},"coordinates":[134,5061]},{"type":"Point","properties":{"Station_ID":"SD-CD-30","Station_Nam":"WATERTOWN 2.3 E, SD","Latitude":"44.91604","Longitude":"-97.11925","Snowdepth":"3.000","Units":"in","Rept_Date":"2019-11-30 14"},"coordinates":[28,5900]},{"type":"Point","properties":{"Station_ID":"SD-BK-2","Station_Nam":"ASTORIA 2.2 SSE, SD","Latitude":"44.53093","Longitude":"-96.52270","Snowdepth":"3.000","Units":"in","Rept_Date":"2019-11-30 13"},"coordinates":[168,5668]},{"type":"Point","properties":{"Station_ID":"RSTW3","Station_Nam":"ROSHOLT","Latitude":"44.62710","Longitude":"-89.30600","Snowdepth":"3.000","Units":"in","Rept_Date":"2019-11-30 17"},"coordinates":[1862,5726]},{"type":"Point","properties":{"Station_ID":"RST","Station_Nam":"ROCHESTER INTERNATIONAL ARPT","Latitude":"43.90890","Longitude":"-92.49780","Snowdepth":"3.000","Units":"in","Rept_Date":"2019-12-01 00"},"coordinates":[1113,5293]},{"type":"Point","properties":{"Station_ID":"RSRM5","Station_Nam":"ROCHESTER AP 2NE","Latitude":"43.92810","Longitude":"-92.47580","Snowdepth":"3.000","Units":"in","Rept_Date":"2019-11-30 18"},"coordinates":[1118,5305]},{"type":"Point","properties":{"Station_ID":"REWM5","Station_Nam":"REDWOOD FALLS","Latitude":"44.54850","Longitude":"-95.09980","Snowdepth":"3.000","Units":"in","Rept_Date":"2019-11-30 13"},"coordinates":[502,5678]},{"type":"Point","properties":{"Station_ID":"PBAN8","Station_Nam":"SITE 1-3MI.N","Latitude":"48.97420","Longitude":"-97.23860","Snowdepth":"3.000","Units":"in","Rept_Date":"2019-11-30 13"},"coordinates":[0,8342]},{"type":"Point","properties":{"Station_ID":"NVLV1","Station_Nam":"NASHVILLE","Latitude":"44.44970","Longitude":"-72.92640","Snowdepth":"3.000","Units":"in","Rept_Date":"2019-11-30 12"},"coordinates":[5706,5619]},{"type":"Point","properties":{"Station_ID":"NUMN3","Station_Nam":"NORTHUMBERLAND","Latitude":"44.52830","Longitude":"-71.50440","Snowdepth":"3.000","Units":"in","Rept_Date":"2019-11-30 13"},"coordinates":[6040,5666]},{"type":"Point","properties":{"Station_ID":"MSCM5","Station_Nam":"MINNESOTA CITY","Latitude":"44.16000","Longitude":"-91.81220","Snowdepth":"3.000","Units":"in","Rept_Date":"2019-11-30 14"},"coordinates":[1274,5445]},{"type":"Point","properties":{"Station_ID":"MOUW3","Station_Nam":"MOUNTAIN 1 SW","Latitude":"45.17220","Longitude":"-88.49390","Snowdepth":"3.000","Units":"in","Rept_Date":"2019-11-30 13"},"coordinates":[2052,6054]},{"type":"Point","properties":{"Station_ID":"MN49YOQ4","Station_Nam":"WRIGHT 3.9 NW","Latitude":"46.70182","Longitude":"-93.07461","Snowdepth":"3.000","Units":"in","Rept_Date":"2019-11-30 12"},"coordinates":[977,6974]},{"type":"Point","properties":{"Station_ID":"MN-HN-17","Station_Nam":"EDEN PRAIRIE 3.3 WSW, MN","Latitude":"44.82940","Longitude":"-93.52010","Snowdepth":"3.000","Units":"in","Rept_Date":"2019-11-30 14"},"coordinates":[873,5847]},{"type":"Point","properties":{"Station_ID":"MN-CG-16","Station_Nam":"NORTH BRANCH 1.3 NNW, MN","Latitude":"45.53121","Longitude":"-92.97110","Snowdepth":"3.000","Units":"in","Rept_Date":"2019-11-30 12"},"coordinates":[1002,6270]},{"type":"Point","properties":{"Station_ID":"MN-BW-1","Station_Nam":"SPRINGFIELD 1.7 NNW, MN","Latitude":"44.26120","Longitude":"-94.99220","Snowdepth":"3.000","Units":"in","Rept_Date":"2019-11-30 13"},"coordinates":[527,5505]},{"type":"Point","properties":{"Station_ID":"MN-BU-31","Station_Nam":"LAKE CRYSTAL 4.9 N, MN","Latitude":"44.17549","Longitude":"-94.20798","Snowdepth":"3.000","Units":"in","Rept_Date":"2019-11-30 13"},"coordinates":[711,5454]},{"type":"Point","properties":{"Station_ID":"MLRM5","Station_Nam":"MELROSE","Latitude":"45.67710","Longitude":"-94.80200","Snowdepth":"3.000","Units":"in","Rept_Date":"2019-11-30 13"},"coordinates":[572,6358]},{"type":"Point","properties":{"Station_ID":"MLBS2","Station_Nam":"MILBANK","Latitude":"45.22040","Longitude":"-96.62530","Snowdepth":"3.000","Units":"in","Rept_Date":"2019-11-30 14"},"coordinates":[144,6083]},{"type":"Point","properties":{"Station_ID":"MI-DL-1","Station_Nam":"GARDEN CORNERS 0.8 NW, MI","Latitude":"45.89815","Longitude":"-86.54850","Snowdepth":"3.000","Units":"in","Rept_Date":"2019-11-30 13"},"coordinates":[2509,6491]},{"type":"Point","properties":{"Station_ID":"MABM5","Station_Nam":"MABEL","Latitude":"43.52410","Longitude":"-91.76160","Snowdepth":"3.000","Units":"in","Rept_Date":"2019-11-30 14"},"coordinates":[1285,5062]},{"type":"Point","properties":{"Station_ID":"LPLN6","Station_Nam":"LAKE PLACID 2 S","Latitude":"44.30420","Longitude":"-73.98390","Snowdepth":"3.000","Units":"in","Rept_Date":"2019-11-30 11"},"coordinates":[5458,5531]},{"type":"Point","properties":{"Station_ID":"LBKV1","Station_Nam":"LYE BROOK","Latitude":"43.05000","Longitude":"-73.03330","Snowdepth":"3.000","Units":"in","Rept_Date":"2019-12-01 06"},"coordinates":[5681,4776]},{"type":"Point","properties":{"Station_ID":"KINM1","Station_Nam":"KINGFIELD","Latitude":"44.95950","Longitude":"-70.17530","Snowdepth":"3.000","Units":"in","Rept_Date":"2019-11-30 12"},"coordinates":[6352,5926]},{"type":"Point","properties":{"Station_ID":"ISLV1","Station_Nam":"ISLAND POND","Latitude":"44.81280","Longitude":"-71.89020","Snowdepth":"3.000","Units":"in","Rept_Date":"2019-11-30 15"},"coordinates":[5949,5837]},{"type":"Point","properties":{"Station_ID":"HYTS2","Station_Nam":"HAYTI 1W","Latitude":"44.66330","Longitude":"-97.22670","Snowdepth":"3.000","Units":"in","Rept_Date":"2019-11-30 14"},"coordinates":[3,5747]},{"type":"Point","properties":{"Station_ID":"GDCM4","Station_Nam":"GARDEN CORNERS","Latitude":"45.89830","Longitude":"-86.54850","Snowdepth":"3.000","Units":"in","Rept_Date":"2019-11-30 13"},"coordinates":[2509,6491]},{"type":"Point","properties":{"Station_ID":"FARM1","Station_Nam":"FARMINGTON","Latitude":"44.68930","Longitude":"-70.15640","Snowdepth":"3.000","Units":"in","Rept_Date":"2019-11-30 12"},"coordinates":[6356,5763]},{"type":"Point","properties":{"Station_ID":"EPTW3","Station_Nam":"EAU PLEINE TENDER","Latitude":"44.77220","Longitude":"-89.76720","Snowdepth":"3.000","Units":"in","Rept_Date":"2019-11-30 13"},"coordinates":[1753,5813]},{"type":"Point","properties":{"Station_ID":"DEMS2","Station_Nam":"SIOUX FALLS 5SE FSD ARPT","Latitude":"43.52690","Longitude":"-96.66830","Snowdepth":"3.000","Units":"in","Rept_Date":"2019-11-30 13"},"coordinates":[134,5063]},{"type":"Point","properties":{"Station_ID":"CSLM5","Station_Nam":"CASS LAKE,MN","Latitude":"47.38470","Longitude":"-94.61470","Snowdepth":"3.000","Units":"in","Rept_Date":"2019-11-30 14"},"coordinates":[616,7385]},{"type":"Point","properties":{"Station_ID":"CRVW3","Station_Nam":"CRIVITZ HIGH FALLS","Latitude":"45.35750","Longitude":"-88.19190","Snowdepth":"3.000","Units":"in","Rept_Date":"2019-11-30 13"},"coordinates":[2123,6165]},{"type":"Point","properties":{"Station_ID":"CRCI4","Station_Nam":"CRESCO 1NE","Latitude":"43.38940","Longitude":"-92.09380","Snowdepth":"3.000","Units":"in","Rept_Date":"2019-11-30 13"},"coordinates":[1207,4981]},{"type":"Point","properties":{"Station_ID":"CNNS2","Station_Nam":"CANTON","Latitude":"43.31120","Longitude":"-96.58770","Snowdepth":"3.000","Units":"in","Rept_Date":"2019-11-30 13"},"coordinates":[153,4934]},{"type":"Point","properties":{"Station_ID":"CLKS2","Station_Nam":"WATERTOWN-23MI.ESE","Latitude":"44.75000","Longitude":"-96.68330","Snowdepth":"3.000","Units":"in","Rept_Date":"2019-11-30 16"},"coordinates":[130,5800]},{"type":"Point","properties":{"Station_ID":"BLKW3","Station_Nam":"BLACK RIVER FALLS SEWAGE","Latitude":"44.29040","Longitude":"-90.85360","Snowdepth":"3.000","Units":"in","Rept_Date":"2019-11-30 14"},"coordinates":[1499,5523]},{"type":"Point","properties":{"Station_ID":"BETM1","Station_Nam":"BETHEL 6 SSE","Latitude":"44.32000","Longitude":"-70.75680","Snowdepth":"3.000","Units":"in","Rept_Date":"2019-11-30 11"},"coordinates":[6215,5541]},{"type":"Point","properties":{"Station_ID":"ATY","Station_Nam":"WATERTOWN MUNICIPAL AIRPORT","Latitude":"44.91420","Longitude":"-97.15440","Snowdepth":"3.000","Units":"in","Rept_Date":"2019-11-30 12"},"coordinates":[20,5898]},{"type":"Point","properties":{"Station_ID":"ARTM5","Station_Nam":"ARTICHOKE LAKE 1 E","Latitude":"45.38560","Longitude":"-96.12570","Snowdepth":"3.000","Units":"in","Rept_Date":"2019-12-01 00"},"coordinates":[261,6182]},{"type":"Point","properties":{"Station_ID":"ALMW3","Station_Nam":"ALMA DAM 4","Latitude":"44.32710","Longitude":"-91.91940","Snowdepth":"3.000","Units":"in","Rept_Date":"2019-11-30 14"},"coordinates":[1248,5545]},{"type":"Point","properties":{"Station_ID":"ALGI4","Station_Nam":"ALGONA,IA","Latitude":"43.06670","Longitude":"-94.30610","Snowdepth":"3.000","Units":"in","Rept_Date":"2019-11-30 13"},"coordinates":[688,4786]},{"type":"Point","properties":{"Station_ID":"ABGW3","Station_Nam":"AMBERG 9 E","Latitude":"45.48250","Longitude":"-87.81190","Snowdepth":"3.000","Units":"in","Rept_Date":"2019-11-30 12"},"coordinates":[2212,6241]},{"type":"Point","properties":{"Station_ID":"8D3","Station_Nam":"SISSETON MUNICIPAL AP","Latitude":"45.67080","Longitude":"-96.99610","Snowdepth":"3.000","Units":"in","Rept_Date":"2019-11-30 12"},"coordinates":[57,6354]},{"type":"Point","properties":{"Station_ID":"CAN-PE-1","Station_Nam":"STRATFORD 2.3 NNE, CAN","Latitude":"46.23576","Longitude":"-63.08208","Snowdepth":"2.800","Units":"in","Rept_Date":"2019-11-30 11"},"coordinates":[8016,6694]},{"type":"Point","properties":{"Station_ID":"CAN-NS-4","Station_Nam":"JIMTOWN 0.2 WNW, CAN","Latitude":"45.70861","Longitude":"-61.90238","Snowdepth":"2.800","Units":"in","Rept_Date":"2019-11-30 12"},"coordinates":[8293,6377]},{"type":"Point","properties":{"Station_ID":"VT-WS-15","Station_Nam":"EAST CALAIS 1.5 SW, VT","Latitude":"44.35523","Longitude":"-72.45540","Snowdepth":"2.500","Units":"in","Rept_Date":"2019-11-30 12"},"coordinates":[5816,5562]},{"type":"Point","properties":{"Station_ID":"MN-GH-3","Station_Nam":"LAKE CITY 1.2 NNW, MN","Latitude":"44.45597","Longitude":"-92.29070","Snowdepth":"2.500","Units":"in","Rept_Date":"2019-11-30 13"},"coordinates":[1161,5623]},{"type":"Point","properties":{"Station_ID":"MI-CP-14","Station_Nam":"SAULT STE. MARIE 2.2 E, MI","Latitude":"46.48933","Longitude":"-84.31971","Snowdepth":"2.500","Units":"in","Rept_Date":"2019-11-30 12"},"coordinates":[3032,6847]},{"type":"Point","properties":{"Station_ID":"MN-CV-39","Station_Nam":"CHANHASSEN 1.7 NE, MN","Latitude":"44.87220","Longitude":"-93.53969","Snowdepth":"2.300","Units":"in","Rept_Date":"2019-12-01 00"},"coordinates":[868,5873]},{"type":"Point","properties":{"Station_ID":"ZNOM4","Station_Nam":"NORWAY","Latitude":"45.77810","Longitude":"-87.89560","Snowdepth":"2.000","Units":"in","Rept_Date":"2019-12-01 01"},"coordinates":[2193,6418]},{"type":"Point","properties":{"Station_ID":"WRUM5","Station_Nam":"WARROAD 4W","Latitude":"48.89600","Longitude":"-95.40700","Snowdepth":"2.000","Units":"in","Rept_Date":"2019-12-01 04"},"coordinates":[430,8295]},{"type":"Point","properties":{"Station_ID":"WRNW3","Station_Nam":"WARRENS 4WSW","Latitude":"44.10390","Longitude":"-90.58870","Snowdepth":"2.000","Units":"in","Rept_Date":"2019-11-30 13"},"coordinates":[1561,5411]},{"type":"Point","properties":{"Station_ID":"WPTN1","Station_Nam":"WEST POINT,NE","Latitude":"41.83330","Longitude":"-96.71670","Snowdepth":"2.000","Units":"in","Rept_Date":"2019-11-30 14"},"coordinates":[122,4044]},{"type":"Point","properties":{"Station_ID":"WI-PK-4","Station_Nam":"DRESSER 6.1 ESE, WI","Latitude":"45.32436","Longitude":"-92.52080","Snowdepth":"2.000","Units":"in","Rept_Date":"2019-11-30 14"},"coordinates":[1107,6145]},{"type":"Point","properties":{"Station_ID":"WHTM5","Station_Nam":"WHEATON,MN","Latitude":"45.80000","Longitude":"-96.48330","Snowdepth":"2.000","Units":"in","Rept_Date":"2019-11-30 14"},"coordinates":[177,6432]},{"type":"Point","properties":{"Station_ID":"VT-WS-19","Station_Nam":"WATERBURY 3.0 NW, VT","Latitude":"44.36060","Longitude":"-72.80770","Snowdepth":"2.000","Units":"in","Rept_Date":"2019-11-30 11"},"coordinates":[5734,5565]},{"type":"Point","properties":{"Station_ID":"VT-WR-2","Station_Nam":"POMFRET 2.6 N, VT","Latitude":"43.74230","Longitude":"-72.52550","Snowdepth":"2.000","Units":"in","Rept_Date":"2019-11-30 12"},"coordinates":[5800,5193]},{"type":"Point","properties":{"Station_ID":"VT-OL-9","Station_Nam":"GREENSBORO 2.1 NNW, VT","Latitude":"44.60528","Longitude":"-72.30940","Snowdepth":"2.000","Units":"in","Rept_Date":"2019-11-30 12"},"coordinates":[5851,5713]},{"type":"Point","properties":{"Station_ID":"VT-OL-5","Station_Nam":"DERBY CENTER 1.8 NW, VT","Latitude":"44.97200","Longitude":"-72.14780","Snowdepth":"2.000","Units":"in","Rept_Date":"2019-11-30 12"},"coordinates":[5889,5933]},{"type":"Point","properties":{"Station_ID":"VT-ES-3","Station_Nam":"LUNENBURG 2.3 NNW, VT","Latitude":"44.49324","Longitude":"-71.70446","Snowdepth":"2.000","Units":"in","Rept_Date":"2019-11-30 09"},"coordinates":[5993,5645]},{"type":"Point","properties":{"Station_ID":"VT-CH-38","Station_Nam":"WILLISTON 0.2 WSW, VT","Latitude":"44.43669","Longitude":"-73.07154","Snowdepth":"2.000","Units":"in","Rept_Date":"2019-11-30 13"},"coordinates":[5672,5611]},{"type":"Point","properties":{"Station_ID":"TREW3","Station_Nam":"DAM 6","Latitude":"43.99970","Longitude":"-91.43580","Snowdepth":"2.000","Units":"in","Rept_Date":"2019-11-30 14"},"coordinates":[1362,5348]},{"type":"Point","properties":{"Station_ID":"SUXI4","Station_Nam":"SNOW PAID FOR KSUX","Latitude":"42.40530","Longitude":"-96.36000","Snowdepth":"2.000","Units":"in","Rept_Date":"2019-11-30 12"},"coordinates":[206,4388]},{"type":"Point","properties":{"Station_ID":"SUX","Station_Nam":"SIOUX GATEWAY AIRPORT","Latitude":"42.40390","Longitude":"-96.38330","Snowdepth":"2.000","Units":"in","Rept_Date":"2019-11-30 13"},"coordinates":[201,4388]},{"type":"Point","properties":{"Station_ID":"SUTV1","Station_Nam":"SUTTON","Latitude":"44.61220","Longitude":"-72.04810","Snowdepth":"2.000","Units":"in","Rept_Date":"2019-11-30 13"},"coordinates":[5912,5717]},{"type":"Point","properties":{"Station_ID":"STRW3","Station_Nam":"STRATFORD 1NW","Latitude":"44.81750","Longitude":"-90.08990","Snowdepth":"2.000","Units":"in","Rept_Date":"2019-11-30 13"},"coordinates":[1678,5840]},{"type":"Point","properties":{"Station_ID":"SJBV1","Station_Nam":"SAINT JOHNSBURY","Latitude":"44.42000","Longitude":"-72.01940","Snowdepth":"2.000","Units":"in","Rept_Date":"2019-11-30 21"},"coordinates":[5919,5601]},{"type":"Point","properties":{"Station_ID":"SD-BK-9","Station_Nam":"BRUCE 4.1 NE, SD","Latitude":"44.48479","Longitude":"-96.83750","Snowdepth":"2.000","Units":"in","Rept_Date":"2019-11-30 13"},"coordinates":[94,5640]},{"type":"Point","properties":{"Station_ID":"RMSI4","Station_Nam":"REMSEN NO. 2","Latitude":"42.81050","Longitude":"-95.97530","Snowdepth":"2.000","Units":"in","Rept_Date":"2019-11-30 15"},"coordinates":[296,4632]},{"type":"Point","properties":{"Station_ID":"PLOW3","Station_Nam":"PLOVER","Latitude":"44.44280","Longitude":"-89.54530","Snowdepth":"2.000","Units":"in","Rept_Date":"2019-11-30 13"},"coordinates":[1806,5615]},{"type":"Point","properties":{"Station_ID":"PLFV1","Station_Nam":"PLAINFIELD","Latitude":"44.27610","Longitude":"-72.41500","Snowdepth":"2.000","Units":"in","Rept_Date":"2019-11-30 12"},"coordinates":[5826,5514]},{"type":"Point","properties":{"Station_ID":"NYMM5","Station_Nam":"NEW YORK MILLS","Latitude":"46.50920","Longitude":"-95.37990","Snowdepth":"2.000","Units":"in","Rept_Date":"2019-11-30 13"},"coordinates":[436,6858]},{"type":"Point","properties":{"Station_ID":"NY-FK-7","Station_Nam":"SARANAC LAKE 6.2 N, NY","Latitude":"44.41359","Longitude":"-74.15211","Snowdepth":"2.000","Units":"in","Rept_Date":"2019-11-30 12"},"coordinates":[5418,5597]},{"type":"Point","properties":{"Station_ID":"NH-GR-47","Station_Nam":"LITTLETON 7.3 W, NH","Latitude":"44.31847","Longitude":"-71.91086","Snowdepth":"2.000","Units":"in","Rept_Date":"2019-11-30 13"},"coordinates":[5944,5540]},{"type":"Point","properties":{"Station_ID":"NEWN1","Station_Nam":"NEWCASTLE","Latitude":"42.65300","Longitude":"-96.87750","Snowdepth":"2.000","Units":"in","Rept_Date":"2019-11-30 12"},"coordinates":[85,4537]},{"type":"Point","properties":{"Station_ID":"MRQM4","Station_Nam":"MARQUETTE WFP","Latitude":"46.54580","Longitude":"-87.37950","Snowdepth":"2.000","Units":"in","Rept_Date":"2019-11-30 13"},"coordinates":[2314,6881]},{"type":"Point","properties":{"Station_ID":"MRAM4","Station_Nam":"MORAN","Latitude":"45.99030","Longitude":"-84.83610","Snowdepth":"2.000","Units":"in","Rept_Date":"2019-11-30 13"},"coordinates":[2911,6546]},{"type":"Point","properties":{"Station_ID":"MN76ACVS","Station_Nam":"GRAND MARAIS 3.0 WNW","Latitude":"47.76602","Longitude":"-90.26427","Snowdepth":"2.000","Units":"in","Rept_Date":"2019-11-30 13"},"coordinates":[1637,7615]},{"type":"Point","properties":{"Station_ID":"MN-IT-7","Station_Nam":"GRAND RAPIDS 6.2 SSW, MN","Latitude":"47.13687","Longitude":"-93.56660","Snowdepth":"2.000","Units":"in","Rept_Date":"2019-11-30 12"},"coordinates":[862,7236]},{"type":"Point","properties":{"Station_ID":"MN-GR-11","Station_Nam":"HOFFMAN 4.0 WSW, MN","Latitude":"45.80079","Longitude":"-95.85752","Snowdepth":"2.000","Units":"in","Rept_Date":"2019-11-30 13"},"coordinates":[324,6432]},{"type":"Point","properties":{"Station_ID":"MN-DK-104","Station_Nam":"HASTINGS 1.6 NW, MN","Latitude":"44.74458","Longitude":"-92.88035","Snowdepth":"2.000","Units":"in","Rept_Date":"2019-11-30 13"},"coordinates":[1023,5796]},{"type":"Point","properties":{"Station_ID":"MCLN8","Station_Nam":"MC LEOD,ND","Latitude":"46.40250","Longitude":"-97.23810","Snowdepth":"2.000","Units":"in","Rept_Date":"2019-11-30 15"},"coordinates":[0,6794]},{"type":"Point","properties":{"Station_ID":"MALN6","Station_Nam":"MALONE","Latitude":"44.84180","Longitude":"-74.30600","Snowdepth":"2.000","Units":"in","Rept_Date":"2019-11-30 12"},"coordinates":[5382,5855]},{"type":"Point","properties":{"Station_ID":"LSXI4","Station_Nam":"LITTLE SIOUX,IA","Latitude":"41.81670","Longitude":"-96.01670","Snowdepth":"2.000","Units":"in","Rept_Date":"2019-11-30 13"},"coordinates":[287,4034]},{"type":"Point","properties":{"Station_ID":"JEFV1","Station_Nam":"JEFFERSONVILLE","Latitude":"44.58430","Longitude":"-72.78700","Snowdepth":"2.000","Units":"in","Rept_Date":"2019-11-30 12"},"coordinates":[5739,5700]},{"type":"Point","properties":{"Station_ID":"HOKM5","Station_Nam":"HOKAH 4NW","Latitude":"43.79560","Longitude":"-91.42640","Snowdepth":"2.000","Units":"in","Rept_Date":"2019-11-30 13"},"coordinates":[1364,5225]},{"type":"Point","properties":{"Station_ID":"FSDS2","Station_Nam":"SIOUX FALLS NWS WFO AP","Latitude":"43.58780","Longitude":"-96.73000","Snowdepth":"2.000","Units":"in","Rept_Date":"2019-12-01 06"},"coordinates":[119,5100]},{"type":"Point","properties":{"Station_ID":"FLDM5","Station_Nam":"FLOODWOOD,MN","Latitude":"47.00000","Longitude":"-92.91670","Snowdepth":"2.000","Units":"in","Rept_Date":"2019-11-30 14"},"coordinates":[1014,7154]},{"type":"Point","properties":{"Station_ID":"DWSM5","Station_Nam":"DAWSON","Latitude":"44.93180","Longitude":"-96.04500","Snowdepth":"2.000","Units":"in","Rept_Date":"2019-11-30 13"},"coordinates":[280,5909]},{"type":"Point","properties":{"Station_ID":"DHMM1","Station_Nam":"DEDHAM","Latitude":"44.67880","Longitude":"-68.63560","Snowdepth":"2.000","Units":"in","Rept_Date":"2019-11-30 12"},"coordinates":[6713,5757]},{"type":"Point","properties":{"Station_ID":"CORV1","Station_Nam":"CORINTH","Latitude":"44.00690","Longitude":"-72.31940","Snowdepth":"2.000","Units":"in","Rept_Date":"2019-11-30 12"},"coordinates":[5848,5352]},{"type":"Point","properties":{"Station_ID":"COLN3","Station_Nam":"COLEBROOK 3SW","Latitude":"44.86100","Longitude":"-71.53920","Snowdepth":"2.000","Units":"in","Rept_Date":"2019-11-30 12"},"coordinates":[6031,5866]},{"type":"Point","properties":{"Station_ID":"CAN-MB-63","Station_Nam":"STEINBACH 0.8 SSE, CA","Latitude":"49.51964","Longitude":"-96.67940","Snowdepth":"2.000","Units":"in","Rept_Date":"2019-11-30 13"},"coordinates":[131,8670]},{"type":"Point","properties":{"Station_ID":"BRVM5","Station_Nam":"BROWNS VALLEY,MN","Latitude":"45.61670","Longitude":"-96.83330","Snowdepth":"2.000","Units":"in","Rept_Date":"2019-11-30 13"},"coordinates":[95,6321]},{"type":"Point","properties":{"Station_ID":"BRCM5","Station_Nam":"BRICELYN","Latitude":"43.54400","Longitude":"-93.84230","Snowdepth":"2.000","Units":"in","Rept_Date":"2019-11-30 13"},"coordinates":[797,5074]},{"type":"Point","properties":{"Station_ID":"BFSW3","Station_Nam":"BIG FALLS-5 NW","Latitude":"44.63980","Longitude":"-89.11330","Snowdepth":"2.000","Units":"in","Rept_Date":"2019-11-30 13"},"coordinates":[1907,5733]},{"type":"Point","properties":{"Station_ID":"WI-DN-12","Station_Nam":"MENOMONIE 0.9 NW, WI","Latitude":"44.89767","Longitude":"-91.92528","Snowdepth":"1.700","Units":"in","Rept_Date":"2019-11-30 13"},"coordinates":[1247,5889]},{"type":"Point","properties":{"Station_ID":"CAN-PE-47","Station_Nam":"LONG CREEK 0.3 NNW, CAN","Latitude":"46.17420","Longitude":"-63.27320","Snowdepth":"1.600","Units":"in","Rept_Date":"2019-11-30 13"},"coordinates":[7971,6657]},{"type":"Point","properties":{"Station_ID":"CAN-NL-82","Station_Nam":"GANDER 2.7 NW, CAN","Latitude":"48.97737","Longitude":"-54.63396","Snowdepth":"1.600","Units":"in","Rept_Date":"2019-11-30 10"},"coordinates":[9999,8344]},{"type":"Point","properties":{"Station_ID":"VT-OG-11","Station_Nam":"VERSHIRE 1.5 ESE, VT","Latitude":"43.96138","Longitude":"-72.29777","Snowdepth":"1.500","Units":"in","Rept_Date":"2019-11-30 11"},"coordinates":[5853,5325]},{"type":"Point","properties":{"Station_ID":"SD-BK-7","Station_Nam":"BROOKINGS 0.2 SSW, SD","Latitude":"44.30389","Longitude":"-96.78780","Snowdepth":"1.500","Units":"in","Rept_Date":"2019-11-30 13"},"coordinates":[106,5531]},{"type":"Point","properties":{"Station_ID":"NY-WR-10","Station_Nam":"WARRENSBURG 2.1 WNW, NY","Latitude":"43.51784","Longitude":"-73.81069","Snowdepth":"1.500","Units":"in","Rept_Date":"2019-11-30 13"},"coordinates":[5498,5058]},{"type":"Point","properties":{"Station_ID":"MN-IT-11","Station_Nam":"NASHWAUK 11.5 N, MN","Latitude":"47.54496","Longitude":"-93.19420","Snowdepth":"1.500","Units":"in","Rept_Date":"2019-11-30 10"},"coordinates":[949,7482]},{"type":"Point","properties":{"Station_ID":"MN-BM-15","Station_Nam":"BEMIDJI 7.8 ENE, MN","Latitude":"47.52043","Longitude":"-94.72121","Snowdepth":"1.500","Units":"in","Rept_Date":"2019-11-30 14"},"coordinates":[591,7467]},{"type":"Point","properties":{"Station_ID":"ME-WL-8","Station_Nam":"WINTERPORT 2.9 N, ME","Latitude":"44.69369","Longitude":"-68.84800","Snowdepth":"1.500","Units":"in","Rept_Date":"2019-11-30 12"},"coordinates":[6663,5766]},{"type":"Point","properties":{"Station_ID":"ME-WL-27","Station_Nam":"PROSPECT 2.6 W, ME","Latitude":"44.55719","Longitude":"-68.91732","Snowdepth":"1.500","Units":"in","Rept_Date":"2019-11-30 12"},"coordinates":[6647,5684]},{"type":"Point","properties":{"Station_ID":"CAN-PE-10","Station_Nam":"NEW LONDON 1.6 ENE, CA","Latitude":"46.46985","Longitude":"-63.49200","Snowdepth":"1.500","Units":"in","Rept_Date":"2019-11-30 12"},"coordinates":[7920,6835]},{"type":"Point","properties":{"Station_ID":"CAN-PE-20","Station_Nam":"BONSHAW 6.6 NNE, CAN","Latitude":"46.25082","Longitude":"-63.33409","Snowdepth":"1.400","Units":"in","Rept_Date":"2019-11-30 12"},"coordinates":[7957,6703]},{"type":"Point","properties":{"Station_ID":"CAN-NS-43","Station_Nam":"BEDFORD 0.6 WNW, CAN","Latitude":"44.72917","Longitude":"-63.67521","Snowdepth":"1.200","Units":"in","Rept_Date":"2019-11-30 12"},"coordinates":[7877,5787]},{"type":"Point","properties":{"Station_ID":"WMTI4","Station_Nam":"FORT DODGE,IA","Latitude":"42.50610","Longitude":"-94.20110","Snowdepth":"1.000","Units":"in","Rept_Date":"2019-11-30 13"},"coordinates":[713,4449]},