{"type":"Topology","objects":{"snowdepth_geo":{"type":"GeometryCollection","name":"snowdepth","crs":{"type":"name","properties":{"name":"urn:ogc:def:crs:OGC:1.3:CRS84"}},"geometries":[{"type":"Point","properties":{"Station_ID":"PRKM4","Station_Nam":"MUNISING EAST","Latitude":"46.42580","Longitude":"-86.62000","Snowdepth":"76.500","Units":"in","Rept_Date":"2021-01-02 06"},"coordinates":[2554,6762]},{"type":"Point","properties":{"Station_ID":"QLB","Station_Nam":"QLB","Latitude":"50.72360","Longitude":"-75.10000","Snowdepth":"23.228","Units":"in","Rept_Date":"2021-01-01 12"},"coordinates":[5324,9386]},{"type":"Point","properties":{"Station_ID":"TRIQ6","Station_Nam":"TRIO LAKE","Latitude":"49.22880","Longitude":"-87.22920","Snowdepth":"23.030","Units":"in","Rept_Date":"2021-01-02 06"},"coordinates":[2408,8474]},{"type":"Point","properties":{"Station_ID":"PTLQ6","Station_Nam":"PORTAGE LAKE","Latitude":"49.06950","Longitude":"-86.65940","Snowdepth":"22.320","Units":"in","Rept_Date":"2021-01-02 06"},"coordinates":[2545,8377]},{"type":"Point","properties":{"Station_ID":"QGO","Station_Nam":"QGO","Latitude":"48.85500","Longitude":"-74.20640","Snowdepth":"21.653","Units":"in","Rept_Date":"2021-01-01 12"},"coordinates":[5539,8246]},{"type":"Point","properties":{"Station_ID":"AUDQ6","Station_Nam":"AUDEN","Latitude":"48.52600","Longitude":"-82.57570","Snowdepth":"21.100","Units":"in","Rept_Date":"2021-01-02 06"},"coordinates":[3527,8045]},{"type":"Point","properties":{"Station_ID":"QCU","Station_Nam":"QCU","Latitude":"47.82750","Longitude":"-76.59830","Snowdepth":"20.866","Units":"in","Rept_Date":"2021-01-01 12"},"coordinates":[4964,7618]},{"type":"Point","properties":{"Station_ID":"DVLQ6","Station_Nam":"DEVIOUS LAKE","Latitude":"49.19890","Longitude":"-87.76440","Snowdepth":"20.590","Units":"in","Rept_Date":"2021-01-02 06"},"coordinates":[2279,8456]},{"type":"Point","properties":{"Station_ID":"PDLM4","Station_Nam":"PAINESDALE","Latitude":"47.04160","Longitude":"-88.67170","Snowdepth":"20.000","Units":"in","Rept_Date":"2021-01-01 13"},"coordinates":[2061,7138]},{"type":"Point","properties":{"Station_ID":"QCO","Station_Nam":"QCO","Latitude":"51.45280","Longitude":"-72.20110","Snowdepth":"19.803","Units":"in","Rept_Date":"2021-01-01 12"},"coordinates":[6021,9832]},{"type":"Point","properties":{"Station_ID":"CAN-ON-245","Station_Nam":"PHELPSTON 3.1 ESE, CAN","Latitude":"44.50564","Longitude":"-79.81035","Snowdepth":"19.500","Units":"in","Rept_Date":"2021-01-01 13"},"coordinates":[4191,5590]},{"type":"Point","properties":{"Station_ID":"QFT","Station_Nam":"QFT","Latitude":"50.83280","Longitude":"-74.40390","Snowdepth":"19.173","Units":"in","Rept_Date":"2021-01-01 12"},"coordinates":[5491,9453]},{"type":"Point","properties":{"Station_ID":"IWOM4","Station_Nam":"IRONWOOD#2","Latitude":"46.46520","Longitude":"-90.13820","Snowdepth":"18.000","Units":"in","Rept_Date":"2021-01-01 13"},"coordinates":[1709,6786]},{"type":"Point","properties":{"Station_ID":"HURW3","Station_Nam":"HURLEY","Latitude":"46.46250","Longitude":"-90.19550","Snowdepth":"18.000","Units":"in","Rept_Date":"2021-01-01 14"},"coordinates":[1695,6785]},{"type":"Point","properties":{"Station_ID":"HERM4","Station_Nam":"HERMAN,MI","Latitude":"46.65000","Longitude":"-88.33330","Snowdepth":"18.000","Units":"in","Rept_Date":"2021-01-01 13"},"coordinates":[2142,6899]},{"type":"Point","properties":{"Station_ID":"QOU","Station_Nam":"QOU","Latitude":"50.79250","Longitude":"-69.67470","Snowdepth":"17.874","Units":"in","Rept_Date":"2021-01-01 12"},"coordinates":[6628,9429]},{"type":"Point","properties":{"Station_ID":"QTM","Station_Nam":"QTM","Latitude":"51.05780","Longitude":"-72.57190","Snowdepth":"17.598","Units":"in","Rept_Date":"2021-01-01 12"},"coordinates":[5932,9590]},{"type":"Point","properties":{"Station_ID":"QLI","Station_Nam":"QLI","Latitude":"50.27080","Longitude":"-73.92280","Snowdepth":"15.079","Units":"in","Rept_Date":"2021-01-01 12"},"coordinates":[5607,9110]},{"type":"Point","properties":{"Station_ID":"WLFM5","Station_Nam":"WOLF RIDGE ENVIRON LEARNING CENTER","Latitude":"47.38240","Longitude":"-91.19730","Snowdepth":"15.000","Units":"in","Rept_Date":"2021-01-01 13"},"coordinates":[1454,7346]},{"type":"Point","properties":{"Station_ID":"QNCM4","Station_Nam":"QUINCY HILL","Latitude":"47.13640","Longitude":"-88.57950","Snowdepth":"15.000","Units":"in","Rept_Date":"2021-01-01 13"},"coordinates":[2083,7196]},{"type":"Point","properties":{"Station_ID":"KSGM4","Station_Nam":"KEARSARGE","Latitude":"47.27520","Longitude":"-88.41700","Snowdepth":"15.000","Units":"in","Rept_Date":"2021-01-01 13"},"coordinates":[2122,7281]},{"type":"Point","properties":{"Station_ID":"QMD","Station_Nam":"QMD","Latitude":"49.29060","Longitude":"-75.84500","Snowdepth":"14.646","Units":"in","Rept_Date":"2021-01-01 12"},"coordinates":[5145,8512]},{"type":"Point","properties":{"Station_ID":"WI-BY-29","Station_Nam":"BAYFIELD 5.1 NNW, WI","Latitude":"46.88063","Longitude":"-90.85854","Snowdepth":"14.500","Units":"in","Rept_Date":"2021-01-01 13"},"coordinates":[1535,7040]},{"type":"Point","properties":{"Station_ID":"OGIQ6","Station_Nam":"OGOKI CAMP","Latitude":"50.76680","Longitude":"-87.85820","Snowdepth":"14.060","Units":"in","Rept_Date":"2021-01-02 06"},"coordinates":[2257,9413]},{"type":"Point","properties":{"Station_ID":"SWTW3","Station_Nam":"SUPERIOR WWTP","Latitude":"46.72700","Longitude":"-92.07200","Snowdepth":"14.000","Units":"in","Rept_Date":"2021-01-02 06"},"coordinates":[1244,6946]},{"type":"Point","properties":{"Station_ID":"PRDM4","Station_Nam":"PARADISE","Latitude":"46.60380","Longitude":"-85.03960","Snowdepth":"14.000","Units":"in","Rept_Date":"2021-01-01 12"},"coordinates":[2934,6871]},{"type":"Point","properties":{"Station_ID":"BERM4","Station_Nam":"BERGLAND DAM","Latitude":"46.58690","Longitude":"-89.54750","Snowdepth":"14.000","Units":"in","Rept_Date":"2021-01-01 13"},"coordinates":[1851,6861]},{"type":"Point","properties":{"Station_ID":"MLZ","Station_Nam":"MLZ","Latitude":"50.66170","Longitude":"-68.82360","Snowdepth":"13.465","Units":"in","Rept_Date":"2021-01-01 12"},"coordinates":[6833,9349]},{"type":"Point","properties":{"Station_ID":"MN-SL-15","Station_Nam":"CHISHOLM 0.4 WSW, MN","Latitude":"47.48557","Longitude":"-92.88690","Snowdepth":"13.000","Units":"in","Rept_Date":"2021-01-01 13"},"coordinates":[1048,7409]},{"type":"Point","properties":{"Station_ID":"MI-HG-20","Station_Nam":"CALUMET 1.1 SSW, MI","Latitude":"47.23165","Longitude":"-88.45823","Snowdepth":"13.000","Units":"in","Rept_Date":"2021-01-01 11"},"coordinates":[2112,7254]},{"type":"Point","properties":{"Station_ID":"MI-BG-3","Station_Nam":"THREE LAKES, MI","Latitude":"46.55730","Longitude":"-88.20770","Snowdepth":"13.000","Units":"in","Rept_Date":"2021-01-01 13"},"coordinates":[2173,6843]},{"type":"Point","properties":{"Station_ID":"KABM5","Station_Nam":"KABETOGAMA LAKE VISITOR CTR","Latitude":"48.40880","Longitude":"-93.04840","Snowdepth":"13.000","Units":"in","Rept_Date":"2021-01-01 13"},"coordinates":[1009,7973]},{"type":"Point","properties":{"Station_ID":"BRUM5","Station_Nam":"BRUNO,MN","Latitude":"46.28330","Longitude":"-92.50000","Snowdepth":"13.000","Units":"in","Rept_Date":"2021-01-01 14"},"coordinates":[1141,6675]},{"type":"Point","properties":{"Station_ID":"BNDM5","Station_Nam":"ELY 25E","Latitude":"47.97190","Longitude":"-91.44860","Snowdepth":"13.000","Units":"in","Rept_Date":"2021-01-01 13"},"coordinates":[1394,7706]},{"type":"Point","properties":{"Station_ID":"SVBQ6","Station_Nam":"SAVANT BASE","Latitude":"50.28730","Longitude":"-90.65670","Snowdepth":"12.560","Units":"in","Rept_Date":"2021-01-02 06"},"coordinates":[1584,9120]},{"type":"Point","properties":{"Station_ID":"KABQ6","Station_Nam":"CAB LAKE","Latitude":"49.59950","Longitude":"-89.17990","Snowdepth":"12.560","Units":"in","Rept_Date":"2021-01-02 06"},"coordinates":[1939,8700]},{"type":"Point","properties":{"Station_ID":"CAN-ON-5","Station_Nam":"OWEN SOUND 1.5 NW - GSCA, CAN","Latitude":"44.57837","Longitude":"-80.95461","Snowdepth":"12.500","Units":"in","Rept_Date":"2021-01-01 13"},"coordinates":[3916,5634]},{"type":"Point","properties":{"Station_ID":"SOCQ6","Station_Nam":"SOCKET LAKE","Latitude":"50.77870","Longitude":"-91.79300","Snowdepth":"12.320","Units":"in","Rept_Date":"2021-01-02 06"},"coordinates":[1311,9420]},{"type":"Point","properties":{"Station_ID":"WRSM5","Station_Nam":"WRENSHALL","Latitude":"46.61550","Longitude":"-92.38380","Snowdepth":"12.000","Units":"in","Rept_Date":"2021-01-01 14"},"coordinates":[1169,6878]},{"type":"Point","properties":{"Station_ID":"WI-BY-22","Station_Nam":"MASON 11.5 WNW, WI","Latitude":"46.50198","Longitude":"-91.28339","Snowdepth":"12.000","Units":"in","Rept_Date":"2021-01-01 14"},"coordinates":[1433,6809]},{"type":"Point","properties":{"Station_ID":"MN-SL-18","Station_Nam":"DULUTH 1.4 NNW, MN","Latitude":"46.80321","Longitude":"-92.11240","Snowdepth":"12.000","Units":"in","Rept_Date":"2021-01-01 14"},"coordinates":[1234,6993]},{"type":"Point","properties":{"Station_ID":"MN-SL-108","Station_Nam":"IRON JUNCTION 3.4 NNW, MN","Latitude":"47.46150","Longitude":"-92.63130","Snowdepth":"12.000","Units":"in","Rept_Date":"2021-01-01 13"},"coordinates":[1109,7395]},{"type":"Point","properties":{"Station_ID":"MN-IS-18","Station_Nam":"BRAHAM 0.7 SW, MN","Latitude":"45.71379","Longitude":"-93.18095","Snowdepth":"12.000","Units":"in","Rept_Date":"2021-01-01 14"},"coordinates":[977,6328]},{"type":"Point","properties":{"Station_ID":"MN-CK-6","Station_Nam":"GRAND MARAIS 4.4 W, MN","Latitude":"47.74865","Longitude":"-90.43760","Snowdepth":"12.000","Units":"in","Rept_Date":"2021-01-01 13"},"coordinates":[1637,7570]},{"type":"Point","properties":{"Station_ID":"LUCW3","Station_Nam":"LUCK","Latitude":"45.57330","Longitude":"-92.48520","Snowdepth":"12.000","Units":"in","Rept_Date":"2021-01-01 18"},"coordinates":[1144,6242]},{"type":"Point","properties":{"Station_ID":"IRMM4","Station_Nam":"WWTP","Latitude":"46.46670","Longitude":"-90.18330","Snowdepth":"12.000","Units":"in","Rept_Date":"2021-01-01 13"},"coordinates":[1698,6787]},{"type":"Point","properties":{"Station_ID":"FLDM5","Station_Nam":"FLOODWOOD,MN","Latitude":"47.00000","Longitude":"-92.91670","Snowdepth":"12.000","Units":"in","Rept_Date":"2021-01-01 14"},"coordinates":[1041,7113]},{"type":"Point","properties":{"Station_ID":"WI-SR-1","Station_Nam":"HAYWARD 9.2 NNE, WI","Latitude":"46.13255","Longitude":"-91.40500","Snowdepth":"11.500","Units":"in","Rept_Date":"2021-01-01 12"},"coordinates":[1404,6583]},{"type":"Point","properties":{"Station_ID":"MI-OG-6","Station_Nam":"WEST BRANCH 2.1 SSW, MI","Latitude":"44.24814","Longitude":"-84.25089","Snowdepth":"11.500","Units":"in","Rept_Date":"2021-01-01 13"},"coordinates":[3124,5433]},{"type":"Point","properties":{"Station_ID":"MI-HG-1","Station_Nam":"HOUGHTON 1.6 ESE, MI","Latitude":"47.10774","Longitude":"-88.52940","Snowdepth":"11.500","Units":"in","Rept_Date":"2021-01-01 13"},"coordinates":[2095,7179]},{"type":"Point","properties":{"Station_ID":"WI-WB-2","Station_Nam":"STONE LAKE 2.0 NW, WI","Latitude":"45.85960","Longitude":"-91.57710","Snowdepth":"11.000","Units":"in","Rept_Date":"2021-01-01 13"},"coordinates":[1363,6417]},{"type":"Point","properties":{"Station_ID":"WI-DG-20","Station_Nam":"SOLON SPRINGS 1.2 W, WI","Latitude":"46.35217","Longitude":"-91.84405","Snowdepth":"11.000","Units":"in","Rept_Date":"2021-01-01 13"},"coordinates":[1298,6717]},{"type":"Point","properties":{"Station_ID":"WI-BY-1","Station_Nam":"BAYFIELD 8.8 N, WI","Latitude":"46.93855","Longitude":"-90.83490","Snowdepth":"11.000","Units":"in","Rept_Date":"2021-01-01 13"},"coordinates":[1541,7075]},{"type":"Point","properties":{"Station_ID":"TOHM5","Station_Nam":"TWO HARBORS WWTP","Latitude":"47.01760","Longitude":"-91.66480","Snowdepth":"11.000","Units":"in","Rept_Date":"2021-01-01 13"},"coordinates":[1342,7124]},{"type":"Point","properties":{"Station_ID":"SRAW3","Station_Nam":"SARONA","Latitude":"45.80250","Longitude":"-91.86700","Snowdepth":"11.000","Units":"in","Rept_Date":"2021-01-01 14"},"coordinates":[1293,6382]},{"type":"Point","properties":{"Station_ID":"NYMM5","Station_Nam":"NEW YORK MILLS","Latitude":"46.50920","Longitude":"-95.37990","Snowdepth":"11.000","Units":"in","Rept_Date":"2021-01-01 13"},"coordinates":[448,6813]},{"type":"Point","properties":{"Station_ID":"NOHM5","Station_Nam":"NORTHOME","Latitude":"47.83590","Longitude":"-94.25550","Snowdepth":"11.000","Units":"in","Rept_Date":"2021-01-01 13"},"coordinates":[719,7623]},{"type":"Point","properties":{"Station_ID":"MN-CV-22","Station_Nam":"VICTORIA 1.6 WSW, MN","Latitude":"44.85670","Longitude":"-93.68640","Snowdepth":"11.000","Units":"in","Rept_Date":"2021-01-01 13"},"coordinates":[856,5804]},{"type":"Point","properties":{"Station_ID":"MIEM4","Station_Nam":"MICHIGAMME 3WNW","Latitude":"46.54530","Longitude":"-88.18000","Snowdepth":"11.000","Units":"in","Rept_Date":"2021-01-01 13"},"coordinates":[2179,6835]},{"type":"Point","properties":{"Station_ID":"LEIM5","Station_Nam":"ORR 3E","Latitude":"48.05810","Longitude":"-92.75220","Snowdepth":"11.000","Units":"in","Rept_Date":"2021-01-01 12"},"coordinates":[1080,7759]},{"type":"Point","properties":{"Station_ID":"HTLM4","Station_Nam":"SNOW PAID OBSERVER FOR KHTL","Latitude":"44.34470","Longitude":"-84.67730","Snowdepth":"11.000","Units":"in","Rept_Date":"2021-01-02 06"},"coordinates":[3021,5492]},{"type":"Point","properties":{"Station_ID":"GNFM5","Station_Nam":"GUNFLINT LAKE","Latitude":"48.16670","Longitude":"-90.88750","Snowdepth":"11.000","Units":"in","Rept_Date":"2021-01-01 13"},"coordinates":[1528,7825]},{"type":"Point","properties":{"Station_ID":"ELYM5","Station_Nam":"ELY","Latitude":"47.90560","Longitude":"-91.82830","Snowdepth":"11.000","Units":"in","Rept_Date":"2021-01-01 14"},"coordinates":[1302,7666]},{"type":"Point","properties":{"Station_ID":"COTM5","Station_Nam":"COTTON","Latitude":"47.16870","Longitude":"-92.46290","Snowdepth":"11.000","Units":"in","Rept_Date":"2021-01-01 12"},"coordinates":[1150,7216]},{"type":"Point","properties":{"Station_ID":"COKM5","Station_Nam":"COOK","Latitude":"47.85060","Longitude":"-92.69250","Snowdepth":"11.000","Units":"in","Rept_Date":"2021-01-01 12"},"coordinates":[1095,7632]},{"type":"Point","properties":{"Station_ID":"CLKM4","Station_Nam":"CLARKSBURG","Latitude":"46.49910","Longitude":"-87.84500","Snowdepth":"11.000","Units":"in","Rept_Date":"2021-01-01 12"},"coordinates":[2260,6807]},{"type":"Point","properties":{"Station_ID":"CAN-ON-451","Station_Nam":"OWEN SOUND 1.2 N - GSCA, CAN","Latitude":"44.58092","Longitude":"-80.93025","Snowdepth":"11.000","Units":"in","Rept_Date":"2021-01-01 13"},"coordinates":[3922,5636]},{"type":"Point","properties":{"Station_ID":"CAN-MB-56","Station_Nam":"WINNIPEG 7.6 ENE, CAN","Latitude":"49.93264","Longitude":"-97.04752","Snowdepth":"11.000","Units":"in","Rept_Date":"2021-01-01 14"},"coordinates":[48,8904]},{"type":"Point","properties":{"Station_ID":"BBEM4","Station_Nam":"BIG BAY 9SW","Latitude":"46.74620","Longitude":"-87.88160","Snowdepth":"11.000","Units":"in","Rept_Date":"2021-01-01 13"},"coordinates":[2251,6958]},{"type":"Point","properties":{"Station_ID":"AFTW3","Station_Nam":"ROCK RIVER","Latitude":"42.61670","Longitude":"-89.06670","Snowdepth":"11.000","Units":"in","Rept_Date":"2021-01-01 13"},"coordinates":[1966,4437]},{"type":"Point","properties":{"Station_ID":"QWE","Station_Nam":"QWE","Latitude":"47.84610","Longitude":"-73.80670","Snowdepth":"10.905","Units":"in","Rept_Date":"2021-01-01 12"},"coordinates":[5635,7630]},{"type":"Point","properties":{"Station_ID":"MN-SL-115","Station_Nam":"COTTON 5.7 ESE, MN","Latitude":"47.15142","Longitude":"-92.35772","Snowdepth":"10.500","Units":"in","Rept_Date":"2021-01-01 14"},"coordinates":[1175,7205]},{"type":"Point","properties":{"Station_ID":"MN-CN-36","Station_Nam":"CLOQUET 3.4 ENE, MN","Latitude":"46.74146","Longitude":"-92.42698","Snowdepth":"10.500","Units":"in","Rept_Date":"2021-01-01 13"},"coordinates":[1158,6955]},{"type":"Point","properties":{"Station_ID":"WTNM4","Station_Nam":"WATTON 2WSW","Latitude":"46.52660","Longitude":"-88.64240","Snowdepth":"10.000","Units":"in","Rept_Date":"2021-01-01 13"},"coordinates":[2068,6824]},{"type":"Point","properties":{"Station_ID":"TOGM5","Station_Nam":"CELINA 2E","Latitude":"47.86630","Longitude":"-93.02660","Snowdepth":"10.000","Units":"in","Rept_Date":"2021-01-01 16"},"coordinates":[1014,7642]},{"type":"Point","properties":{"Station_ID":"MONW3","Station_Nam":"MONROE,WI","Latitude":"42.60000","Longitude":"-89.66670","Snowdepth":"10.000","Units":"in","Rept_Date":"2021-01-01 12"},"coordinates":[1822,4427]},{"type":"Point","properties":{"Station_ID":"MNSM4","Station_Nam":"MUNISING","Latitude":"46.41210","Longitude":"-86.66250","Snowdepth":"10.000","Units":"in","Rept_Date":"2021-01-01 11"},"coordinates":[2544,6754]},{"type":"Point","properties":{"Station_ID":"MN-CW-54","Station_Nam":"AITKIN 9.6 W, MN","Latitude":"46.53711","Longitude":"-93.90688","Snowdepth":"10.000","Units":"in","Rept_Date":"2021-01-01 14"},"coordinates":[803,6830]},{"type":"Point","properties":{"Station_ID":"MN-CW-44","Station_Nam":"CROSBY 1.1 SW, MN","Latitude":"46.47772","Longitude":"-93.97293","Snowdepth":"10.000","Units":"in","Rept_Date":"2021-01-01 13"},"coordinates":[787,6794]},{"type":"Point","properties":{"Station_ID":"MN-CW-22","Station_Nam":"FORT RIPLEY 0.8 N, MN","Latitude":"46.18089","Longitude":"-94.36510","Snowdepth":"10.000","Units":"in","Rept_Date":"2021-01-01 13"},"coordinates":[692,6613]},{"type":"Point","properties":{"Station_ID":"MN-CG-16","Station_Nam":"NORTH BRANCH 1.3 NNW, MN","Latitude":"45.53121","Longitude":"-92.97110","Snowdepth":"10.000","Units":"in","Rept_Date":"2021-01-01 12"},"coordinates":[1028,6216]},{"type":"Point","properties":{"Station_ID":"MMNV1","Station_Nam":"MT. MANSFIELD","Latitude":"44.52480","Longitude":"-72.81540","Snowdepth":"10.000","Units":"in","Rept_Date":"2021-01-01 21"},"coordinates":[5873,5602]},{"type":"Point","properties":{"Station_ID":"MKX","Station_Nam":"MILWAUKEE, WI","Latitude":"42.96810","Longitude":"-88.54920","Snowdepth":"10.000","Units":"in","Rept_Date":"2021-01-02 06"},"coordinates":[2091,4651]},{"type":"Point","properties":{"Station_ID":"MKTI4","Station_Nam":"MAQUOKETA","Latitude":"42.07710","Longitude":"-90.66470","Snowdepth":"10.000","Units":"in","Rept_Date":"2021-01-01 13"},"coordinates":[1582,4107]},{"type":"Point","properties":{"Station_ID":"MI-EM-8","Station_Nam":"PETOSKEY 1.7 SSW, MI","Latitude":"45.34209","Longitude":"-84.96530","Snowdepth":"10.000","Units":"in","Rept_Date":"2021-01-01 11"},"coordinates":[2952,6101]},{"type":"Point","properties":{"Station_ID":"JCBM4","Station_Nam":"JACOBSVILLE","Latitude":"47.00830","Longitude":"-88.43180","Snowdepth":"10.000","Units":"in","Rept_Date":"2021-01-01 12"},"coordinates":[2119,7118]},{"type":"Point","properties":{"Station_ID":"INL","Station_Nam":"FALLS INTERNATIONAL ARPT","Latitude":"48.56640","Longitude":"-93.40310","Snowdepth":"10.000","Units":"in","Rept_Date":"2021-01-02 00"},"coordinates":[924,8069]},{"type":"Point","properties":{"Station_ID":"IL-SP-7","Station_Nam":"DAVIS 0.5 N, IL","Latitude":"42.42919","Longitude":"-89.41730","Snowdepth":"10.000","Units":"in","Rept_Date":"2021-01-01 13"},"coordinates":[1882,4322]},{"type":"Point","properties":{"Station_ID":"IL-JD-8","Station_Nam":"STOCKTON 3.4 NNE, IL","Latitude":"42.39960","Longitude":"-89.99020","Snowdepth":"10.000","Units":"in","Rept_Date":"2021-01-01 13"},"coordinates":[1744,4304]},{"type":"Point","properties":{"Station_ID":"IFSM5","Station_Nam":"INTERNATIONAL FALLS SNOW","Latitude":"48.57780","Longitude":"-93.39640","Snowdepth":"10.000","Units":"in","Rept_Date":"2021-01-01 12"},"coordinates":[925,8076]},{"type":"Point","properties":{"Station_ID":"HTLN3","Station_Nam":"HERMIT LAKE SNOWPLOT","Latitude":"44.26130","Longitude":"-71.28330","Snowdepth":"10.000","Units":"in","Rept_Date":"2021-01-01 10"},"coordinates":[6241,5441]},{"type":"Point","properties":{"Station_ID":"HGHN6","Station_Nam":"HIGHMARKET","Latitude":"43.60510","Longitude":"-75.55430","Snowdepth":"10.000","Units":"in","Rept_Date":"2021-01-01 11"},"coordinates":[5215,5040]},{"type":"Point","properties":{"Station_ID":"FORM5","Station_Nam":"FOREST LAKE 5NE","Latitude":"45.33170","Longitude":"-92.89820","Snowdepth":"10.000","Units":"in","Rept_Date":"2021-01-01 13"},"coordinates":[1045,6094]},{"type":"Point","properties":{"Station_ID":"CAN-ON-452","Station_Nam":"CHATSWORTH 1.8 ENE - GSCA, CAN","Latitude":"44.46118","Longitude":"-80.87506","Snowdepth":"9.800","Units":"in","Rept_Date":"2021-01-01 12"},"coordinates":[3936,5563]},{"type":"Point","properties":{"Station_ID":"CATQ6","Station_Nam":"CAT LAKE","Latitude":"51.72690","Longitude":"-91.82210","Snowdepth":"9.760","Units":"in","Rept_Date":"2021-01-02 06"},"coordinates":[1304,9999]},{"type":"Point","properties":{"Station_ID":"WI-BY-6","Station_Nam":"BARNES 2.2 S, WI","Latitude":"46.30264","Longitude":"-91.50320","Snowdepth":"9.500","Units":"in","Rept_Date":"2021-01-01 13"},"coordinates":[1380,6687]},{"type":"Point","properties":{"Station_ID":"CAN-MB-32","Station_Nam":"PINAWA 1.0 SW, CA","Latitude":"50.14747","Longitude":"-95.89020","Snowdepth":"9.500","Units":"in","Rept_Date":"2021-01-01 13"},"coordinates":[326,9035]},{"type":"Point","properties":{"Station_ID":"CAN-ON-804","Station_Nam":"KEMBLE 1.6 S - GSCA, CAN","Latitude":"44.71013","Longitude":"-80.92735","Snowdepth":"9.400","Units":"in","Rept_Date":"2021-01-01 13"},"coordinates":[3923,5715]},{"type":"Point","properties":{"Station_ID":"CAN-MB-368","Station_Nam":"WHITESHELL 1.3 NE, CAN","Latitude":"49.74405","Longitude":"-95.19123","Snowdepth":"9.300","Units":"in","Rept_Date":"2021-01-01 14"},"coordinates":[494,8788]},{"type":"Point","properties":{"Station_ID":"WRIM5","Station_Nam":"WRIGHT 3E","Latitude":"46.68040","Longitude":"-92.95420","Snowdepth":"9.000","Units":"in","Rept_Date":"2021-01-01 12"},"coordinates":[1032,6918]},{"type":"Point","properties":{"Station_ID":"WI-BY-2","Station_Nam":"MELLEN 18.6 SW, WI","Latitude":"46.16937","Longitude":"-90.98090","Snowdepth":"9.000","Units":"in","Rept_Date":"2021-01-01 13"},"coordinates":[1506,6606]},{"type":"Point","properties":{"Station_ID":"WI-BT-14","Station_Nam":"OAKLAND 9.0 ENE, WI","Latitude":"45.95184","Longitude":"-92.21653","Snowdepth":"9.000","Units":"in","Rept_Date":"2021-01-01 13"},"coordinates":[1209,6473]},{"type":"Point","properties":{"Station_ID":"SWHI4","Station_Nam":"SWISHER #2","Latitude":"41.84970","Longitude":"-91.67650","Snowdepth":"9.000","Units":"in","Rept_Date":"2021-01-01 14"},"coordinates":[1339,3968]},{"type":"Point","properties":{"Station_ID":"SUAW3","Station_Nam":"SUAMICO","Latitude":"44.60190","Longitude":"-88.09780","Snowdepth":"9.000","Units":"in","Rept_Date":"2021-01-01 12"},"coordinates":[2199,5649]},{"type":"Point","properties":{"Station_ID":"SSMM4","Station_Nam":"SAULT STE MARIE","Latitude":"46.48660","Longitude":"-84.40250","Snowdepth":"9.000","Units":"in","Rept_Date":"2021-01-01 13"},"coordinates":[3087,6800]},{"type":"Point","properties":{"Station_ID":"PDGM4","Station_Nam":"PAULDING","Latitude":"46.39760","Longitude":"-89.17940","Snowdepth":"9.000","Units":"in","Rept_Date":"2021-01-01 14"},"coordinates":[1939,6745]},{"type":"Point","properties":{"Station_ID":"MSP","Station_Nam":"MINNEAPOLIS-ST PAUL INTL AP","Latitude":"44.88310","Longitude":"-93.22890","Snowdepth":"9.000","Units":"in","Rept_Date":"2021-01-02 00"},"coordinates":[966,5820]},{"type":"Point","properties":{"Station_ID":"MQT","Station_Nam":"MARQUETTE, MI","Latitude":"46.53140","Longitude":"-87.54920","Snowdepth":"9.000","Units":"in","Rept_Date":"2021-01-02 06"},"coordinates":[2331,6827]},{"type":"Point","properties":{"Station_ID":"MN-WR-25","Station_Nam":"SAINT MICHAEL 2.0 ENE, MN","Latitude":"45.20820","Longitude":"-93.65280","Snowdepth":"9.000","Units":"in","Rept_Date":"2021-01-01 12"},"coordinates":[864,6019]},{"type":"Point","properties":{"Station_ID":"MN-SV-4","Station_Nam":"DONNELLY 2.9 NW, MN","Latitude":"45.71649","Longitude":"-96.06043","Snowdepth":"9.000","Units":"in","Rept_Date":"2021-01-01 14"},"coordinates":[285,6329]},{"type":"Point","properties":{"Station_ID":"MN-IT-1","Station_Nam":"GRAND RAPIDS 2.0 E, MN","Latitude":"47.22266","Longitude":"-93.49600","Snowdepth":"9.000","Units":"in","Rept_Date":"2021-01-01 14"},"coordinates":[901,7249]},{"type":"Point","properties":{"Station_ID":"MN-IS-21","Station_Nam":"ISANTI 5.0 SW, MN","Latitude":"45.43360","Longitude":"-93.30200","Snowdepth":"9.000","Units":"in","Rept_Date":"2021-01-01 16"},"coordinates":[948,6157]},{"type":"Point","properties":{"Station_ID":"MN-BK-6","Station_Nam":"LAKE PARK 6.0 S, MN","Latitude":"46.79850","Longitude":"-96.12180","Snowdepth":"9.000","Units":"in","Rept_Date":"2021-01-01 13"},"coordinates":[270,6990]},{"type":"Point","properties":{"Station_ID":"MN-AA-76","Station_Nam":"NOWTHEN 2.9 SSE, MN","Latitude":"45.30360","Longitude":"-93.42620","Snowdepth":"9.000","Units":"in","Rept_Date":"2021-01-01 13"},"coordinates":[918,6077]},{"type":"Point","properties":{"Station_ID":"MI-OT-17","Station_Nam":"GAYLORD 4.1 S, MI","Latitude":"44.96388","Longitude":"-84.68467","Snowdepth":"9.000","Units":"in","Rept_Date":"2021-01-01 12"},"coordinates":[3020,5870]},{"type":"Point","properties":{"Station_ID":"KMSP","Station_Nam":"MINNEAPOLIS-ST PAUL INTERNATIONAL","Latitude":"44.86666","Longitude":"-93.21666","Snowdepth":"9.000","Units":"in","Rept_Date":"2021-01-02 00"},"coordinates":[968,5810]},{"type":"Point","properties":{"Station_ID":"IL-SP-6","Station_Nam":"FREEPORT 2.0 NW, IL","Latitude":"42.30955","Longitude":"-89.66370","Snowdepth":"9.000","Units":"in","Rept_Date":"2021-01-01 13"},"coordinates":[1823,4249]},{"type":"Point","properties":{"Station_ID":"IA-JH-14","Station_Nam":"SWISHER 0.4 NNE, IA","Latitude":"41.84830","Longitude":"-91.69210","Snowdepth":"9.000","Units":"in","Rept_Date":"2021-01-01 14"},"coordinates":[1335,3968]},{"type":"Point","properties":{"Station_ID":"HTL","Station_Nam":"ROSCOMMON COUNTY AIRPORT","Latitude":"44.35000","Longitude":"-84.66670","Snowdepth":"9.000","Units":"in","Rept_Date":"2021-01-02 00"},"coordinates":[3024,5495]},{"type":"Point","properties":{"Station_ID":"CSLM5","Station_Nam":"CASS LAKE,MN","Latitude":"47.38470","Longitude":"-94.61470","Snowdepth":"9.000","Units":"in","Rept_Date":"2021-01-01 14"},"coordinates":[632,7348]},{"type":"Point","properties":{"Station_ID":"CMKW3","Station_Nam":"CLAM LAKE 4W","Latitude":"46.16940","Longitude":"-90.98080","Snowdepth":"9.000","Units":"in","Rept_Date":"2021-01-01 13"},"coordinates":[1506,6606]},{"type":"Point","properties":{"Station_ID":"CAN-ON-118","Station_Nam":"DURHAM 1.4 S, CAN","Latitude":"44.16525","Longitude":"-80.82064","Snowdepth":"9.000","Units":"in","Rept_Date":"2021-01-01 12"},"coordinates":[3949,5382]},{"type":"Point","properties":{"Station_ID":"BRAM5","Station_Nam":"BRAINERD","Latitude":"46.34320","Longitude":"-94.20900","Snowdepth":"9.000","Units":"in","Rept_Date":"2021-01-01 13"},"coordinates":[730,6712]},{"type":"Point","properties":{"Station_ID":"ANJM4","Station_Nam":"SNOW PAID OBSERVER FOR KANJ","Latitude":"46.48670","Longitude":"-84.40260","Snowdepth":"9.000","Units":"in","Rept_Date":"2021-01-01 18"},"coordinates":[3087,6800]},{"type":"Point","properties":{"Station_ID":"ANJ","Station_Nam":"SAULT STE MARIE","Latitude":"46.46670","Longitude":"-84.36670","Snowdepth":"9.000","Units":"in","Rept_Date":"2021-01-02 00"},"coordinates":[3096,6787]},{"type":"Point","properties":{"Station_ID":"HLSN3","Station_Nam":"HERMIT LAKE SNOTEL","Latitude":"44.26130","Longitude":"-71.28320","Snowdepth":"8.700","Units":"in","Rept_Date":"2021-01-02 06"},"coordinates":[6241,5441]},{"type":"Point","properties":{"Station_ID":"WI-VL-9","Station_Nam":"LAND O' LAKES 11.7 W, WI","Latitude":"46.19023","Longitude":"-89.45790","Snowdepth":"8.500","Units":"in","Rept_Date":"2021-01-01 13"},"coordinates":[1872,6619]},{"type":"Point","properties":{"Station_ID":"WI-RK-12","Station_Nam":"JANESVILLE 3.1 W, WI","Latitude":"42.67576","Longitude":"-89.07614","Snowdepth":"8.500","Units":"in","Rept_Date":"2021-01-01 13"},"coordinates":[1964,4473]},{"type":"Point","properties":{"Station_ID":"MN-HN-31","Station_Nam":"MAPLE GROVE 1.0 NNE, MN","Latitude":"45.12261","Longitude":"-93.45790","Snowdepth":"8.500","Units":"in","Rept_Date":"2021-01-01 16"},"coordinates":[911,5967]},{"type":"Point","properties":{"Station_ID":"IL-SP-25","Station_Nam":"FREEPORT 1.7 NW, IL","Latitude":"42.30427","Longitude":"-89.66285","Snowdepth":"8.500","Units":"in","Rept_Date":"2021-01-01 13"},"coordinates":[1823,4246]},{"type":"Point","properties":{"Station_ID":"IL-JD-6","Station_Nam":"HANOVER 0.2 NW, IL","Latitude":"42.25640","Longitude":"-90.28109","Snowdepth":"8.500","Units":"in","Rept_Date":"2021-01-01 13"},"coordinates":[1674,4217]},{"type":"Point","properties":{"Station_ID":"MN-IT-7","Station_Nam":"GRAND RAPIDS 6.2 SSW, MN","Latitude":"47.13687","Longitude":"-93.56660","Snowdepth":"8.200","Units":"in","Rept_Date":"2021-01-01 12"},"coordinates":[884,7197]},{"type":"Point","properties":{"Station_ID":"WI-PK-4","Station_Nam":"DRESSER 6.1 ESE, WI","Latitude":"45.32436","Longitude":"-92.52080","Snowdepth":"8.000","Units":"in","Rept_Date":"2021-01-01 14"},"coordinates":[1136,6090]},{"type":"Point","properties":{"Station_ID":"WHTM5","Station_Nam":"WHEATON,MN","Latitude":"45.80000","Longitude":"-96.48330","Snowdepth":"8.000","Units":"in","Rept_Date":"2021-01-01 14"},"coordinates":[183,6380]},{"type":"Point","properties":{"Station_ID":"RLKW3","Station_Nam":"REST LAKE","Latitude":"46.12220","Longitude":"-89.87720","Snowdepth":"8.000","Units":"in","Rept_Date":"2021-01-01 13"},"coordinates":[1771,6577]},{"type":"Point","properties":{"Station_ID":"RDFN6","Station_Nam":"REDFIELD 8N","Latitude":"43.64130","Longitude":"-75.88400","Snowdepth":"8.000","Units":"in","Rept_Date":"2021-01-01 12"},"coordinates":[5135,5062]},{"type":"Point","properties":{"Station_ID":"RANI4","Station_Nam":"RANDOLPH,IA","Latitude":"40.86670","Longitude":"-95.56670","Snowdepth":"8.000","Units":"in","Rept_Date":"2021-01-01 14"},"coordinates":[404,3368]},{"type":"Point","properties":{"Station_ID":"QCAI2","Station_Nam":"MOLINE SNOW","Latitude":"41.39990","Longitude":"-90.54800","Snowdepth":"8.000","Units":"in","Rept_Date":"2021-01-02 06"},"coordinates":[1610,3694]},{"type":"Point","properties":{"Station_ID":"ND-CS-45","Station_Nam":"FARGO 3.6 NNE, ND","Latitude":"46.92599","Longitude":"-96.79321","Snowdepth":"8.000","Units":"in","Rept_Date":"2021-01-01 13"},"coordinates":[109,7068]},{"type":"Point","properties":{"Station_ID":"MTCI2","Station_Nam":"MOUNT CARROLL","Latitude":"42.09800","Longitude":"-89.98410","Snowdepth":"8.000","Units":"in","Rept_Date":"2021-01-01 14"},"coordinates":[1746,4120]},{"type":"Point","properties":{"Station_ID":"MN-SH-10","Station_Nam":"BIG LAKE 5.6 NNE, MN","Latitude":"45.41409","Longitude":"-93.69190","Snowdepth":"8.000","Units":"in","Rept_Date":"2021-01-01 13"},"coordinates":[854,6145]},{"type":"Point","properties":{"Station_ID":"MN-MR-13","Station_Nam":"LITTLE FALLS 8.0 NE, MN","Latitude":"46.06785","Longitude":"-94.24789","Snowdepth":"8.000","Units":"in","Rept_Date":"2021-01-01 13"},"coordinates":[721,6544]},{"type":"Point","properties":{"Station_ID":"MN-IT-23","Station_Nam":"BOVEY 13.4 N, MN","Latitude":"47.48855","Longitude":"-93.43497","Snowdepth":"8.000","Units":"in","Rept_Date":"2021-01-01 13"},"coordinates":[916,7411]},{"type":"Point","properties":{"Station_ID":"MN-IT-17","Station_Nam":"GRAND RAPIDS 6.1 N, MN","Latitude":"47.31165","Longitude":"-93.55036","Snowdepth":"8.000","Units":"in","Rept_Date":"2021-01-01 13"},"coordinates":[888,7303]},{"type":"Point","properties":{"Station_ID":"MN-HN-6","Station_Nam":"LONG LAKE 0.2 WSW, MN","Latitude":"44.98290","Longitude":"-93.57360","Snowdepth":"8.000","Units":"in","Rept_Date":"2021-01-01 13"},"coordinates":[883,5881]},{"type":"Point","properties":{"Station_ID":"MN-HN-298","Station_Nam":"EXCELSIOR 1.8 W, MN","Latitude":"44.89722","Longitude":"-93.60286","Snowdepth":"8.000","Units":"in","Rept_Date":"2021-01-01 13"},"coordinates":[876,5829]},{"type":"Point","properties":{"Station_ID":"MN-HN-241","Station_Nam":"MAPLE GROVE 1.4 WSW, MN","Latitude":"45.10451","Longitude":"-93.48950","Snowdepth":"8.000","Units":"in","Rept_Date":"2021-01-01 13"},"coordinates":[903,5956]},{"type":"Point","properties":{"Station_ID":"MN-GH-28","Station_Nam":"CANNON FALLS 0.5 SE, MN","Latitude":"44.50866","Longitude":"-92.89526","Snowdepth":"8.000","Units":"in","Rept_Date":"2021-01-01 14"},"coordinates":[1046,5592]},{"type":"Point","properties":{"Station_ID":"MN-CK-3","Station_Nam":"TOFTE 4.9 NE, MN","Latitude":"47.62394","Longitude":"-90.76100","Snowdepth":"8.000","Units":"in","Rept_Date":"2021-01-01 13"},"coordinates":[1559,7494]},{"type":"Point","properties":{"Station_ID":"MN-AT-5","Station_Nam":"TAMARACK 1.4 SW, MN","Latitude":"46.63760","Longitude":"-93.14554","Snowdepth":"8.000","Units":"in","Rept_Date":"2021-01-01 13"},"coordinates":[986,6892]},{"type":"Point","properties":{"Station_ID":"MI-OT-16","Station_Nam":"GAYLORD 2.2 SSE, MI","Latitude":"44.99441","Longitude":"-84.65820","Snowdepth":"8.000","Units":"in","Rept_Date":"2021-01-01 12"},"coordinates":[3026,5888]},{"type":"Point","properties":{"Station_ID":"MI-MQ-19","Station_Nam":"ISHPEMING 7.2 SW, MI","Latitude":"46.40550","Longitude":"-87.75670","Snowdepth":"8.000","Units":"in","Rept_Date":"2021-01-01 11"},"coordinates":[2281,6750]},{"type":"Point","properties":{"Station_ID":"LVDW3","Station_Nam":"LAC VIEUX DESERT","Latitude":"46.12110","Longitude":"-89.07580","Snowdepth":"8.000","Units":"in","Rept_Date":"2021-01-01 15"},"coordinates":[1964,6576]},{"type":"Point","properties":{"Station_ID":"LNOW3","Station_Nam":"LAND O LAKES","Latitude":"46.19000","Longitude":"-89.45700","Snowdepth":"8.000","Units":"in","Rept_Date":"2021-01-01 13"},"coordinates":[1872,6618]},{"type":"Point","properties":{"Station_ID":"LNGM5","Station_Nam":"LONG PRAIRIE","Latitude":"45.96460","Longitude":"-94.88920","Snowdepth":"8.000","Units":"in","Rept_Date":"2021-01-01 12"},"coordinates":[566,6481]},{"type":"Point","properties":{"Station_ID":"KNXI4","Station_Nam":"KNOXVILLE,IA","Latitude":"41.31670","Longitude":"-93.13330","Snowdepth":"8.000","Units":"in","Rept_Date":"2021-01-01 14"},"coordinates":[989,3643]},{"type":"Point","properties":{"Station_ID":"KDSM","Station_Nam":"DES MOINES INTERNATIONAL","Latitude":"41.53333","Longitude":"-93.66666","Snowdepth":"8.000","Units":"in","Rept_Date":"2021-01-02 00"},"coordinates":[860,3775]},{"type":"Point","properties":{"Station_ID":"ISEM5","Station_Nam":"ISLE 12N","Latitude":"46.31970","Longitude":"-93.50140","Snowdepth":"8.000","Units":"in","Rept_Date":"2021-01-01 15"},"coordinates":[900,6698]},{"type":"Point","properties":{"Station_ID":"DUBI4","Station_Nam":"DUBUQUE #3","Latitude":"42.40870","Longitude":"-90.73250","Snowdepth":"8.000","Units":"in","Rept_Date":"2021-01-02 06"},"coordinates":[1566,4310]},{"type":"Point","properties":{"Station_ID":"DSXI4","Station_Nam":"DES MOINES SNOW","Latitude":"41.54130","Longitude":"-93.65570","Snowdepth":"8.000","Units":"in","Rept_Date":"2021-01-02 06"},"coordinates":[863,3780]},{"type":"Point","properties":{"Station_ID":"DSM","Station_Nam":"DES MOINES INTERNATIONAL","Latitude":"41.53340","Longitude":"-93.66300","Snowdepth":"8.000","Units":"in","Rept_Date":"2021-01-02 00"},"coordinates":[861,3775]},{"type":"Point","properties":{"Station_ID":"DLHM5","Station_Nam":"DULUTH NWS","Latitude":"46.83680","Longitude":"-92.21080","Snowdepth":"8.000","Units":"in","Rept_Date":"2021-01-02 06"},"coordinates":[1210,7013]},{"type":"Point","properties":{"Station_ID":"DLH","Station_Nam":"DULUTH, MN","Latitude":"46.83690","Longitude":"-92.21030","Snowdepth":"8.000","Units":"in","Rept_Date":"2021-01-02 00"},"coordinates":[1210,7013]},{"type":"Point","properties":{"Station_ID":"DBQ","Station_Nam":"DUBUQUE REGIONAL AIRPORT","Latitude":"42.40310","Longitude":"-90.70920","Snowdepth":"8.000","Units":"in","Rept_Date":"2021-01-02 00"},"coordinates":[1571,4306]},{"type":"Point","properties":{"Station_ID":"COUW3","Station_Nam":"COUDERAY,WI","Latitude":"45.86670","Longitude":"-91.45000","Snowdepth":"8.000","Units":"in","Rept_Date":"2021-01-01 22"},"coordinates":[1393,6421]},{"type":"Point","properties":{"Station_ID":"BROW3","Station_Nam":"BRODHEAD,WI","Latitude":"42.61720","Longitude":"-89.38970","Snowdepth":"8.000","Units":"in","Rept_Date":"2021-01-01 13"},"coordinates":[1889,4437]},{"type":"Point","properties":{"Station_ID":"BLGW3","Station_Nam":"BELGIUM WWTP","Latitude":"43.51310","Longitude":"-87.85440","Snowdepth":"8.000","Units":"in","Rept_Date":"2021-01-01 12"},"coordinates":[2258,4984]},{"type":"Point","properties":{"Station_ID":"BKEM5","Station_Nam":"BRECKENRIDGE 4NE","Latitude":"46.30470","Longitude":"-96.52170","Snowdepth":"8.000","Units":"in","Rept_Date":"2021-01-01 12"},"coordinates":[174,6688]},{"type":"Point","properties":{"Station_ID":"BAGM4","Station_Nam":"BARAGA 7NW","Latitude":"46.82100","Longitude":"-88.60590","Snowdepth":"8.000","Units":"in","Rept_Date":"2021-01-01 13"},"coordinates":[2077,7004]},{"type":"Point","properties":{"Station_ID":"MFU","Station_Nam":"MFU","Latitude":"51.52170","Longitude":"-66.91110","Snowdepth":"7.874","Units":"in","Rept_Date":"2021-01-01 12"},"coordinates":[7293,9874]},{"type":"Point","properties":{"Station_ID":"FTHQ6","Station_Nam":"FORT HOPE","Latitude":"51.55820","Longitude":"-87.90510","Snowdepth":"7.640","Units":"in","Rept_Date":"2021-01-02 06"},"coordinates":[2245,9896]},{"type":"Point","properties":{"Station_ID":"CAN-ON-757","Station_Nam":"SAULT STE. MARIE 2.8 ESE - GLFC, CAN","Latitude":"46.50300","Longitude":"-84.30300","Snowdepth":"7.600","Units":"in","Rept_Date":"2021-01-01 13"},"coordinates":[3111,6810]},{"type":"Point","properties":{"Station_ID":"QCX","Station_Nam":"QCX","Latitude":"51.32830","Longitude":"-70.08060","Snowdepth":"7.559","Units":"in","Rept_Date":"2021-01-01 12"},"coordinates":[6531,9756]},{"type":"Point","properties":{"Station_ID":"WI-DA-87","Station_Nam":"DUNKIRK 0.1 NW, WI","Latitude":"42.88356","Longitude":"-89.21056","Snowdepth":"7.500","Units":"in","Rept_Date":"2021-01-01 12"},"coordinates":[1932,4600]},{"type":"Point","properties":{"Station_ID":"NE-SY-11","Station_Nam":"LA VISTA 2.0 WSW, NE","Latitude":"41.17702","Longitude":"-96.07571","Snowdepth":"7.500","Units":"in","Rept_Date":"2021-01-01 13"},"coordinates":[281,3558]},{"type":"Point","properties":{"Station_ID":"ND-CS-25","Station_Nam":"FARGO 2.1 N, ND","Latitude":"46.90816","Longitude":"-96.77937","Snowdepth":"7.500","Units":"in","Rept_Date":"2021-01-01 14"},"coordinates":[112,7057]},{"type":"Point","properties":{"Station_ID":"IA-ST-1","Station_Nam":"LE CLAIRE 1.8 NNE, IA","Latitude":"41.62355","Longitude":"-90.35140","Snowdepth":"7.500","Units":"in","Rept_Date":"2021-01-01 13"},"coordinates":[1657,3830]},{"type":"Point","properties":{"Station_ID":"HPN02_MADIS","Station_Nam":"MAPLE GROVE","Latitude":"45.11820","Longitude":"-93.42830","Snowdepth":"7.500","Units":"in","Rept_Date":"2021-01-02 06"},"coordinates":[918,5964]},{"type":"Point","properties":{"Station_ID":"CAN-ON-771","Station_Nam":"KENORA 8.7 NNE - CANWARN, CAN","Latitude":"49.84171","Longitude":"-94.44386","Snowdepth":"7.200","Units":"in","Rept_Date":"2021-01-01 13"},"coordinates":[673,8848]},{"type":"Point","properties":{"Station_ID":"WTRM4","Station_Nam":"WATERSMEET 12WSW","Latitude":"46.22310","Longitude":"-89.40850","Snowdepth":"7.000","Units":"in","Rept_Date":"2021-01-01 12"},"coordinates":[1884,6639]},{"type":"Point","properties":{"Station_ID":"WRUM5","Station_Nam":"WARROAD 4W","Latitude":"48.89600","Longitude":"-95.40700","Snowdepth":"7.000","Units":"in","Rept_Date":"2021-01-02 04"},"coordinates":[442,8271]},{"type":"Point","properties":{"Station_ID":"WNDP1","Station_Nam":"WINDBER COUNTY CLUB","Latitude":"40.28780","Longitude":"-78.77530","Snowdepth":"7.000","Units":"in","Rept_Date":"2021-01-01 12"},"coordinates":[4440,3015]},{"type":"Point","properties":{"Station_ID":"WI-IW-3","Station_Nam":"MINERAL POINT 7.3 ENE, WI","Latitude":"42.91400","Longitude":"-90.05700","Snowdepth":"7.000","Units":"in","Rept_Date":"2021-01-01 13"},"coordinates":[1728,4618]},{"type":"Point","properties":{"Station_ID":"WI-AS-4","Station_Nam":"ASHLAND 0.5 WNW, WI","Latitude":"46.58240","Longitude":"-90.88390","Snowdepth":"7.000","Units":"in","Rept_Date":"2021-01-01 13"},"coordinates":[1529,6858]},{"type":"Point","properties":{"Station_ID":"WHTW3","Station_Nam":"WHITEWATER,WI","Latitude":"42.85670","Longitude":"-88.72940","Snowdepth":"7.000","Units":"in","Rept_Date":"2021-01-01 13"},"coordinates":[2047,4583]},{"type":"Point","properties":{"Station_ID":"WBRM4","Station_Nam":"WEST BRANCH 3SE","Latitude":"44.25410","Longitude":"-84.20110","Snowdepth":"7.000","Units":"in","Rept_Date":"2021-01-01 13"},"coordinates":[3136,5436]},{"type":"Point","properties":{"Station_ID":"VNTI4","Station_Nam":"VINTON","Latitude":"42.17020","Longitude":"-92.00770","Snowdepth":"7.000","Units":"in","Rept_Date":"2021-01-01 13"},"coordinates":[1259,4164]},{"type":"Point","properties":{"Station_ID":"TLDI4","Station_Nam":"TOLEDO,IA","Latitude":"41.98330","Longitude":"-92.58330","Snowdepth":"7.000","Units":"in","Rept_Date":"2021-01-01 13"},"coordinates":[1121,4050]},{"type":"Point","properties":{"Station_ID":"STOW3","Station_Nam":"STOUGHTON,WI","Latitude":"42.91670","Longitude":"-89.21670","Snowdepth":"7.000","Units":"in","Rept_Date":"2021-01-01 13"},"coordinates":[1930,4620]},{"type":"Point","properties":{"Station_ID":"STMM4","Station_Nam":"STAMBAUGH 2SSE","Latitude":"46.05550","Longitude":"-88.62780","Snowdepth":"7.000","Units":"in","Rept_Date":"2021-01-01 13"},"coordinates":[2072,6536]},{"type":"Point","properties":{"Station_ID":"STGW3","Station_Nam":"ST GERMAIN","Latitude":"45.91550","Longitude":"-89.48940","Snowdepth":"7.000","Units":"in","Rept_Date":"2021-01-01 12"},"coordinates":[1865,6451]},{"type":"Point","properties":{"Station_ID":"SNYI4","Station_Nam":"STANLEY","Latitude":"42.63330","Longitude":"-91.86320","Snowdepth":"7.000","Units":"in","Rept_Date":"2021-01-01 13"},"coordinates":[1294,4447]},{"type":"Point","properties":{"Station_ID":"ROKI4","Station_Nam":"RED OAK,IA","Latitude":"41.00000","Longitude":"-95.23330","Snowdepth":"7.000","Units":"in","Rept_Date":"2021-01-01 13"},"coordinates":[484,3450]},{"type":"Point","properties":{"Station_ID":"ROBW3","Station_Nam":"ROBERTS WWTP","Latitude":"44.97070","Longitude":"-92.56200","Snowdepth":"7.000","Units":"in","Rept_Date":"2021-01-01 14"},"coordinates":[1126,5874]},{"type":"Point","properties":{"Station_ID":"PORW3","Station_Nam":"PORTAGE,WI","Latitude":"43.53190","Longitude":"-89.43780","Snowdepth":"7.000","Units":"in","Rept_Date":"2021-01-01 14"},"coordinates":[1877,4996]},{"type":"Point","properties":{"Station_ID":"PBAN8","Station_Nam":"SITE 1-3MI.N","Latitude":"48.97420","Longitude":"-97.23860","Snowdepth":"7.000","Units":"in","Rept_Date":"2021-01-01 14"},"coordinates":[2,8318]},{"type":"Point","properties":{"Station_ID":"OTTM5","Station_Nam":"OTTERTAIL,MN","Latitude":"46.41670","Longitude":"-95.56670","Snowdepth":"7.000","Units":"in","Rept_Date":"2021-01-01 16"},"coordinates":[404,6757]},{"type":"Point","properties":{"Station_ID":"OLNI4","Station_Nam":"OELWEIN 1E","Latitude":"42.68010","Longitude":"-91.87510","Snowdepth":"7.000","Units":"in","Rept_Date":"2021-01-01 12"},"coordinates":[1291,4475]},{"type":"Point","properties":{"Station_ID":"NUMM5","Station_Nam":"NEW ULM 3SE","Latitude":"44.29450","Longitude":"-94.40840","Snowdepth":"7.000","Units":"in","Rept_Date":"2021-01-01 12"},"coordinates":[682,5461]},{"type":"Point","properties":{"Station_ID":"NH-MR-60","Station_Nam":"SOUTH SUTTON 1.3 SE, NH","Latitude":"43.29531","Longitude":"-71.90238","Snowdepth":"7.000","Units":"in","Rept_Date":"2021-01-01 13"},"coordinates":[6093,4851]},{"type":"Point","properties":{"Station_ID":"MSN","Station_Nam":"MADISON DANE COUNTY RGNL","Latitude":"43.13970","Longitude":"-89.33750","Snowdepth":"7.000","Units":"in","Rept_Date":"2021-01-02 00"},"coordinates":[1901,4756]},{"type":"Point","properties":{"Station_ID":"MPXM5","Station_Nam":"CHANHASSEN WSFO","Latitude":"44.84960","Longitude":"-93.56440","Snowdepth":"7.000","Units":"in","Rept_Date":"2021-01-02 06"},"coordinates":[885,5800]},{"type":"Point","properties":{"Station_ID":"MN-TD-12","Station_Nam":"LONG PRAIRIE 2.1 NNE, MN","Latitude":"46.00588","Longitude":"-94.84649","Snowdepth":"7.000","Units":"in","Rept_Date":"2021-01-01 13"},"coordinates":[577,6506]},{"type":"Point","properties":{"Station_ID":"MN-RM-56","Station_Nam":"ROSEVILLE 1.6 NW, MN","Latitude":"45.03303","Longitude":"-93.17523","Snowdepth":"7.000","Units":"in","Rept_Date":"2021-01-01 13"},"coordinates":[978,5912]},{"type":"Point","properties":{"Station_ID":"MN-RM-15","Station_Nam":"ROSEVILLE 2.1 NW, MN","Latitude":"45.03502","Longitude":"-93.18620","Snowdepth":"7.000","Units":"in","Rept_Date":"2021-01-01 12"},"coordinates":[976,5913]},{"type":"Point","properties":{"Station_ID":"MN-RM-120","Station_Nam":"MAPLEWOOD 5.6 SSE, MN","Latitude":"44.90588","Longitude":"-92.99712","Snowdepth":"7.000","Units":"in","Rept_Date":"2021-01-01 15"},"coordinates":[1021,5834]},{"type":"Point","properties":{"Station_ID":"MN-OT-36","Station_Nam":"BATTLE LAKE 3.3 SSE, MN","Latitude":"46.23918","Longitude":"-95.69718","Snowdepth":"7.000","Units":"in","Rept_Date":"2021-01-01 13"},"coordinates":[372,6648]},{"type":"Point","properties":{"Station_ID":"MN-MR-4","Station_Nam":"LITTLE FALLS 1.2 SW, MN","Latitude":"45.96886","Longitude":"-94.37720","Snowdepth":"7.000","Units":"in","Rept_Date":"2021-01-01 13"},"coordinates":[689,6483]},{"type":"Point","properties":{"Station_ID":"MN-KB-17","Station_Nam":"MORA 2.5 S, MN","Latitude":"45.84100","Longitude":"-93.29700","Snowdepth":"7.000","Units":"in","Rept_Date":"2021-01-01 13"},"coordinates":[949,6405]},{"type":"Point","properties":{"Station_ID":"MN-HN-240","Station_Nam":"BLOOMINGTON 3.1 E, MN","Latitude":"44.83704","Longitude":"-93.25318","Snowdepth":"7.000","Units":"in","Rept_Date":"2021-01-01 15"},"coordinates":[960,5792]},{"type":"Point","properties":{"Station_ID":"MN-DK-73","Station_Nam":"LAKEVILLE 2.6 NNE, MN","Latitude":"44.71250","Longitude":"-93.23043","Snowdepth":"7.000","Units":"in","Rept_Date":"2021-01-01 13"},"coordinates":[965,5716]},{"type":"Point","properties":{"Station_ID":"MN-CY-20","Station_Nam":"HAWLEY 5.2 WNW, MN","Latitude":"46.91652","Longitude":"-96.41147","Snowdepth":"7.000","Units":"in","Rept_Date":"2021-01-01 13"},"coordinates":[200,7062]},{"type":"Point","properties":{"Station_ID":"MN-CV-8","Station_Nam":"WATERTOWN 0.5 NNW, MN","Latitude":"44.96631","Longitude":"-93.84890","Snowdepth":"7.000","Units":"in","Rept_Date":"2021-01-01 11"},"coordinates":[817,5871]},{"type":"Point","properties":{"Station_ID":"MN-BK-10","Station_Nam":"DETROIT LAKES 5.7 N, MN","Latitude":"46.88666","Longitude":"-95.84444","Snowdepth":"7.000","Units":"in","Rept_Date":"2021-01-01 10"},"coordinates":[337,7044]},{"type":"Point","properties":{"Station_ID":"MLCM5","Station_Nam":"MILACA","Latitude":"45.75320","Longitude":"-93.66170","Snowdepth":"7.000","Units":"in","Rept_Date":"2021-01-01 13"},"coordinates":[862,6352]},{"type":"Point","properties":{"Station_ID":"MI-GL-4","Station_Nam":"GLADWIN 10.4 NNW, MI","Latitude":"44.11865","Longitude":"-84.58470","Snowdepth":"7.000","Units":"in","Rept_Date":"2021-01-01 14"},"coordinates":[3044,5354]},{"type":"Point","properties":{"Station_ID":"MI-GG-4","Station_Nam":"WATERSMEET 5.0 SE, MI","Latitude":"46.20333","Longitude":"-89.13170","Snowdepth":"7.000","Units":"in","Rept_Date":"2021-01-01 14"},"coordinates":[1951,6627]},{"type":"Point","properties":{"Station_ID":"LGRN8","Station_Nam":"LIDGERWOOD,ND","Latitude":"46.06670","Longitude":"-97.16670","Snowdepth":"7.000","Units":"in","Rept_Date":"2021-01-01 13"},"coordinates":[19,6543]},{"type":"Point","properties":{"Station_ID":"LBRM5","Station_Nam":"LAKE BRONSON DAM","Latitude":"48.72410","Longitude":"-96.62180","Snowdepth":"7.000","Units":"in","Rept_Date":"2021-01-01 14"},"coordinates":[150,8166]},{"type":"Point","properties":{"Station_ID":"KSEM4","Station_Nam":"KALKASKA 11SE","Latitude":"44.58970","Longitude":"-85.04860","Snowdepth":"7.000","Units":"in","Rept_Date":"2021-01-01 13"},"coordinates":[2932,5641]},{"type":"Point","properties":{"Station_ID":"KMSN","Station_Nam":"MADISON DANE COUNTY RGNL","Latitude":"43.13333","Longitude":"-89.35000","Snowdepth":"7.000","Units":"in","Rept_Date":"2021-01-02 06"},"coordinates":[1898,4752]},{"type":"Point","properties":{"Station_ID":"KISM4","Station_Nam":"K.I. SAWYER WWTP","Latitude":"46.33410","Longitude":"-87.37790","Snowdepth":"7.000","Units":"in","Rept_Date":"2021-01-01 13"},"coordinates":[2372,6706]},{"type":"Point","properties":{"Station_ID":"IL-SP-26","Station_Nam":"FREEPORT 2.9 WSW, IL","Latitude":"42.26779","Longitude":"-89.68323","Snowdepth":"7.000","Units":"in","Rept_Date":"2021-01-01 15"},"coordinates":[1818,4224]},{"type":"Point","properties":{"Station_ID":"IA-PK-73","Station_Nam":"DES MOINES 4.1 N, IA","Latitude":"41.63605","Longitude":"-93.60630","Snowdepth":"7.000","Units":"in","Rept_Date":"2021-01-01 13"},"coordinates":[875,3838]},{"type":"Point","properties":{"Station_ID":"IA-LN-7","Station_Nam":"CENTRAL CITY 6.7 W, IA","Latitude":"42.19830","Longitude":"-91.65430","Snowdepth":"7.000","Units":"in","Rept_Date":"2021-01-01 13"},"coordinates":[1344,4181]},{"type":"Point","properties":{"Station_ID":"IA-JH-22","Station_Nam":"CORALVILLE 1.3 SE, IA","Latitude":"41.68066","Longitude":"-91.58000","Snowdepth":"7.000","Units":"in","Rept_Date":"2021-01-01 13"},"coordinates":[1362,3865]},{"type":"Point","properties":{"Station_ID":"IA-JH-20","Station_Nam":"CORALVILLE 1.4 S, IA","Latitude":"41.67016","Longitude":"-91.60296","Snowdepth":"7.000","Units":"in","Rept_Date":"2021-01-01 14"},"coordinates":[1356,3859]},{"type":"Point","properties":{"Station_ID":"IA-JH-1","Station_Nam":"SOLON 0.3 ESE, IA","Latitude":"41.80398","Longitude":"-91.48910","Snowdepth":"7.000","Units":"in","Rept_Date":"2021-01-01 13"},"coordinates":[1384,3941]},{"type":"Point","properties":{"Station_ID":"HPN11_MADIS","Station_Nam":"SAINT BONIFACIUS","Latitude":"44.89792","Longitude":"-93.73460","Snowdepth":"7.000","Units":"in","Rept_Date":"2021-01-02 06"},"coordinates":[844,5830]},{"type":"Point","properties":{"Station_ID":"GTTI4","Station_Nam":"LOCK & DAM 10","Latitude":"42.78580","Longitude":"-91.09970","Snowdepth":"7.000","Units":"in","Rept_Date":"2021-01-01 14"},"coordinates":[1477,4540]},{"type":"Point","properties":{"Station_ID":"FEEI2","Station_Nam":"PECATONICA RIVER","Latitude":"42.30000","Longitude":"-89.61670","Snowdepth":"7.000","Units":"in","Rept_Date":"2021-01-01 13"},"coordinates":[1834,4243]},{"type":"Point","properties":{"Station_ID":"FCLN1","Station_Nam":"FT CALHOUN 4W","Latitude":"41.44670","Longitude":"-96.09190","Snowdepth":"7.000","Units":"in","Rept_Date":"2021-01-01 13"},"coordinates":[277,3722]},{"type":"Point","properties":{"Station_ID":"FATW3","Station_Nam":"FORT ATKINSON,WI","Latitude":"42.88330","Longitude":"-88.83330","Snowdepth":"7.000","Units":"in","Rept_Date":"2021-01-01 12"},"coordinates":[2022,4599]},{"type":"Point","properties":{"Station_ID":"EVRW3","Station_Nam":"EAGLE RIVER-4 E","Latitude":"45.91890","Longitude":"-89.15280","Snowdepth":"7.000","Units":"in","Rept_Date":"2021-01-01 13"},"coordinates":[1945,6453]},{"type":"Point","properties":{"Station_ID":"EGRW3","Station_Nam":"EAGLE RIVER-SOUTH","Latitude":"45.91360","Longitude":"-89.24360","Snowdepth":"7.000","Units":"in","Rept_Date":"2021-01-01 13"},"coordinates":[1924,6450]},{"type":"Point","properties":{"Station_ID":"DARW3","Station_Nam":"DARLINGTON","Latitude":"42.67780","Longitude":"-90.11860","Snowdepth":"7.000","Units":"in","Rept_Date":"2021-01-01 13"},"coordinates":[1713,4474]},{"type":"Point","properties":{"Station_ID":"CRPI4","Station_Nam":"CEDAR RAPIDS NO 1","Latitude":"42.05000","Longitude":"-91.58810","Snowdepth":"7.000","Units":"in","Rept_Date":"2021-01-01 23"},"coordinates":[1360,4091]},{"type":"Point","properties":{"Station_ID":"CRNI4","Station_Nam":"CORNING","Latitude":"40.98860","Longitude":"-94.74910","Snowdepth":"7.000","Units":"in","Rept_Date":"2021-01-01 13"},"coordinates":[600,3443]},{"type":"Point","properties":{"Station_ID":"CLUI4","Station_Nam":"CLUTIER,IA","Latitude":"42.08330","Longitude":"-92.40000","Snowdepth":"7.000","Units":"in","Rept_Date":"2021-01-01 13"},"coordinates":[1165,4111]},{"type":"Point","properties":{"Station_ID":"BLTW3","Station_Nam":"BELOIT,WI","Latitude":"42.50000","Longitude":"-89.03330","Snowdepth":"7.000","Units":"in","Rept_Date":"2021-01-01 12"},"coordinates":[1974,4365]},{"type":"Point","properties":{"Station_ID":"BLLI4","Station_Nam":"BELLE PLAINE","Latitude":"41.88140","Longitude":"-92.27640","Snowdepth":"7.000","Units":"in","Rept_Date":"2021-01-01 13"},"coordinates":[1195,3988]},{"type":"Point","properties":{"Station_ID":"AWXW3","Station_Nam":"ASHLAND","Latitude":"46.58240","Longitude":"-90.88390","Snowdepth":"7.000","Units":"in","Rept_Date":"2021-01-01 13"},"coordinates":[1529,6858]},{"type":"Point","properties":{"Station_ID":"AMOI4","Station_Nam":"ANAMOSA 3 SSW","Latitude":"42.07630","Longitude":"-91.30190","Snowdepth":"7.000","Units":"in","Rept_Date":"2021-01-01 13"},"coordinates":[1429,4107]},{"type":"Point","properties":{"Station_ID":"WI-RK-6","Station_Nam":"EVANSVILLE 0.4 E, WI","Latitude":"42.77913","Longitude":"-89.29020","Snowdepth":"6.800","Units":"in","Rept_Date":"2021-01-01 12"},"coordinates":[1912,4536]},{"type":"Point","properties":{"Station_ID":"WI-WK-60","Station_Nam":"OCONOMOWOC 2.3 WSW, WI","Latitude":"43.08753","Longitude":"-88.53749","Snowdepth":"6.500","Units":"in","Rept_Date":"2021-01-01 23"},"coordinates":[2093,4724]},{"type":"Point","properties":{"Station_ID":"WI-VL-14","Station_Nam":"BOULDER JUNCTION 1.4 NE, WI","Latitude":"46.12840","Longitude":"-89.62470","Snowdepth":"6.500","Units":"in","Rept_Date":"2021-01-01 13"},"coordinates":[1832,6581]},{"type":"Point","properties":{"Station_ID":"WI-MW-18","Station_Nam":"WEST ALLIS 0.7 SSE, WI","Latitude":"42.99802","Longitude":"-88.02380","Snowdepth":"6.500","Units":"in","Rept_Date":"2021-01-01 14"},"coordinates":[2217,4670]},{"type":"Point","properties":{"Station_ID":"WI-MW-14","Station_Nam":"MILWAUKEE 3.6 NNW, WI","Latitude":"43.11300","Longitude":"-87.98730","Snowdepth":"6.500","Units":"in","Rept_Date":"2021-01-01 11"},"coordinates":[2226,4740]},{"type":"Point","properties":{"Station_ID":"WI-DA-99","Station_Nam":"FITCHBURG 1.1 NW, WI","Latitude":"42.99740","Longitude":"-89.44046","Snowdepth":"6.500","Units":"in","Rept_Date":"2021-01-01 13"},"coordinates":[1876,4669]},{"type":"Point","properties":{"Station_ID":"WI-BR-17","Station_Nam":"CLAYTON 2.9 ENE, WI","Latitude":"45.34073","Longitude":"-92.11158","Snowdepth":"6.500","Units":"in","Rept_Date":"2021-01-01 13"},"coordinates":[1234,6100]},{"type":"Point","properties":{"Station_ID":"NY-ER-166","Station_Nam":"BOSTON 2.5 NE, NY","Latitude":"42.65480","Longitude":"-78.70300","Snowdepth":"6.500","Units":"in","Rept_Date":"2021-01-01 12"},"coordinates":[4458,4460]},{"type":"Point","properties":{"Station_ID":"NY-CR-5","Station_Nam":"MARATHON 1.0 NW, NY","Latitude":"42.45161","Longitude":"-76.04370","Snowdepth":"6.500","Units":"in","Rept_Date":"2021-01-01 12"},"coordinates":[5097,4336]},{"type":"Point","properties":{"Station_ID":"MN-HN-267","Station_Nam":"MINNEAPOLIS 2.5 SE, MN","Latitude":"44.93331","Longitude":"-93.23680","Snowdepth":"6.500","Units":"in","Rept_Date":"2021-01-01 13"},"coordinates":[964,5851]},{"type":"Point","properties":{"Station_ID":"MN-HN-178","Station_Nam":"MINNEAPOLIS 4.5 SSE, MN","Latitude":"44.90650","Longitude":"-93.21993","Snowdepth":"6.500","Units":"in","Rept_Date":"2021-01-01 13"},"coordinates":[968,5835]},{"type":"Point","properties":{"Station_ID":"MN-CW-29","Station_Nam":"BRAINERD 7.7 SSE, MN","Latitude":"46.24996","Longitude":"-94.14576","Snowdepth":"6.500","Units":"in","Rept_Date":"2021-01-01 13"},"coordinates":[745,6655]},{"type":"Point","properties":{"Station_ID":"MI-CP-14","Station_Nam":"SAULT STE. MARIE 2.2 E, MI","Latitude":"46.48933","Longitude":"-84.31971","Snowdepth":"6.500","Units":"in","Rept_Date":"2021-01-01 12"},"coordinates":[3107,6801]},{"type":"Point","properties":{"Station_ID":"QLP","Station_Nam":"QLP","Latitude":"48.13920","Longitude":"-72.63830","Snowdepth":"6.417","Units":"in","Rept_Date":"2021-01-01 12"},"coordinates":[5916,7809]},{"type":"Point","properties":{"Station_ID":"MN-HN-307","Station_Nam":"MINNEAPOLIS 1.5 WNW, MN","Latitude":"44.96860","Longitude":"-93.29580","Snowdepth":"6.300","Units":"in","Rept_Date":"2021-01-01 15"},"coordinates":[949,5873]},{"type":"Point","properties":{"Station_ID":"HPN20_MADIS","Station_Nam":"HOPKINS","Latitude":"44.95556","Longitude":"-93.41140","Snowdepth":"6.300","Units":"in","Rept_Date":"2021-01-02 06"},"coordinates":[922,5865]},{"type":"Point","properties":{"Station_ID":"NY-CT-33","Station_Nam":"GREAT VALLEY 2.2 WNW, NY","Latitude":"42.22790","Longitude":"-78.67580","Snowdepth":"6.200","Units":"in","Rept_Date":"2021-01-01 12"},"coordinates":[4464,4199]},{"type":"Point","properties":{"Station_ID":"IA-WB-17","Station_Nam":"FORT DODGE 1.7 NNW, IA","Latitude":"42.53144","Longitude":"-94.18397","Snowdepth":"6.100","Units":"in","Rept_Date":"2021-01-01 13"},"coordinates":[736,4385]},{"type":"Point","properties":{"Station_ID":"WTBW3","Station_Nam":"WEST BEND PUBLIC WORKS","Latitude":"43.41110","Longitude":"-88.19380","Snowdepth":"6.000","Units":"in","Rept_Date":"2021-01-01 13"},"coordinates":[2176,4922]},{"type":"Point","properties":{"Station_ID":"WRNM5","Station_Nam":"WORTHINGTON,MN","Latitude":"43.65440","Longitude":"-95.57920","Snowdepth":"6.000","Units":"in","Rept_Date":"2021-01-01 13"},"coordinates":[401,5070]},{"type":"Point","properties":{"Station_ID":"WPTN1","Station_Nam":"WEST POINT,NE","Latitude":"41.83330","Longitude":"-96.71670","Snowdepth":"6.000","Units":"in","Rept_Date":"2021-01-01 14"},"coordinates":[127,3958]},{"type":"Point","properties":{"Station_ID":"WI-WW-14","Station_Nam":"DARIEN 1.6 NNE, WI","Latitude":"42.62361","Longitude":"-88.70083","Snowdepth":"6.000","Units":"in","Rept_Date":"2021-01-01 13"},"coordinates":[2054,4441]},{"type":"Point","properties":{"Station_ID":"WI-WK-34","Station_Nam":"MUKWONAGO 5.3 W, WI","Latitude":"42.85380","Longitude":"-88.43550","Snowdepth":"6.000","Units":"in","Rept_Date":"2021-01-01 13"},"coordinates":[2118,4581]},{"type":"Point","properties":{"Station_ID":"WI-WK-20","Station_Nam":"MUKWONAGO 0.5 N, WI","Latitude":"42.87385","Longitude":"-88.33180","Snowdepth":"6.000","Units":"in","Rept_Date":"2021-01-01 13"},"coordinates":[2143,4594]},{"type":"Point","properties":{"Station_ID":"WI-RS-1","Station_Nam":"LADYSMITH 2.8 WNW, WI","Latitude":"45.48180","Longitude":"-91.14680","Snowdepth":"6.000","Units":"in","Rept_Date":"2021-01-01 13"},"coordinates":[1466,6186]},{"type":"Point","properties":{"Station_ID":"WI-PR-8","Station_Nam":"PHILLIPS 0.4 SSW, WI","Latitude":"45.69086","Longitude":"-90.40200","Snowdepth":"6.000","Units":"in","Rept_Date":"2021-01-01 13"},"coordinates":[1645,6314]},{"type":"Point","properties":{"Station_ID":"WI-PC-10","Station_Nam":"RIVER FALLS 1.4 S, WI","Latitude":"44.83580","Longitude":"-92.62100","Snowdepth":"6.000","Units":"in","Rept_Date":"2021-01-01 13"},"coordinates":[1112,5792]},{"type":"Point","properties":{"Station_ID":"WI-OZ-22","Station_Nam":"SAUKVILLE 0.9 SSW, WI","Latitude":"43.37254","Longitude":"-87.95009","Snowdepth":"6.000","Units":"in","Rept_Date":"2021-01-01 13"},"coordinates":[2235,4898]},{"type":"Point","properties":{"Station_ID":"WI-MW-43","Station_Nam":"BROWN DEER 0.8 NW, WI","Latitude":"43.18438","Longitude":"-87.98401","Snowdepth":"6.000","Units":"in","Rept_Date":"2021-01-01 13"},"coordinates":[2226,4783]},{"type":"Point","properties":{"Station_ID":"WI-DA-35","Station_Nam":"MADISON 5.5 N, WI","Latitude":"43.15858","Longitude":"-89.37280","Snowdepth":"6.000","Units":"in","Rept_Date":"2021-01-01 14"},"coordinates":[1893,4768]},{"type":"Point","properties":{"Station_ID":"WI-BR-2","Station_Nam":"CHETEK 2.0 SE, WI","Latitude":"45.29427","Longitude":"-91.62470","Snowdepth":"6.000","Units":"in","Rept_Date":"2021-01-01 13"},"coordinates":[1351,6072]},{"type":"Point","properties":{"Station_ID":"WGCI4","Station_Nam":"WAVELAND","Latitude":"41.58330","Longitude":"-93.66670","Snowdepth":"6.000","Units":"in","Rept_Date":"2021-01-01 13"},"coordinates":[860,3806]},{"type":"Point","properties":{"Station_ID":"WDOM5","Station_Nam":"WINDOM","Latitude":"43.87700","Longitude":"-95.11590","Snowdepth":"6.000","Units":"in","Rept_Date":"2021-01-01 14"},"coordinates":[512,5206]},{"type":"Point","properties":{"Station_ID":"VOLI4","Station_Nam":"VOLGA 1NE","Latitude":"42.81150","Longitude":"-91.52300","Snowdepth":"6.000","Units":"in","Rept_Date":"2021-01-01 13"},"coordinates":[1376,4556]},{"type":"Point","properties":{"Station_ID":"UGRW3","Station_Nam":"UNION GROVE,WI","Latitude":"42.70000","Longitude":"-88.03220","Snowdepth":"6.000","Units":"in","Rept_Date":"2021-01-01 13"},"coordinates":[2215,4488]},{"type":"Point","properties":{"Station_ID":"SHIW3","Station_Nam":"SHIOCTON","Latitude":"44.43890","Longitude":"-88.58390","Snowdepth":"6.000","Units":"in","Rept_Date":"2021-01-01 13"},"coordinates":[2082,5549]},{"type":"Point","properties":{"Station_ID":"SHHW3","Station_Nam":"SHAWANO 2SSW","Latitude":"44.76310","Longitude":"-88.61830","Snowdepth":"6.000","Units":"in","Rept_Date":"2021-01-01 14"},"coordinates":[2074,5747]},{"type":"Point","properties":{"Station_ID":"RVFW3","Station_Nam":"RIVER FALLS","Latitude":"44.85440","Longitude":"-92.61220","Snowdepth":"6.000","Units":"in","Rept_Date":"2021-01-01 11"},"coordinates":[1114,5803]},{"type":"Point","properties":{"Station_ID":"RKWI4","Station_Nam":"ROCKWELL CITY,IA","Latitude":"42.40000","Longitude":"-94.61670","Snowdepth":"6.000","Units":"in","Rept_Date":"2021-01-01 13"},"coordinates":[632,4304]},{"type":"Point","properties":{"Station_ID":"RCKI2","Station_Nam":"MISSISSIPPI RIVER","Latitude":"41.51670","Longitude":"-90.56670","Snowdepth":"6.000","Units":"in","Rept_Date":"2021-01-02 06"},"coordinates":[1606,3765]},{"type":"Point","properties":{"Station_ID":"PTYM4","Station_Nam":"PETOSKEY NCMC","Latitude":"45.36120","Longitude":"-84.95110","Snowdepth":"6.000","Units":"in","Rept_Date":"2021-01-01 13"},"coordinates":[2956,6112]},{"type":"Point","properties":{"Station_ID":"PELW3","Station_Nam":"PELLA 3SE","Latitude":"44.73580","Longitude":"-88.73780","Snowdepth":"6.000","Units":"in","Rept_Date":"2021-01-01 11"},"coordinates":[2045,5731]},{"type":"Point","properties":{"Station_ID":"ORCI4","Station_Nam":"ORANGE CITY","Latitude":"43.00080","Longitude":"-96.05390","Snowdepth":"6.000","Units":"in","Rept_Date":"2021-01-01 13"},"coordinates":[286,4671]},{"type":"Point","properties":{"Station_ID":"NESN1","Station_Nam":"CONCORD","Latitude":"42.38440","Longitude":"-96.98830","Snowdepth":"6.000","Units":"in","Rept_Date":"2021-01-01 23"},"coordinates":[62,4295]},{"type":"Point","properties":{"Station_ID":"NE-SY-25","Station_Nam":"GRETNA 2.9 NNE, NE","Latitude":"41.17831","Longitude":"-96.21984","Snowdepth":"6.000","Units":"in","Rept_Date":"2021-01-01 14"},"coordinates":[247,3559]},{"type":"Point","properties":{"Station_ID":"NCKN1","Station_Nam":"NICKERSON 3NE","Latitude":"41.56500","Longitude":"-96.44250","Snowdepth":"6.000","Units":"in","Rept_Date":"2021-01-01 13"},"coordinates":[193,3795]},{"type":"Point","properties":{"Station_ID":"MWOW3","Station_Nam":"MUKWONAGO","Latitude":"42.85380","Longitude":"-88.43550","Snowdepth":"6.000","Units":"in","Rept_Date":"2021-01-01 13"},"coordinates":[2118,4581]},{"type":"Point","properties":{"Station_ID":"MWN","Station_Nam":"MOUNT WASHINGTON","Latitude":"44.26670","Longitude":"-71.30000","Snowdepth":"6.000","Units":"in","Rept_Date":"2021-01-01 12"},"coordinates":[6237,5444]},{"type":"Point","properties":{"Station_ID":"MN-SR-48","Station_Nam":"SAINT AUGUSTA 2.1 S, MN","Latitude":"45.41950","Longitude":"-94.19737","Snowdepth":"6.000","Units":"in","Rept_Date":"2021-01-01 13"},"coordinates":[733,6148]},{"type":"Point","properties":{"Station_ID":"MN-SL-20","Station_Nam":"DULUTH 3.2 NE, MN","Latitude":"46.81313","Longitude":"-92.05560","Snowdepth":"6.000","Units":"in","Rept_Date":"2021-01-01 13"},"coordinates":[1248,6999]},{"type":"Point","properties":{"Station_ID":"MN-SH-985","Station_Nam":"PRINCETON 3.3 WSW, MN","Latitude":"45.55211","Longitude":"-93.64481","Snowdepth":"6.000","Units":"in","Rept_Date":"2021-01-01 13"},"coordinates":[866,6229]},{"type":"Point","properties":{"Station_ID":"MN-SE-2","Station_Nam":"OWATONNA 0.8 E, MN","Latitude":"44.09170","Longitude":"-93.21380","Snowdepth":"6.000","Units":"in","Rept_Date":"2021-01-01 13"},"coordinates":[969,5337]},{"type":"Point","properties":{"Station_ID":"MN-RM-2","Station_Nam":"NORTH SAINT PAUL 1.0 NNW, MN","Latitude":"45.02629","Longitude":"-93.00790","Snowdepth":"6.000","Units":"in","Rept_Date":"2021-01-01 12"},"coordinates":[1019,5908]},{"type":"Point","properties":{"Station_ID":"MN-RC-38","Station_Nam":"FARIBAULT 1.6 S, MN","Latitude":"44.27639","Longitude":"-93.27306","Snowdepth":"6.000","Units":"in","Rept_Date":"2021-01-01 13"},"coordinates":[955,5450]},{"type":"Point","properties":{"Station_ID":"MN-PK-2","Station_Nam":"ERSKINE 7.6 SW, MN","Latitude":"47.58559","Longitude":"-96.12790","Snowdepth":"6.000","Units":"in","Rept_Date":"2021-01-01 14"},"coordinates":[269,7471]},{"type":"Point","properties":{"Station_ID":"MN-MK-11","Station_Nam":"DASSEL 0.4 S, MN","Latitude":"45.07765","Longitude":"-94.31567","Snowdepth":"6.000","Units":"in","Rept_Date":"2021-01-01 13"},"coordinates":[704,5939]},{"type":"Point","properties":{"Station_ID":"MN-HN-272","Station_Nam":"RICHFIELD 1.1 WSW, MN","Latitude":"44.87052","Longitude":"-93.30394","Snowdepth":"6.000","Units":"in","Rept_Date":"2021-01-01 13"},"coordinates":[948,5813]},{"type":"Point","properties":{"Station_ID":"MN-DK-70","Station_Nam":"EAGAN 2.0 NNW, MN","Latitude":"44.84322","Longitude":"-93.17899","Snowdepth":"6.000","Units":"in","Rept_Date":"2021-01-01 13"},"coordinates":[978,5796]},{"type":"Point","properties":{"Station_ID":"MN-DK-53","Station_Nam":"LAKEVILLE 3.8 ENE, MN","Latitude":"44.70423","Longitude":"-93.18460","Snowdepth":"6.000","Units":"in","Rept_Date":"2021-01-01 14"},"coordinates":[976,5711]},{"type":"Point","properties":{"Station_ID":"MN-BN-13","Station_Nam":"RICE 3.6 E, MN","Latitude":"45.74769","Longitude":"-94.15996","Snowdepth":"6.000","Units":"in","Rept_Date":"2021-01-01 13"},"coordinates":[742,6348]},{"type":"Point","properties":{"Station_ID":"MLI","Station_Nam":"QUAD CITY INTL","Latitude":"41.44860","Longitude":"-90.50750","Snowdepth":"6.000","Units":"in","Rept_Date":"2021-01-02 00"},"coordinates":[1620,3724]},{"type":"Point","properties":{"Station_ID":"MI-OT-4","Station_Nam":"GAYLORD 1.7 WNW, MI","Latitude":"45.03280","Longitude":"-84.71090","Snowdepth":"6.000","Units":"in","Rept_Date":"2021-01-01 13"},"coordinates":[3013,5912]},{"type":"Point","properties":{"Station_ID":"MI-MQ-28","Station_Nam":"CARLSHEND, MI","Latitude":"46.31638","Longitude":"-87.19944","Snowdepth":"6.000","Units":"in","Rept_Date":"2021-01-01 13"},"coordinates":[2415,6696]},{"type":"Point","properties":{"Station_ID":"MI-CP-7","Station_Nam":"DRUMMOND 2.9 NE, MI","Latitude":"46.05329","Longitude":"-83.69060","Snowdepth":"6.000","Units":"in","Rept_Date":"2021-01-01 14"},"coordinates":[3259,6535]},{"type":"Point","properties":{"Station_ID":"MI-AG-6","Station_Nam":"MUNISING 11.1 SSW, MI","Latitude":"46.27805","Longitude":"-86.75747","Snowdepth":"6.000","Units":"in","Rept_Date":"2021-01-01 12"},"coordinates":[2521,6672]},{"type":"Point","properties":{"Station_ID":"MHRI4","Station_Nam":"MANCHESTER #2","Latitude":"42.47320","Longitude":"-91.45160","Snowdepth":"6.000","Units":"in","Rept_Date":"2021-01-01 13"},"coordinates":[1393,4349]},{"type":"Point","properties":{"Station_ID":"MAUW3","Station_Nam":"MAUSTON 1SE","Latitude":"43.78990","Longitude":"-90.05970","Snowdepth":"6.000","Units":"in","Rept_Date":"2021-01-01 14"},"coordinates":[1727,5153]},{"type":"Point","properties":{"Station_ID":"LODW3","Station_Nam":"LODI","Latitude":"43.32170","Longitude":"-89.53110","Snowdepth":"6.000","Units":"in","Rept_Date":"2021-01-01 13"},"coordinates":[1855,4867]},{"type":"Point","properties":{"Station_ID":"LGEW3","Station_Nam":"LAKE GENEVA, WI","Latitude":"42.60000","Longitude":"-88.43440","Snowdepth":"6.000","Units":"in","Rept_Date":"2021-01-01 13"},"coordinates":[2118,4427]},{"type":"Point","properties":{"Station_ID":"LAFW3","Station_Nam":"LA FARGE","Latitude":"43.57340","Longitude":"-90.63200","Snowdepth":"6.000","Units":"in","Rept_Date":"2021-01-01 13"},"coordinates":[1590,5021]},{"type":"Point","properties":{"Station_ID":"KMWN","Station_Nam":"MOUNT WASHINGTON","Latitude":"44.26666","Longitude":"-71.30000","Snowdepth":"6.000","Units":"in","Rept_Date":"2021-01-02 06"},"coordinates":[6237,5444]},{"type":"Point","properties":{"Station_ID":"IL-WN-26","Station_Nam":"ROCKFORD 1.5 ENE, IL","Latitude":"42.27775","Longitude":"-89.03590","Snowdepth":"6.000","Units":"in","Rept_Date":"2021-01-01 15"},"coordinates":[1974,4230]},{"type":"Point","properties":{"Station_ID":"ICYI4","Station_Nam":"IOWA CITY","Latitude":"41.60930","Longitude":"-91.50510","Snowdepth":"6.000","Units":"in","Rept_Date":"2021-01-01 13"},"coordinates":[1380,3822]},{"type":"Point","properties":{"Station_ID":"IA-WR-7","Station_Nam":"INDIANOLA 0.8 SSW, IA","Latitude":"41.35047","Longitude":"-93.57290","Snowdepth":"6.000","Units":"in","Rept_Date":"2021-01-01 13"},"coordinates":[883,3664]},{"type":"Point","properties":{"Station_ID":"IA-ST-3","Station_Nam":"PARK VIEW 0.2 WSW, IA","Latitude":"41.68855","Longitude":"-90.54380","Snowdepth":"6.000","Units":"in","Rept_Date":"2021-01-01 13"},"coordinates":[1611,3870]},{"type":"Point","properties":{"Station_ID":"IA-PK-88","Station_Nam":"DES MOINES 5.4 WNW, IA","Latitude":"41.61721","Longitude":"-93.70573","Snowdepth":"6.000","Units":"in","Rept_Date":"2021-01-01 13"},"coordinates":[851,3826]},{"type":"Point","properties":{"Station_ID":"IA-PK-37","Station_Nam":"WINDSOR HEIGHTS 0.8 SE, IA","Latitude":"41.59810","Longitude":"-93.69950","Snowdepth":"6.000","Units":"in","Rept_Date":"2021-01-01 13"},"coordinates":[852,3815]},{"type":"Point","properties":{"Station_ID":"IA-MC-13","Station_Nam":"MUSCATINE 2.1 N, IA","Latitude":"41.44808","Longitude":"-91.07428","Snowdepth":"6.000","Units":"in","Rept_Date":"2021-01-01 13"},"coordinates":[1484,3723]},{"type":"Point","properties":{"Station_ID":"IA-DV-9","Station_Nam":"BLOOMFIELD 4.3 SSW, IA","Latitude":"40.68872","Longitude":"-92.44063","Snowdepth":"6.000","Units":"in","Rept_Date":"2021-01-01 13"},"coordinates":[1155,3260]},{"type":"Point","properties":{"Station_ID":"HPN09_MADIS","Station_Nam":"PLYMOUTH","Latitude":"44.98992","Longitude":"-93.47910","Snowdepth":"6.000","Units":"in","Rept_Date":"2021-01-02 06"},"coordinates":[905,5886]},{"type":"Point","properties":{"Station_ID":"GRWI4","Station_Nam":"GARWIN,IA","Latitude":"42.10000","Longitude":"-92.66670","Snowdepth":"6.000","Units":"in","Rept_Date":"2021-01-01 12"},"coordinates":[1101,4121]},{"type":"Point","properties":{"Station_ID":"GAYM4","Station_Nam":"GAYLORD","Latitude":"45.03320","Longitude":"-84.71130","Snowdepth":"6.000","Units":"in","Rept_Date":"2021-01-01 13"},"coordinates":[3013,5912]},{"type":"Point","properties":{"Station_ID":"FREM4","Station_Nam":"FREMONT,MI","Latitude":"43.45000","Longitude":"-86.03330","Snowdepth":"6.000","Units":"in","Rept_Date":"2021-01-01 12"},"coordinates":[2695,4946]},{"type":"Point","properties":{"Station_ID":"FLAM4","Station_Nam":"FIFE LAKE 2WNW","Latitude":"44.58480","Longitude":"-85.36530","Snowdepth":"6.000","Units":"in","Rept_Date":"2021-01-01 12"},"coordinates":[2856,5638]},{"type":"Point","properties":{"Station_ID":"EZBI2","Station_Nam":"ELIZABETH","Latitude":"42.31620","Longitude":"-90.22690","Snowdepth":"6.000","Units":"in","Rept_Date":"2021-01-01 12"},"coordinates":[1687,4253]},{"type":"Point","properties":{"Station_ID":"EKRI4","Station_Nam":"ELKADER 6SSW","Latitude":"42.77540","Longitude":"-91.45370","Snowdepth":"6.000","Units":"in","Rept_Date":"2021-01-01 13"},"coordinates":[1392,4534]},{"type":"Point","properties":{"Station_ID":"DVNI4","Station_Nam":"DAVENPORT WFO","Latitude":"41.61170","Longitude":"-90.58160","Snowdepth":"6.000","Units":"in","Rept_Date":"2021-01-02 06"},"coordinates":[1602,3823]},{"type":"Point","properties":{"Station_ID":"DVN","Station_Nam":"QUAD CITIES, IA","Latitude":"41.61030","Longitude":"-90.58830","Snowdepth":"6.000","Units":"in","Rept_Date":"2021-01-02 00"},"coordinates":[1600,3822]},{"type":"Point","properties":{"Station_ID":"DTVM4","Station_Nam":"DETOUR VILLAGE","Latitude":"45.99830","Longitude":"-83.90130","Snowdepth":"6.000","Units":"in","Rept_Date":"2021-01-01 13"},"coordinates":[3208,6501]},{"type":"Point","properties":{"Station_ID":"DLNW3","Station_Nam":"WALWORTH COUNTYMETROPOLITAN SEWERAGE DISTRICT (DELEVAN)","Latitude":"42.63440","Longitude":"-88.66280","Snowdepth":"6.000","Units":"in","Rept_Date":"2021-01-01 13"},"coordinates":[2063,4448]},{"type":"Point","properties":{"Station_ID":"CLNI4","Station_Nam":"CLINTON NO 1","Latitude":"41.79470","Longitude":"-90.26390","Snowdepth":"6.000","Units":"in","Rept_Date":"2021-01-02 00"},"coordinates":[1678,3935]},{"type":"Point","properties":{"Station_ID":"CLIW3","Station_Nam":"CLINTON,WI","Latitude":"42.60000","Longitude":"-88.88330","Snowdepth":"6.000","Units":"in","Rept_Date":"2021-01-01 15"},"coordinates":[2010,4427]},{"type":"Point","properties":{"Station_ID":"CLGM5","Station_Nam":"COLLEGEVILLE ST JOHN","Latitude":"45.57940","Longitude":"-94.39200","Snowdepth":"6.000","Units":"in","Rept_Date":"2021-01-02 00"},"coordinates":[686,6246]},{"type":"Point","properties":{"Station_ID":"CHRM4","Station_Nam":"CHARLEVOIX","Latitude":"45.31720","Longitude":"-85.26720","Snowdepth":"6.000","Units":"in","Rept_Date":"2021-01-01 13"},"coordinates":[2880,6086]},{"type":"Point","properties":{"Station_ID":"CHMW3","Station_Nam":"MADISON,WI","Latitude":"43.06030","Longitude":"-89.47810","Snowdepth":"6.000","Units":"in","Rept_Date":"2021-01-01 13"},"coordinates":[1867,4708]},{"type":"Point","properties":{"Station_ID":"CASS001","Station_Nam":"PLATTSMOUTH 1.4 SW, NE","Latitude":"40.99460","Longitude":"-95.89760","Snowdepth":"6.000","Units":"in","Rept_Date":"2021-01-01 13"},"coordinates":[324,3446]},{"type":"Point","properties":{"Station_ID":"BVUW3","Station_Nam":"GREEN BAY-EAST","Latitude":"44.49290","Longitude":"-87.92560","Snowdepth":"6.000","Units":"in","Rept_Date":"2021-01-02 00"},"coordinates":[2241,5582]},{"type":"Point","properties":{"Station_ID":"BRVM5","Station_Nam":"BROWNS VALLEY,MN","Latitude":"45.61670","Longitude":"-96.83330","Snowdepth":"6.000","Units":"in","Rept_Date":"2021-01-01 11"},"coordinates":[99,6268]},{"type":"Point","properties":{"Station_ID":"BLVI4","Station_Nam":"MISSISSIPPI RIVER","Latitude":"42.26670","Longitude":"-90.41670","Snowdepth":"6.000","Units":"in","Rept_Date":"2021-01-01 12"},"coordinates":[1642,4223]},{"type":"Point","properties":{"Station_ID":"BGRM4","Station_Nam":"WATER WORKS","Latitude":"43.70000","Longitude":"-85.48330","Snowdepth":"6.000","Units":"in","Rept_Date":"2021-01-01 12"},"coordinates":[2828,5098]},{"type":"Point","properties":{"Station_ID":"BFDW3","Station_Nam":"BROOKFIELD","Latitude":"43.05390","Longitude":"-88.17640","Snowdepth":"6.000","Units":"in","Rept_Date":"2021-01-01 15"},"coordinates":[2180,4704]},{"type":"Point","properties":{"Station_ID":"AVTW3","Station_Nam":"ARBOR VITAE-JOHNSON LAKE","Latitude":"45.89940","Longitude":"-89.72670","Snowdepth":"6.000","Units":"in","Rept_Date":"2021-01-01 12"},"coordinates":[1808,6441]},{"type":"Point","properties":{"Station_ID":"8D3","Station_Nam":"SISSETON MUNICIPAL AP","Latitude":"45.67080","Longitude":"-96.99610","Snowdepth":"6.000","Units":"in","Rept_Date":"2021-01-01 12"},"coordinates":[60,6301]},{"type":"Point","properties":{"Station_ID":"CAN-QC-47","Station_Nam":"SAINTE-FOY 1.8 ENE, CAN","Latitude":"46.76934","Longitude":"-71.27124","Snowdepth":"5.900","Units":"in","Rept_Date":"2021-01-01 12"},"coordinates":[6244,6972]},{"type":"Point","properties":{"Station_ID":"WI-JF-22","Station_Nam":"SULLIVAN 2.6 SW, WI","Latitude":"42.98562","Longitude":"-88.62498","Snowdepth":"5.800","Units":"in","Rept_Date":"2021-01-01 15"},"coordinates":[2072,4662]},{"type":"Point","properties":{"Station_ID":"HPN19_MADIS","Station_Nam":"GREENFIELD","Latitude":"45.20343","Longitude":"-93.69130","Snowdepth":"5.750","Units":"in","Rept_Date":"2021-01-02 02"},"coordinates":[854,6016]},{"type":"Point","properties":{"Station_ID":"WV-PR-10","Station_Nam":"TERRA ALTA 4.9 NNE, WV","Latitude":"39.51024","Longitude":"-79.51024","Snowdepth":"5.700","Units":"in","Rept_Date":"2021-01-01 13"},"coordinates":[4264,2540]},{"type":"Point","properties":{"Station_ID":"NY-JF-30","Station_Nam":"WEST CARTHAGE 0.3 ENE, NY","Latitude":"43.97493","Longitude":"-75.61640","Snowdepth":"5.700","Units":"in","Rept_Date":"2021-01-01 12"},"coordinates":[5200,5266]},{"type":"Point","properties":{"Station_ID":"QLM","Station_Nam":"QLM","Latitude":"48.92030","Longitude":"-70.25280","Snowdepth":"5.630","Units":"in","Rept_Date":"2021-01-01 12"},"coordinates":[6489,8285]},{"type":"Point","properties":{"Station_ID":"WI-WW-2","Station_Nam":"LAKE GENEVA 0.6 ENE, WI","Latitude":"42.59169","Longitude":"-88.41770","Snowdepth":"5.500","Units":"in","Rept_Date":"2021-01-01 13"},"coordinates":[2122,4421]},{"type":"Point","properties":{"Station_ID":"WI-VR-1","Station_Nam":"HILLSBORO 0.5 WSW, WI","Latitude":"43.65138","Longitude":"-90.34753","Snowdepth":"5.500","Units":"in","Rept_Date":"2021-01-01 14"},"coordinates":[1658,5068]},{"type":"Point","properties":{"Station_ID":"WI-OZ-17","Station_Nam":"WEST BEND 7.3 E, WI","Latitude":"43.42860","Longitude":"-88.03870","Snowdepth":"5.500","Units":"in","Rept_Date":"2021-01-01 13"},"coordinates":[2213,4932]},{"type":"Point","properties":{"Station_ID":"WI-OZ-12","Station_Nam":"PORT WASHINGTON 0.5 S, WI","Latitude":"43.38610","Longitude":"-87.87900","Snowdepth":"5.500","Units":"in","Rept_Date":"2021-01-01 13"},"coordinates":[2252,4906]},{"type":"Point","properties":{"Station_ID":"WI-JF-10","Station_Nam":"PALMYRA 1.5 N, WI","Latitude":"42.90084","Longitude":"-88.58620","Snowdepth":"5.500","Units":"in","Rept_Date":"2021-01-01 14"},"coordinates":[2082,4610]},{"type":"Point","properties":{"Station_ID":"WI-GT-9","Station_Nam":"CASSVILLE 7.8 ENE, WI","Latitude":"42.74949","Longitude":"-90.84390","Snowdepth":"5.500","Units":"in","Rept_Date":"2021-01-01 13"},"coordinates":[1539,4518]},{"type":"Point","properties":{"Station_ID":"WI-DR-5","Station_Nam":"ELLISON BAY 2.2 E, WI","Latitude":"45.25750","Longitude":"-87.02670","Snowdepth":"5.500","Units":"in","Rept_Date":"2021-01-01 13"},"coordinates":[2457,6049]},{"type":"Point","properties":{"Station_ID":"WI-DA-39","Station_Nam":"MADISON 4.0 W, WI","Latitude":"43.07741","Longitude":"-89.46757","Snowdepth":"5.500","Units":"in","Rept_Date":"2021-01-01 13"},"coordinates":[1870,4718]},{"type":"Point","properties":{"Station_ID":"NY-HR-18","Station_Nam":"SALISBURY CENTER 1.8 NW, NY","Latitude":"43.16260","Longitude":"-74.80880","Snowdepth":"5.500","Units":"in","Rept_Date":"2021-01-01 11"},"coordinates":[5394,4770]},{"type":"Point","properties":{"Station_ID":"NE-LA-64","Station_Nam":"DAVEY 3.7 S, NE","Latitude":"40.92966","Longitude":"-96.65748","Snowdepth":"5.500","Units":"in","Rept_Date":"2021-01-01 13"},"coordinates":[141,3407]},{"type":"Point","properties":{"Station_ID":"MN-HN-78","Station_Nam":"RICHFIELD 1.9 WNW, MN","Latitude":"44.89129","Longitude":"-93.31410","Snowdepth":"5.500","Units":"in","Rept_Date":"2021-01-01 11"},"coordinates":[945,5825]},{"type":"Point","properties":{"Station_ID":"MI-SH-1","Station_Nam":"MANISTIQUE 2.7 NW, MI","Latitude":"45.99042","Longitude":"-86.28266","Snowdepth":"5.500","Units":"in","Rept_Date":"2021-01-01 11"},"coordinates":[2635,6497]},{"type":"Point","properties":{"Station_ID":"MI-MG-13","Station_Nam":"MUSKEGON 3.5 SSE, MI","Latitude":"43.17913","Longitude":"-86.23640","Snowdepth":"5.500","Units":"in","Rept_Date":"2021-01-01 15"},"coordinates":[2647,4780]},{"type":"Point","properties":{"Station_ID":"MI-MC-6","Station_Nam":"ENGADINE 4.0 NE, MI","Latitude":"46.15474","Longitude":"-85.49987","Snowdepth":"5.500","Units":"in","Rept_Date":"2021-01-01 14"},"coordinates":[2824,6597]},{"type":"Point","properties":{"Station_ID":"MI-MC-4","Station_Nam":"ST. IGNACE 0.5SE, MI","Latitude":"45.86057","Longitude":"-84.71980","Snowdepth":"5.500","Units":"in","Rept_Date":"2021-01-01 12"},"coordinates":[3011,6417]},{"type":"Point","properties":{"Station_ID":"MI-GT-21","Station_Nam":"KINGSLEY 2.7 ENE, MI","Latitude":"44.59871","Longitude":"-85.48426","Snowdepth":"5.500","Units":"in","Rept_Date":"2021-01-01 13"},"coordinates":[2827,5647]},{"type":"Point","properties":{"Station_ID":"LANC007","Station_Nam":"DAVEY 1.2 NNW, NE","Latitude":"41.00320","Longitude":"-96.67630","Snowdepth":"5.500","Units":"in","Rept_Date":"2021-01-01 13"},"coordinates":[137,3452]},{"type":"Point","properties":{"Station_ID":"IA-PK-89","Station_Nam":"ANKENY 3.7 NNE, IA","Latitude":"41.77305","Longitude":"-93.57635","Snowdepth":"5.500","Units":"in","Rept_Date":"2021-01-01 13"},"coordinates":[882,3922]},{"type":"Point","properties":{"Station_ID":"CAN-NB-105","Station_Nam":"SISSON BROOK 3.8 E, CAN","Latitude":"46.98305","Longitude":"-67.32532","Snowdepth":"5.500","Units":"in","Rept_Date":"2021-01-01 12"},"coordinates":[7193,7103]},{"type":"Point","properties":{"Station_ID":"WI-RC-33","Station_Nam":"RACINE 5.9 N, WI","Latitude":"42.81268","Longitude":"-87.81460","Snowdepth":"5.400","Units":"in","Rept_Date":"2021-01-01 13"},"coordinates":[2267,4556]},{"type":"Point","properties":{"Station_ID":"MI-ME-11","Station_Nam":"BIG RAPIDS 5.4 S, MI","Latitude":"43.62630","Longitude":"-85.47600","Snowdepth":"5.400","Units":"in","Rept_Date":"2021-01-01 12"},"coordinates":[2829,5053]},{"type":"Point","properties":{"Station_ID":"QGA","Station_Nam":"QGA","Latitude":"47.25640","Longitude":"-73.73810","Snowdepth":"5.315","Units":"in","Rept_Date":"2021-01-01 12"},"coordinates":[5651,7270]},{"type":"Point","properties":{"Station_ID":"IA-BT-12","Station_Nam":"FAIRFAX 4.0 NW, IA","Latitude":"41.96223","Longitude":"-91.83675","Snowdepth":"5.300","Units":"in","Rept_Date":"2021-01-01 13"},"coordinates":[1300,4037]},{"type":"Point","properties":{"Station_ID":"WSTW3","Station_Nam":"WEST BEND -FIRE","Latitude":"43.43138","Longitude":"-88.16111","Snowdepth":"5.000","Units":"in","Rept_Date":"2021-01-01 13"},"coordinates":[2184,4934]},{"type":"Point","properties":{"Station_ID":"WNNM5","Station_Nam":"WINNEBAGO","Latitude":"43.76920","Longitude":"-94.18730","Snowdepth":"5.000","Units":"in","Rept_Date":"2021-01-01 14"},"coordinates":[735,5140]},{"type":"Point","properties":{"Station_ID":"WMRM5","Station_Nam":"WILLMAR 5N","Latitude":"45.19010","Longitude":"-95.05860","Snowdepth":"5.000","Units":"in","Rept_Date":"2021-01-01 12"},"coordinates":[526,6008]},{"type":"Point","properties":{"Station_ID":"WLNM4","Station_Nam":"WELLSTON 1N","Latitude":"44.22940","Longitude":"-85.95690","Snowdepth":"5.000","Units":"in","Rept_Date":"2021-01-01 12"},"coordinates":[2714,5421]},{"type":"Point","properties":{"Station_ID":"WI-WK-68","Station_Nam":"OCONOMOWOC 1.0 S, WI","Latitude":"43.09530","Longitude":"-88.48590","Snowdepth":"5.000","Units":"in","Rept_Date":"2021-01-01 14"},"coordinates":[2106,4729]},{"type":"Point","properties":{"Station_ID":"WI-WK-61","Station_Nam":"HARTLAND 5.0 NNE, WI","Latitude":"43.16351","Longitude":"-88.30400","Snowdepth":"5.000","Units":"in","Rept_Date":"2021-01-01 13"},"coordinates":[2150,4771]},{"type":"Point","properties":{"Station_ID":"WI-WK-42","Station_Nam":"OCONOMOWOC 1.2 W, WI","Latitude":"43.10560","Longitude":"-88.52044","Snowdepth":"5.000","Units":"in","Rept_Date":"2021-01-01 13"},"coordinates":[2098,4735]},{"type":"Point","properties":{"Station_ID":"WI-WK-29","Station_Nam":"OCONOMOWOC 4.6 NE, WI","Latitude":"43.14621","Longitude":"-88.42860","Snowdepth":"5.000","Units":"in","Rept_Date":"2021-01-01 15"},"coordinates":[2120,4760]},{"type":"Point","properties":{"Station_ID":"WI-SK-15","Station_Nam":"REEDSBURG 1.3 N, WI","Latitude":"43.55348","Longitude":"-89.99739","Snowdepth":"5.000","Units":"in","Rept_Date":"2021-01-01 12"},"coordinates":[1742,5009]},{"type":"Point","properties":{"Station_ID":"WI-RL-6","Station_Nam":"RICHLAND CENTER 4.0 N, WI","Latitude":"43.39597","Longitude":"-90.38580","Snowdepth":"5.000","Units":"in","Rept_Date":"2021-01-01 14"},"coordinates":[1649,4913]},{"type":"Point","properties":{"Station_ID":"WI-JF-2","Station_Nam":"WATERTOWN 1.6 ESE, WI","Latitude":"43.17916","Longitude":"-88.69720","Snowdepth":"5.000","Units":"in","Rept_Date":"2021-01-01 14"},"coordinates":[2055,4780]},{"type":"Point","properties":{"Station_ID":"WI-GL-4","Station_Nam":"GREEN LAKE 0.8 E, WI","Latitude":"43.84369","Longitude":"-88.94066","Snowdepth":"5.000","Units":"in","Rept_Date":"2021-01-01 13"},"coordinates":[1996,5186]},{"type":"Point","properties":{"Station_ID":"WI-DR-6","Station_Nam":"SISTER BAY 1.3 NNE, WI","Latitude":"45.20296","Longitude":"-87.11326","Snowdepth":"5.000","Units":"in","Rept_Date":"2021-01-01 13"},"coordinates":[2436,6016]},{"type":"Point","properties":{"Station_ID":"WI-DD-5","Station_Nam":"THERESA 3.1 SE, WI","Latitude":"43.49201","Longitude":"-88.40165","Snowdepth":"5.000","Units":"in","Rept_Date":"2021-01-01 14"},"coordinates":[2126,4971]},{"type":"Point","properties":{"Station_ID":"WI-DD-4","Station_Nam":"BEAVER DAM 1.4 SSW, WI","Latitude":"43.44719","Longitude":"-88.85260","Snowdepth":"5.000","Units":"in","Rept_Date":"2021-01-01 14"},"coordinates":[2018,4944]},{"type":"Point","properties":{"Station_ID":"WI-DA-88","Station_Nam":"BLACK EARTH 3.1 SSE, WI","Latitude":"43.09290","Longitude":"-89.72889","Snowdepth":"5.000","Units":"in","Rept_Date":"2021-01-01 13"},"coordinates":[1807,4727]},{"type":"Point","properties":{"Station_ID":"WI-DA-46","Station_Nam":"MADISON 6.4 W, WI","Latitude":"43.08337","Longitude":"-89.51503","Snowdepth":"5.000","Units":"in","Rept_Date":"2021-01-01 13"},"coordinates":[1858,4722]},{"type":"Point","properties":{"Station_ID":"WI-DA-13","Station_Nam":"MADISON 3.7 WSW, WI","Latitude":"43.06230","Longitude":"-89.45650","Snowdepth":"5.000","Units":"in","Rept_Date":"2021-01-01 13"},"coordinates":[1872,4709]},{"type":"Point","properties":{"Station_ID":"WI-CB-4","Station_Nam":"PORTAGE 5.7 WSW, WI","Latitude":"43.51411","Longitude":"-89.56910","Snowdepth":"5.000","Units":"in","Rept_Date":"2021-01-01 12"},"coordinates":[1845,4985]},{"type":"Point","properties":{"Station_ID":"UNDI4","Station_Nam":"UNDERWOOD","Latitude":"41.38940","Longitude":"-95.68110","Snowdepth":"5.000","Units":"in","Rept_Date":"2021-01-01 13"},"coordinates":[376,3687]},{"type":"Point","properties":{"Station_ID":"TRPI4","Station_Nam":"TRIPOLI,IA","Latitude":"42.81310","Longitude":"-92.25830","Snowdepth":"5.000","Units":"in","Rept_Date":"2021-01-01 13"},"coordinates":[1199,4557]},{"type":"Point","properties":{"Station_ID":"TOPN6","Station_Nam":"TUPPER LAKE SUNMOUNT","Latitude":"44.23070","Longitude":"-74.43820","Snowdepth":"5.000","Units":"in","Rept_Date":"2021-01-01 12"},"coordinates":[5483,5422]},{"type":"Point","properties":{"Station_ID":"TCEM4","Station_Nam":"TRAVERSE CITY 5ESE","Latitude":"44.73370","Longitude":"-85.51180","Snowdepth":"5.000","Units":"in","Rept_Date":"2021-01-01 12"},"coordinates":[2821,5729]},{"type":"Point","properties":{"Station_ID":"STIM5","Station_Nam":"STILLWATER 2SW","Latitude":"45.04540","Longitude":"-92.85220","Snowdepth":"5.000","Units":"in","Rept_Date":"2021-01-01 14"},"coordinates":[1056,5920]},{"type":"Point","properties":{"Station_ID":"STIM4","Station_Nam":"ST IGNACE","Latitude":"45.86080","Longitude":"-84.71960","Snowdepth":"5.000","Units":"in","Rept_Date":"2021-01-01 12"},"coordinates":[3011,6417]},{"type":"Point","properties":{"Station_ID":"SPTI4","Station_Nam":"STRAWBERRY POINT","Latitude":"42.68530","Longitude":"-91.53300","Snowdepth":"5.000","Units":"in","Rept_Date":"2021-01-01 13"},"coordinates":[1373,4479]},{"type":"Point","properties":{"Station_ID":"SNOW2","Station_Nam":"SNOWSHOE","Latitude":"38.39900","Longitude":"-79.99490","Snowdepth":"5.000","Units":"in","Rept_Date":"2021-01-01 11"},"coordinates":[4147,1862]},{"type":"Point","properties":{"Station_ID":"SD-MH-1","Station_Nam":"SIOUX FALLS 5.0 SE ARPT, SD","Latitude":"43.52360","Longitude":"-96.66780","Snowdepth":"5.000","Units":"in","Rept_Date":"2021-01-01 13"},"coordinates":[139,4990]},{"type":"Point","properties":{"Station_ID":"SCOM4","Station_Nam":"SCOTTVILLE 2 SE","Latitude":"43.93310","Longitude":"-86.24530","Snowdepth":"5.000","Units":"in","Rept_Date":"2021-01-01 12"},"coordinates":[2644,5240]},{"type":"Point","properties":{"Station_ID":"SBNM5","Station_Nam":"SABIN","Latitude":"46.77690","Longitude":"-96.65610","Snowdepth":"5.000","Units":"in","Rept_Date":"2021-01-01 15"},"coordinates":[142,6977]},{"type":"Point","properties":{"Station_ID":"SAVW3","Station_Nam":"SAUKVILLE WWTP","Latitude":"43.37470","Longitude":"-87.93940","Snowdepth":"5.000","Units":"in","Rept_Date":"2021-01-01 12"},"coordinates":[2237,4900]},{"type":"Point","properties":{"Station_ID":"ROCW3","Station_Nam":"ROCHESTER WWTP","Latitude":"42.72690","Longitude":"-88.22580","Snowdepth":"5.000","Units":"in","Rept_Date":"2021-01-01 15"},"coordinates":[2168,4504]},{"type":"Point","properties":{"Station_ID":"RNBW3","Station_Nam":"WFO GREEN BAY","Latitude":"44.49780","Longitude":"-88.11080","Snowdepth":"5.000","Units":"in","Rept_Date":"2021-01-02 06"},"coordinates":[2196,5585]},{"type":"Point","properties":{"Station_ID":"REWM5","Station_Nam":"REDWOOD FALLS","Latitude":"44.54850","Longitude":"-95.09980","Snowdepth":"5.000","Units":"in","Rept_Date":"2021-01-01 13"},"coordinates":[516,5616]},{"type":"Point","properties":{"Station_ID":"RCRW3","Station_Nam":"RICHLAND CENTER 4N","Latitude":"43.39590","Longitude":"-90.38580","Snowdepth":"5.000","Units":"in","Rept_Date":"2021-01-01 13"},"coordinates":[1649,4912]},{"type":"Point","properties":{"Station_ID":"RCHW3","Station_Nam":"RICHRIELD,WI","Latitude":"43.21080","Longitude":"-88.20940","Snowdepth":"5.000","Units":"in","Rept_Date":"2021-01-01 12"},"coordinates":[2172,4799]},{"type":"Point","properties":{"Station_ID":"RCEM5","Station_Nam":"RICE","Latitude":"45.75760","Longitude":"-94.20720","Snowdepth":"5.000","Units":"in","Rept_Date":"2021-01-01 13"},"coordinates":[730,6354]},{"type":"Point","properties":{"Station_ID":"PULW3","Station_Nam":"PULASKI WWTP","Latitude":"44.67830","Longitude":"-88.22750","Snowdepth":"5.000","Units":"in","Rept_Date":"2021-01-01 12"},"coordinates":[2168,5695]},{"type":"Point","properties":{"Station_ID":"PSHW3","Station_Nam":"PESHTIGO","Latitude":"45.02810","Longitude":"-87.73560","Snowdepth":"5.000","Units":"in","Rept_Date":"2021-01-01 13"},"coordinates":[2286,5909]},{"type":"Point","properties":{"Station_ID":"PA-PT-2","Station_Nam":"ROULETTE 1.8 NNE, PA","Latitude":"41.80759","Longitude":"-78.14140","Snowdepth":"5.000","Units":"in","Rept_Date":"2021-01-01 12"},"coordinates":[4593,3943]},{"type":"Point","properties":{"Station_ID":"OOHW3","Station_Nam":"OSHKOSH 5 N","Latitude":"44.09360","Longitude":"-88.55310","Snowdepth":"5.000","Units":"in","Rept_Date":"2021-01-01 13"},"coordinates":[2090,5338]},{"type":"Point","properties":{"Station_ID":"ONCW3","Station_Nam":"SOUTH","Latitude":"43.11170","Longitude":"-88.49970","Snowdepth":"5.000","Units":"in","Rept_Date":"2021-01-01 14"},"coordinates":[2102,4739]},{"type":"Point","properties":{"Station_ID":"ONAM4","Station_Nam":"ONAWAY 4N","Latitude":"45.41080","Longitude":"-84.22330","Snowdepth":"5.000","Units":"in","Rept_Date":"2021-01-01 23"},"coordinates":[3131,6143]},{"type":"Point","properties":{"Station_ID":"OMA","Station_Nam":"EPPLEY AIRFIELD","Latitude":"41.30220","Longitude":"-95.89330","Snowdepth":"5.000","Units":"in","Rept_Date":"2021-01-02 00"},"coordinates":[325,3634]},{"type":"Point","properties":{"Station_ID":"OKHW3","Station_Nam":"OSHKOSH,WI","Latitude":"44.03330","Longitude":"-88.55560","Snowdepth":"5.000","Units":"in","Rept_Date":"2021-01-01 13"},"coordinates":[2089,5302]},{"type":"Point","properties":{"Station_ID":"OK-LN-8","Station_Nam":"MEEKER 9.1 NW, OK","Latitude":"35.56801","Longitude":"-97.01900","Snowdepth":"5.000","Units":"in","Rept_Date":"2021-01-01 15"},"coordinates":[54,133]},{"type":"Point","properties":{"Station_ID":"OAXN1","Station_Nam":"VALLEY 1WNW","Latitude":"41.31970","Longitude":"-96.36720","Snowdepth":"5.000","Units":"in","Rept_Date":"2021-01-02 06"},"coordinates":[211,3645]},{"type":"Point","properties":{"Station_ID":"OAX","Station_Nam":"OMAHA, NE","Latitude":"41.32000","Longitude":"-96.36670","Snowdepth":"5.000","Units":"in","Rept_Date":"2021-01-02 00"},"coordinates":[211,3645]},{"type":"Point","properties":{"Station_ID":"OAKI4","Station_Nam":"OAKLAND,IA","Latitude":"41.31330","Longitude":"-95.39060","Snowdepth":"5.000","Units":"in","Rept_Date":"2021-01-01 13"},"coordinates":[446,3641]},{"type":"Point","properties":{"Station_ID":"NY-SR-22","Station_Nam":"GREENFIELD CENTER 1.6 W, NY","Latitude":"43.12684","Longitude":"-73.87860","Snowdepth":"5.000","Units":"in","Rept_Date":"2021-01-01 13"},"coordinates":[5618,4748]},{"type":"Point","properties":{"Station_ID":"NY-LW-12","Station_Nam":"CHASES LAKE COOP, NY","Latitude":"43.75924","Longitude":"-75.29982","Snowdepth":"5.000","Units":"in","Rept_Date":"2021-01-01 11"},"coordinates":[5276,5134]},{"type":"Point","properties":{"Station_ID":"NY-FK-7","Station_Nam":"SARANAC LAKE 6.2 N, NY","Latitude":"44.41359","Longitude":"-74.15211","Snowdepth":"5.000","Units":"in","Rept_Date":"2021-01-01 12"},"coordinates":[5552,5534]},{"type":"Point","properties":{"Station_ID":"NE-SY-18","Station_Nam":"PAPILLION 0.8 WSW, NE","Latitude":"41.15318","Longitude":"-96.05580","Snowdepth":"5.000","Units":"in","Rept_Date":"2021-01-01 13"},"coordinates":[286,3543]},{"type":"Point","properties":{"Station_ID":"NE-LA-52","Station_Nam":"LINCOLN 1.2 ENE, NE","Latitude":"40.82411","Longitude":"-96.66780","Snowdepth":"5.000","Units":"in","Rept_Date":"2021-01-01 13"},"coordinates":[139,3342]},{"type":"Point","properties":{"Station_ID":"NE-DG-19","Station_Nam":"ELKHORN 0.7 ENE, NE","Latitude":"41.28780","Longitude":"-96.22450","Snowdepth":"5.000","Units":"in","Rept_Date":"2021-01-01 13"},"coordinates":[245,3625]},{"type":"Point","properties":{"Station_ID":"NE-DD-3","Station_Nam":"FREMONT 0.6 S, NE","Latitude":"41.43141","Longitude":"-96.49210","Snowdepth":"5.000","Units":"in","Rept_Date":"2021-01-01 13"},"coordinates":[181,3713]},{"type":"Point","properties":{"Station_ID":"NCBN6","Station_Nam":"NEWCOMB","Latitude":"43.97070","Longitude":"-74.22200","Snowdepth":"5.000","Units":"in","Rept_Date":"2021-01-01 12"},"coordinates":[5535,5263]},{"type":"Point","properties":{"Station_ID":"MYOM4","Station_Nam":"MIO WWTP","Latitude":"44.64660","Longitude":"-84.11580","Snowdepth":"5.000","Units":"in","Rept_Date":"2021-01-01 13"},"coordinates":[3156,5676]},{"type":"Point","properties":{"Station_ID":"MTLW3","Station_Nam":"MONTELLO,WI","Latitude":"43.78000","Longitude":"-89.30000","Snowdepth":"5.000","Units":"in","Rept_Date":"2021-01-01 13"},"coordinates":[1910,5147]},{"type":"Point","properties":{"Station_ID":"MSTI4","Station_Nam":"MUSCATINE 2N","Latitude":"41.47130","Longitude":"-91.04630","Snowdepth":"5.000","Units":"in","Rept_Date":"2021-01-01 13"},"coordinates":[1490,3737]},{"type":"Point","properties":{"Station_ID":"MSHI4","Station_Nam":"MARSHALLTOWN,IA","Latitude":"42.06670","Longitude":"-92.93330","Snowdepth":"5.000","Units":"in","Rept_Date":"2021-01-01 13"},"coordinates":[1037,4101]},{"type":"Point","properties":{"Station_ID":"MRIW3","Station_Nam":"MARINETTE","Latitude":"45.09830","Longitude":"-87.62360","Snowdepth":"5.000","Units":"in","Rept_Date":"2021-01-01 13"},"coordinates":[2313,5952]},{"type":"Point","properties":{"Station_ID":"MRBW3","Station_Nam":"MT HOREB","Latitude":"42.98030","Longitude":"-89.73940","Snowdepth":"5.000","Units":"in","Rept_Date":"2021-01-01 13"},"coordinates":[1804,4659]},{"type":"Point","properties":{"Station_ID":"MONS2","Station_Nam":"MONTROSE","Latitude":"43.70500","Longitude":"-97.18780","Snowdepth":"5.000","Units":"in","Rept_Date":"2021-01-01 13"},"coordinates":[14,5101]},{"type":"Point","properties":{"Station_ID":"MN-WG-33","Station_Nam":"COTTAGE GROVE 1.6 NNW, MN","Latitude":"44.83821","Longitude":"-92.93590","Snowdepth":"5.000","Units":"in","Rept_Date":"2021-01-01 13"},"coordinates":[1036,5793]},{"type":"Point","properties":{"Station_ID":"MN-SC-49","Station_Nam":"NEW PRAGUE 1.0 NNW, MN","Latitude":"44.55969","Longitude":"-93.58193","Snowdepth":"5.000","Units":"in","Rept_Date":"2021-01-01 13"},"coordinates":[881,5623]},{"type":"Point","properties":{"Station_ID":"MN-PK-15","Station_Nam":"MENTOR 2.5 SSW, MN","Latitude":"47.66625","Longitude":"-96.17328","Snowdepth":"5.000","Units":"in","Rept_Date":"2021-01-01 13"},"coordinates":[258,7520]},{"type":"Point","properties":{"Station_ID":"MN-DK-104","Station_Nam":"HASTINGS 1.6 NW, MN","Latitude":"44.74458","Longitude":"-92.88035","Snowdepth":"5.000","Units":"in","Rept_Date":"2021-01-01 13"},"coordinates":[1049,5736]},{"type":"Point","properties":{"Station_ID":"MN-BW-8","Station_Nam":"COMFREY 6.5 ENE, MN","Latitude":"44.15109","Longitude":"-94.78516","Snowdepth":"5.000","Units":"in","Rept_Date":"2021-01-01 13"},"coordinates":[591,5374]},{"type":"Point","properties":{"Station_ID":"MLRM5","Station_Nam":"MELROSE","Latitude":"45.67710","Longitude":"-94.80200","Snowdepth":"5.000","Units":"in","Rept_Date":"2021-01-01 13"},"coordinates":[587,6305]},{"type":"Point","properties":{"Station_ID":"MLBS2","Station_Nam":"MILBANK","Latitude":"45.22040","Longitude":"-96.62530","Snowdepth":"5.000","Units":"in","Rept_Date":"2021-01-01 13"},"coordinates":[149,6026]},{"type":"Point","properties":{"Station_ID":"MKE","Station_Nam":"GEN MITCHELL INTL AIRPORT","Latitude":"42.94720","Longitude":"-87.89670","Snowdepth":"5.000","Units":"in","Rept_Date":"2021-01-02 00"},"coordinates":[2247,4639]},{"type":"Point","properties":{"Station_ID":"MIAM5","Station_Nam":"MILAN 1NW","Latitude":"45.12190","Longitude":"-95.92690","Snowdepth":"5.000","Units":"in","Rept_Date":"2021-01-02 00"},"coordinates":[317,5966]},{"type":"Point","properties":{"Station_ID":"MI-OC-3","Station_Nam":"HART 3 WSW, MI","Latitude":"43.67470","Longitude":"-86.42250","Snowdepth":"5.000","Units":"in","Rept_Date":"2021-01-01 12"},"coordinates":[2602,5083]},{"type":"Point","properties":{"Station_ID":"MI-NW-8","Station_Nam":"WHITE CLOUD 7.5 ENE, MI","Latitude":"43.60630","Longitude":"-85.64190","Snowdepth":"5.000","Units":"in","Rept_Date":"2021-01-01 12"},"coordinates":[2790,5041]},{"type":"Point","properties":{"Station_ID":"MI-GT-25","Station_Nam":"TRAVERSE CITY 4.7 ESE, MI","Latitude":"44.73370","Longitude":"-85.51189","Snowdepth":"5.000","Units":"in","Rept_Date":"2021-01-01 12"},"coordinates":[2821,5729]},{"type":"Point","properties":{"Station_ID":"MEDN1","Station_Nam":"AGRONOMY LABRATORY","Latitude":"41.16670","Longitude":"-96.41670","Snowdepth":"5.000","Units":"in","Rept_Date":"2021-01-01 12"},"coordinates":[199,3551]},{"type":"Point","properties":{"Station_ID":"ME-AR-18","Station_Nam":"NEW SWEDEN 4.9 NNW, ME","Latitude":"47.01080","Longitude":"-68.14390","Snowdepth":"5.000","Units":"in","Rept_Date":"2021-01-01 12"},"coordinates":[6996,7120]},{"type":"Point","properties":{"Station_ID":"MDDW3","Station_Nam":"MIDDLETON,WI","Latitude":"43.09060","Longitude":"-89.51470","Snowdepth":"5.000","Units":"in","Rept_Date":"2021-01-01 13"},"coordinates":[1858,4726]},