{"type":"Topology","objects":{"snowdepth_geo":{"type":"GeometryCollection","name":"snowdepth","crs":{"type":"name","properties":{"name":"urn:ogc:def:crs:OGC:1.3:CRS84"}},"geometries":[{"type":"Point","properties":{"Station_ID":"PRKM4","Station_Nam":"MUNISING EAST","Latitude":"46.42580","Longitude":"-86.62000","Snowdepth":"76.500","Units":"in","Rept_Date":"2021-01-21 06"},"coordinates":[2426,6710]},{"type":"Point","properties":{"Station_ID":"HTLN3","Station_Nam":"HERMIT LAKE SNOWPLOT","Latitude":"44.26130","Longitude":"-71.28330","Snowdepth":"37.000","Units":"in","Rept_Date":"2021-01-20 10"},"coordinates":[5930,5367]},{"type":"Point","properties":{"Station_ID":"HGHN6","Station_Nam":"HIGHMARKET","Latitude":"43.60510","Longitude":"-75.55430","Snowdepth":"35.000","Units":"in","Rept_Date":"2021-01-20 11"},"coordinates":[4954,4960]},{"type":"Point","properties":{"Station_ID":"RDFN6","Station_Nam":"REDFIELD 8N","Latitude":"43.64130","Longitude":"-75.88400","Snowdepth":"33.000","Units":"in","Rept_Date":"2021-01-20 12"},"coordinates":[4879,4982]},{"type":"Point","properties":{"Station_ID":"MMNV1","Station_Nam":"MT. MANSFIELD","Latitude":"44.52480","Longitude":"-72.81540","Snowdepth":"33.000","Units":"in","Rept_Date":"2021-01-20 21"},"coordinates":[5580,5531]},{"type":"Point","properties":{"Station_ID":"HLSN3","Station_Nam":"HERMIT LAKE SNOTEL","Latitude":"44.26130","Longitude":"-71.28320","Snowdepth":"32.010","Units":"in","Rept_Date":"2021-01-21 06"},"coordinates":[5930,5367]},{"type":"Point","properties":{"Station_ID":"STRN6","Station_Nam":"STILLWATER RESERVOIR","Latitude":"43.89140","Longitude":"-75.03610","Snowdepth":"29.000","Units":"in","Rept_Date":"2021-01-20 13"},"coordinates":[5072,5138]},{"type":"Point","properties":{"Station_ID":"HOKN6","Station_Nam":"HOOKER 12 NNW","Latitude":"43.85240","Longitude":"-75.71580","Snowdepth":"29.000","Units":"in","Rept_Date":"2021-01-20 11"},"coordinates":[4917,5113]},{"type":"Point","properties":{"Station_ID":"NY-ER-65","Station_Nam":"BOSTON 1.5 NE, NY","Latitude":"42.65470","Longitude":"-78.72010","Snowdepth":"28.000","Units":"in","Rept_Date":"2021-01-20 12"},"coordinates":[4231,4370]},{"type":"Point","properties":{"Station_ID":"NY-ER-56","Station_Nam":"COLDEN 1.4 NNW, NY","Latitude":"42.64740","Longitude":"-78.71120","Snowdepth":"28.000","Units":"in","Rept_Date":"2021-01-20 12"},"coordinates":[4233,4366]},{"type":"Point","properties":{"Station_ID":"NY-ER-166","Station_Nam":"BOSTON 2.5 NE, NY","Latitude":"42.65480","Longitude":"-78.70300","Snowdepth":"28.000","Units":"in","Rept_Date":"2021-01-20 12"},"coordinates":[4235,4370]},{"type":"Point","properties":{"Station_ID":"CODN6","Station_Nam":"COLDEN","Latitude":"42.64720","Longitude":"-78.71110","Snowdepth":"28.000","Units":"in","Rept_Date":"2021-01-20 12"},"coordinates":[4233,4366]},{"type":"Point","properties":{"Station_ID":"FOTN6","Station_Nam":"FOOTES - CONCORD SNOW","Latitude":"42.57950","Longitude":"-78.64480","Snowdepth":"26.750","Units":"in","Rept_Date":"2021-01-20 18"},"coordinates":[4248,4324]},{"type":"Point","properties":{"Station_ID":"VT-WR-17","Station_Nam":"ROCHESTER 2.3 NE, VT","Latitude":"43.89418","Longitude":"-72.76992","Snowdepth":"26.000","Units":"in","Rept_Date":"2021-01-20 12"},"coordinates":[5590,5139]},{"type":"Point","properties":{"Station_ID":"SGVN6","Station_Nam":"SPRINGVILLE","Latitude":"42.54970","Longitude":"-78.57670","Snowdepth":"26.000","Units":"in","Rept_Date":"2021-01-20 22"},"coordinates":[4264,4305]},{"type":"Point","properties":{"Station_ID":"NY-HM-9","Station_Nam":"HOFFMEISTER 2.0 E, NY","Latitude":"43.38695","Longitude":"-74.67723","Snowdepth":"25.000","Units":"in","Rept_Date":"2021-01-20 13"},"coordinates":[5154,4825]},{"type":"Point","properties":{"Station_ID":"NY-ER-194","Station_Nam":"GLENWOOD 1.0 SE, NY","Latitude":"42.60740","Longitude":"-78.64610","Snowdepth":"25.000","Units":"in","Rept_Date":"2021-01-20 12"},"coordinates":[4248,4341]},{"type":"Point","properties":{"Station_ID":"PTLQ6","Station_Nam":"PORTAGE LAKE","Latitude":"49.06950","Longitude":"-86.65940","Snowdepth":"24.840","Units":"in","Rept_Date":"2021-01-21 06"},"coordinates":[2417,8350]},{"type":"Point","properties":{"Station_ID":"DVLQ6","Station_Nam":"DEVIOUS LAKE","Latitude":"49.19890","Longitude":"-87.76440","Snowdepth":"24.060","Units":"in","Rept_Date":"2021-01-21 06"},"coordinates":[2165,8431]},{"type":"Point","properties":{"Station_ID":"PRGN6","Station_Nam":"PERRYSBURG","Latitude":"42.46470","Longitude":"-79.00310","Snowdepth":"24.000","Units":"in","Rept_Date":"2021-01-20 12"},"coordinates":[4166,4252]},{"type":"Point","properties":{"Station_ID":"PDLM4","Station_Nam":"PAINESDALE","Latitude":"47.04160","Longitude":"-88.67170","Snowdepth":"24.000","Units":"in","Rept_Date":"2021-01-20 13"},"coordinates":[1957,7092]},{"type":"Point","properties":{"Station_ID":"NY-ER-63","Station_Nam":"GLENWOOD 1.5 SE, NY","Latitude":"42.60195","Longitude":"-78.63910","Snowdepth":"24.000","Units":"in","Rept_Date":"2021-01-20 13"},"coordinates":[4249,4338]},{"type":"Point","properties":{"Station_ID":"EACN6","Station_Nam":"EAST CONCORD SNOW","Latitude":"42.54980","Longitude":"-78.57670","Snowdepth":"23.500","Units":"in","Rept_Date":"2021-01-20 18"},"coordinates":[4264,4305]},{"type":"Point","properties":{"Station_ID":"AUDQ6","Station_Nam":"AUDEN","Latitude":"48.52600","Longitude":"-82.57570","Snowdepth":"22.990","Units":"in","Rept_Date":"2021-01-21 06"},"coordinates":[3350,8013]},{"type":"Point","properties":{"Station_ID":"PA-ER-15","Station_Nam":"NORTH EAST 2.0 S, PA","Latitude":"42.18390","Longitude":"-79.83230","Snowdepth":"22.500","Units":"in","Rept_Date":"2021-01-20 13"},"coordinates":[3977,4078]},{"type":"Point","properties":{"Station_ID":"NY-ER-195","Station_Nam":"SPRINGVILLE 0.4 NE, NY","Latitude":"42.51351","Longitude":"-78.66492","Snowdepth":"22.500","Units":"in","Rept_Date":"2021-01-21 05"},"coordinates":[4243,4283]},{"type":"Point","properties":{"Station_ID":"42.1839_079.8323","Station_Nam":"2 S North East  CoCoRaHS (PA-ER-15)","Latitude":"42.18390","Longitude":"-79.83230","Snowdepth":"22.500","Units":"in","Rept_Date":"2021-01-20 13"},"coordinates":[3977,4078]},{"type":"Point","properties":{"Station_ID":"VT-BN-12","Station_Nam":"STAMFORD 5.0 NNE, VT","Latitude":"42.82000","Longitude":"-73.02000","Snowdepth":"22.000","Units":"in","Rept_Date":"2021-01-20 21"},"coordinates":[5533,4473]},{"type":"Point","properties":{"Station_ID":"PERV1","Station_Nam":"PERU","Latitude":"43.26670","Longitude":"-72.90000","Snowdepth":"22.000","Units":"in","Rept_Date":"2021-01-20 12"},"coordinates":[5560,4750]},{"type":"Point","properties":{"Station_ID":"TRIQ6","Station_Nam":"TRIO LAKE","Latitude":"49.22880","Longitude":"-87.22920","Snowdepth":"21.850","Units":"in","Rept_Date":"2021-01-21 06"},"coordinates":[2287,8449]},{"type":"Point","properties":{"Station_ID":"NH-CS-10","Station_Nam":"RANDOLPH 1.4 NE, NH","Latitude":"44.38824","Longitude":"-71.26950","Snowdepth":"21.500","Units":"in","Rept_Date":"2021-01-20 12"},"coordinates":[5933,5446]},{"type":"Point","properties":{"Station_ID":"QCU","Station_Nam":"QCU","Latitude":"47.82750","Longitude":"-76.59830","Snowdepth":"21.417","Units":"in","Rept_Date":"2021-01-20 12"},"coordinates":[4716,7580]},{"type":"Point","properties":{"Station_ID":"QGO","Station_Nam":"QGO","Latitude":"48.85500","Longitude":"-74.20640","Snowdepth":"21.063","Units":"in","Rept_Date":"2021-01-20 12"},"coordinates":[5262,8217]},{"type":"Point","properties":{"Station_ID":"RCNN6","Station_Nam":"RICE CORNERS - SARDINIA SNOW","Latitude":"42.54890","Longitude":"-78.49500","Snowdepth":"21.000","Units":"in","Rept_Date":"2021-01-20 18"},"coordinates":[4282,4305]},{"type":"Point","properties":{"Station_ID":"QLB","Station_Nam":"QLB","Latitude":"50.72360","Longitude":"-75.10000","Snowdepth":"20.945","Units":"in","Rept_Date":"2021-01-20 12"},"coordinates":[5058,9377]},{"type":"Point","properties":{"Station_ID":"QCO","Station_Nam":"QCO","Latitude":"51.45280","Longitude":"-72.20110","Snowdepth":"20.630","Units":"in","Rept_Date":"2021-01-20 12"},"coordinates":[5720,9829]},{"type":"Point","properties":{"Station_ID":"VT-OL-12","Station_Nam":"GREENSBORO 3.9 NNE, VT","Latitude":"44.63100","Longitude":"-72.28000","Snowdepth":"20.500","Units":"in","Rept_Date":"2021-01-20 13"},"coordinates":[5702,5596]},{"type":"Point","properties":{"Station_ID":"VT-BN-3","Station_Nam":"LANDGROVE 1.1 NNE, VT","Latitude":"43.29092","Longitude":"-72.83260","Snowdepth":"20.000","Units":"in","Rept_Date":"2021-01-20 12"},"coordinates":[5576,4765]},{"type":"Point","properties":{"Station_ID":"OCON6","Station_Nam":"OSCEOLA","Latitude":"43.50370","Longitude":"-75.72170","Snowdepth":"20.000","Units":"in","Rept_Date":"2021-01-20 13"},"coordinates":[4916,4897]},{"type":"Point","properties":{"Station_ID":"LBKV1","Station_Nam":"LYE BROOK","Latitude":"43.05000","Longitude":"-73.03330","Snowdepth":"20.000","Units":"in","Rept_Date":"2021-01-21 06"},"coordinates":[5530,4616]},{"type":"Point","properties":{"Station_ID":"WRSN6","Station_Nam":"WARSAW 6SW","Latitude":"42.68550","Longitude":"-78.22020","Snowdepth":"19.000","Units":"in","Rept_Date":"2021-01-20 12"},"coordinates":[4345,4389]},{"type":"Point","properties":{"Station_ID":"NY-LW-12","Station_Nam":"CHASES LAKE COOP, NY","Latitude":"43.75924","Longitude":"-75.29982","Snowdepth":"19.000","Units":"in","Rept_Date":"2021-01-20 11"},"coordinates":[5012,5056]},{"type":"Point","properties":{"Station_ID":"NCBN6","Station_Nam":"NEWCOMB","Latitude":"43.97070","Longitude":"-74.22200","Snowdepth":"19.000","Units":"in","Rept_Date":"2021-01-20 13"},"coordinates":[5258,5187]},{"type":"Point","properties":{"Station_ID":"MWN","Station_Nam":"MOUNT WASHINGTON","Latitude":"44.26670","Longitude":"-71.30000","Snowdepth":"19.000","Units":"in","Rept_Date":"2021-01-20 12"},"coordinates":[5926,5370]},{"type":"Point","properties":{"Station_ID":"MNSM4","Station_Nam":"MUNISING","Latitude":"46.41210","Longitude":"-86.66250","Snowdepth":"19.000","Units":"in","Rept_Date":"2021-01-20 11"},"coordinates":[2416,6702]},{"type":"Point","properties":{"Station_ID":"KMWN","Station_Nam":"MOUNT WASHINGTON","Latitude":"44.26666","Longitude":"-71.30000","Snowdepth":"19.000","Units":"in","Rept_Date":"2021-01-21 06"},"coordinates":[5926,5370]},{"type":"Point","properties":{"Station_ID":"GFDN6","Station_Nam":"CHASES LAKE","Latitude":"43.75920","Longitude":"-75.29980","Snowdepth":"19.000","Units":"in","Rept_Date":"2021-01-20 11"},"coordinates":[5012,5056]},{"type":"Point","properties":{"Station_ID":"CAN-ON-245","Station_Nam":"PHELPSTON 3.1 ESE, CAN","Latitude":"44.50564","Longitude":"-79.81035","Snowdepth":"19.000","Units":"in","Rept_Date":"2021-01-20 12"},"coordinates":[3982,5519]},{"type":"Point","properties":{"Station_ID":"42.0800_080.0143","Station_Nam":"ERIE 5SE  SNOW SPOTTER (X4210800)","Latitude":"42.08000","Longitude":"-80.01430","Snowdepth":"19.000","Units":"in","Rept_Date":"2021-01-20 13"},"coordinates":[3935,4014]},{"type":"Point","properties":{"Station_ID":"42.0231_080.0856","Station_Nam":"3 ENE McKean  Trained Spotter (X4200801)","Latitude":"42.02314","Longitude":"-80.08558","Snowdepth":"19.000","Units":"in","Rept_Date":"2021-01-20 12"},"coordinates":[3919,3978]},{"type":"Point","properties":{"Station_ID":"QOU","Station_Nam":"QOU","Latitude":"50.79250","Longitude":"-69.67470","Snowdepth":"18.622","Units":"in","Rept_Date":"2021-01-20 12"},"coordinates":[6297,9419]},{"type":"Point","properties":{"Station_ID":"WSFN6","Station_Nam":"WEST FALLS SNOW","Latitude":"42.68470","Longitude":"-78.68710","Snowdepth":"18.500","Units":"in","Rept_Date":"2021-01-20 18"},"coordinates":[4238,4389]},{"type":"Point","properties":{"Station_ID":"WORV1","Station_Nam":"WORCESTER 2 W","Latitude":"44.37470","Longitude":"-72.58220","Snowdepth":"18.000","Units":"in","Rept_Date":"2021-01-20 12"},"coordinates":[5633,5437]},{"type":"Point","properties":{"Station_ID":"WHFN6","Station_Nam":"WILMINGTON 2W","Latitude":"44.39310","Longitude":"-73.85890","Snowdepth":"18.000","Units":"in","Rept_Date":"2021-01-20 13"},"coordinates":[5341,5449]},{"type":"Point","properties":{"Station_ID":"WAIV1","Station_Nam":"WAITSFIELD","Latitude":"44.17560","Longitude":"-72.79610","Snowdepth":"18.000","Units":"in","Rept_Date":"2021-01-20 12"},"coordinates":[5584,5314]},{"type":"Point","properties":{"Station_ID":"VT-WS-11","Station_Nam":"WAITSFIELD 1.8 SE, VT","Latitude":"44.17551","Longitude":"-72.79540","Snowdepth":"18.000","Units":"in","Rept_Date":"2021-01-20 12"},"coordinates":[5584,5314]},{"type":"Point","properties":{"Station_ID":"NY-CQ-27","Station_Nam":"SILVER CREEK 1.0 SSE, NY","Latitude":"42.53088","Longitude":"-79.15986","Snowdepth":"18.000","Units":"in","Rept_Date":"2021-01-20 11"},"coordinates":[4130,4293]},{"type":"Point","properties":{"Station_ID":"JOHV1","Station_Nam":"JOHNSON 2 N","Latitude":"44.65790","Longitude":"-72.67850","Snowdepth":"18.000","Units":"in","Rept_Date":"2021-01-20 12"},"coordinates":[5611,5613]},{"type":"Point","properties":{"Station_ID":"42.1284_079.8945","Station_Nam":"NORTHEAST 6SW (CLE0249)","Latitude":"42.12840","Longitude":"-79.89450","Snowdepth":"18.000","Units":"in","Rept_Date":"2021-01-20 11"},"coordinates":[3962,4044]},{"type":"Point","properties":{"Station_ID":"42.1173_079.8962","Station_Nam":"4 W Colt Station  Trained Spotter (CLE0298)","Latitude":"42.11734","Longitude":"-79.89615","Snowdepth":"18.000","Units":"in","Rept_Date":"2021-01-20 13"},"coordinates":[3962,4037]},{"type":"Point","properties":{"Station_ID":"42.1154_080.1310","Station_Nam":"ERIE  SNOW SPOTTER (CLE0161)","Latitude":"42.11540","Longitude":"-80.13100","Snowdepth":"18.000","Units":"in","Rept_Date":"2021-01-20 12"},"coordinates":[3908,4036]},{"type":"Point","properties":{"Station_ID":"VT-WS-30","Station_Nam":"WOODBURY 3.4 NNW, VT","Latitude":"44.48825","Longitude":"-72.43258","Snowdepth":"17.500","Units":"in","Rept_Date":"2021-01-20 12"},"coordinates":[5667,5508]},{"type":"Point","properties":{"Station_ID":"QTM","Station_Nam":"QTM","Latitude":"51.05780","Longitude":"-72.57190","Snowdepth":"17.362","Units":"in","Rept_Date":"2021-01-20 12"},"coordinates":[5635,9584]},{"type":"Point","properties":{"Station_ID":"QFT","Station_Nam":"QFT","Latitude":"50.83280","Longitude":"-74.40390","Snowdepth":"17.126","Units":"in","Rept_Date":"2021-01-20 12"},"coordinates":[5217,9444]},{"type":"Point","properties":{"Station_ID":"WNDP1","Station_Nam":"WINDBER COUNTY CLUB","Latitude":"40.28780","Longitude":"-78.77530","Snowdepth":"17.000","Units":"in","Rept_Date":"2021-01-20 12"},"coordinates":[4218,2902]},{"type":"Point","properties":{"Station_ID":"VT-WS-23","Station_Nam":"CABOT 2.3 E, VT","Latitude":"44.39807","Longitude":"-72.26570","Snowdepth":"17.000","Units":"in","Rept_Date":"2021-01-20 12"},"coordinates":[5705,5452]},{"type":"Point","properties":{"Station_ID":"NY-HR-18","Station_Nam":"SALISBURY CENTER 1.8 NW, NY","Latitude":"43.16260","Longitude":"-74.80880","Snowdepth":"17.000","Units":"in","Rept_Date":"2021-01-20 11"},"coordinates":[5124,4685]},{"type":"Point","properties":{"Station_ID":"NY-CQ-22","Station_Nam":"FREDONIA 0.8 WNW, NY","Latitude":"42.44414","Longitude":"-79.34610","Snowdepth":"17.000","Units":"in","Rept_Date":"2021-01-20 10"},"coordinates":[4088,4240]},{"type":"Point","properties":{"Station_ID":"LOWN6","Station_Nam":"LOWVILLE","Latitude":"43.79280","Longitude":"-75.48290","Snowdepth":"17.000","Units":"in","Rept_Date":"2021-01-20 12"},"coordinates":[4970,5076]},{"type":"Point","properties":{"Station_ID":"KSGM4","Station_Nam":"KEARSARGE","Latitude":"47.27520","Longitude":"-88.41700","Snowdepth":"17.000","Units":"in","Rept_Date":"2021-01-20 13"},"coordinates":[2015,7237]},{"type":"Point","properties":{"Station_ID":"GNLM4","Station_Nam":"GREENLAND 6N","Latitude":"46.87360","Longitude":"-89.10060","Snowdepth":"17.000","Units":"in","Rept_Date":"2021-01-20 13"},"coordinates":[1859,6988]},{"type":"Point","properties":{"Station_ID":"CFAN6","Station_Nam":"CHAFFEE SNOW","Latitude":"42.58580","Longitude":"-78.46720","Snowdepth":"17.000","Units":"in","Rept_Date":"2021-01-20 18"},"coordinates":[4289,4328]},{"type":"Point","properties":{"Station_ID":"SRYN6","Station_Nam":"STRYKERSVILLE SNOW","Latitude":"42.69520","Longitude":"-78.44980","Snowdepth":"16.500","Units":"in","Rept_Date":"2021-01-20 18"},"coordinates":[4293,4395]},{"type":"Point","properties":{"Station_ID":"MLZ","Station_Nam":"MLZ","Latitude":"50.66170","Longitude":"-68.82360","Snowdepth":"16.260","Units":"in","Rept_Date":"2021-01-20 12"},"coordinates":[6492,9338]},{"type":"Point","properties":{"Station_ID":"VT-WS-33","Station_Nam":"WAITSFIELD 3.5 WNW, VT","Latitude":"44.20052","Longitude":"-72.89421","Snowdepth":"16.000","Units":"in","Rept_Date":"2021-01-20 13"},"coordinates":[5562,5329]},{"type":"Point","properties":{"Station_ID":"ROWM3","Station_Nam":"ROWE 3NE","Latitude":"42.73500","Longitude":"-72.86920","Snowdepth":"16.000","Units":"in","Rept_Date":"2021-01-20 12"},"coordinates":[5568,4420]},{"type":"Point","properties":{"Station_ID":"NY-OD-2","Station_Nam":"POINT ROCK 0.6 SE, NY","Latitude":"43.37335","Longitude":"-75.53840","Snowdepth":"16.000","Units":"in","Rept_Date":"2021-01-20 13"},"coordinates":[4958,4816]},{"type":"Point","properties":{"Station_ID":"LPLN6","Station_Nam":"LAKE PLACID 2 S","Latitude":"44.30420","Longitude":"-73.98390","Snowdepth":"16.000","Units":"in","Rept_Date":"2021-01-20 13"},"coordinates":[5313,5394]},{"type":"Point","properties":{"Station_ID":"JEFV1","Station_Nam":"JEFFERSONVILLE","Latitude":"44.58430","Longitude":"-72.78700","Snowdepth":"16.000","Units":"in","Rept_Date":"2021-01-20 12"},"coordinates":[5586,5567]},{"type":"Point","properties":{"Station_ID":"IWOM4","Station_Nam":"IRONWOOD#2","Latitude":"46.46520","Longitude":"-90.13820","Snowdepth":"16.000","Units":"in","Rept_Date":"2021-01-20 13"},"coordinates":[1622,6734]},{"type":"Point","properties":{"Station_ID":"HURW3","Station_Nam":"HURLEY","Latitude":"46.46250","Longitude":"-90.19550","Snowdepth":"16.000","Units":"in","Rept_Date":"2021-01-20 14"},"coordinates":[1609,6733]},{"type":"Point","properties":{"Station_ID":"HERM4","Station_Nam":"HERMAN,MI","Latitude":"46.65000","Longitude":"-88.33330","Snowdepth":"16.000","Units":"in","Rept_Date":"2021-01-20 13"},"coordinates":[2035,6849]},{"type":"Point","properties":{"Station_ID":"OGIQ6","Station_Nam":"OGOKI CAMP","Latitude":"50.76680","Longitude":"-87.85820","Snowdepth":"15.790","Units":"in","Rept_Date":"2021-01-21 06"},"coordinates":[2143,9403]},{"type":"Point","properties":{"Station_ID":"PA-ER-2","Station_Nam":"ERIE 5.6 SW, PA","Latitude":"42.06086","Longitude":"-80.15260","Snowdepth":"15.600","Units":"in","Rept_Date":"2021-01-20 12"},"coordinates":[3904,4002]},{"type":"Point","properties":{"Station_ID":"NY-HM-10","Station_Nam":"LAKE PLEASANT 2.3 WSW, NY","Latitude":"43.45490","Longitude":"-74.45287","Snowdepth":"15.500","Units":"in","Rept_Date":"2021-01-20 12"},"coordinates":[5206,4867]},{"type":"Point","properties":{"Station_ID":"VT-OL-2","Station_Nam":"BARTON 3.0 ENE, VT","Latitude":"44.75863","Longitude":"-72.11680","Snowdepth":"15.000","Units":"in","Rept_Date":"2021-01-20 12"},"coordinates":[5739,5676]},{"type":"Point","properties":{"Station_ID":"TOPN6","Station_Nam":"TUPPER LAKE SUNMOUNT","Latitude":"44.23070","Longitude":"-74.43820","Snowdepth":"15.000","Units":"in","Rept_Date":"2021-01-20 12"},"coordinates":[5209,5348]},{"type":"Point","properties":{"Station_ID":"NY-ER-158","Station_Nam":"EAST AURORA 2.7 SSE, NY","Latitude":"42.72936","Longitude":"-78.60561","Snowdepth":"15.000","Units":"in","Rept_Date":"2021-01-20 14"},"coordinates":[4257,4417]},{"type":"Point","properties":{"Station_ID":"ME-OX-34","Station_Nam":"ANDOVER 3.8 W, ME","Latitude":"44.64156","Longitude":"-70.82782","Snowdepth":"15.000","Units":"in","Rept_Date":"2021-01-20 12"},"coordinates":[6034,5603]},{"type":"Point","properties":{"Station_ID":"MALN6","Station_Nam":"MALONE","Latitude":"44.84180","Longitude":"-74.30600","Snowdepth":"15.000","Units":"in","Rept_Date":"2021-01-20 12"},"coordinates":[5239,5727]},{"type":"Point","properties":{"Station_ID":"BBEM4","Station_Nam":"BIG BAY 9SW","Latitude":"46.74620","Longitude":"-87.88160","Snowdepth":"15.000","Units":"in","Rept_Date":"2021-01-20 13"},"coordinates":[2138,6909]},{"type":"Point","properties":{"Station_ID":"42.2002_079.8021","Station_Nam":"2 ESE North East  Trained Spotter (CLE0183)","Latitude":"42.20018","Longitude":"-79.80210","Snowdepth":"15.000","Units":"in","Rept_Date":"2021-01-20 12"},"coordinates":[3984,4088]},{"type":"Point","properties":{"Station_ID":"SOCQ6","Station_Nam":"SOCKET LAKE","Latitude":"50.77870","Longitude":"-91.79300","Snowdepth":"14.960","Units":"in","Rept_Date":"2021-01-21 06"},"coordinates":[1244,9411]},{"type":"Point","properties":{"Station_ID":"QWE","Station_Nam":"QWE","Latitude":"47.84610","Longitude":"-73.80670","Snowdepth":"14.764","Units":"in","Rept_Date":"2021-01-20 12"},"coordinates":[5353,7591]},{"type":"Point","properties":{"Station_ID":"SVBQ6","Station_Nam":"SAVANT BASE","Latitude":"50.28730","Longitude":"-90.65670","Snowdepth":"14.610","Units":"in","Rept_Date":"2021-01-21 06"},"coordinates":[1504,9106]},{"type":"Point","properties":{"Station_ID":"VT-WR-2","Station_Nam":"POMFRET 2.6 N, VT","Latitude":"43.74230","Longitude":"-72.52550","Snowdepth":"14.500","Units":"in","Rept_Date":"2021-01-20 12"},"coordinates":[5646,5045]},{"type":"Point","properties":{"Station_ID":"VT-ES-1","Station_Nam":"GRANBY 1.4 NW, VT","Latitude":"44.58330","Longitude":"-71.77870","Snowdepth":"14.500","Units":"in","Rept_Date":"2021-01-20 14"},"coordinates":[5817,5567]},{"type":"Point","properties":{"Station_ID":"NY-FK-9","Station_Nam":"GABRIELS 1.3 SE, NY","Latitude":"44.41934","Longitude":"-74.16194","Snowdepth":"14.500","Units":"in","Rept_Date":"2021-01-20 12"},"coordinates":[5272,5465]},{"type":"Point","properties":{"Station_ID":"NY-CQ-41","Station_Nam":"MAYVILLE 0.2 ESE, NY","Latitude":"42.25194","Longitude":"-79.49809","Snowdepth":"14.500","Units":"in","Rept_Date":"2021-01-20 12"},"coordinates":[4053,4120]},{"type":"Point","properties":{"Station_ID":"VT-WS-19","Station_Nam":"WATERBURY 3.0 NW, VT","Latitude":"44.36060","Longitude":"-72.80770","Snowdepth":"14.000","Units":"in","Rept_Date":"2021-01-20 11"},"coordinates":[5582,5429]},{"type":"Point","properties":{"Station_ID":"VT-WS-10","Station_Nam":"NORTHFIELD 1.5 N, VT","Latitude":"44.16986","Longitude":"-72.65200","Snowdepth":"14.000","Units":"in","Rept_Date":"2021-01-20 12"},"coordinates":[5617,5310]},{"type":"Point","properties":{"Station_ID":"VT-WH-19","Station_Nam":"EAST DOVER 1.8 N, VT","Latitude":"42.97658","Longitude":"-72.77637","Snowdepth":"14.000","Units":"in","Rept_Date":"2021-01-20 12"},"coordinates":[5589,4570]},{"type":"Point","properties":{"Station_ID":"VT-OL-9","Station_Nam":"GREENSBORO 2.1 NNW, VT","Latitude":"44.60528","Longitude":"-72.30940","Snowdepth":"14.000","Units":"in","Rept_Date":"2021-01-20 12"},"coordinates":[5695,5580]},{"type":"Point","properties":{"Station_ID":"VT-OL-1","Station_Nam":"WESTFIELD 0.7 WNW, VT","Latitude":"44.89160","Longitude":"-72.44350","Snowdepth":"14.000","Units":"in","Rept_Date":"2021-01-20 12"},"coordinates":[5665,5758]},{"type":"Point","properties":{"Station_ID":"SUTV1","Station_Nam":"SUTTON","Latitude":"44.61220","Longitude":"-72.04810","Snowdepth":"14.000","Units":"in","Rept_Date":"2021-01-20 13"},"coordinates":[5755,5585]},{"type":"Point","properties":{"Station_ID":"SILN6","Station_Nam":"SILVER CREEK","Latitude":"42.53800","Longitude":"-79.16990","Snowdepth":"14.000","Units":"in","Rept_Date":"2021-01-20 12"},"coordinates":[4128,4298]},{"type":"Point","properties":{"Station_ID":"QNCM4","Station_Nam":"QUINCY HILL","Latitude":"47.13640","Longitude":"-88.57950","Snowdepth":"14.000","Units":"in","Rept_Date":"2021-01-20 12"},"coordinates":[1978,7151]},{"type":"Point","properties":{"Station_ID":"NY-ES-11","Station_Nam":"VERMONTVILLE 2.8 S, NY","Latitude":"44.41205","Longitude":"-74.06760","Snowdepth":"14.000","Units":"in","Rept_Date":"2021-01-20 12"},"coordinates":[5294,5461]},{"type":"Point","properties":{"Station_ID":"MQT","Station_Nam":"MARQUETTE, MI","Latitude":"46.53140","Longitude":"-87.54920","Snowdepth":"14.000","Units":"in","Rept_Date":"2021-01-21 06"},"coordinates":[2214,6776]},{"type":"Point","properties":{"Station_ID":"MI-HG-20","Station_Nam":"CALUMET 1.1 SSW, MI","Latitude":"47.23165","Longitude":"-88.45823","Snowdepth":"14.000","Units":"in","Rept_Date":"2021-01-20 11"},"coordinates":[2006,7210]},{"type":"Point","properties":{"Station_ID":"ATAN6","Station_Nam":"ATTICA 7 SW","Latitude":"42.81070","Longitude":"-78.39790","Snowdepth":"14.000","Units":"in","Rept_Date":"2021-01-20 11"},"coordinates":[4304,4467]},{"type":"Point","properties":{"Station_ID":"KABQ6","Station_Nam":"CAB LAKE","Latitude":"49.59950","Longitude":"-89.17990","Snowdepth":"13.940","Units":"in","Rept_Date":"2021-01-21 06"},"coordinates":[1841,8679]},{"type":"Point","properties":{"Station_ID":"NY-ES-6","Station_Nam":"OLMSTEDVILLE 4.6 NNE, NY","Latitude":"43.83350","Longitude":"-73.89780","Snowdepth":"13.500","Units":"in","Rept_Date":"2021-01-20 13"},"coordinates":[5333,5102]},{"type":"Point","properties":{"Station_ID":"MI-BG-3","Station_Nam":"THREE LAKES, MI","Latitude":"46.55730","Longitude":"-88.20770","Snowdepth":"13.500","Units":"in","Rept_Date":"2021-01-20 13"},"coordinates":[2063,6792]},{"type":"Point","properties":{"Station_ID":"CAN-NB-13","Station_Nam":"BATHURST 3.8 NW, CAN","Latitude":"47.64212","Longitude":"-65.68756","Snowdepth":"13.500","Units":"in","Rept_Date":"2021-01-20 11"},"coordinates":[7208,7465]},{"type":"Point","properties":{"Station_ID":"MN-IT-7","Station_Nam":"GRAND RAPIDS 6.2 SSW, MN","Latitude":"47.13687","Longitude":"-93.56660","Snowdepth":"13.400","Units":"in","Rept_Date":"2021-01-20 12"},"coordinates":[839,7151]},{"type":"Point","properties":{"Station_ID":"QMD","Station_Nam":"QMD","Latitude":"49.29060","Longitude":"-75.84500","Snowdepth":"13.307","Units":"in","Rept_Date":"2021-01-20 12"},"coordinates":[4888,8487]},{"type":"Point","properties":{"Station_ID":"CAN-QC-56","Station_Nam":"SUTTON 2.6 N, CAN","Latitude":"45.13119","Longitude":"-72.61218","Snowdepth":"13.300","Units":"in","Rept_Date":"2021-01-20 12"},"coordinates":[5626,5907]},{"type":"Point","properties":{"Station_ID":"WLFM5","Station_Nam":"WOLF RIDGE ENVIRON LEARNING CENTER","Latitude":"47.38240","Longitude":"-91.19730","Snowdepth":"13.000","Units":"in","Rept_Date":"2021-01-20 13"},"coordinates":[1380,7304]},{"type":"Point","properties":{"Station_ID":"WI-BY-14","Station_Nam":"ASHLAND 9.8 W, WI","Latitude":"46.59742","Longitude":"-91.07856","Snowdepth":"13.000","Units":"in","Rept_Date":"2021-01-20 12"},"coordinates":[1407,6816]},{"type":"Point","properties":{"Station_ID":"SSMM4","Station_Nam":"SAULT STE MARIE","Latitude":"46.48660","Longitude":"-84.40250","Snowdepth":"13.000","Units":"in","Rept_Date":"2021-01-20 13"},"coordinates":[2933,6748]},{"type":"Point","properties":{"Station_ID":"NY-SL-6","Station_Nam":"HANNAWA FALLS 0.1 SW, NY","Latitude":"44.61154","Longitude":"-74.97190","Snowdepth":"13.000","Units":"in","Rept_Date":"2021-01-20 12"},"coordinates":[5087,5584]},{"type":"Point","properties":{"Station_ID":"NY-CQ-9","Station_Nam":"DUNKIRK 0.7 SW, NY","Latitude":"42.47167","Longitude":"-79.33360","Snowdepth":"13.000","Units":"in","Rept_Date":"2021-01-20 13"},"coordinates":[4091,4257]},{"type":"Point","properties":{"Station_ID":"NUNV1","Station_Nam":"NORTH UNDERHILL","Latitude":"44.58760","Longitude":"-72.92150","Snowdepth":"13.000","Units":"in","Rept_Date":"2021-01-20 12"},"coordinates":[5556,5570]},{"type":"Point","properties":{"Station_ID":"NOHM5","Station_Nam":"NORTHOME","Latitude":"47.83590","Longitude":"-94.25550","Snowdepth":"13.000","Units":"in","Rept_Date":"2021-01-20 13"},"coordinates":[682,7585]},{"type":"Point","properties":{"Station_ID":"NH-CS-4","Station_Nam":"PITTSBURG 6.1 NE, NH","Latitude":"45.11060","Longitude":"-71.29760","Snowdepth":"13.000","Units":"in","Rept_Date":"2021-01-20 12"},"coordinates":[5927,5894]},{"type":"Point","properties":{"Station_ID":"IRMM4","Station_Nam":"WWTP","Latitude":"46.46670","Longitude":"-90.18330","Snowdepth":"13.000","Units":"in","Rept_Date":"2021-01-20 13"},"coordinates":[1612,6735]},{"type":"Point","properties":{"Station_ID":"INDN6","Station_Nam":"INDIAN LAKE","Latitude":"43.75500","Longitude":"-74.27560","Snowdepth":"13.000","Units":"in","Rept_Date":"2021-01-20 12"},"coordinates":[5246,5053]},{"type":"Point","properties":{"Station_ID":"ELCN6","Station_Nam":"ELLICOTT SNOW","Latitude":"42.73380","Longitude":"-78.71800","Snowdepth":"13.000","Units":"in","Rept_Date":"2021-01-20 18"},"coordinates":[4231,4419]},{"type":"Point","properties":{"Station_ID":"DKKN6","Station_Nam":"DUNKIRK 1S","Latitude":"42.47180","Longitude":"-79.33370","Snowdepth":"13.000","Units":"in","Rept_Date":"2021-01-20 13"},"coordinates":[4091,4257]},{"type":"Point","properties":{"Station_ID":"CAN-QC-51","Station_Nam":"BELOEIL 0.7 NW, CAN","Latitude":"45.58049","Longitude":"-73.21218","Snowdepth":"13.000","Units":"in","Rept_Date":"2021-01-20 12"},"coordinates":[5489,6186]},{"type":"Point","properties":{"Station_ID":"ANJM4","Station_Nam":"SNOW PAID OBSERVER FOR KANJ","Latitude":"46.48670","Longitude":"-84.40260","Snowdepth":"13.000","Units":"in","Rept_Date":"2021-01-21 06"},"coordinates":[2933,6748]},{"type":"Point","properties":{"Station_ID":"WAHN6","Station_Nam":"WALES HOLLOW SNOW","Latitude":"42.74590","Longitude":"-78.48830","Snowdepth":"12.500","Units":"in","Rept_Date":"2021-01-20 18"},"coordinates":[4284,4427]},{"type":"Point","properties":{"Station_ID":"VT-CH-4","Station_Nam":"UNDERHILL 4.4 NNE, VT","Latitude":"44.58774","Longitude":"-72.92250","Snowdepth":"12.500","Units":"in","Rept_Date":"2021-01-20 12"},"coordinates":[5555,5570]},{"type":"Point","properties":{"Station_ID":"VRBN6","Station_Nam":"VARYSBURG W (20) SNOW","Latitude":"42.76250","Longitude":"-78.33640","Snowdepth":"12.500","Units":"in","Rept_Date":"2021-01-20 18"},"coordinates":[4318,4437]},{"type":"Point","properties":{"Station_ID":"MN-IS-18","Station_Nam":"BRAHAM 0.7 SW, MN","Latitude":"45.71379","Longitude":"-93.18095","Snowdepth":"12.500","Units":"in","Rept_Date":"2021-01-20 14"},"coordinates":[927,6268]},{"type":"Point","properties":{"Station_ID":"CAN-ON-791","Station_Nam":"METCALFE 4.4 NNW, CAN","Latitude":"45.27286","Longitude":"-75.48952","Snowdepth":"12.500","Units":"in","Rept_Date":"2021-01-20 11"},"coordinates":[4969,5995]},{"type":"Point","properties":{"Station_ID":"WI-IR-3","Station_Nam":"PENCE 0.1 E, WI","Latitude":"46.41555","Longitude":"-90.27013","Snowdepth":"12.000","Units":"in","Rept_Date":"2021-01-20 13"},"coordinates":[1592,6704]},{"type":"Point","properties":{"Station_ID":"VT-WS-15","Station_Nam":"EAST CALAIS 1.5 SW, VT","Latitude":"44.35523","Longitude":"-72.45540","Snowdepth":"12.000","Units":"in","Rept_Date":"2021-01-20 12"},"coordinates":[5662,5425]},{"type":"Point","properties":{"Station_ID":"VT-WH-30","Station_Nam":"MARLBORO 2.0 NNE, VT","Latitude":"42.88484","Longitude":"-72.70935","Snowdepth":"12.000","Units":"in","Rept_Date":"2021-01-20 13"},"coordinates":[5604,4513]},{"type":"Point","properties":{"Station_ID":"VT-CH-7","Station_Nam":"HUNTINGTON 1.1 E, VT","Latitude":"44.32488","Longitude":"-72.96570","Snowdepth":"12.000","Units":"in","Rept_Date":"2021-01-20 12"},"coordinates":[5545,5407]},{"type":"Point","properties":{"Station_ID":"SVSN6","Station_Nam":"SILVER SPRINGS 3N","Latitude":"42.70580","Longitude":"-78.09370","Snowdepth":"12.000","Units":"in","Rept_Date":"2021-01-20 12"},"coordinates":[4374,4402]},{"type":"Point","properties":{"Station_ID":"SLNV1","Station_Nam":"SOUTH LINCOLN","Latitude":"44.07460","Longitude":"-72.97180","Snowdepth":"12.000","Units":"in","Rept_Date":"2021-01-20 12"},"coordinates":[5544,5251]},{"type":"Point","properties":{"Station_ID":"SHLN6","Station_Nam":"NORTH SHELDON SNOW","Latitude":"42.77870","Longitude":"-78.41910","Snowdepth":"12.000","Units":"in","Rept_Date":"2021-01-20 18"},"coordinates":[4300,4447]},{"type":"Point","properties":{"Station_ID":"RGNM1","Station_Nam":"RANGELEY 2NW","Latitude":"44.98940","Longitude":"-70.67220","Snowdepth":"12.000","Units":"in","Rept_Date":"2021-01-20 11"},"coordinates":[6069,5819]},{"type":"Point","properties":{"Station_ID":"PEKN6","Station_Nam":"PECK LAKE","Latitude":"43.11500","Longitude":"-74.42360","Snowdepth":"12.000","Units":"in","Rept_Date":"2021-01-20 12"},"coordinates":[5212,4656]},{"type":"Point","properties":{"Station_ID":"NY-WY-11","Station_Nam":"SILVER SPRINGS COOP, NY","Latitude":"42.70580","Longitude":"-78.09370","Snowdepth":"12.000","Units":"in","Rept_Date":"2021-01-20 12"},"coordinates":[4374,4402]},{"type":"Point","properties":{"Station_ID":"NUMN3","Station_Nam":"NORTHUMBERLAND","Latitude":"44.52830","Longitude":"-71.50440","Snowdepth":"12.000","Units":"in","Rept_Date":"2021-01-20 13"},"coordinates":[5879,5533]},{"type":"Point","properties":{"Station_ID":"MRLV1","Station_Nam":"MARLBORO","Latitude":"42.86000","Longitude":"-72.72000","Snowdepth":"12.000","Units":"in","Rept_Date":"2021-01-20 13"},"coordinates":[5602,4498]},{"type":"Point","properties":{"Station_ID":"MN-SL-15","Station_Nam":"CHISHOLM 0.4 WSW, MN","Latitude":"47.48557","Longitude":"-92.88690","Snowdepth":"12.000","Units":"in","Rept_Date":"2021-01-20 13"},"coordinates":[994,7368]},{"type":"Point","properties":{"Station_ID":"MI-OG-6","Station_Nam":"WEST BRANCH 2.1 SSW, MI","Latitude":"44.24814","Longitude":"-84.25089","Snowdepth":"12.000","Units":"in","Rept_Date":"2021-01-20 12"},"coordinates":[2967,5359]},{"type":"Point","properties":{"Station_ID":"GHMN3","Station_Nam":"PINKHAM NOTCH","Latitude":"44.25800","Longitude":"-71.25250","Snowdepth":"12.000","Units":"in","Rept_Date":"2021-01-20 10"},"coordinates":[5937,5365]},{"type":"Point","properties":{"Station_ID":"EHYM3","Station_Nam":"EAST HAWLEY","Latitude":"42.57410","Longitude":"-72.86790","Snowdepth":"12.000","Units":"in","Rept_Date":"2021-01-20 13"},"coordinates":[5568,4320]},{"type":"Point","properties":{"Station_ID":"EAHV1","Station_Nam":"EAST HAVEN","Latitude":"44.64250","Longitude":"-71.89120","Snowdepth":"12.000","Units":"in","Rept_Date":"2021-01-20 12"},"coordinates":[5791,5604]},{"type":"Point","properties":{"Station_ID":"ANJ","Station_Nam":"SAULT STE MARIE","Latitude":"46.46670","Longitude":"-84.36670","Snowdepth":"12.000","Units":"in","Rept_Date":"2021-01-21 00"},"coordinates":[2941,6735]},{"type":"Point","properties":{"Station_ID":"42.0299_080.0884","Station_Nam":"SUMMIT TWP  SNOW SPOTTER (X4200801)","Latitude":"42.02990","Longitude":"-80.08840","Snowdepth":"12.000","Units":"in","Rept_Date":"2021-01-21 02"},"coordinates":[3918,3983]},{"type":"Point","properties":{"Station_ID":"CATQ6","Station_Nam":"CAT LAKE","Latitude":"51.72690","Longitude":"-91.82210","Snowdepth":"11.730","Units":"in","Rept_Date":"2021-01-21 06"},"coordinates":[1237,9999]},{"type":"Point","properties":{"Station_ID":"QTV","Station_Nam":"QTV","Latitude":"49.66000","Longitude":"-69.35690","Snowdepth":"11.535","Units":"in","Rept_Date":"2021-01-20 12"},"coordinates":[6370,8717]},{"type":"Point","properties":{"Station_ID":"VT-ES-3","Station_Nam":"LUNENBURG 2.3 NNW, VT","Latitude":"44.49324","Longitude":"-71.70446","Snowdepth":"11.500","Units":"in","Rept_Date":"2021-01-20 11"},"coordinates":[5834,5511]},{"type":"Point","properties":{"Station_ID":"VT-CL-27","Station_Nam":"DANVILLE 0.4 N, VT","Latitude":"44.41769","Longitude":"-72.13936","Snowdepth":"11.500","Units":"in","Rept_Date":"2021-01-20 12"},"coordinates":[5734,5464]},{"type":"Point","properties":{"Station_ID":"ME-FR-2","Station_Nam":"TEMPLE 1.8 W, ME","Latitude":"44.68329","Longitude":"-70.26420","Snowdepth":"11.500","Units":"in","Rept_Date":"2021-01-20 12"},"coordinates":[6163,5629]},{"type":"Point","properties":{"Station_ID":"JEVN6","Station_Nam":"JEWETTVILLE (FIELDS) SNOW","Latitude":"42.76070","Longitude":"-78.68280","Snowdepth":"11.500","Units":"in","Rept_Date":"2021-01-20 18"},"coordinates":[4239,4436]},{"type":"Point","properties":{"Station_ID":"QLI","Station_Nam":"QLI","Latitude":"50.27080","Longitude":"-73.92280","Snowdepth":"11.496","Units":"in","Rept_Date":"2021-01-20 12"},"coordinates":[5327,9096]},{"type":"Point","properties":{"Station_ID":"CAN-QC-47","Station_Nam":"SAINTE-FOY 1.8 ENE, CAN","Latitude":"46.76934","Longitude":"-71.27124","Snowdepth":"11.400","Units":"in","Rept_Date":"2021-01-20 12"},"coordinates":[5933,6923]},{"type":"Point","properties":{"Station_ID":"QLP","Station_Nam":"QLP","Latitude":"48.13920","Longitude":"-72.63830","Snowdepth":"11.339","Units":"in","Rept_Date":"2021-01-20 12"},"coordinates":[5620,7773]},{"type":"Point","properties":{"Station_ID":"QGA","Station_Nam":"QGA","Latitude":"47.25640","Longitude":"-73.73810","Snowdepth":"11.339","Units":"in","Rept_Date":"2021-01-20 12"},"coordinates":[5369,7225]},{"type":"Point","properties":{"Station_ID":"CAN-QC-16","Station_Nam":"SAINT-ARMAND 3.6 W, CAN","Latitude":"45.02631","Longitude":"-73.08795","Snowdepth":"11.100","Units":"in","Rept_Date":"2021-01-20 12"},"coordinates":[5518,5842]},{"type":"Point","properties":{"Station_ID":"WV-PR-10","Station_Nam":"TERRA ALTA 4.9 NNE, WV","Latitude":"39.51024","Longitude":"-79.51024","Snowdepth":"11.000","Units":"in","Rept_Date":"2021-01-20 13"},"coordinates":[4050,2419]},{"type":"Point","properties":{"Station_ID":"WRSM5","Station_Nam":"WRENSHALL","Latitude":"46.61550","Longitude":"-92.38380","Snowdepth":"11.000","Units":"in","Rept_Date":"2021-01-20 14"},"coordinates":[1109,6828]},{"type":"Point","properties":{"Station_ID":"WI-BY-2","Station_Nam":"MELLEN 18.6 SW, WI","Latitude":"46.16937","Longitude":"-90.98090","Snowdepth":"11.000","Units":"in","Rept_Date":"2021-01-20 13"},"coordinates":[1430,6551]},{"type":"Point","properties":{"Station_ID":"VT-LM-1","Station_Nam":"STOWE 0.2 SW, VT","Latitude":"44.46399","Longitude":"-72.69070","Snowdepth":"11.000","Units":"in","Rept_Date":"2021-01-20 12"},"coordinates":[5608,5493]},{"type":"Point","properties":{"Station_ID":"VT-CH-11","Station_Nam":"UNDERHILL 5.1 NNE, VT","Latitude":"44.59811","Longitude":"-72.91880","Snowdepth":"11.000","Units":"in","Rept_Date":"2021-01-20 13"},"coordinates":[5556,5576]},{"type":"Point","properties":{"Station_ID":"VT-BN-7","Station_Nam":"MANCHESTER 2.8 ENE, VT","Latitude":"43.17274","Longitude":"-73.01811","Snowdepth":"11.000","Units":"in","Rept_Date":"2021-01-20 12"},"coordinates":[5533,4692]},{"type":"Point","properties":{"Station_ID":"SUAW3","Station_Nam":"SUAMICO","Latitude":"44.60190","Longitude":"-88.09780","Snowdepth":"11.000","Units":"in","Rept_Date":"2021-01-20 12"},"coordinates":[2088,5578]},{"type":"Point","properties":{"Station_ID":"RANM1","Station_Nam":"RANGELEY","Latitude":"44.98910","Longitude":"-70.67190","Snowdepth":"11.000","Units":"in","Rept_Date":"2021-01-20 11"},"coordinates":[6070,5819]},{"type":"Point","properties":{"Station_ID":"PTBN3","Station_Nam":"PITTSBURG RESERVOIR","Latitude":"45.04690","Longitude":"-71.38300","Snowdepth":"11.000","Units":"in","Rept_Date":"2021-01-20 12"},"coordinates":[5907,5854]},{"type":"Point","properties":{"Station_ID":"NY-ER-66","Station_Nam":"EAST AURORA 1.0 ESE, NY","Latitude":"42.76450","Longitude":"-78.59800","Snowdepth":"11.000","Units":"in","Rept_Date":"2021-01-20 15"},"coordinates":[4259,4438]},{"type":"Point","properties":{"Station_ID":"MNPV1","Station_Nam":"MONTPELIER 2","Latitude":"44.25530","Longitude":"-72.60060","Snowdepth":"11.000","Units":"in","Rept_Date":"2021-01-20 12"},"coordinates":[5629,5363]},{"type":"Point","properties":{"Station_ID":"MI-OT-4","Station_Nam":"GAYLORD 1.7 WNW, MI","Latitude":"45.03280","Longitude":"-84.71090","Snowdepth":"11.000","Units":"in","Rept_Date":"2021-01-20 13"},"coordinates":[2862,5846]},{"type":"Point","properties":{"Station_ID":"MI-AT-6","Station_Nam":"MANCELONA 0.5 ESE, MI","Latitude":"44.89981","Longitude":"-85.05100","Snowdepth":"11.000","Units":"in","Rept_Date":"2021-01-20 13"},"coordinates":[2784,5763]},{"type":"Point","properties":{"Station_ID":"LEIM5","Station_Nam":"ORR 3E","Latitude":"48.05810","Longitude":"-92.75220","Snowdepth":"11.000","Units":"in","Rept_Date":"2021-01-20 12"},"coordinates":[1025,7723]},{"type":"Point","properties":{"Station_ID":"LAUP1","Station_Nam":"1.5MI S OF RT 30 ON SMIT (LAUREL RIDGE)","Latitude":"40.05000","Longitude":"-79.22060","Snowdepth":"11.000","Units":"in","Rept_Date":"2021-01-20 12"},"coordinates":[4116,2754]},{"type":"Point","properties":{"Station_ID":"KBTV","Station_Nam":"BURLINGTON INTERNATIONAL","Latitude":"44.46666","Longitude":"-73.15000","Snowdepth":"11.000","Units":"in","Rept_Date":"2021-01-21 00"},"coordinates":[5503,5494]},{"type":"Point","properties":{"Station_ID":"INDM5","Station_Nam":"INDUS,MN","Latitude":"48.61670","Longitude":"-93.90000","Snowdepth":"11.000","Units":"in","Rept_Date":"2021-01-20 14"},"coordinates":[763,8069]},{"type":"Point","properties":{"Station_ID":"IL-SP-27","Station_Nam":"DAVIS 2.7 N, IL","Latitude":"42.46110","Longitude":"-89.40890","Snowdepth":"11.000","Units":"in","Rept_Date":"2021-01-20 13"},"coordinates":[1789,4250]},{"type":"Point","properties":{"Station_ID":"HVJP1","Station_Nam":"HIDDEN VALLEY COOP","Latitude":"40.04200","Longitude":"-79.25660","Snowdepth":"11.000","Units":"in","Rept_Date":"2021-01-20 13"},"coordinates":[4108,2749]},{"type":"Point","properties":{"Station_ID":"HUBN3","Station_Nam":"HUBBARD BROOK","Latitude":"43.93330","Longitude":"-71.71670","Snowdepth":"11.000","Units":"in","Rept_Date":"2021-01-21 06"},"coordinates":[5831,5164]},{"type":"Point","properties":{"Station_ID":"GAYM4","Station_Nam":"GAYLORD","Latitude":"45.03320","Longitude":"-84.71130","Snowdepth":"11.000","Units":"in","Rept_Date":"2021-01-20 13"},"coordinates":[2862,5846]},{"type":"Point","properties":{"Station_ID":"CMKW3","Station_Nam":"CLAM LAKE 4W","Latitude":"46.16940","Longitude":"-90.98080","Snowdepth":"11.000","Units":"in","Rept_Date":"2021-01-20 13"},"coordinates":[1430,6551]},{"type":"Point","properties":{"Station_ID":"CLKM4","Station_Nam":"CLARKSBURG","Latitude":"46.49910","Longitude":"-87.84500","Snowdepth":"11.000","Units":"in","Rept_Date":"2021-01-20 12"},"coordinates":[2146,6755]},{"type":"Point","properties":{"Station_ID":"CAN-MB-32","Station_Nam":"PINAWA 1.0 SW, CA","Latitude":"50.14747","Longitude":"-95.89020","Snowdepth":"11.000","Units":"in","Rept_Date":"2021-01-20 13"},"coordinates":[308,9019]},{"type":"Point","properties":{"Station_ID":"CAAW2","Station_Nam":"CANAAN VALLEY","Latitude":"39.05890","Longitude":"-79.44030","Snowdepth":"11.000","Units":"in","Rept_Date":"2021-01-20 14"},"coordinates":[4066,2139]},{"type":"Point","properties":{"Station_ID":"BTV","Station_Nam":"BURLINGTON, VT","Latitude":"44.47140","Longitude":"-73.15330","Snowdepth":"11.000","Units":"in","Rept_Date":"2021-01-21 01"},"coordinates":[5503,5497]},{"type":"Point","properties":{"Station_ID":"BRLN3","Station_Nam":"BERLIN","Latitude":"44.45350","Longitude":"-71.18540","Snowdepth":"11.000","Units":"in","Rept_Date":"2021-01-20 12"},"coordinates":[5952,5486]},{"type":"Point","properties":{"Station_ID":"BRAM1","Station_Nam":"BRASSUA DAM","Latitude":"45.66020","Longitude":"-69.81190","Snowdepth":"11.000","Units":"in","Rept_Date":"2021-01-20 12"},"coordinates":[6266,6235]},{"type":"Point","properties":{"Station_ID":"BNDM5","Station_Nam":"ELY 25E","Latitude":"47.97190","Longitude":"-91.44860","Snowdepth":"11.000","Units":"in","Rept_Date":"2021-01-20 13"},"coordinates":[1323,7669]},{"type":"Point","properties":{"Station_ID":"BKBW2","Station_Nam":"DAVIS.","Latitude":"39.09830","Longitude":"-79.43190","Snowdepth":"11.000","Units":"in","Rept_Date":"2021-01-20 12"},"coordinates":[4068,2164]},{"type":"Point","properties":{"Station_ID":"AVLV1","Station_Nam":"AVERILL","Latitude":"45.00570","Longitude":"-71.69030","Snowdepth":"11.000","Units":"in","Rept_Date":"2021-01-20 13"},"coordinates":[5837,5829]},{"type":"Point","properties":{"Station_ID":"42.2168_079.8473","Station_Nam":"NORTH EAST  SNOW SPOTTER (X4220798)","Latitude":"42.21680","Longitude":"-79.84730","Snowdepth":"11.000","Units":"in","Rept_Date":"2021-01-20 14"},"coordinates":[3973,4099]},{"type":"Point","properties":{"Station_ID":"42.0452_080.3039","Station_Nam":"LAKE CITY  SNOW SPOTTER (CLE0157)","Latitude":"42.04520","Longitude":"-80.30390","Snowdepth":"11.000","Units":"in","Rept_Date":"2021-01-20 14"},"coordinates":[3869,3992]},{"type":"Point","properties":{"Station_ID":"VT-FR-21","Station_Nam":"FAIRFAX 4.9 WNW, VT","Latitude":"44.68880","Longitude":"-73.10340","Snowdepth":"10.500","Units":"in","Rept_Date":"2021-01-20 14"},"coordinates":[5514,5632]},{"type":"Point","properties":{"Station_ID":"VT-CL-18","Station_Nam":"WHEELOCK 1.6 S, VT","Latitude":"44.56491","Longitude":"-72.08830","Snowdepth":"10.500","Units":"in","Rept_Date":"2021-01-20 12"},"coordinates":[5746,5555]},{"type":"Point","properties":{"Station_ID":"VABN6","Station_Nam":"VARYSBURG N (21)","Latitude":"42.79200","Longitude":"-78.32120","Snowdepth":"10.500","Units":"in","Rept_Date":"2021-01-20 18"},"coordinates":[4322,4455]},{"type":"Point","properties":{"Station_ID":"MI-OT-17","Station_Nam":"GAYLORD 4.1 S, MI","Latitude":"44.96388","Longitude":"-84.68467","Snowdepth":"10.500","Units":"in","Rept_Date":"2021-01-20 12"},"coordinates":[2868,5803]},{"type":"Point","properties":{"Station_ID":"CAN-ON-42","Station_Nam":"VANKLEEK HILL 3.4 S, CA","Latitude":"45.48987","Longitude":"-74.64570","Snowdepth":"10.500","Units":"in","Rept_Date":"2021-01-20 12"},"coordinates":[5162,6129]},{"type":"Point","properties":{"Station_ID":"CAN-MB-368","Station_Nam":"WHITESHELL 1.3 NE, CAN","Latitude":"49.74405","Longitude":"-95.19123","Snowdepth":"10.400","Units":"in","Rept_Date":"2021-01-20 14"},"coordinates":[468,8769]},{"type":"Point","properties":{"Station_ID":"QMA","Station_Nam":"QMA","Latitude":"50.10330","Longitude":"-70.47190","Snowdepth":"10.394","Units":"in","Rept_Date":"2021-01-20 12"},"coordinates":[6115,8992]},{"type":"Point","properties":{"Station_ID":"QIQ","Station_Nam":"QIQ","Latitude":"49.82390","Longitude":"-68.54310","Snowdepth":"10.354","Units":"in","Rept_Date":"2021-01-20 12"},"coordinates":[6556,8818]},{"type":"Point","properties":{"Station_ID":"WTNM4","Station_Nam":"WATTON 2WSW","Latitude":"46.52660","Longitude":"-88.64240","Snowdepth":"10.000","Units":"in","Rept_Date":"2021-01-20 13"},"coordinates":[1964,6773]},{"type":"Point","properties":{"Station_ID":"WI-WB-2","Station_Nam":"STONE LAKE 2.0 NW, WI","Latitude":"45.85960","Longitude":"-91.57710","Snowdepth":"10.000","Units":"in","Rept_Date":"2021-01-20 13"},"coordinates":[1293,6359]},{"type":"Point","properties":{"Station_ID":"WI-VL-9","Station_Nam":"LAND O' LAKES 11.7 W, WI","Latitude":"46.19023","Longitude":"-89.45790","Snowdepth":"10.000","Units":"in","Rept_Date":"2021-01-20 13"},"coordinates":[1778,6564]},{"type":"Point","properties":{"Station_ID":"WI-DG-20","Station_Nam":"SOLON SPRINGS 1.2 W, WI","Latitude":"46.35217","Longitude":"-91.84405","Snowdepth":"10.000","Units":"in","Rept_Date":"2021-01-20 13"},"coordinates":[1232,6664]},{"type":"Point","properties":{"Station_ID":"WI-BY-29","Station_Nam":"BAYFIELD 5.1 NNW, WI","Latitude":"46.88063","Longitude":"-90.85854","Snowdepth":"10.000","Units":"in","Rept_Date":"2021-01-20 14"},"coordinates":[1458,6992]},{"type":"Point","properties":{"Station_ID":"VT-OL-25","Station_Nam":"NEWPORT 1.5 WSW, VT","Latitude":"44.93059","Longitude":"-72.23731","Snowdepth":"10.000","Units":"in","Rept_Date":"2021-01-20 12"},"coordinates":[5712,5782]},{"type":"Point","properties":{"Station_ID":"PLFV1","Station_Nam":"PLAINFIELD","Latitude":"44.27610","Longitude":"-72.41500","Snowdepth":"10.000","Units":"in","Rept_Date":"2021-01-20 12"},"coordinates":[5671,5376]},{"type":"Point","properties":{"Station_ID":"PGVN6","Station_Nam":"PORTAGEVILLE","Latitude":"42.57580","Longitude":"-78.06720","Snowdepth":"10.000","Units":"in","Rept_Date":"2021-01-20 12"},"coordinates":[4380,4321]},{"type":"Point","properties":{"Station_ID":"PA-ER-5","Station_Nam":"NORTH EAST 1.2 WNW, PA","Latitude":"42.22058","Longitude":"-79.85510","Snowdepth":"10.000","Units":"in","Rept_Date":"2021-01-20 13"},"coordinates":[3971,4101]},{"type":"Point","properties":{"Station_ID":"NY-ER-50","Station_Nam":"EAST AURORA 0.1 ENE, NY","Latitude":"42.76750","Longitude":"-78.61580","Snowdepth":"10.000","Units":"in","Rept_Date":"2021-01-20 12"},"coordinates":[4255,4440]},{"type":"Point","properties":{"Station_ID":"NY-ER-39","Station_Nam":"HAMBURG 0.4 WSW, NY","Latitude":"42.72253","Longitude":"-78.84330","Snowdepth":"10.000","Units":"in","Rept_Date":"2021-01-20 12"},"coordinates":[4203,4412]},{"type":"Point","properties":{"Station_ID":"NY-CT-30","Station_Nam":"FRANKLINVILLE 3.5 E, NY","Latitude":"42.33660","Longitude":"-78.38794","Snowdepth":"10.000","Units":"in","Rept_Date":"2021-01-20 12"},"coordinates":[4307,4173]},{"type":"Point","properties":{"Station_ID":"NY-CR-5","Station_Nam":"MARATHON 1.0 NW, NY","Latitude":"42.45161","Longitude":"-76.04370","Snowdepth":"10.000","Units":"in","Rept_Date":"2021-01-20 12"},"coordinates":[4842,4244]},{"type":"Point","properties":{"Station_ID":"NY-CQ-39","Station_Nam":"GERRY 0.8 N, NY","Latitude":"42.20500","Longitude":"-79.24700","Snowdepth":"10.000","Units":"in","Rept_Date":"2021-01-20 13"},"coordinates":[4110,4091]},{"type":"Point","properties":{"Station_ID":"NY-BM-21","Station_Nam":"WINDSOR 8.0 SE, NY","Latitude":"42.00992","Longitude":"-75.51420","Snowdepth":"10.000","Units":"in","Rept_Date":"2021-01-20 12"},"coordinates":[4963,3970]},{"type":"Point","properties":{"Station_ID":"NVLV1","Station_Nam":"NASHVILLE","Latitude":"44.44970","Longitude":"-72.92640","Snowdepth":"10.000","Units":"in","Rept_Date":"2021-01-20 12"},"coordinates":[5554,5484]},{"type":"Point","properties":{"Station_ID":"NH-CS-19","Station_Nam":"CARROLL 4.6 NE, NH","Latitude":"44.33765","Longitude":"-71.46461","Snowdepth":"10.000","Units":"in","Rept_Date":"2021-01-20 12"},"coordinates":[5888,5414]},{"type":"Point","properties":{"Station_ID":"NH-CR-26","Station_Nam":"CENTER SANDWICH 4.9 E, NH","Latitude":"43.80976","Longitude":"-71.34150","Snowdepth":"10.000","Units":"in","Rept_Date":"2021-01-20 12"},"coordinates":[5917,5087]},{"type":"Point","properties":{"Station_ID":"NALN6","Station_Nam":"CATTARAUGUS","Latitude":"42.32450","Longitude":"-78.86700","Snowdepth":"10.000","Units":"in","Rept_Date":"2021-01-20 13"},"coordinates":[4197,4165]},{"type":"Point","properties":{"Station_ID":"MRAM5","Station_Nam":"MORA","Latitude":"45.87760","Longitude":"-93.31470","Snowdepth":"10.000","Units":"in","Rept_Date":"2021-01-20 13"},"coordinates":[896,6370]},{"type":"Point","properties":{"Station_ID":"MN-SL-108","Station_Nam":"IRON JUNCTION 3.4 NNW, MN","Latitude":"47.46150","Longitude":"-92.63130","Snowdepth":"10.000","Units":"in","Rept_Date":"2021-01-20 12"},"coordinates":[1053,7353]},{"type":"Point","properties":{"Station_ID":"MN-SE-2","Station_Nam":"OWATONNA 0.8 E, MN","Latitude":"44.09170","Longitude":"-93.21380","Snowdepth":"10.000","Units":"in","Rept_Date":"2021-01-20 13"},"coordinates":[920,5262]},{"type":"Point","properties":{"Station_ID":"MN-CN-36","Station_Nam":"CLOQUET 3.4 ENE, MN","Latitude":"46.74146","Longitude":"-92.42698","Snowdepth":"10.000","Units":"in","Rept_Date":"2021-01-20 13"},"coordinates":[1099,6906]},{"type":"Point","properties":{"Station_ID":"MN-CG-16","Station_Nam":"NORTH BRANCH 1.3 NNW, MN","Latitude":"45.53121","Longitude":"-92.97110","Snowdepth":"10.000","Units":"in","Rept_Date":"2021-01-20 12"},"coordinates":[975,6155]},{"type":"Point","properties":{"Station_ID":"MIEM4","Station_Nam":"MICHIGAMME 3WNW","Latitude":"46.54530","Longitude":"-88.18000","Snowdepth":"10.000","Units":"in","Rept_Date":"2021-01-20 13"},"coordinates":[2070,6784]},{"type":"Point","properties":{"Station_ID":"MI-OT-16","Station_Nam":"GAYLORD 2.2 SSE, MI","Latitude":"44.99441","Longitude":"-84.65820","Snowdepth":"10.000","Units":"in","Rept_Date":"2021-01-20 12"},"coordinates":[2874,5822]},{"type":"Point","properties":{"Station_ID":"MD-GR-4","Station_Nam":"MC HENRY 4.8 SSE, MD","Latitude":"39.48539","Longitude":"-79.31830","Snowdepth":"10.000","Units":"in","Rept_Date":"2021-01-20 20"},"coordinates":[4094,2404]},{"type":"Point","properties":{"Station_ID":"LNOW3","Station_Nam":"LAND O LAKES","Latitude":"46.19000","Longitude":"-89.45700","Snowdepth":"10.000","Units":"in","Rept_Date":"2021-01-20 13"},"coordinates":[1778,6564]},{"type":"Point","properties":{"Station_ID":"JRGM2","Station_Nam":"WEST VINDEX 2NNW - SNOW","Latitude":"39.43330","Longitude":"-79.23330","Snowdepth":"10.000","Units":"in","Rept_Date":"2021-01-20 13"},"coordinates":[4114,2372]},{"type":"Point","properties":{"Station_ID":"JKMM1","Station_Nam":"JACKMAN","Latitude":"45.62600","Longitude":"-70.24600","Snowdepth":"10.000","Units":"in","Rept_Date":"2021-01-20 12"},"coordinates":[6167,6214]},{"type":"Point","properties":{"Station_ID":"ISLV1","Station_Nam":"ISLAND POND","Latitude":"44.81280","Longitude":"-71.89020","Snowdepth":"10.000","Units":"in","Rept_Date":"2021-01-20 14"},"coordinates":[5791,5709]},{"type":"Point","properties":{"Station_ID":"INL","Station_Nam":"FALLS INTERNATIONAL ARPT","Latitude":"48.56640","Longitude":"-93.40310","Snowdepth":"10.000","Units":"in","Rept_Date":"2021-01-21 00"},"coordinates":[876,8038]},{"type":"Point","properties":{"Station_ID":"IL-MCH-13","Station_Nam":"BULL VALLEY 2.5 WNW, IL","Latitude":"42.32455","Longitude":"-88.39460","Snowdepth":"10.000","Units":"in","Rept_Date":"2021-01-20 14"},"coordinates":[2021,4165]},{"type":"Point","properties":{"Station_ID":"IFSM5","Station_Nam":"INTERNATIONAL FALLS SNOW","Latitude":"48.57780","Longitude":"-93.39640","Snowdepth":"10.000","Units":"in","Rept_Date":"2021-01-21 00"},"coordinates":[878,8045]},{"type":"Point","properties":{"Station_ID":"GNFM5","Station_Nam":"GUNFLINT LAKE","Latitude":"48.16670","Longitude":"-90.88750","Snowdepth":"10.000","Units":"in","Rept_Date":"2021-01-20 13"},"coordinates":[1451,7790]},{"type":"Point","properties":{"Station_ID":"FOLN6","Station_Nam":"FOLSOMDALE SNOW","Latitude":"42.82890","Longitude":"-78.44990","Snowdepth":"10.000","Units":"in","Rept_Date":"2021-01-20 18"},"coordinates":[4293,4478]},{"type":"Point","properties":{"Station_ID":"FISM1","Station_Nam":"FORT KENT COOP","Latitude":"47.23850","Longitude":"-68.61240","Snowdepth":"10.000","Units":"in","Rept_Date":"2021-01-20 12"},"coordinates":[6540,7214]},{"type":"Point","properties":{"Station_ID":"ESDN3","Station_Nam":"EAST SANDWICH","Latitude":"43.80990","Longitude":"-71.34250","Snowdepth":"10.000","Units":"in","Rept_Date":"2021-01-20 11"},"coordinates":[5916,5087]},{"type":"Point","properties":{"Station_ID":"ELYM5","Station_Nam":"ELY","Latitude":"47.90560","Longitude":"-91.82830","Snowdepth":"10.000","Units":"in","Rept_Date":"2021-01-20 14"},"coordinates":[1236,7628]},{"type":"Point","properties":{"Station_ID":"CSLM5","Station_Nam":"CASS LAKE,MN","Latitude":"47.38470","Longitude":"-94.61470","Snowdepth":"10.000","Units":"in","Rept_Date":"2021-01-20 14"},"coordinates":[599,7305]},{"type":"Point","properties":{"Station_ID":"COTM5","Station_Nam":"COTTON","Latitude":"47.16870","Longitude":"-92.46290","Snowdepth":"10.000","Units":"in","Rept_Date":"2021-01-20 13"},"coordinates":[1091,7171]},{"type":"Point","properties":{"Station_ID":"42.1792_079.9756","Station_Nam":"HARBORCREEK TWP  SNOW SPOTTER (X4220800)","Latitude":"42.17920","Longitude":"-79.97560","Snowdepth":"10.000","Units":"in","Rept_Date":"2021-01-20 22"},"coordinates":[3944,4075]},{"type":"Point","properties":{"Station_ID":"42.0816_080.1778","Station_Nam":"Erie Intl Airport  Trained Spotter (CLE0102)","Latitude":"42.08163","Longitude":"-80.17779","Snowdepth":"10.000","Units":"in","Rept_Date":"2021-01-21 00"},"coordinates":[3898,4015]},{"type":"Point","properties":{"Station_ID":"41.9996_080.1669","Station_Nam":"MCKEAN  SNOW SPOTTER (X4200802)","Latitude":"41.99960","Longitude":"-80.16690","Snowdepth":"10.000","Units":"in","Rept_Date":"2021-01-20 12"},"coordinates":[3900,3964]},{"type":"Point","properties":{"Station_ID":"41.9034_079.6523","Station_Nam":"CORRY (CLE0230)","Latitude":"41.90340","Longitude":"-79.65230","Snowdepth":"10.000","Units":"in","Rept_Date":"2021-01-20 14"},"coordinates":[4018,3904]},{"type":"Point","properties":{"Station_ID":"QLM","Station_Nam":"QLM","Latitude":"48.92030","Longitude":"-70.25280","Snowdepth":"9.961","Units":"in","Rept_Date":"2021-01-20 12"},"coordinates":[6165,8258]},{"type":"Point","properties":{"Station_ID":"WI-SR-1","Station_Nam":"HAYWARD 9.2 NNE, WI","Latitude":"46.13255","Longitude":"-91.40500","Snowdepth":"9.800","Units":"in","Rept_Date":"2021-01-20 12"},"coordinates":[1333,6528]},{"type":"Point","properties":{"Station_ID":"VT-CL-14","Station_Nam":"LYNDONVILLE 1.1 W, VT","Latitude":"44.53582","Longitude":"-72.02867","Snowdepth":"9.500","Units":"in","Rept_Date":"2021-01-20 12"},"coordinates":[5760,5537]},{"type":"Point","properties":{"Station_ID":"NY-JF-30","Station_Nam":"WEST CARTHAGE 0.3 ENE, NY","Latitude":"43.97493","Longitude":"-75.61640","Snowdepth":"9.500","Units":"in","Rept_Date":"2021-01-20 12"},"coordinates":[4940,5189]},{"type":"Point","properties":{"Station_ID":"CAN-QC-57","Station_Nam":"ACTON VALE 1.3 N, CAN","Latitude":"45.65868","Longitude":"-72.56645","Snowdepth":"9.400","Units":"in","Rept_Date":"2021-01-20 11"},"coordinates":[5637,6234]},{"type":"Point","properties":{"Station_ID":"CAN-ON-452","Station_Nam":"CHATSWORTH 1.8 ENE - GSCA, CAN","Latitude":"44.46118","Longitude":"-80.87506","Snowdepth":"9.400","Units":"in","Rept_Date":"2021-01-20 12"},"coordinates":[3738,5491]},{"type":"Point","properties":{"Station_ID":"WYON6","Station_Nam":"WYOMING 3W","Latitude":"42.82020","Longitude":"-78.14780","Snowdepth":"9.000","Units":"in","Rept_Date":"2021-01-20 12"},"coordinates":[4362,4473]},{"type":"Point","properties":{"Station_ID":"VT-CH-47","Station_Nam":"SOUTH BURLINGTON 2.6 SSW, VT","Latitude":"44.42027","Longitude":"-73.19242","Snowdepth":"9.000","Units":"in","Rept_Date":"2021-01-20 13"},"coordinates":[5494,5466]},{"type":"Point","properties":{"Station_ID":"VT-CH-38","Station_Nam":"WILLISTON 0.2 WSW, VT","Latitude":"44.43669","Longitude":"-73.07154","Snowdepth":"9.000","Units":"in","Rept_Date":"2021-01-20 12"},"coordinates":[5521,5476]},{"type":"Point","properties":{"Station_ID":"VT-AD-28","Station_Nam":"MONKTON 1.5 NE, VT","Latitude":"44.26760","Longitude":"-73.09940","Snowdepth":"9.000","Units":"in","Rept_Date":"2021-01-20 12"},"coordinates":[5515,5371]},{"type":"Point","properties":{"Station_ID":"TOGM5","Station_Nam":"CELINA 2E","Latitude":"47.86630","Longitude":"-93.02660","Snowdepth":"9.000","Units":"in","Rept_Date":"2021-01-20 15"},"coordinates":[962,7604]},{"type":"Point","properties":{"Station_ID":"STOI2","Station_Nam":"STOCKTON 3 NNE","Latitude":"42.40050","Longitude":"-89.99580","Snowdepth":"9.000","Units":"in","Rept_Date":"2021-01-21 03"},"coordinates":[1655,4213]},{"type":"Point","properties":{"Station_ID":"SNOW2","Station_Nam":"SNOWSHOE","Latitude":"38.39900","Longitude":"-79.99490","Snowdepth":"9.000","Units":"in","Rept_Date":"2021-01-20 11"},"coordinates":[3940,1730]},{"type":"Point","properties":{"Station_ID":"PRDM4","Station_Nam":"PARADISE","Latitude":"46.60380","Longitude":"-85.03960","Snowdepth":"9.000","Units":"in","Rept_Date":"2021-01-20 11"},"coordinates":[2787,6820]},{"type":"Point","properties":{"Station_ID":"PLEP1","Station_Nam":"PLEASANT MOUNT 1 W","Latitude":"41.73940","Longitude":"-75.44650","Snowdepth":"9.000","Units":"in","Rept_Date":"2021-01-20 13"},"coordinates":[4979,3802]},{"type":"Point","properties":{"Station_ID":"NY-SR-22","Station_Nam":"GREENFIELD CENTER 1.6 W, NY","Latitude":"43.12684","Longitude":"-73.87860","Snowdepth":"9.000","Units":"in","Rept_Date":"2021-01-20 12"},"coordinates":[5337,4663]},{"type":"Point","properties":{"Station_ID":"NY-OS-20","Station_Nam":"FULTON 0.2 W, NY","Latitude":"43.31650","Longitude":"-76.41850","Snowdepth":"9.000","Units":"in","Rept_Date":"2021-01-20 13"},"coordinates":[4757,4781]},{"type":"Point","properties":{"Station_ID":"NY-ES-7","Station_Nam":"KEESEVILLE 0.8 SE, NY","Latitude":"44.49504","Longitude":"-73.47109","Snowdepth":"9.000","Units":"in","Rept_Date":"2021-01-20 13"},"coordinates":[5430,5512]},{"type":"Point","properties":{"Station_ID":"NY-CT-22","Station_Nam":"FRANKLINVILLE 0.5 NNE, NY","Latitude":"42.34166","Longitude":"-78.45280","Snowdepth":"9.000","Units":"in","Rept_Date":"2021-01-20 13"},"coordinates":[4292,4176]},{"type":"Point","properties":{"Station_ID":"NY-CQ-35","Station_Nam":"FALCONER 0.3 WSW, NY","Latitude":"42.11766","Longitude":"-79.20278","Snowdepth":"9.000","Units":"in","Rept_Date":"2021-01-20 12"},"coordinates":[4121,4037]},{"type":"Point","properties":{"Station_ID":"NSFN3","Station_Nam":"NORTH STRATFORD","Latitude":"44.68190","Longitude":"-71.58570","Snowdepth":"9.000","Units":"in","Rept_Date":"2021-01-20 22"},"coordinates":[5861,5628]},{"type":"Point","properties":{"Station_ID":"NH-MR-41","Station_Nam":"NEWBURY 1.6 NW, NH","Latitude":"43.33667","Longitude":"-72.06060","Snowdepth":"9.000","Units":"in","Rept_Date":"2021-01-20 12"},"coordinates":[5752,4793]},{"type":"Point","properties":{"Station_ID":"MN-GH-28","Station_Nam":"CANNON FALLS 0.5 SE, MN","Latitude":"44.50866","Longitude":"-92.89526","Snowdepth":"9.000","Units":"in","Rept_Date":"2021-01-20 14"},"coordinates":[992,5521]},{"type":"Point","properties":{"Station_ID":"MI-MQ-19","Station_Nam":"ISHPEMING 7.2 SW, MI","Latitude":"46.40550","Longitude":"-87.75670","Snowdepth":"9.000","Units":"in","Rept_Date":"2021-01-20 11"},"coordinates":[2166,6697]},{"type":"Point","properties":{"Station_ID":"MI-HG-1","Station_Nam":"HOUGHTON 1.6 ESE, MI","Latitude":"47.10774","Longitude":"-88.52940","Snowdepth":"9.000","Units":"in","Rept_Date":"2021-01-20 13"},"coordinates":[1990,7133]},{"type":"Point","properties":{"Station_ID":"MI-GL-4","Station_Nam":"GLADWIN 10.4 NNW, MI","Latitude":"44.11865","Longitude":"-84.58470","Snowdepth":"9.000","Units":"in","Rept_Date":"2021-01-20 14"},"coordinates":[2891,5279]},{"type":"Point","properties":{"Station_ID":"MI-CP-14","Station_Nam":"SAULT STE. MARIE 2.2 E, MI","Latitude":"46.48933","Longitude":"-84.31971","Snowdepth":"9.000","Units":"in","Rept_Date":"2021-01-20 13"},"coordinates":[2951,6749]},{"type":"Point","properties":{"Station_ID":"MI-AG-6","Station_Nam":"MUNISING 11.1 SSW, MI","Latitude":"46.27805","Longitude":"-86.75747","Snowdepth":"9.000","Units":"in","Rept_Date":"2021-01-20 12"},"coordinates":[2395,6618]},{"type":"Point","properties":{"Station_ID":"ME-FR-4","Station_Nam":"NEW SHARON 2.0 NW, ME","Latitude":"44.66582","Longitude":"-70.02720","Snowdepth":"9.000","Units":"in","Rept_Date":"2021-01-20 12"},"coordinates":[6217,5618]},{"type":"Point","properties":{"Station_ID":"ME-AR-18","Station_Nam":"NEW SWEDEN 4.9 NNW, ME","Latitude":"47.01080","Longitude":"-68.14390","Snowdepth":"9.000","Units":"in","Rept_Date":"2021-01-20 12"},"coordinates":[6647,7073]},{"type":"Point","properties":{"Station_ID":"MA-HS-7","Station_Nam":"PLAINFIELD 2.2 SW, MA","Latitude":"42.49272","Longitude":"-72.94540","Snowdepth":"9.000","Units":"in","Rept_Date":"2021-01-20 13"},"coordinates":[5550,4270]},{"type":"Point","properties":{"Station_ID":"LUCW3","Station_Nam":"LUCK","Latitude":"45.57330","Longitude":"-92.48520","Snowdepth":"9.000","Units":"in","Rept_Date":"2021-01-20 22"},"coordinates":[1086,6181]},{"type":"Point","properties":{"Station_ID":"LTVN6","Station_Nam":"LITTLE VALLEY","Latitude":"42.24730","Longitude":"-78.81250","Snowdepth":"9.000","Units":"in","Rept_Date":"2021-01-20 12"},"coordinates":[4210,4118]},{"type":"Point","properties":{"Station_ID":"IL-JD-8","Station_Nam":"STOCKTON 3.4 NNE, IL","Latitude":"42.39960","Longitude":"-89.99020","Snowdepth":"9.000","Units":"in","Rept_Date":"2021-01-20 13"},"coordinates":[1656,4212]},{"type":"Point","properties":{"Station_ID":"IL-BN-19","Station_Nam":"BELVIDERE 5.0 NNW, IL","Latitude":"42.32071","Longitude":"-88.88282","Snowdepth":"9.000","Units":"in","Rept_Date":"2021-01-20 13"},"coordinates":[1909,4163]},{"type":"Point","properties":{"Station_ID":"HWLM4","Station_Nam":"HALFWAY LAKE","Latitude":"46.47480","Longitude":"-85.59250","Snowdepth":"9.000","Units":"in","Rept_Date":"2021-01-20 14"},"coordinates":[2661,6740]},{"type":"Point","properties":{"Station_ID":"HTLM4","Station_Nam":"SNOW PAID OBSERVER FOR KHTL","Latitude":"44.34470","Longitude":"-84.67730","Snowdepth":"9.000","Units":"in","Rept_Date":"2021-01-20 18"},"coordinates":[2870,5419]},{"type":"Point","properties":{"Station_ID":"HTL","Station_Nam":"ROSCOMMON COUNTY AIRPORT","Latitude":"44.35000","Longitude":"-84.66670","Snowdepth":"9.000","Units":"in","Rept_Date":"2021-01-21 00"},"coordinates":[2872,5422]},{"type":"Point","properties":{"Station_ID":"FEDM5","Station_Nam":"LEECH LAKE DAM","Latitude":"47.24670","Longitude":"-94.22280","Snowdepth":"9.000","Units":"in","Rept_Date":"2021-01-20 14"},"coordinates":[689,7219]},{"type":"Point","properties":{"Station_ID":"ENFV1","Station_Nam":"ENOSBURG FALLS 2","Latitude":"44.90960","Longitude":"-72.81370","Snowdepth":"9.000","Units":"in","Rept_Date":"2021-01-20 10"},"coordinates":[5580,5769]},{"type":"Point","properties":{"Station_ID":"EMBM5","Station_Nam":"EMBARASS,MN","Latitude":"47.65810","Longitude":"-92.19580","Snowdepth":"9.000","Units":"in","Rept_Date":"2021-01-20 12"},"coordinates":[1152,7475]},{"type":"Point","properties":{"Station_ID":"DGVW3","Station_Nam":"DODGEVILLE","Latitude":"42.96670","Longitude":"-90.11670","Snowdepth":"9.000","Units":"in","Rept_Date":"2021-01-20 13"},"coordinates":[1627,4564]},{"type":"Point","properties":{"Station_ID":"CRLM5","Station_Nam":"CROSS LAKE DAM","Latitude":"46.66930","Longitude":"-94.11060","Snowdepth":"9.000","Units":"in","Rept_Date":"2021-01-20 14"},"coordinates":[715,6861]},{"type":"Point","properties":{"Station_ID":"CORV1","Station_Nam":"CORINTH","Latitude":"44.00690","Longitude":"-72.31940","Snowdepth":"9.000","Units":"in","Rept_Date":"2021-01-20 12"},"coordinates":[5693,5209]},{"type":"Point","properties":{"Station_ID":"CLTV1","Station_Nam":"CHARLOTTE","Latitude":"44.31060","Longitude":"-73.24950","Snowdepth":"9.000","Units":"in","Rept_Date":"2021-01-20 21"},"coordinates":[5481,5398]},{"type":"Point","properties":{"Station_ID":"BABM5","Station_Nam":"BABBITT","Latitude":"47.71210","Longitude":"-91.95330","Snowdepth":"9.000","Units":"in","Rept_Date":"2021-01-20 13"},"coordinates":[1208,7508]},{"type":"Point","properties":{"Station_ID":"41.8717_080.0850","Station_Nam":"EDINBORO 2E  SNOW SPOTTER (X4190801)","Latitude":"41.87170","Longitude":"-80.08500","Snowdepth":"9.000","Units":"in","Rept_Date":"2021-01-20 13"},"coordinates":[3919,3884]},{"type":"Point","properties":{"Station_ID":"VT-WR-22","Station_Nam":"ROCHESTER 0.3 NE, VT","Latitude":"43.87816","Longitude":"-72.80459","Snowdepth":"8.700","Units":"in","Rept_Date":"2021-01-20 12"},"coordinates":[5582,5129]},{"type":"Point","properties":{"Station_ID":"NY-ER-138","Station_Nam":"EAST AURORA 3.4 NNE, NY","Latitude":"42.81400","Longitude":"-78.59670","Snowdepth":"8.500","Units":"in","Rept_Date":"2021-01-20 12"},"coordinates":[4259,4469]},{"type":"Point","properties":{"Station_ID":"NY-DL-32","Station_Nam":"DELHI 6.6 WNW, NY","Latitude":"42.32118","Longitude":"-75.02991","Snowdepth":"8.500","Units":"in","Rept_Date":"2021-01-20 12"},"coordinates":[5074,4163]},{"type":"Point","properties":{"Station_ID":"MN-IT-23","Station_Nam":"BOVEY 13.4 N, MN","Latitude":"47.48855","Longitude":"-93.43497","Snowdepth":"8.500","Units":"in","Rept_Date":"2021-01-20 13"},"coordinates":[869,7369]},{"type":"Point","properties":{"Station_ID":"MN-IT-17","Station_Nam":"GRAND RAPIDS 6.1 N, MN","Latitude":"47.31165","Longitude":"-93.55036","Snowdepth":"8.500","Units":"in","Rept_Date":"2021-01-20 13"},"coordinates":[843,7260]},{"type":"Point","properties":{"Station_ID":"MN-CW-44","Station_Nam":"CROSBY 1.1 SW, MN","Latitude":"46.47772","Longitude":"-93.97293","Snowdepth":"8.500","Units":"in","Rept_Date":"2021-01-20 13"},"coordinates":[746,6742]},{"type":"Point","properties":{"Station_ID":"MN-BK-6","Station_Nam":"LAKE PARK 6.0 S, MN","Latitude":"46.79850","Longitude":"-96.12180","Snowdepth":"8.500","Units":"in","Rept_Date":"2021-01-20 13"},"coordinates":[255,6941]},{"type":"Point","properties":{"Station_ID":"MI-MQ-28","Station_Nam":"CARLSHEND, MI","Latitude":"46.31638","Longitude":"-87.19944","Snowdepth":"8.500","Units":"in","Rept_Date":"2021-01-20 13"},"coordinates":[2294,6642]},{"type":"Point","properties":{"Station_ID":"ME-SM-10","Station_Nam":"NORTH NEW PORTLAND 0.3 WSW, ME","Latitude":"44.92353","Longitude":"-70.02788","Snowdepth":"8.500","Units":"in","Rept_Date":"2021-01-20 12"},"coordinates":[6217,5778]},{"type":"Point","properties":{"Station_ID":"JVLN6","Station_Nam":"JEWETTVILLE (WOODS) SNOW","Latitude":"42.76060","Longitude":"-78.68300","Snowdepth":"8.500","Units":"in","Rept_Date":"2021-01-20 18"},"coordinates":[4239,4436]},{"type":"Point","properties":{"Station_ID":"PA-CR-1","Station_Nam":"EMPORIUM 2.6 S, PA","Latitude":"41.47342","Longitude":"-78.24330","Snowdepth":"8.400","Units":"in","Rept_Date":"2021-01-20 13"},"coordinates":[4340,3637]},{"type":"Point","properties":{"Station_ID":"CAN-NB-105","Station_Nam":"SISSON BROOK 3.8 E, CAN","Latitude":"46.98305","Longitude":"-67.32532","Snowdepth":"8.300","Units":"in","Rept_Date":"2021-01-20 12"},"coordinates":[6834,7056]},{"type":"Point","properties":{"Station_ID":"MFU","Station_Nam":"MFU","Latitude":"51.52170","Longitude":"-66.91110","Snowdepth":"8.189","Units":"in","Rept_Date":"2021-01-20 12"},"coordinates":[6929,9872]},{"type":"Point","properties":{"Station_ID":"WODI2","Station_Nam":"WOODSTOCK","Latitude":"42.36280","Longitude":"-88.53140","Snowdepth":"8.000","Units":"in","Rept_Date":"2021-01-20 13"},"coordinates":[1989,4189]},{"type":"Point","properties":{"Station_ID":"WI-BY-6","Station_Nam":"BARNES 2.2 S, WI","Latitude":"46.30264","Longitude":"-91.50320","Snowdepth":"8.000","Units":"in","Rept_Date":"2021-01-20 13"},"coordinates":[1310,6634]},{"type":"Point","properties":{"Station_ID":"WELM5","Station_Nam":"WELLS","Latitude":"43.74680","Longitude":"-93.73680","Snowdepth":"8.000","Units":"in","Rept_Date":"2021-01-20 14"},"coordinates":[800,5048]},{"type":"Point","properties":{"Station_ID":"WDOM5","Station_Nam":"WINDOM","Latitude":"43.87700","Longitude":"-95.11590","Snowdepth":"8.000","Units":"in","Rept_Date":"2021-01-20 14"},"coordinates":[485,5129]},{"type":"Point","properties":{"Station_ID":"VQAW3","Station_Nam":"VIROQUA","Latitude":"43.55970","Longitude":"-90.87560","Snowdepth":"8.000","Units":"in","Rept_Date":"2021-01-20 13"},"coordinates":[1454,4932]},{"type":"Point","properties":{"Station_ID":"RLKW3","Station_Nam":"REST LAKE","Latitude":"46.12220","Longitude":"-89.87720","Snowdepth":"8.000","Units":"in","Rept_Date":"2021-01-20 14"},"coordinates":[1682,6522]},{"type":"Point","properties":{"Station_ID":"RKWM1","Station_Nam":"MOOSEHEAD LAKE","Latitude":"45.58330","Longitude":"-69.71670","Snowdepth":"8.000","Units":"in","Rept_Date":"2021-01-20 12"},"coordinates":[6288,6187]},{"type":"Point","properties":{"Station_ID":"PA-PT-2","Station_Nam":"ROULETTE 1.8 NNE, PA","Latitude":"41.80759","Longitude":"-78.14140","Snowdepth":"8.000","Units":"in","Rept_Date":"2021-01-20 12"},"coordinates":[4363,3845]},{"type":"Point","properties":{"Station_ID":"NY-CR-1","Station_Nam":"FREETOWN 1.0 NE, NY","Latitude":"42.53299","Longitude":"-76.02111","Snowdepth":"8.000","Units":"in","Rept_Date":"2021-01-20 12"},"coordinates":[4847,4295]},{"type":"Point","properties":{"Station_ID":"NPTV1","Station_Nam":"NEWPORT","Latitude":"44.94900","Longitude":"-72.19120","Snowdepth":"8.000","Units":"in","Rept_Date":"2021-01-20 12"},"coordinates":[5722,5794]},{"type":"Point","properties":{"Station_ID":"MTLT1","Station_Nam":"GATLINBURG,TN","Latitude":"35.65500","Longitude":"-83.44110","Snowdepth":"8.000","Units":"in","Rept_Date":"2021-01-20 13"},"coordinates":[3152,27]},{"type":"Point","properties":{"Station_ID":"MN-WG-74","Station_Nam":"OAKDALE 0.4 S, MN","Latitude":"44.98208","Longitude":"-92.96510","Snowdepth":"8.000","Units":"in","Rept_Date":"2021-01-20 13"},"coordinates":[976,5814]},{"type":"Point","properties":{"Station_ID":"MN-HN-298","Station_Nam":"EXCELSIOR 1.8 W, MN","Latitude":"44.89722","Longitude":"-93.60286","Snowdepth":"8.000","Units":"in","Rept_Date":"2021-01-20 13"},"coordinates":[831,5762]},{"type":"Point","properties":{"Station_ID":"MN-GH-4","Station_Nam":"NERSTRAND 4.2 E, MN","Latitude":"44.34247","Longitude":"-92.97920","Snowdepth":"8.000","Units":"in","Rept_Date":"2021-01-20 13"},"coordinates":[973,5417]},{"type":"Point","properties":{"Station_ID":"MN-CW-54","Station_Nam":"AITKIN 9.6 W, MN","Latitude":"46.53711","Longitude":"-93.90688","Snowdepth":"8.000","Units":"in","Rept_Date":"2021-01-20 14"},"coordinates":[761,6779]},{"type":"Point","properties":{"Station_ID":"MN-CW-22","Station_Nam":"FORT RIPLEY 0.8 N, MN","Latitude":"46.18089","Longitude":"-94.36510","Snowdepth":"8.000","Units":"in","Rept_Date":"2021-01-20 13"},"coordinates":[656,6558]},{"type":"Point","properties":{"Station_ID":"MN-CV-8","Station_Nam":"WATERTOWN 0.5 NNW, MN","Latitude":"44.96631","Longitude":"-93.84890","Snowdepth":"8.000","Units":"in","Rept_Date":"2021-01-20 10"},"coordinates":[774,5804]},{"type":"Point","properties":{"Station_ID":"MN-CK-18","Station_Nam":"GRAND MARAIS 4.4 WSW, MN","Latitude":"47.74462","Longitude":"-90.43796","Snowdepth":"8.000","Units":"in","Rept_Date":"2021-01-20 13"},"coordinates":[1554,7528]},{"type":"Point","properties":{"Station_ID":"ME-OX-2","Station_Nam":"HARTFORD 1.4 N, ME","Latitude":"44.39318","Longitude":"-70.34760","Snowdepth":"8.000","Units":"in","Rept_Date":"2021-01-20 12"},"coordinates":[6144,5449]},{"type":"Point","properties":{"Station_ID":"LVDW3","Station_Nam":"LAC VIEUX DESERT","Latitude":"46.12110","Longitude":"-89.07580","Snowdepth":"8.000","Units":"in","Rept_Date":"2021-01-20 13"},"coordinates":[1865,6521]},{"type":"Point","properties":{"Station_ID":"KLKM4","Station_Nam":"KALKASKA","Latitude":"44.72800","Longitude":"-85.17270","Snowdepth":"8.000","Units":"in","Rept_Date":"2021-01-20 13"},"coordinates":[2757,5657]},{"type":"Point","properties":{"Station_ID":"JSTN6","Station_Nam":"JAMESTOWN 4 ENE","Latitude":"42.11000","Longitude":"-79.15910","Snowdepth":"8.000","Units":"in","Rept_Date":"2021-01-20 12"},"coordinates":[4131,4032]},{"type":"Point","properties":{"Station_ID":"ISEM5","Station_Nam":"ISLE 12N","Latitude":"46.31970","Longitude":"-93.50140","Snowdepth":"8.000","Units":"in","Rept_Date":"2021-01-20 13"},"coordinates":[854,6644]},{"type":"Point","properties":{"Station_ID":"HRTM1","Station_Nam":"HARTFORD","Latitude":"44.37440","Longitude":"-70.31620","Snowdepth":"8.000","Units":"in","Rept_Date":"2021-01-20 12"},"coordinates":[6151,5437]},{"type":"Point","properties":{"Station_ID":"FORM5","Station_Nam":"FOREST LAKE 5NE","Latitude":"45.33170","Longitude":"-92.89820","Snowdepth":"8.000","Units":"in","Rept_Date":"2021-01-20 13"},"coordinates":[992,6031]},{"type":"Point","properties":{"Station_ID":"FLAM4","Station_Nam":"FIFE LAKE 2WNW","Latitude":"44.58480","Longitude":"-85.36530","Snowdepth":"8.000","Units":"in","Rept_Date":"2021-01-20 12"},"coordinates":[2713,5568]},{"type":"Point","properties":{"Station_ID":"ELKM5","Station_Nam":"ELK RIVER","Latitude":"45.30470","Longitude":"-93.58420","Snowdepth":"8.000","Units":"in","Rept_Date":"2021-01-20 13"},"coordinates":[835,6014]},{"type":"Point","properties":{"Station_ID":"EJNM4","Station_Nam":"EAST JORDAN 2NW","Latitude":"45.18630","Longitude":"-85.14770","Snowdepth":"8.000","Units":"in","Rept_Date":"2021-01-20 13"},"coordinates":[2762,5941]},{"type":"Point","properties":{"Station_ID":"DLHM5","Station_Nam":"DULUTH NWS","Latitude":"46.83680","Longitude":"-92.21080","Snowdepth":"8.000","Units":"in","Rept_Date":"2021-01-21 06"},"coordinates":[1149,6965]},{"type":"Point","properties":{"Station_ID":"DLH","Station_Nam":"DULUTH, MN","Latitude":"46.83690","Longitude":"-92.21030","Snowdepth":"8.000","Units":"in","Rept_Date":"2021-01-21 00"},"coordinates":[1149,6965]},{"type":"Point","properties":{"Station_ID":"COLN3","Station_Nam":"COLEBROOK 3SW","Latitude":"44.86100","Longitude":"-71.53920","Snowdepth":"8.000","Units":"in","Rept_Date":"2021-01-20 12"},"coordinates":[5871,5739]},{"type":"Point","properties":{"Station_ID":"COKM5","Station_Nam":"COOK","Latitude":"47.85060","Longitude":"-92.69250","Snowdepth":"8.000","Units":"in","Rept_Date":"2021-01-20 11"},"coordinates":[1039,7594]},{"type":"Point","properties":{"Station_ID":"CLIW3","Station_Nam":"CLINTON,WI","Latitude":"42.60000","Longitude":"-88.88330","Snowdepth":"8.000","Units":"in","Rept_Date":"2021-01-20 13"},"coordinates":[1909,4336]},{"type":"Point","properties":{"Station_ID":"CLDM5","Station_Nam":"CALEDONIA","Latitude":"43.63090","Longitude":"-91.50270","Snowdepth":"8.000","Units":"in","Rept_Date":"2021-01-20 13"},"coordinates":[1310,4976]},{"type":"Point","properties":{"Station_ID":"CARM1","Station_Nam":"CARIBOU WFO","Latitude":"46.86810","Longitude":"-68.01250","Snowdepth":"8.000","Units":"in","Rept_Date":"2021-01-21 05"},"coordinates":[6677,6984]},{"type":"Point","properties":{"Station_ID":"CAR","Station_Nam":"CARIBOU, ME","Latitude":"46.86830","Longitude":"-68.01360","Snowdepth":"8.000","Units":"in","Rept_Date":"2021-01-20 12"},"coordinates":[6677,6985]},{"type":"Point","properties":{"Station_ID":"CAN-ON-771","Station_Nam":"KENORA 8.7 NNE - CANWARN, CAN","Latitude":"49.84171","Longitude":"-94.44386","Snowdepth":"8.000","Units":"in","Rept_Date":"2021-01-20 13"},"coordinates":[638,8829]},{"type":"Point","properties":{"Station_ID":"CAN-ON-118","Station_Nam":"DURHAM 1.4 S, CAN","Latitude":"44.16525","Longitude":"-80.82064","Snowdepth":"8.000","Units":"in","Rept_Date":"2021-01-20 12"},"coordinates":[3751,5307]},{"type":"Point","properties":{"Station_ID":"ATCN6","Station_Nam":"ATTICA SNOW","Latitude":"42.86130","Longitude":"-78.28450","Snowdepth":"8.000","Units":"in","Rept_Date":"2021-01-20 18"},"coordinates":[4330,4498]},{"type":"Point","properties":{"Station_ID":"APXM4","Station_Nam":"GAYLORD 9SSW","Latitude":"44.90720","Longitude":"-84.71880","Snowdepth":"8.000","Units":"in","Rept_Date":"2021-01-21 06"},"coordinates":[2860,5768]},{"type":"Point","properties":{"Station_ID":"AMAM4","Station_Nam":"AMASA 1W","Latitude":"46.23470","Longitude":"-88.45440","Snowdepth":"8.000","Units":"in","Rept_Date":"2021-01-20 14"},"coordinates":[2007,6591]},{"type":"Point","properties":{"Station_ID":"42.1806_079.7860","Station_Nam":"3 SE North East  Trained Spotter (CLE0288)","Latitude":"42.18055","Longitude":"-79.78595","Snowdepth":"8.000","Units":"in","Rept_Date":"2021-01-20 15"},"coordinates":[3987,4076]},{"type":"Point","properties":{"Station_ID":"41.8966_080.1567","Station_Nam":"2 NW EDINBORO  SNOW SPOTTER (CLE0251)","Latitude":"41.89660","Longitude":"-80.15670","Snowdepth":"8.000","Units":"in","Rept_Date":"2021-01-20 10"},"coordinates":[3903,3900]},{"type":"Point","properties":{"Station_ID":"QCX","Station_Nam":"QCX","Latitude":"51.32830","Longitude":"-70.08060","Snowdepth":"7.756","Units":"in","Rept_Date":"2021-01-20 12"},"coordinates":[6205,9752]},{"type":"Point","properties":{"Station_ID":"VT-CL-23","Station_Nam":"RYEGATE 1.5 N, VT","Latitude":"44.23024","Longitude":"-72.10523","Snowdepth":"7.700","Units":"in","Rept_Date":"2021-01-20 12"},"coordinates":[5742,5348]},{"type":"Point","properties":{"Station_ID":"WI-RK-12","Station_Nam":"JANESVILLE 3.1 W, WI","Latitude":"42.67576","Longitude":"-89.07614","Snowdepth":"7.500","Units":"in","Rept_Date":"2021-01-20 13"},"coordinates":[1865,4383]},{"type":"Point","properties":{"Station_ID":"WI-PR-6","Station_Nam":"PHILLIPS 1.3 S, WI","Latitude":"45.67677","Longitude":"-90.39543","Snowdepth":"7.500","Units":"in","Rept_Date":"2021-01-20 13"},"coordinates":[1563,6245]},{"type":"Point","properties":{"Station_ID":"WI-IW-3","Station_Nam":"MINERAL POINT 7.3 ENE, WI","Latitude":"42.91400","Longitude":"-90.05700","Snowdepth":"7.500","Units":"in","Rept_Date":"2021-01-20 13"},"coordinates":[1641,4531]},{"type":"Point","properties":{"Station_ID":"WI-DA-99","Station_Nam":"FITCHBURG 1.1 NW, WI","Latitude":"42.99740","Longitude":"-89.44046","Snowdepth":"7.500","Units":"in","Rept_Date":"2021-01-20 13"},"coordinates":[1782,4583]},{"type":"Point","properties":{"Station_ID":"WI-BY-1","Station_Nam":"BAYFIELD 8.8 N, WI","Latitude":"46.93855","Longitude":"-90.83490","Snowdepth":"7.500","Units":"in","Rept_Date":"2021-01-20 13"},"coordinates":[1463,7028]},{"type":"Point","properties":{"Station_ID":"WI-BT-14","Station_Nam":"OAKLAND 9.0 ENE, WI","Latitude":"45.95184","Longitude":"-92.21653","Snowdepth":"7.500","Units":"in","Rept_Date":"2021-01-20 13"},"coordinates":[1147,6416]},{"type":"Point","properties":{"Station_ID":"VT-RT-24","Station_Nam":"MIDDLETOWN SPRINGS 0.9 WNW, VT","Latitude":"43.49194","Longitude":"-73.13350","Snowdepth":"7.500","Units":"in","Rept_Date":"2021-01-20 12"},"coordinates":[5507,4890]},{"type":"Point","properties":{"Station_ID":"NY-OT-11","Station_Nam":"HARTWICK, NY","Latitude":"42.65990","Longitude":"-75.05000","Snowdepth":"7.500","Units":"in","Rept_Date":"2021-01-20 13"},"coordinates":[5069,4374]},{"type":"Point","properties":{"Station_ID":"NY-CQ-34","Station_Nam":"KENNEDY 2.6 SE, NY","Latitude":"42.12567","Longitude":"-79.07235","Snowdepth":"7.500","Units":"in","Rept_Date":"2021-01-20 13"},"coordinates":[4150,4042]},{"type":"Point","properties":{"Station_ID":"NY-BM-14","Station_Nam":"WHITNEY POINT 1.7 SSE, NY","Latitude":"42.30837","Longitude":"-75.95690","Snowdepth":"7.500","Units":"in","Rept_Date":"2021-01-20 14"},"coordinates":[4862,4155]},{"type":"Point","properties":{"Station_ID":"NH-GR-47","Station_Nam":"LITTLETON 7.3 W, NH","Latitude":"44.31847","Longitude":"-71.91086","Snowdepth":"7.500","Units":"in","Rept_Date":"2021-01-20 13"},"coordinates":[5786,5403]},{"type":"Point","properties":{"Station_ID":"MN-SL-115","Station_Nam":"COTTON 5.7 ESE, MN","Latitude":"47.15142","Longitude":"-92.35772","Snowdepth":"7.500","Units":"in","Rept_Date":"2021-01-20 14"},"coordinates":[1115,7160]},{"type":"Point","properties":{"Station_ID":"MI-CX-7","Station_Nam":"EAST JORDAN 2.1 NNW, MI","Latitude":"45.18639","Longitude":"-85.14750","Snowdepth":"7.500","Units":"in","Rept_Date":"2021-01-20 13"},"coordinates":[2762,5941]},{"type":"Point","properties":{"Station_ID":"ME-SM-4","Station_Nam":"SOLON 3.9 ESE, ME","Latitude":"44.94705","Longitude":"-69.77790","Snowdepth":"7.500","Units":"in","Rept_Date":"2021-01-20 12"},"coordinates":[6274,5793]},{"type":"Point","properties":{"Station_ID":"IL-CR-12","Station_Nam":"MOUNT CARROLL 6.8 NNW, IL","Latitude":"42.18735","Longitude":"-90.02185","Snowdepth":"7.500","Units":"in","Rept_Date":"2021-01-20 13"},"coordinates":[1649,4080]},{"type":"Point","properties":{"Station_ID":"CAN-ON-5","Station_Nam":"OWEN SOUND 1.5 NW - GSCA, CAN","Latitude":"44.57837","Longitude":"-80.95461","Snowdepth":"7.500","Units":"in","Rept_Date":"2021-01-20 13"},"coordinates":[3720,5564]},{"type":"Point","properties":{"Station_ID":"WV-PR-11","Station_Nam":"THOMAS 7.4 N, WV","Latitude":"39.25361","Longitude":"-79.51055","Snowdepth":"7.000","Units":"in","Rept_Date":"2021-01-20 12"},"coordinates":[4050,2260]},{"type":"Point","properties":{"Station_ID":"WSFW3","Station_Nam":"TOWN OF WESTFORD","Latitude":"43.47190","Longitude":"-88.88250","Snowdepth":"7.000","Units":"in","Rept_Date":"2021-01-20 13"},"coordinates":[1909,4877]},{"type":"Point","properties":{"Station_ID":"WRTS2","Station_Nam":"WATERTOWN,SD","Latitude":"44.90280","Longitude":"-97.11360","Snowdepth":"7.000","Units":"in","Rept_Date":"2021-01-20 15"},"coordinates":[29,5765]},{"type":"Point","properties":{"Station_ID":"WRIM5","Station_Nam":"WRIGHT 3E","Latitude":"46.68040","Longitude":"-92.95420","Snowdepth":"7.000","Units":"in","Rept_Date":"2021-01-20 12"},"coordinates":[979,6868]},{"type":"Point","properties":{"Station_ID":"WMTI4","Station_Nam":"FORT DODGE,IA","Latitude":"42.50610","Longitude":"-94.20110","Snowdepth":"7.000","Units":"in","Rept_Date":"2021-01-20 13"},"coordinates":[694,4278]},{"type":"Point","properties":{"Station_ID":"WI-WK-61","Station_Nam":"HARTLAND 5.0 NNE, WI","Latitude":"43.16351","Longitude":"-88.30400","Snowdepth":"7.000","Units":"in","Rept_Date":"2021-01-20 12"},"coordinates":[2041,4686]},{"type":"Point","properties":{"Station_ID":"WI-VL-14","Station_Nam":"BOULDER JUNCTION 1.4 NE, WI","Latitude":"46.12840","Longitude":"-89.62470","Snowdepth":"7.000","Units":"in","Rept_Date":"2021-01-20 13"},"coordinates":[1739,6525]},{"type":"Point","properties":{"Station_ID":"WI-PC-5","Station_Nam":"RIVER FALLS 1.2 SSW, WI","Latitude":"44.84032","Longitude":"-92.63500","Snowdepth":"7.000","Units":"in","Rept_Date":"2021-01-20 13"},"coordinates":[1052,5726]},{"type":"Point","properties":{"Station_ID":"WI-LF-6","Station_Nam":"SOUTH WAYNE 3.9 SSW, WI","Latitude":"42.51173","Longitude":"-89.89555","Snowdepth":"7.000","Units":"in","Rept_Date":"2021-01-20 12"},"coordinates":[1678,4282]},{"type":"Point","properties":{"Station_ID":"WI-JF-17","Station_Nam":"JOHNSON CREEK 2.7 SSW, WI","Latitude":"43.04559","Longitude":"-88.79925","Snowdepth":"7.000","Units":"in","Rept_Date":"2021-01-20 12"},"coordinates":[1928,4613]},{"type":"Point","properties":{"Station_ID":"WI-JF-10","Station_Nam":"PALMYRA 1.5 N, WI","Latitude":"42.90084","Longitude":"-88.58620","Snowdepth":"7.000","Units":"in","Rept_Date":"2021-01-20 13"},"coordinates":[1977,4523]},{"type":"Point","properties":{"Station_ID":"WI-DD-16","Station_Nam":"BEAVER DAM 2.4 WNW, WI","Latitude":"43.47210","Longitude":"-88.88280","Snowdepth":"7.000","Units":"in","Rept_Date":"2021-01-20 13"},"coordinates":[1909,4877]},{"type":"Point","properties":{"Station_ID":"WI-CB-5","Station_Nam":"PORTAGE 7.2 SW, WI","Latitude":"43.47933","Longitude":"-89.57370","Snowdepth":"7.000","Units":"in","Rept_Date":"2021-01-20 13"},"coordinates":[1751,4882]},{"type":"Point","properties":{"Station_ID":"WBRM4","Station_Nam":"WEST BRANCH 3SE","Latitude":"44.25410","Longitude":"-84.20110","Snowdepth":"7.000","Units":"in","Rept_Date":"2021-01-20 13"},"coordinates":[2979,5363]},{"type":"Point","properties":{"Station_ID":"VT-OL-24","Station_Nam":"DERBY LINE 1.9 W, VT","Latitude":"45.00454","Longitude":"-72.14170","Snowdepth":"7.000","Units":"in","Rept_Date":"2021-01-20 12"},"coordinates":[5734,5828]},{"type":"Point","properties":{"Station_ID":"VRGV1","Station_Nam":"VERGENNES","Latitude":"44.17190","Longitude":"-73.24720","Snowdepth":"7.000","Units":"in","Rept_Date":"2021-01-20 11"},"coordinates":[5481,5312]},{"type":"Point","properties":{"Station_ID":"STOW3","Station_Nam":"STOUGHTON,WI","Latitude":"42.91670","Longitude":"-89.21670","Snowdepth":"7.000","Units":"in","Rept_Date":"2021-01-20 13"},"coordinates":[1833,4533]},{"type":"Point","properties":{"Station_ID":"STMM4","Station_Nam":"STAMBAUGH 2SSE","Latitude":"46.05550","Longitude":"-88.62780","Snowdepth":"7.000","Units":"in","Rept_Date":"2021-01-20 13"},"coordinates":[1967,6480]},{"type":"Point","properties":{"Station_ID":"STGW3","Station_Nam":"ST GERMAIN","Latitude":"45.91550","Longitude":"-89.48940","Snowdepth":"7.000","Units":"in","Rept_Date":"2021-01-20 12"},"coordinates":[1770,6393]},{"type":"Point","properties":{"Station_ID":"SJBV1","Station_Nam":"SAINT JOHNSBURY","Latitude":"44.42000","Longitude":"-72.01940","Snowdepth":"7.000","Units":"in","Rept_Date":"2021-01-20 21"},"coordinates":[5762,5466]},{"type":"Point","properties":{"Station_ID":"RHAN6","Station_Nam":"ALLEGANY STATE PARK","Latitude":"42.10030","Longitude":"-78.74970","Snowdepth":"7.000","Units":"in","Rept_Date":"2021-01-20 12"},"coordinates":[4224,4026]},{"type":"Point","properties":{"Station_ID":"PRQM1","Station_Nam":"PRESQUE ISLE HILLTOP","Latitude":"46.68630","Longitude":"-67.99470","Snowdepth":"7.000","Units":"in","Rept_Date":"2021-01-20 12"},"coordinates":[6681,6872]},{"type":"Point","properties":{"Station_ID":"OWAM5","Station_Nam":"OWATONNA","Latitude":"44.09760","Longitude":"-93.23180","Snowdepth":"7.000","Units":"in","Rept_Date":"2021-01-20 14"},"coordinates":[915,5266]},{"type":"Point","properties":{"Station_ID":"OLNI4","Station_Nam":"OELWEIN 1E","Latitude":"42.68010","Longitude":"-91.87510","Snowdepth":"7.000","Units":"in","Rept_Date":"2021-01-20 12"},"coordinates":[1225,4386]},{"type":"Point","properties":{"Station_ID":"NY-OS-38","Station_Nam":"MEXICO COOP, NY","Latitude":"43.43830","Longitude":"-76.26570","Snowdepth":"7.000","Units":"in","Rept_Date":"2021-01-20 12"},"coordinates":[4792,4856]},{"type":"Point","properties":{"Station_ID":"NY-MD-10","Station_Nam":"CAZENOVIA 2.9 SE, NY","Latitude":"42.90003","Longitude":"-75.81140","Snowdepth":"7.000","Units":"in","Rept_Date":"2021-01-20 12"},"coordinates":[4895,4523]},{"type":"Point","properties":{"Station_ID":"NY-GN-18","Station_Nam":"DARIEN CENTER 2.2 W, NY","Latitude":"42.89797","Longitude":"-78.43148","Snowdepth":"7.000","Units":"in","Rept_Date":"2021-01-20 12"},"coordinates":[4297,4521]},{"type":"Point","properties":{"Station_ID":"NY-CN-9","Station_Nam":"NORWICH 5.4 W, NY","Latitude":"42.53356","Longitude":"-75.63060","Snowdepth":"7.000","Units":"in","Rept_Date":"2021-01-20 12"},"coordinates":[4937,4295]},{"type":"Point","properties":{"Station_ID":"NY-CL-7","Station_Nam":"PERU 4.1 ESE, NY","Latitude":"44.56461","Longitude":"-73.45390","Snowdepth":"7.000","Units":"in","Rept_Date":"2021-01-20 11"},"coordinates":[5434,5555]},{"type":"Point","properties":{"Station_ID":"NY-CL-12","Station_Nam":"SARANAC 0.8 SSE, NY","Latitude":"44.63980","Longitude":"-73.73848","Snowdepth":"7.000","Units":"in","Rept_Date":"2021-01-20 12"},"coordinates":[5369,5602]},{"type":"Point","properties":{"Station_ID":"NWSM1","Station_Nam":"NEW SHARON","Latitude":"44.63520","Longitude":"-70.00020","Snowdepth":"7.000","Units":"in","Rept_Date":"2021-01-20 12"},"coordinates":[6223,5599]},{"type":"Point","properties":{"Station_ID":"NUMM5","Station_Nam":"NEW ULM 3SE","Latitude":"44.29450","Longitude":"-94.40840","Snowdepth":"7.000","Units":"in","Rept_Date":"2021-01-20 11"},"coordinates":[647,5388]},{"type":"Point","properties":{"Station_ID":"NCKN6","Station_Nam":"NORTH CREEK 5 SE","Latitude":"43.66110","Longitude":"-73.89690","Snowdepth":"7.000","Units":"in","Rept_Date":"2021-01-20 12"},"coordinates":[5333,4995]},{"type":"Point","properties":{"Station_ID":"MXON6","Station_Nam":"MEXICO","Latitude":"43.43830","Longitude":"-76.26560","Snowdepth":"7.000","Units":"in","Rept_Date":"2021-01-20 12"},"coordinates":[4792,4856]},{"type":"Point","properties":{"Station_ID":"MN-WR-25","Station_Nam":"SAINT MICHAEL 2.0 ENE, MN","Latitude":"45.20820","Longitude":"-93.65280","Snowdepth":"7.000","Units":"in","Rept_Date":"2021-01-20 12"},"coordinates":[819,5955]},{"type":"Point","properties":{"Station_ID":"MN-SV-4","Station_Nam":"DONNELLY 2.9 NW, MN","Latitude":"45.71649","Longitude":"-96.06043","Snowdepth":"7.000","Units":"in","Rept_Date":"2021-01-20 13"},"coordinates":[269,6270]},{"type":"Point","properties":{"Station_ID":"MN-SH-985","Station_Nam":"PRINCETON 3.3 WSW, MN","Latitude":"45.55211","Longitude":"-93.64481","Snowdepth":"7.000","Units":"in","Rept_Date":"2021-01-20 11"},"coordinates":[821,6168]},{"type":"Point","properties":{"Station_ID":"MN-RM-63","Station_Nam":"NORTH SAINT PAUL 1.0 NW, MN","Latitude":"45.02410","Longitude":"-93.01400","Snowdepth":"7.000","Units":"in","Rept_Date":"2021-01-20 13"},"coordinates":[965,5840]},{"type":"Point","properties":{"Station_ID":"MN-RM-2","Station_Nam":"NORTH SAINT PAUL 1.0 NNW, MN","Latitude":"45.02629","Longitude":"-93.00790","Snowdepth":"7.000","Units":"in","Rept_Date":"2021-01-20 12"},"coordinates":[967,5842]},{"type":"Point","properties":{"Station_ID":"MN-KB-17","Station_Nam":"MORA 2.5 S, MN","Latitude":"45.84100","Longitude":"-93.29700","Snowdepth":"7.000","Units":"in","Rept_Date":"2021-01-20 13"},"coordinates":[901,6347]},{"type":"Point","properties":{"Station_ID":"MN-HN-6","Station_Nam":"LONG LAKE 0.2 WSW, MN","Latitude":"44.98290","Longitude":"-93.57360","Snowdepth":"7.000","Units":"in","Rept_Date":"2021-01-20 13"},"coordinates":[837,5815]},{"type":"Point","properties":{"Station_ID":"MN-HN-31","Station_Nam":"MAPLE GROVE 1.0 NNE, MN","Latitude":"45.12261","Longitude":"-93.45790","Snowdepth":"7.000","Units":"in","Rept_Date":"2021-01-20 14"},"coordinates":[864,5901]},{"type":"Point","properties":{"Station_ID":"MN-DK-53","Station_Nam":"LAKEVILLE 3.8 ENE, MN","Latitude":"44.70423","Longitude":"-93.18460","Snowdepth":"7.000","Units":"in","Rept_Date":"2021-01-20 13"},"coordinates":[926,5642]},{"type":"Point","properties":{"Station_ID":"MN-CV-22","Station_Nam":"VICTORIA 1.6 WSW, MN","Latitude":"44.85670","Longitude":"-93.68640","Snowdepth":"7.000","Units":"in","Rept_Date":"2021-01-20 13"},"coordinates":[812,5736]},{"type":"Point","properties":{"Station_ID":"MN-CV-1","Station_Nam":"CARVER 0.7 W, MN","Latitude":"44.75728","Longitude":"-93.64160","Snowdepth":"7.000","Units":"in","Rept_Date":"2021-01-20 13"},"coordinates":[822,5675]},{"type":"Point","properties":{"Station_ID":"MN-BU-37","Station_Nam":"MANKATO 3.3 SSW, MN","Latitude":"44.12777","Longitude":"-94.00596","Snowdepth":"7.000","Units":"in","Rept_Date":"2021-01-20 14"},"coordinates":[739,5284]},{"type":"Point","properties":{"Station_ID":"MLCM5","Station_Nam":"MILACA","Latitude":"45.75320","Longitude":"-93.66170","Snowdepth":"7.000","Units":"in","Rept_Date":"2021-01-20 13"},"coordinates":[817,6293]},{"type":"Point","properties":{"Station_ID":"MKX","Station_Nam":"MILWAUKEE, WI","Latitude":"42.96810","Longitude":"-88.54920","Snowdepth":"7.000","Units":"in","Rept_Date":"2021-01-21 06"},"coordinates":[1985,4565]},{"type":"Point","properties":{"Station_ID":"MI-GG-4","Station_Nam":"WATERSMEET 5.0 SE, MI","Latitude":"46.20333","Longitude":"-89.13170","Snowdepth":"7.000","Units":"in","Rept_Date":"2021-01-20 14"},"coordinates":[1852,6572]},{"type":"Point","properties":{"Station_ID":"ME-AR-15","Station_Nam":"PRESQUE ISLE 1.3 WSW, ME","Latitude":"46.67960","Longitude":"-68.01270","Snowdepth":"7.000","Units":"in","Rept_Date":"2021-01-20 12"},"coordinates":[6677,6867]},{"type":"Point","properties":{"Station_ID":"JRHM2","Station_Nam":"WEST VINDEX 1NW - SNOW","Latitude":"39.41670","Longitude":"-79.21670","Snowdepth":"7.000","Units":"in","Rept_Date":"2021-01-20 13"},"coordinates":[4117,2361]},{"type":"Point","properties":{"Station_ID":"JEFN3","Station_Nam":"JEFFERSON","Latitude":"44.41690","Longitude":"-71.50080","Snowdepth":"7.000","Units":"in","Rept_Date":"2021-01-20 12"},"coordinates":[5880,5464]},{"type":"Point","properties":{"Station_ID":"IA-JH-20","Station_Nam":"CORALVILLE 1.4 S, IA","Latitude":"41.67016","Longitude":"-91.60296","Snowdepth":"7.000","Units":"in","Rept_Date":"2021-01-20 14"},"coordinates":[1288,3759]},{"type":"Point","properties":{"Station_ID":"HYRW3","Station_Nam":"RANGER STATION","Latitude":"46.00750","Longitude":"-91.46670","Snowdepth":"7.000","Units":"in","Rept_Date":"2021-01-20 19"},"coordinates":[1319,6450]},{"type":"Point","properties":{"Station_ID":"HSTM5","Station_Nam":"HASTINGS DAM 2","Latitude":"44.75970","Longitude":"-92.86890","Snowdepth":"7.000","Units":"in","Rept_Date":"2021-01-20 11"},"coordinates":[998,5676]},{"type":"Point","properties":{"Station_ID":"HPN11_MADIS","Station_Nam":"SAINT BONIFACIUS","Latitude":"44.89792","Longitude":"-93.73460","Snowdepth":"7.000","Units":"in","Rept_Date":"2021-01-21 06"},"coordinates":[801,5762]},{"type":"Point","properties":{"Station_ID":"FBTM5","Station_Nam":"FARIBAULT","Latitude":"44.30920","Longitude":"-93.26600","Snowdepth":"7.000","Units":"in","Rept_Date":"2021-01-20 13"},"coordinates":[908,5397]},{"type":"Point","properties":{"Station_ID":"FARM1","Station_Nam":"FARMINGTON","Latitude":"44.68930","Longitude":"-70.15640","Snowdepth":"7.000","Units":"in","Rept_Date":"2021-01-20 12"},"coordinates":[6187,5633]},{"type":"Point","properties":{"Station_ID":"EVRW3","Station_Nam":"EAGLE RIVER-4 E","Latitude":"45.91890","Longitude":"-89.15280","Snowdepth":"7.000","Units":"in","Rept_Date":"2021-01-20 13"},"coordinates":[1847,6396]},{"type":"Point","properties":{"Station_ID":"EGRW3","Station_Nam":"EAGLE RIVER-SOUTH","Latitude":"45.91360","Longitude":"-89.24360","Snowdepth":"7.000","Units":"in","Rept_Date":"2021-01-20 13"},"coordinates":[1827,6392]},{"type":"Point","properties":{"Station_ID":"DLNW3","Station_Nam":"WALWORTH COUNTYMETROPOLITAN SEWERAGE DISTRICT (DELEVAN)","Latitude":"42.63440","Longitude":"-88.66280","Snowdepth":"7.000","Units":"in","Rept_Date":"2021-01-20 13"},"coordinates":[1959,4358]},{"type":"Point","properties":{"Station_ID":"DFXM1","Station_Nam":"DOVER-FOXCROFT","Latitude":"45.18720","Longitude":"-69.18350","Snowdepth":"7.000","Units":"in","Rept_Date":"2021-01-20 12"},"coordinates":[6410,5942]},{"type":"Point","properties":{"Station_ID":"DARN6","Station_Nam":"DARIEN SNOW","Latitude":"42.89690","Longitude":"-78.30860","Snowdepth":"7.000","Units":"in","Rept_Date":"2021-01-20 18"},"coordinates":[4325,4521]},{"type":"Point","properties":{"Station_ID":"CSPP1","Station_Nam":"COUDERSPORT 1 SW","Latitude":"41.77500","Longitude":"-78.04170","Snowdepth":"7.000","Units":"in","Rept_Date":"2021-01-20 12"},"coordinates":[4386,3824]},{"type":"Point","properties":{"Station_ID":"CMRI4","Station_Nam":"CALMAR NE","Latitude":"43.18760","Longitude":"-91.86200","Snowdepth":"7.000","Units":"in","Rept_Date":"2021-01-20 13"},"coordinates":[1228,4701]},{"type":"Point","properties":{"Station_ID":"CLNI4","Station_Nam":"CLINTON NO 1","Latitude":"41.79470","Longitude":"-90.26390","Snowdepth":"7.000","Units":"in","Rept_Date":"2021-01-21 00"},"coordinates":[1593,3837]},{"type":"Point","properties":{"Station_ID":"CJRP1","Station_Nam":"COUDERSPORT 7SE","Latitude":"41.73920","Longitude":"-77.97110","Snowdepth":"7.000","Units":"in","Rept_Date":"2021-01-20 12"},"coordinates":[4402,3802]},{"type":"Point","properties":{"Station_ID":"CBLW3","Station_Nam":"CUMBERLAND","Latitude":"45.53310","Longitude":"-92.02260","Snowdepth":"7.000","Units":"in","Rept_Date":"2021-01-20 13"},"coordinates":[1192,6156]},{"type":"Point","properties":{"Station_ID":"CAN-NS-103","Station_Nam":"TRAFALGAR 4.9 WSW, CAN","Latitude":"45.26217","Longitude":"-62.72285","Snowdepth":"7.000","Units":"in","Rept_Date":"2021-01-20 12"},"coordinates":[7886,5988]},{"type":"Point","properties":{"Station_ID":"CAN-NB-64","Station_Nam":"KESWICK RIDGE 4.0 SE, CAN","Latitude":"45.97014","Longitude":"-66.85538","Snowdepth":"7.000","Units":"in","Rept_Date":"2021-01-20 13"},"coordinates":[6941,6427]},{"type":"Point","properties":{"Station_ID":"CAN-NB-18","Station_Nam":"MCLEOD HILL 1.1 ENE, CA","Latitude":"46.02725","Longitude":"-66.67460","Snowdepth":"7.000","Units":"in","Rept_Date":"2021-01-20 12"},"coordinates":[6983,6463]},{"type":"Point","properties":{"Station_ID":"CAN-MB-56","Station_Nam":"WINNIPEG 7.6 ENE, CAN","Latitude":"49.93264","Longitude":"-97.04752","Snowdepth":"7.000","Units":"in","Rept_Date":"2021-01-20 14"},"coordinates":[44,8886]},{"type":"Point","properties":{"Station_ID":"BROW3","Station_Nam":"BRODHEAD,WI","Latitude":"42.61720","Longitude":"-89.38970","Snowdepth":"7.000","Units":"in","Rept_Date":"2021-01-20 13"},"coordinates":[1793,4347]},{"type":"Point","properties":{"Station_ID":"BRAM5","Station_Nam":"BRAINERD","Latitude":"46.34320","Longitude":"-94.20900","Snowdepth":"7.000","Units":"in","Rept_Date":"2021-01-20 13"},"coordinates":[692,6659]},{"type":"Point","properties":{"Station_ID":"BDFP1","Station_Nam":"BRADFORD,PA","Latitude":"41.95000","Longitude":"-78.73330","Snowdepth":"7.000","Units":"in","Rept_Date":"2021-01-20 13"},"coordinates":[4228,3933]},{"type":"Point","properties":{"Station_ID":"BARI2","Station_Nam":"CRABTREE NATURE CENTER","Latitude":"42.11530","Longitude":"-88.16390","Snowdepth":"7.000","Units":"in","Rept_Date":"2021-01-20 14"},"coordinates":[2073,4036]},