{"type":"Topology","objects":{"snowdepth_geo":{"type":"GeometryCollection","name":"snowdepth","crs":{"type":"name","properties":{"name":"urn:ogc:def:crs:OGC:1.3:CRS84"}},"geometries":[{"type":"Point","properties":{"Station_ID":"PRKM4","Station_Nam":"MUNISING EAST","Latitude":"46.42580","Longitude":"-86.62000","Snowdepth":"76.500","Units":"in","Rept_Date":"2020-01-27 06"},"coordinates":[2492,6701]},{"type":"Point","properties":{"Station_ID":"OGIQ6","Station_Nam":"OGOKI CAMP","Latitude":"50.76680","Longitude":"-87.85820","Snowdepth":"61.100","Units":"in","Rept_Date":"2020-01-27 06"},"coordinates":[2202,9402]},{"type":"Point","properties":{"Station_ID":"CLUM4","Station_Nam":"CALUMET-TAMARACK","Latitude":"47.24550","Longitude":"-88.46790","Snowdepth":"56.000","Units":"in","Rept_Date":"2020-01-26 14"},"coordinates":[2058,7211]},{"type":"Point","properties":{"Station_ID":"PDLM4","Station_Nam":"PAINESDALE","Latitude":"47.04160","Longitude":"-88.67170","Snowdepth":"54.000","Units":"in","Rept_Date":"2020-01-26 13"},"coordinates":[2011,7084]},{"type":"Point","properties":{"Station_ID":"KSGM4","Station_Nam":"KEARSARGE","Latitude":"47.27520","Longitude":"-88.41700","Snowdepth":"49.000","Units":"in","Rept_Date":"2020-01-26 13"},"coordinates":[2070,7229]},{"type":"Point","properties":{"Station_ID":"AUDQ6","Station_Nam":"AUDEN","Latitude":"48.52600","Longitude":"-82.57570","Snowdepth":"47.640","Units":"in","Rept_Date":"2020-01-27 06"},"coordinates":[3441,8008]},{"type":"Point","properties":{"Station_ID":"HTLN3","Station_Nam":"HERMIT LAKE SNOWPLOT","Latitude":"44.26130","Longitude":"-71.28330","Snowdepth":"44.000","Units":"in","Rept_Date":"2020-01-26 10"},"coordinates":[6092,5354]},{"type":"Point","properties":{"Station_ID":"GMSM4","Station_Nam":"GRAND MARAIS 10S","Latitude":"46.50940","Longitude":"-85.96310","Snowdepth":"43.000","Units":"in","Rept_Date":"2020-01-26 12"},"coordinates":[2646,6753]},{"type":"Point","properties":{"Station_ID":"CAN-NL-81","Station_Nam":"GRAND FALLS-WINDSOR 1.2 S, CAN","Latitude":"48.93123","Longitude":"-55.65333","Snowdepth":"39.400","Units":"in","Rept_Date":"2020-01-26 10"},"coordinates":[9760,8260]},{"type":"Point","properties":{"Station_ID":"QNCM4","Station_Nam":"QUINCY HILL","Latitude":"47.13640","Longitude":"-88.57950","Snowdepth":"39.000","Units":"in","Rept_Date":"2020-01-26 12"},"coordinates":[2032,7143]},{"type":"Point","properties":{"Station_ID":"MQT","Station_Nam":"MARQUETTE, MI","Latitude":"46.53140","Longitude":"-87.54920","Snowdepth":"38.000","Units":"in","Rept_Date":"2020-01-27 06"},"coordinates":[2274,6767]},{"type":"Point","properties":{"Station_ID":"IBLM5","Station_Nam":"ISABELLA 14W","Latitude":"47.59360","Longitude":"-91.65140","Snowdepth":"38.000","Units":"in","Rept_Date":"2020-01-26 15"},"coordinates":[1311,7428]},{"type":"Point","properties":{"Station_ID":"MI-BG-3","Station_Nam":"L'ANSE 17.8 SE, MI","Latitude":"46.55730","Longitude":"-88.20770","Snowdepth":"35.000","Units":"in","Rept_Date":"2020-01-26 13"},"coordinates":[2119,6783]},{"type":"Point","properties":{"Station_ID":"WRPW3","Station_Nam":"WATER PURIFICATION PLANT","Latitude":"44.38800","Longitude":"-89.80550","Snowdepth":"33.000","Units":"in","Rept_Date":"2020-01-26 12"},"coordinates":[1744,5433]},{"type":"Point","properties":{"Station_ID":"HERM4","Station_Nam":"HERMAN,MI","Latitude":"46.65000","Longitude":"-88.33330","Snowdepth":"33.000","Units":"in","Rept_Date":"2020-01-26 13"},"coordinates":[2090,6840]},{"type":"Point","properties":{"Station_ID":"WI-VL-10","Station_Nam":"LAND O LAKES 4.3 WNW, WI","Latitude":"46.17440","Longitude":"-89.30380","Snowdepth":"32.500","Units":"in","Rept_Date":"2020-01-26 13"},"coordinates":[1862,6545]},{"type":"Point","properties":{"Station_ID":"STEM4","Station_Nam":"STEUBEN","Latitude":"46.18530","Longitude":"-86.46410","Snowdepth":"32.000","Units":"in","Rept_Date":"2020-01-26 14"},"coordinates":[2529,6551]},{"type":"Point","properties":{"Station_ID":"PDGM4","Station_Nam":"PAULDING","Latitude":"46.39760","Longitude":"-89.17940","Snowdepth":"32.000","Units":"in","Rept_Date":"2020-01-26 14"},"coordinates":[1891,6683]},{"type":"Point","properties":{"Station_ID":"KISM4","Station_Nam":"K.I. SAWYER WWTP","Latitude":"46.33410","Longitude":"-87.37790","Snowdepth":"32.000","Units":"in","Rept_Date":"2020-01-26 13"},"coordinates":[2314,6644]},{"type":"Point","properties":{"Station_ID":"IWOM4","Station_Nam":"IRONWOOD#2","Latitude":"46.46520","Longitude":"-90.13820","Snowdepth":"32.000","Units":"in","Rept_Date":"2020-01-26 13"},"coordinates":[1666,6725]},{"type":"Point","properties":{"Station_ID":"ILIM5","Station_Nam":"ISLAND LAKE","Latitude":"47.02400","Longitude":"-92.07000","Snowdepth":"32.000","Units":"in","Rept_Date":"2020-01-26 15"},"coordinates":[1213,7073]},{"type":"Point","properties":{"Station_ID":"WTRW3","Station_Nam":"WINTER","Latitude":"45.79920","Longitude":"-90.99470","Snowdepth":"31.000","Units":"in","Rept_Date":"2020-01-26 15"},"coordinates":[1465,6311]},{"type":"Point","properties":{"Station_ID":"WI-VL-9","Station_Nam":"LAND O' LAKES 11.7 W, WI","Latitude":"46.19023","Longitude":"-89.45790","Snowdepth":"31.000","Units":"in","Rept_Date":"2020-01-26 13"},"coordinates":[1826,6554]},{"type":"Point","properties":{"Station_ID":"NWCM4","Station_Nam":"NEWBERRY CITY","Latitude":"46.35720","Longitude":"-85.51780","Snowdepth":"31.000","Units":"in","Rept_Date":"2020-01-26 12"},"coordinates":[2751,6658]},{"type":"Point","properties":{"Station_ID":"LNOW3","Station_Nam":"LAND O LAKES","Latitude":"46.19000","Longitude":"-89.45700","Snowdepth":"31.000","Units":"in","Rept_Date":"2020-01-26 13"},"coordinates":[1826,6554]},{"type":"Point","properties":{"Station_ID":"WLKM5","Station_Nam":"AH-GWAH-CHING","Latitude":"47.15000","Longitude":"-94.65000","Snowdepth":"30.000","Units":"in","Rept_Date":"2020-01-26 16"},"coordinates":[608,7152]},{"type":"Point","properties":{"Station_ID":"MNSM4","Station_Nam":"MUNISING","Latitude":"46.41210","Longitude":"-86.66250","Snowdepth":"30.000","Units":"in","Rept_Date":"2020-01-26 11"},"coordinates":[2482,6692]},{"type":"Point","properties":{"Station_ID":"MI-MQ-19","Station_Nam":"ISHPEMING 7.2 SW, MI","Latitude":"46.40550","Longitude":"-87.75670","Snowdepth":"30.000","Units":"in","Rept_Date":"2020-01-26 11"},"coordinates":[2225,6688]},{"type":"Point","properties":{"Station_ID":"CAN-NL-82","Station_Nam":"GANDER 2.7 NW, CAN","Latitude":"48.97737","Longitude":"-54.63396","Snowdepth":"29.500","Units":"in","Rept_Date":"2020-01-26 10"},"coordinates":[9999,8288]},{"type":"Point","properties":{"Station_ID":"WTRM4","Station_Nam":"WATERSMEET 12WSW","Latitude":"46.22310","Longitude":"-89.40850","Snowdepth":"29.000","Units":"in","Rept_Date":"2020-01-26 12"},"coordinates":[1838,6575]},{"type":"Point","properties":{"Station_ID":"WRSM5","Station_Nam":"WRENSHALL","Latitude":"46.61550","Longitude":"-92.38380","Snowdepth":"29.000","Units":"in","Rept_Date":"2020-01-26 14"},"coordinates":[1139,6819]},{"type":"Point","properties":{"Station_ID":"UPSW3","Station_Nam":"UPSON,WI","Latitude":"46.36780","Longitude":"-90.41220","Snowdepth":"29.000","Units":"in","Rept_Date":"2020-01-27 00"},"coordinates":[1602,6665]},{"type":"Point","properties":{"Station_ID":"HURW3","Station_Nam":"HURLEY","Latitude":"46.46250","Longitude":"-90.19550","Snowdepth":"29.000","Units":"in","Rept_Date":"2020-01-26 14"},"coordinates":[1653,6724]},{"type":"Point","properties":{"Station_ID":"EVRW3","Station_Nam":"EAGLE RIVER-4 E","Latitude":"45.91890","Longitude":"-89.15280","Snowdepth":"29.000","Units":"in","Rept_Date":"2020-01-26 13"},"coordinates":[1898,6386]},{"type":"Point","properties":{"Station_ID":"BBEM4","Station_Nam":"BIG BAY 9SW","Latitude":"46.74620","Longitude":"-87.88160","Snowdepth":"29.000","Units":"in","Rept_Date":"2020-01-26 13"},"coordinates":[2196,6900]},{"type":"Point","properties":{"Station_ID":"WI-IR-2","Station_Nam":"MERCER 2.0 SE, WI","Latitude":"46.14749","Longitude":"-90.03097","Snowdepth":"28.600","Units":"in","Rept_Date":"2020-01-26 13"},"coordinates":[1692,6528]},{"type":"Point","properties":{"Station_ID":"PTLQ6","Station_Nam":"PORTAGE LAKE","Latitude":"49.06950","Longitude":"-86.65940","Snowdepth":"28.500","Units":"in","Rept_Date":"2020-01-27 06"},"coordinates":[2483,8346]},{"type":"Point","properties":{"Station_ID":"SUAW3","Station_Nam":"SUAMICO","Latitude":"44.60190","Longitude":"-88.09780","Snowdepth":"28.000","Units":"in","Rept_Date":"2020-01-26 12"},"coordinates":[2145,5566]},{"type":"Point","properties":{"Station_ID":"MN-CK-6","Station_Nam":"GRAND MARAIS 4.4 W, MN","Latitude":"47.74865","Longitude":"-90.43760","Snowdepth":"28.000","Units":"in","Rept_Date":"2020-01-26 13"},"coordinates":[1596,7524]},{"type":"Point","properties":{"Station_ID":"WI-VL-14","Station_Nam":"BOULDER JUNCTION 1.4 NE, WI","Latitude":"46.12840","Longitude":"-89.62470","Snowdepth":"27.000","Units":"in","Rept_Date":"2020-01-26 13"},"coordinates":[1787,6516]},{"type":"Point","properties":{"Station_ID":"TOGM5","Station_Nam":"CELINA 2E","Latitude":"47.86630","Longitude":"-93.02660","Snowdepth":"27.000","Units":"in","Rept_Date":"2020-01-26 15"},"coordinates":[989,7597]},{"type":"Point","properties":{"Station_ID":"RHIW3","Station_Nam":"RHINELANDER","Latitude":"45.59860","Longitude":"-89.45080","Snowdepth":"27.000","Units":"in","Rept_Date":"2020-01-26 13"},"coordinates":[1828,6186]},{"type":"Point","properties":{"Station_ID":"MN-SL-18","Station_Nam":"DULUTH 1.4 NNW, MN","Latitude":"46.80321","Longitude":"-92.11240","Snowdepth":"27.000","Units":"in","Rept_Date":"2020-01-26 15"},"coordinates":[1203,6936]},{"type":"Point","properties":{"Station_ID":"MN-SL-15","Station_Nam":"CHISHOLM 0.4 WSW, MN","Latitude":"47.48557","Longitude":"-92.88690","Snowdepth":"27.000","Units":"in","Rept_Date":"2020-01-26 13"},"coordinates":[1021,7360]},{"type":"Point","properties":{"Station_ID":"GLRM5","Station_Nam":"GLACIAL RIDGE","Latitude":"47.71670","Longitude":"-96.26670","Snowdepth":"27.000","Units":"in","Rept_Date":"2020-01-27 00"},"coordinates":[228,7504]},{"type":"Point","properties":{"Station_ID":"GLDM4","Station_Nam":"GLADSTONE NO. 2","Latitude":"45.84330","Longitude":"-87.03910","Snowdepth":"27.000","Units":"in","Rept_Date":"2020-01-26 12"},"coordinates":[2394,6339]},{"type":"Point","properties":{"Station_ID":"DLHM5","Station_Nam":"DULUTH NWS","Latitude":"46.83680","Longitude":"-92.21080","Snowdepth":"27.000","Units":"in","Rept_Date":"2020-01-27 06"},"coordinates":[1180,6957]},{"type":"Point","properties":{"Station_ID":"DLH","Station_Nam":"DULUTH, MN","Latitude":"46.83690","Longitude":"-92.21030","Snowdepth":"27.000","Units":"in","Rept_Date":"2020-01-27 00"},"coordinates":[1180,6957]},{"type":"Point","properties":{"Station_ID":"WI-BY-14","Station_Nam":"ASHLAND 9.8 W, WI","Latitude":"46.59742","Longitude":"-91.07856","Snowdepth":"26.500","Units":"in","Rept_Date":"2020-01-26 12"},"coordinates":[1446,6808]},{"type":"Point","properties":{"Station_ID":"WI-WB-2","Station_Nam":"STONE LAKE 2.0 NW, WI","Latitude":"45.85960","Longitude":"-91.57710","Snowdepth":"26.000","Units":"in","Rept_Date":"2020-01-26 13"},"coordinates":[1329,6349]},{"type":"Point","properties":{"Station_ID":"PRDM4","Station_Nam":"PARADISE","Latitude":"46.60380","Longitude":"-85.03960","Snowdepth":"26.000","Units":"in","Rept_Date":"2020-01-26 11"},"coordinates":[2863,6812]},{"type":"Point","properties":{"Station_ID":"MTQM4","Station_Nam":"MANISTIQUE WWTP","Latitude":"45.95120","Longitude":"-86.25130","Snowdepth":"26.000","Units":"in","Rept_Date":"2020-01-26 12"},"coordinates":[2579,6406]},{"type":"Point","properties":{"Station_ID":"MN-IT-23","Station_Nam":"BOVEY 13.4 N, MN","Latitude":"47.48855","Longitude":"-93.43497","Snowdepth":"26.000","Units":"in","Rept_Date":"2020-01-26 13"},"coordinates":[893,7362]},{"type":"Point","properties":{"Station_ID":"MI-HG-1","Station_Nam":"HOUGHTON 1.6 ESE, MI","Latitude":"47.10774","Longitude":"-88.52940","Snowdepth":"26.000","Units":"in","Rept_Date":"2020-01-26 14"},"coordinates":[2044,7125]},{"type":"Point","properties":{"Station_ID":"MAIW3","Station_Nam":"MADELINE ISLAND","Latitude":"46.78330","Longitude":"-90.76670","Snowdepth":"26.000","Units":"in","Rept_Date":"2020-01-26 14"},"coordinates":[1519,6923]},{"type":"Point","properties":{"Station_ID":"KABM5","Station_Nam":"KABETOGAMA LAKE VISITOR CTR","Latitude":"48.40880","Longitude":"-93.04840","Snowdepth":"26.000","Units":"in","Rept_Date":"2020-01-26 12"},"coordinates":[983,7935]},{"type":"Point","properties":{"Station_ID":"IRMM4","Station_Nam":"WWTP","Latitude":"46.46670","Longitude":"-90.18330","Snowdepth":"26.000","Units":"in","Rept_Date":"2020-01-26 13"},"coordinates":[1656,6726]},{"type":"Point","properties":{"Station_ID":"CRVW3","Station_Nam":"CRIVITZ HIGH FALLS","Latitude":"45.35750","Longitude":"-88.19190","Snowdepth":"26.000","Units":"in","Rept_Date":"2020-01-26 13"},"coordinates":[2123,6036]},{"type":"Point","properties":{"Station_ID":"WI-ON-8","Station_Nam":"HAZELHURST 2.1 SSE, WI","Latitude":"45.78186","Longitude":"-89.70330","Snowdepth":"25.000","Units":"in","Rept_Date":"2020-01-26 13"},"coordinates":[1768,6300]},{"type":"Point","properties":{"Station_ID":"BNDM5","Station_Nam":"ELY 25E","Latitude":"47.97190","Longitude":"-91.44860","Snowdepth":"25.000","Units":"in","Rept_Date":"2020-01-26 13"},"coordinates":[1359,7663]},{"type":"Point","properties":{"Station_ID":"AMAM4","Station_Nam":"AMASA 1W","Latitude":"46.23470","Longitude":"-88.45440","Snowdepth":"25.000","Units":"in","Rept_Date":"2020-01-26 14"},"coordinates":[2062,6582]},{"type":"Point","properties":{"Station_ID":"MN-IT-1","Station_Nam":"GRAND RAPIDS 2.0 E, MN","Latitude":"47.22266","Longitude":"-93.49600","Snowdepth":"24.500","Units":"in","Rept_Date":"2020-01-26 15"},"coordinates":[878,7197]},{"type":"Point","properties":{"Station_ID":"WI-DG-20","Station_Nam":"SOLON SPRINGS 1.2 W, WI","Latitude":"46.35217","Longitude":"-91.84405","Snowdepth":"24.000","Units":"in","Rept_Date":"2020-01-26 13"},"coordinates":[1266,6655]},{"type":"Point","properties":{"Station_ID":"SULW3","Station_Nam":"SUMMIT LAKE","Latitude":"45.37880","Longitude":"-89.19410","Snowdepth":"24.000","Units":"in","Rept_Date":"2020-01-26 11"},"coordinates":[1888,6050]},{"type":"Point","properties":{"Station_ID":"STMM4","Station_Nam":"STAMBAUGH 2SSE","Latitude":"46.05550","Longitude":"-88.62780","Snowdepth":"24.000","Units":"in","Rept_Date":"2020-01-26 13"},"coordinates":[2021,6471]},{"type":"Point","properties":{"Station_ID":"RHLW3","Station_Nam":"RHINELANDER 4NE","Latitude":"45.65270","Longitude":"-89.30740","Snowdepth":"24.000","Units":"in","Rept_Date":"2020-01-26 12"},"coordinates":[1861,6220]},{"type":"Point","properties":{"Station_ID":"MCLN8","Station_Nam":"MC LEOD,ND","Latitude":"46.40250","Longitude":"-97.23810","Snowdepth":"24.000","Units":"in","Rept_Date":"2020-01-26 15"},"coordinates":[0,6686]},{"type":"Point","properties":{"Station_ID":"IMNM4","Station_Nam":"IRON MOUTAIN 5N","Latitude":"45.87580","Longitude":"-88.04030","Snowdepth":"24.000","Units":"in","Rept_Date":"2020-01-26 13"},"coordinates":[2159,6359]},{"type":"Point","properties":{"Station_ID":"GGRM4","Station_Nam":"GREEN GARDEN NO.2","Latitude":"46.45330","Longitude":"-87.30380","Snowdepth":"24.000","Units":"in","Rept_Date":"2020-01-26 13"},"coordinates":[2332,6718]},{"type":"Point","properties":{"Station_ID":"COKM5","Station_Nam":"COOK","Latitude":"47.85060","Longitude":"-92.69250","Snowdepth":"24.000","Units":"in","Rept_Date":"2020-01-26 12"},"coordinates":[1067,7587]},{"type":"Point","properties":{"Station_ID":"AVTW3","Station_Nam":"ARBOR VITAE-JOHNSON LAKE","Latitude":"45.89940","Longitude":"-89.72670","Snowdepth":"24.000","Units":"in","Rept_Date":"2020-01-26 12"},"coordinates":[1763,6373]},{"type":"Point","properties":{"Station_ID":"AGNW3","Station_Nam":"ARGONNE-1.5 NW","Latitude":"45.67360","Longitude":"-88.90380","Snowdepth":"24.000","Units":"in","Rept_Date":"2020-01-26 14"},"coordinates":[1956,6233]},{"type":"Point","properties":{"Station_ID":"SVBQ6","Station_Nam":"SAVANT BASE","Latitude":"50.28730","Longitude":"-90.65670","Snowdepth":"23.540","Units":"in","Rept_Date":"2020-01-27 06"},"coordinates":[1545,9103]},{"type":"Point","properties":{"Station_ID":"WI-BY-2","Station_Nam":"MELLEN 18.6 SW, WI","Latitude":"46.16937","Longitude":"-90.98090","Snowdepth":"23.000","Units":"in","Rept_Date":"2020-01-26 13"},"coordinates":[1469,6541]},{"type":"Point","properties":{"Station_ID":"MOUW3","Station_Nam":"MOUNTAIN 1 SW","Latitude":"45.17220","Longitude":"-88.49390","Snowdepth":"23.000","Units":"in","Rept_Date":"2020-01-26 13"},"coordinates":[2052,5921]},{"type":"Point","properties":{"Station_ID":"MN-BM-14","Station_Nam":"SOLWAY 2.1 S, MN","Latitude":"47.49069","Longitude":"-95.12177","Snowdepth":"23.000","Units":"in","Rept_Date":"2020-01-26 14"},"coordinates":[497,7363]},{"type":"Point","properties":{"Station_ID":"MN-BK-6","Station_Nam":"LAKE PARK 6.0 S, MN","Latitude":"46.79850","Longitude":"-96.12180","Snowdepth":"23.000","Units":"in","Rept_Date":"2020-01-26 13"},"coordinates":[262,6933]},{"type":"Point","properties":{"Station_ID":"CMKW3","Station_Nam":"CLAM LAKE 4W","Latitude":"46.16940","Longitude":"-90.98080","Snowdepth":"23.000","Units":"in","Rept_Date":"2020-01-26 13"},"coordinates":[1469,6541]},{"type":"Point","properties":{"Station_ID":"KABQ6","Station_Nam":"CAB LAKE","Latitude":"49.59950","Longitude":"-89.17990","Snowdepth":"22.910","Units":"in","Rept_Date":"2020-01-27 06"},"coordinates":[1891,8675]},{"type":"Point","properties":{"Station_ID":"DVLQ6","Station_Nam":"DEVIOUS LAKE","Latitude":"49.19890","Longitude":"-87.76440","Snowdepth":"22.910","Units":"in","Rept_Date":"2020-01-27 06"},"coordinates":[2224,8426]},{"type":"Point","properties":{"Station_ID":"WI-OC-1","Station_Nam":"MOUNTAIN 1.1 SW, WI","Latitude":"45.17239","Longitude":"-88.48990","Snowdepth":"22.500","Units":"in","Rept_Date":"2020-01-26 13"},"coordinates":[2053,5921]},{"type":"Point","properties":{"Station_ID":"ME-AR-23","Station_Nam":"MADAWASKA 2.5 E, ME","Latitude":"47.34933","Longitude":"-68.28141","Snowdepth":"22.500","Units":"in","Rept_Date":"2020-01-26 12"},"coordinates":[6796,7276]},{"type":"Point","properties":{"Station_ID":"MN-SL-108","Station_Nam":"IRON JUNCTION 3.4 NNW, MN","Latitude":"47.46150","Longitude":"-92.63130","Snowdepth":"22.200","Units":"in","Rept_Date":"2020-01-26 13"},"coordinates":[1081,7345]},{"type":"Point","properties":{"Station_ID":"WTNM4","Station_Nam":"WATTON 2WSW","Latitude":"46.52660","Longitude":"-88.64240","Snowdepth":"22.000","Units":"in","Rept_Date":"2020-01-26 13"},"coordinates":[2017,6764]},{"type":"Point","properties":{"Station_ID":"WLKW3","Station_Nam":"WHITE LAKE 1 SE","Latitude":"45.14520","Longitude":"-88.74160","Snowdepth":"22.000","Units":"in","Rept_Date":"2020-01-26 14"},"coordinates":[1994,5904]},{"type":"Point","properties":{"Station_ID":"MIEM4","Station_Nam":"MICHIGAMME 3WNW","Latitude":"46.54530","Longitude":"-88.18000","Snowdepth":"22.000","Units":"in","Rept_Date":"2020-01-26 13"},"coordinates":[2126,6775]},{"type":"Point","properties":{"Station_ID":"LEIM5","Station_Nam":"ORR 3E","Latitude":"48.05810","Longitude":"-92.75220","Snowdepth":"22.000","Units":"in","Rept_Date":"2020-01-26 12"},"coordinates":[1053,7716]},{"type":"Point","properties":{"Station_ID":"INL","Station_Nam":"FALLS INTERNATIONAL ARPT","Latitude":"48.56640","Longitude":"-93.40310","Snowdepth":"22.000","Units":"in","Rept_Date":"2020-01-27 00"},"coordinates":[900,8033]},{"type":"Point","properties":{"Station_ID":"IFSM5","Station_Nam":"INTERNATIONAL FALLS SNOW","Latitude":"48.57780","Longitude":"-93.39640","Snowdepth":"22.000","Units":"in","Rept_Date":"2020-01-26 12"},"coordinates":[902,8040]},{"type":"Point","properties":{"Station_ID":"EMBM5","Station_Nam":"EMBARASS,MN","Latitude":"47.65810","Longitude":"-92.19580","Snowdepth":"22.000","Units":"in","Rept_Date":"2020-01-26 13"},"coordinates":[1184,7468]},{"type":"Point","properties":{"Station_ID":"ELYM5","Station_Nam":"ELY","Latitude":"47.90560","Longitude":"-91.82830","Snowdepth":"22.000","Units":"in","Rept_Date":"2020-01-26 14"},"coordinates":[1270,7622]},{"type":"Point","properties":{"Station_ID":"CNNW3","Station_Nam":"CRANDON","Latitude":"45.55110","Longitude":"-88.89830","Snowdepth":"22.000","Units":"in","Rept_Date":"2020-01-26 12"},"coordinates":[1957,6157]},{"type":"Point","properties":{"Station_ID":"CLKM4","Station_Nam":"CLARKSBURG","Latitude":"46.49910","Longitude":"-87.84500","Snowdepth":"22.000","Units":"in","Rept_Date":"2020-01-26 12"},"coordinates":[2205,6747]},{"type":"Point","properties":{"Station_ID":"CAN-NS-39","Station_Nam":"ST. ANNS 2.8 NW, CA","Latitude":"46.25082","Longitude":"-60.64340","Snowdepth":"22.000","Units":"in","Rept_Date":"2020-01-26 13"},"coordinates":[8589,6592]},{"type":"Point","properties":{"Station_ID":"CAN-QC-47","Station_Nam":"SAINTE-FOY 1.8 ENE, CAN","Latitude":"46.76934","Longitude":"-71.27124","Snowdepth":"21.100","Units":"in","Rept_Date":"2020-01-26 12"},"coordinates":[6094,6915]},{"type":"Point","properties":{"Station_ID":"TRIQ6","Station_Nam":"TRIO LAKE","Latitude":"49.22880","Longitude":"-87.22920","Snowdepth":"21.060","Units":"in","Rept_Date":"2020-01-27 06"},"coordinates":[2349,8445]},{"type":"Point","properties":{"Station_ID":"SRAW3","Station_Nam":"SARONA","Latitude":"45.80250","Longitude":"-91.86700","Snowdepth":"21.000","Units":"in","Rept_Date":"2020-01-26 14"},"coordinates":[1261,6313]},{"type":"Point","properties":{"Station_ID":"MN-CW-22","Station_Nam":"FORT RIPLEY 0.8 N, MN","Latitude":"46.18089","Longitude":"-94.36510","Snowdepth":"21.000","Units":"in","Rept_Date":"2020-01-26 13"},"coordinates":[674,6549]},{"type":"Point","properties":{"Station_ID":"COTM5","Station_Nam":"COTTON","Latitude":"47.16870","Longitude":"-92.46290","Snowdepth":"21.000","Units":"in","Rept_Date":"2020-01-26 14"},"coordinates":[1121,7163]},{"type":"Point","properties":{"Station_ID":"ASTW3","Station_Nam":"ATHELSTANE","Latitude":"45.42500","Longitude":"-88.05750","Snowdepth":"21.000","Units":"in","Rept_Date":"2020-01-26 12"},"coordinates":[2155,6078]},{"type":"Point","properties":{"Station_ID":"WI-BY-1","Station_Nam":"BAYFIELD 8.8 N, WI","Latitude":"46.93855","Longitude":"-90.83490","Snowdepth":"20.000","Units":"in","Rept_Date":"2020-01-26 13"},"coordinates":[1503,7020]},{"type":"Point","properties":{"Station_ID":"WI-AS-4","Station_Nam":"ASHLAND 0.5 WNW, WI","Latitude":"46.58240","Longitude":"-90.88390","Snowdepth":"20.000","Units":"in","Rept_Date":"2020-01-26 13"},"coordinates":[1491,6798]},{"type":"Point","properties":{"Station_ID":"SBNM5","Station_Nam":"SABIN","Latitude":"46.77690","Longitude":"-96.65610","Snowdepth":"20.000","Units":"in","Rept_Date":"2020-01-26 15"},"coordinates":[137,6919]},{"type":"Point","properties":{"Station_ID":"RLKW3","Station_Nam":"REST LAKE","Latitude":"46.12220","Longitude":"-89.87720","Snowdepth":"20.000","Units":"in","Rept_Date":"2020-01-26 14"},"coordinates":[1728,6512]},{"type":"Point","properties":{"Station_ID":"RHRW3","Station_Nam":"RHINELANDER WJFW TV-12","Latitude":"45.62220","Longitude":"-89.41000","Snowdepth":"20.000","Units":"in","Rept_Date":"2020-01-27 04"},"coordinates":[1837,6201]},{"type":"Point","properties":{"Station_ID":"MQRW3","Station_Nam":"MINOCQUA","Latitude":"45.88630","Longitude":"-89.73220","Snowdepth":"20.000","Units":"in","Rept_Date":"2020-01-26 12"},"coordinates":[1762,6365]},{"type":"Point","properties":{"Station_ID":"JCBM4","Station_Nam":"JACOBSVILLE","Latitude":"47.00830","Longitude":"-88.43180","Snowdepth":"20.000","Units":"in","Rept_Date":"2020-01-26 12"},"coordinates":[2067,7063]},{"type":"Point","properties":{"Station_ID":"CAN-NL-65","Station_Nam":"KIPPENS 0.7 NE, CA","Latitude":"48.55436","Longitude":"-58.61850","Snowdepth":"20.000","Units":"in","Rept_Date":"2020-01-26 12"},"coordinates":[9064,8025]},{"type":"Point","properties":{"Station_ID":"CAN-NB-18","Station_Nam":"MCLEOD HILL 1.1 ENE, CA","Latitude":"46.02725","Longitude":"-66.67460","Snowdepth":"20.000","Units":"in","Rept_Date":"2020-01-26 12"},"coordinates":[7173,6453]},{"type":"Point","properties":{"Station_ID":"AWXW3","Station_Nam":"ASHLAND","Latitude":"46.58240","Longitude":"-90.88390","Snowdepth":"20.000","Units":"in","Rept_Date":"2020-01-26 13"},"coordinates":[1491,6798]},{"type":"Point","properties":{"Station_ID":"WI-PR-8","Station_Nam":"PHILLIPS 0.4 SSW, WI","Latitude":"45.69086","Longitude":"-90.40200","Snowdepth":"19.500","Units":"in","Rept_Date":"2020-01-26 14"},"coordinates":[1605,6244]},{"type":"Point","properties":{"Station_ID":"WI-PR-2","Station_Nam":"BUTTERNUT 5.9 SW, WI","Latitude":"45.96501","Longitude":"-90.59750","Snowdepth":"19.500","Units":"in","Rept_Date":"2020-01-26 12"},"coordinates":[1559,6414]},{"type":"Point","properties":{"Station_ID":"SOCQ6","Station_Nam":"SOCKET LAKE","Latitude":"50.77870","Longitude":"-91.79300","Snowdepth":"19.330","Units":"in","Rept_Date":"2020-01-27 06"},"coordinates":[1278,9409]},{"type":"Point","properties":{"Station_ID":"ZNOM4","Station_Nam":"NORWAY","Latitude":"45.77810","Longitude":"-87.89560","Snowdepth":"19.000","Units":"in","Rept_Date":"2020-01-27 01"},"coordinates":[2193,6298]},{"type":"Point","properties":{"Station_ID":"WI-RS-1","Station_Nam":"LADYSMITH 2.8 WNW, WI","Latitude":"45.48180","Longitude":"-91.14680","Snowdepth":"19.000","Units":"in","Rept_Date":"2020-01-26 13"},"coordinates":[1430,6114]},{"type":"Point","properties":{"Station_ID":"SAUW3","Station_Nam":"WAUSAU WSAW TV","Latitude":"44.94630","Longitude":"-89.62220","Snowdepth":"19.000","Units":"in","Rept_Date":"2020-01-27 05"},"coordinates":[1788,5781]},{"type":"Point","properties":{"Station_ID":"OTTM5","Station_Nam":"OTTERTAIL,MN","Latitude":"46.41670","Longitude":"-95.56670","Snowdepth":"19.000","Units":"in","Rept_Date":"2020-01-26 15"},"coordinates":[392,6695]},{"type":"Point","properties":{"Station_ID":"MN-BM-15","Station_Nam":"BEMIDJI 7.8 ENE, MN","Latitude":"47.52043","Longitude":"-94.72121","Snowdepth":"19.000","Units":"in","Rept_Date":"2020-01-26 13"},"coordinates":[591,7382]},{"type":"Point","properties":{"Station_ID":"LTMW3","Station_Nam":"LAKE TOMAHAWK 2 SE","Latitude":"45.80750","Longitude":"-89.55830","Snowdepth":"19.000","Units":"in","Rept_Date":"2020-01-26 14"},"coordinates":[1803,6316]},{"type":"Point","properties":{"Station_ID":"EPTW3","Station_Nam":"EAU PLEINE TENDER","Latitude":"44.77220","Longitude":"-89.76720","Snowdepth":"19.000","Units":"in","Rept_Date":"2020-01-26 13"},"coordinates":[1753,5672]},{"type":"Point","properties":{"Station_ID":"CLGM5","Station_Nam":"COLLEGEVILLE ST JOHN","Latitude":"45.57940","Longitude":"-94.39200","Snowdepth":"19.000","Units":"in","Rept_Date":"2020-01-27 00"},"coordinates":[668,6174]},{"type":"Point","properties":{"Station_ID":"CATQ6","Station_Nam":"CAT LAKE","Latitude":"51.72690","Longitude":"-91.82210","Snowdepth":"18.700","Units":"in","Rept_Date":"2020-01-27 06"},"coordinates":[1271,9999]},{"type":"Point","properties":{"Station_ID":"CAN-NB-11","Station_Nam":"MIRAMICHI 3.3 S, CAN","Latitude":"46.99343","Longitude":"-65.50690","Snowdepth":"18.500","Units":"in","Rept_Date":"2020-01-26 12"},"coordinates":[7447,7054]},{"type":"Point","properties":{"Station_ID":"WI-PR-6","Station_Nam":"PHILLIPS 1.3 S, WI","Latitude":"45.67677","Longitude":"-90.39543","Snowdepth":"18.000","Units":"in","Rept_Date":"2020-01-26 12"},"coordinates":[1606,6235]},{"type":"Point","properties":{"Station_ID":"WI-LN-2","Station_Nam":"MERRILL 7.0 W, WI","Latitude":"45.17746","Longitude":"-89.84820","Snowdepth":"18.000","Units":"in","Rept_Date":"2020-01-26 12"},"coordinates":[1734,5924]},{"type":"Point","properties":{"Station_ID":"STRW3","Station_Nam":"STRATFORD 1NW","Latitude":"44.81750","Longitude":"-90.08990","Snowdepth":"18.000","Units":"in","Rept_Date":"2020-01-26 12"},"coordinates":[1678,5700]},{"type":"Point","properties":{"Station_ID":"RSTW3","Station_Nam":"ROSHOLT","Latitude":"44.62710","Longitude":"-89.30600","Snowdepth":"18.000","Units":"in","Rept_Date":"2020-01-26 14"},"coordinates":[1862,5582]},{"type":"Point","properties":{"Station_ID":"RRVM4","Station_Nam":"RAPID RIVER 9S","Latitude":"45.78750","Longitude":"-86.93920","Snowdepth":"18.000","Units":"in","Rept_Date":"2020-01-26 13"},"coordinates":[2417,6304]},{"type":"Point","properties":{"Station_ID":"ND-CS-25","Station_Nam":"FARGO 2.1 N, ND","Latitude":"46.90816","Longitude":"-96.77937","Snowdepth":"18.000","Units":"in","Rept_Date":"2020-01-26 14"},"coordinates":[108,7001]},{"type":"Point","properties":{"Station_ID":"MNV905PW","Station_Nam":"ROOSEVELT 5.3 N","Latitude":"48.87933","Longitude":"-95.08224","Snowdepth":"18.000","Units":"in","Rept_Date":"2020-01-26 13"},"coordinates":[506,8227]},{"type":"Point","properties":{"Station_ID":"MLLW3","Station_Nam":"MERRILL 8W","Latitude":"45.17810","Longitude":"-89.84810","Snowdepth":"18.000","Units":"in","Rept_Date":"2020-01-26 12"},"coordinates":[1735,5925]},{"type":"Point","properties":{"Station_ID":"LUCW3","Station_Nam":"LUCK","Latitude":"45.57330","Longitude":"-92.48520","Snowdepth":"18.000","Units":"in","Rept_Date":"2020-01-26 20"},"coordinates":[1116,6171]},{"type":"Point","properties":{"Station_ID":"KGFK","Station_Nam":"GRAND FORKS INTERNATIONAL","Latitude":"47.95000","Longitude":"-97.18333","Snowdepth":"18.000","Units":"in","Rept_Date":"2020-01-27 06"},"coordinates":[13,7649]},{"type":"Point","properties":{"Station_ID":"GFK","Station_Nam":"GRAND FORKS INTERNATIONAL AIRPORT","Latitude":"47.94920","Longitude":"-97.17610","Snowdepth":"18.000","Units":"in","Rept_Date":"2020-01-27 00"},"coordinates":[15,7649]},{"type":"Point","properties":{"Station_ID":"BRVM5","Station_Nam":"BROWNS VALLEY,MN","Latitude":"45.61670","Longitude":"-96.83330","Snowdepth":"18.000","Units":"in","Rept_Date":"2020-01-26 12"},"coordinates":[95,6198]},{"type":"Point","properties":{"Station_ID":"WI-SR-5","Station_Nam":"HAYWARD 9.7 NE, WI","Latitude":"46.12030","Longitude":"-91.35370","Snowdepth":"17.500","Units":"in","Rept_Date":"2020-01-26 13"},"coordinates":[1381,6511]},{"type":"Point","properties":{"Station_ID":"NH-CS-10","Station_Nam":"RANDOLPH 1.4 NE, NH","Latitude":"44.38824","Longitude":"-71.26950","Snowdepth":"17.500","Units":"in","Rept_Date":"2020-01-26 12"},"coordinates":[6095,5433]},{"type":"Point","properties":{"Station_ID":"CAN-ON-526","Station_Nam":"HILTON BEACH 0.7 SW - MNRF, CAN","Latitude":"46.25357","Longitude":"-83.90014","Snowdepth":"17.300","Units":"in","Rept_Date":"2020-01-26 12"},"coordinates":[3130,6594]},{"type":"Point","properties":{"Station_ID":"SUTV1","Station_Nam":"SUTTON","Latitude":"44.61220","Longitude":"-72.04810","Snowdepth":"17.000","Units":"in","Rept_Date":"2020-01-26 13"},"coordinates":[5912,5573]},{"type":"Point","properties":{"Station_ID":"RARM4","Station_Nam":"RAPID RIVER 1 SW","Latitude":"45.91500","Longitude":"-86.98800","Snowdepth":"17.000","Units":"in","Rept_Date":"2020-01-26 12"},"coordinates":[2406,6383]},{"type":"Point","properties":{"Station_ID":"MN-BK-10","Station_Nam":"DETROIT LAKES 5.7 N, MN","Latitude":"46.88666","Longitude":"-95.84444","Snowdepth":"17.000","Units":"in","Rept_Date":"2020-01-26 14"},"coordinates":[327,6988]},{"type":"Point","properties":{"Station_ID":"CARM1","Station_Nam":"CARIBOU WFO","Latitude":"46.86810","Longitude":"-68.01250","Snowdepth":"17.000","Units":"in","Rept_Date":"2020-01-27 05"},"coordinates":[6859,6976]},{"type":"Point","properties":{"Station_ID":"CAR","Station_Nam":"CARIBOU, ME","Latitude":"46.86830","Longitude":"-68.01360","Snowdepth":"17.000","Units":"in","Rept_Date":"2020-01-26 12"},"coordinates":[6859,6976]},{"type":"Point","properties":{"Station_ID":"BREW3","Station_Nam":"SURING","Latitude":"44.99580","Longitude":"-88.37860","Snowdepth":"17.000","Units":"in","Rept_Date":"2020-01-26 12"},"coordinates":[2079,5811]},{"type":"Point","properties":{"Station_ID":"CAN-NB-89","Station_Nam":"MEMRAMCOOK 4.0 W, CAN","Latitude":"46.01133","Longitude":"-64.60244","Snowdepth":"16.900","Units":"in","Rept_Date":"2020-01-26 13"},"coordinates":[7659,6443]},{"type":"Point","properties":{"Station_ID":"VT-OL-1","Station_Nam":"WESTFIELD 0.7 WNW, VT","Latitude":"44.89160","Longitude":"-72.44350","Snowdepth":"16.500","Units":"in","Rept_Date":"2020-01-26 12"},"coordinates":[5819,5746]},{"type":"Point","properties":{"Station_ID":"MI-AT-6","Station_Nam":"MANCELONA 0.5 ESE, MI","Latitude":"44.89981","Longitude":"-85.05100","Snowdepth":"16.500","Units":"in","Rept_Date":"2020-01-26 13"},"coordinates":[2860,5752]},{"type":"Point","properties":{"Station_ID":"WUNW3","Station_Nam":"WAUSAU-NORTHEAST","Latitude":"44.97310","Longitude":"-89.61690","Snowdepth":"16.000","Units":"in","Rept_Date":"2020-01-26 12"},"coordinates":[1789,5797]},{"type":"Point","properties":{"Station_ID":"WI-CH-3","Station_Nam":"CORNELL 4.1 W, WI","Latitude":"45.17024","Longitude":"-91.23610","Snowdepth":"16.000","Units":"in","Rept_Date":"2020-01-26 14"},"coordinates":[1409,5920]},{"type":"Point","properties":{"Station_ID":"VT-CL-40","Station_Nam":"LYNDONVILLE 4.2 NNW, VT","Latitude":"44.59440","Longitude":"-72.02389","Snowdepth":"16.000","Units":"in","Rept_Date":"2020-01-26 12"},"coordinates":[5918,5562]},{"type":"Point","properties":{"Station_ID":"MI-OT-17","Station_Nam":"GAYLORD 4.1 S, MI","Latitude":"44.96388","Longitude":"-84.68467","Snowdepth":"16.000","Units":"in","Rept_Date":"2020-01-26 12"},"coordinates":[2946,5791]},{"type":"Point","properties":{"Station_ID":"LNGM5","Station_Nam":"LONG PRAIRIE","Latitude":"45.96460","Longitude":"-94.88920","Snowdepth":"16.000","Units":"in","Rept_Date":"2020-01-26 12"},"coordinates":[551,6414]},{"type":"Point","properties":{"Station_ID":"FDRN8","Station_Nam":"FARGO 3S","Latitude":"46.82930","Longitude":"-96.79620","Snowdepth":"16.000","Units":"in","Rept_Date":"2020-01-27 06"},"coordinates":[104,6952]},{"type":"Point","properties":{"Station_ID":"FAR","Station_Nam":"HECTOR INTERNATIONAL ARPT","Latitude":"46.91560","Longitude":"-96.81440","Snowdepth":"16.000","Units":"in","Rept_Date":"2020-01-27 00"},"coordinates":[100,7006]},{"type":"Point","properties":{"Station_ID":"COUW3","Station_Nam":"COUDERAY,WI","Latitude":"45.86670","Longitude":"-91.45000","Snowdepth":"16.000","Units":"in","Rept_Date":"2020-01-26 22"},"coordinates":[1359,6353]},{"type":"Point","properties":{"Station_ID":"BRDM1","Station_Nam":"BRIDGEWATER","Latitude":"46.42870","Longitude":"-67.84370","Snowdepth":"16.000","Units":"in","Rept_Date":"2020-01-26 23"},"coordinates":[6899,6703]},{"type":"Point","properties":{"Station_ID":"ATY","Station_Nam":"WATERTOWN MUNICIPAL AIRPORT","Latitude":"44.91420","Longitude":"-97.15440","Snowdepth":"16.000","Units":"in","Rept_Date":"2020-01-26 12"},"coordinates":[20,5761]},{"type":"Point","properties":{"Station_ID":"ALXM5","Station_Nam":"ALEXANDRIA","Latitude":"45.87820","Longitude":"-95.38270","Snowdepth":"16.000","Units":"in","Rept_Date":"2020-01-26 15"},"coordinates":[436,6360]},{"type":"Point","properties":{"Station_ID":"CAN-ON-757","Station_Nam":"SAULT STE. MARIE 2.8 ESE - GLFC, CAN","Latitude":"46.50300","Longitude":"-84.30300","Snowdepth":"15.700","Units":"in","Rept_Date":"2020-01-26 13"},"coordinates":[3036,6749]},{"type":"Point","properties":{"Station_ID":"WI-EC-23","Station_Nam":"EAU CLAIRE 3.7 S, WI","Latitude":"44.76858","Longitude":"-91.49898","Snowdepth":"15.000","Units":"in","Rept_Date":"2020-01-26 14"},"coordinates":[1347,5670]},{"type":"Point","properties":{"Station_ID":"VANM1","Station_Nam":"VAN BUREN","Latitude":"47.16600","Longitude":"-67.93900","Snowdepth":"15.000","Units":"in","Rept_Date":"2020-01-26 12"},"coordinates":[6876,7161]},{"type":"Point","properties":{"Station_ID":"SSMM4","Station_Nam":"SAULT STE MARIE","Latitude":"46.48660","Longitude":"-84.40250","Snowdepth":"15.000","Units":"in","Rept_Date":"2020-01-26 13"},"coordinates":[3013,6739]},{"type":"Point","properties":{"Station_ID":"MN-MR-13","Station_Nam":"LITTLE FALLS 8.0 NE, MN","Latitude":"46.06785","Longitude":"-94.24789","Snowdepth":"15.000","Units":"in","Rept_Date":"2020-01-26 13"},"coordinates":[702,6478]},{"type":"Point","properties":{"Station_ID":"MEDW3","Station_Nam":"MEDFORD","Latitude":"45.13080","Longitude":"-90.34390","Snowdepth":"15.000","Units":"in","Rept_Date":"2020-01-26 14"},"coordinates":[1618,5895]},{"type":"Point","properties":{"Station_ID":"ME-PN-45","Station_Nam":"MILLINOCKET 2.7 ESE, ME","Latitude":"45.65002","Longitude":"-68.64472","Snowdepth":"15.000","Units":"in","Rept_Date":"2020-01-26 12"},"coordinates":[6711,6218]},{"type":"Point","properties":{"Station_ID":"LGRN8","Station_Nam":"LIDGERWOOD,ND","Latitude":"46.06670","Longitude":"-97.16670","Snowdepth":"15.000","Units":"in","Rept_Date":"2020-01-26 13"},"coordinates":[17,6478]},{"type":"Point","properties":{"Station_ID":"EAHV1","Station_Nam":"EAST HAVEN","Latitude":"44.64250","Longitude":"-71.89120","Snowdepth":"15.000","Units":"in","Rept_Date":"2020-01-26 12"},"coordinates":[5949,5592]},{"type":"Point","properties":{"Station_ID":"CAN-PE-19","Station_Nam":"CHARLOTTETOWN 6.5 NNW, CAN","Latitude":"46.29235","Longitude":"-63.17271","Snowdepth":"15.000","Units":"in","Rept_Date":"2020-01-26 12"},"coordinates":[7995,6618]},{"type":"Point","properties":{"Station_ID":"CAN-NS-94","Station_Nam":"MARGAREE FORKS 2.6 SSE CBN, CAN","Latitude":"46.30937","Longitude":"-61.07603","Snowdepth":"15.000","Units":"in","Rept_Date":"2020-01-26 13"},"coordinates":[8487,6629]},{"type":"Point","properties":{"Station_ID":"CAN-NB-96","Station_Nam":"SAINT-IGNACE 2.6 NE, CAN","Latitude":"46.71424","Longitude":"-65.05609","Snowdepth":"15.000","Units":"in","Rept_Date":"2020-01-26 11"},"coordinates":[7553,6880]},{"type":"Point","properties":{"Station_ID":"CAN-NB-13","Station_Nam":"BATHURST 3.8 NW, CAN","Latitude":"47.64212","Longitude":"-65.68756","Snowdepth":"15.000","Units":"in","Rept_Date":"2020-01-26 11"},"coordinates":[7405,7458]},{"type":"Point","properties":{"Station_ID":"BALW3","Station_Nam":"BALDWIN","Latitude":"44.96330","Longitude":"-92.39050","Snowdepth":"15.000","Units":"in","Rept_Date":"2020-01-26 13"},"coordinates":[1138,5791]},{"type":"Point","properties":{"Station_ID":"ANJM4","Station_Nam":"SNOW PAID OBSERVER FOR KANJ","Latitude":"46.48670","Longitude":"-84.40260","Snowdepth":"15.000","Units":"in","Rept_Date":"2020-01-26 18"},"coordinates":[3013,6739]},{"type":"Point","properties":{"Station_ID":"ANJ","Station_Nam":"SAULT STE MARIE","Latitude":"46.46670","Longitude":"-84.36670","Snowdepth":"15.000","Units":"in","Rept_Date":"2020-01-27 00"},"coordinates":[3021,6726]},{"type":"Point","properties":{"Station_ID":"ABGW3","Station_Nam":"AMBERG 9 E","Latitude":"45.48250","Longitude":"-87.81190","Snowdepth":"15.000","Units":"in","Rept_Date":"2020-01-26 12"},"coordinates":[2212,6114]},{"type":"Point","properties":{"Station_ID":"FTHQ6","Station_Nam":"FORT HOPE","Latitude":"51.55820","Longitude":"-87.90510","Snowdepth":"14.170","Units":"in","Rept_Date":"2020-01-27 06"},"coordinates":[2191,9894]},{"type":"Point","properties":{"Station_ID":"WLDM5","Station_Nam":"WILD RIVER STATE PARK","Latitude":"45.52310","Longitude":"-92.74890","Snowdepth":"14.000","Units":"in","Rept_Date":"2020-01-26 14"},"coordinates":[1054,6139]},{"type":"Point","properties":{"Station_ID":"WILW3","Station_Nam":"RESERVOIR","Latitude":"45.70000","Longitude":"-89.83330","Snowdepth":"14.000","Units":"in","Rept_Date":"2020-01-26 12"},"coordinates":[1738,6249]},{"type":"Point","properties":{"Station_ID":"VT-OL-12","Station_Nam":"GREENSBORO 3.9 NNE, VT","Latitude":"44.63100","Longitude":"-72.28000","Snowdepth":"14.000","Units":"in","Rept_Date":"2020-01-26 12"},"coordinates":[5858,5584]},{"type":"Point","properties":{"Station_ID":"SIWS2","Station_Nam":"SISSETON 3W","Latitude":"45.65870","Longitude":"-97.12450","Snowdepth":"14.000","Units":"in","Rept_Date":"2020-01-26 13"},"coordinates":[27,6224]},{"type":"Point","properties":{"Station_ID":"SHIW3","Station_Nam":"SHIOCTON","Latitude":"44.43890","Longitude":"-88.58390","Snowdepth":"14.000","Units":"in","Rept_Date":"2020-01-26 14"},"coordinates":[2031,5465]},{"type":"Point","properties":{"Station_ID":"SD-RB-4","Station_Nam":"SISSETON 10.4 ENE, SD","Latitude":"45.69480","Longitude":"-96.83480","Snowdepth":"14.000","Units":"in","Rept_Date":"2020-01-26 13"},"coordinates":[95,6246]},{"type":"Point","properties":{"Station_ID":"SD-RB-1","Station_Nam":"SISSETON 3.8 W, SD","Latitude":"45.65865","Longitude":"-97.12370","Snowdepth":"14.000","Units":"in","Rept_Date":"2020-01-26 13"},"coordinates":[27,6224]},{"type":"Point","properties":{"Station_ID":"SD-CD-30","Station_Nam":"WATERTOWN 2.3 E, SD","Latitude":"44.91604","Longitude":"-97.11925","Snowdepth":"14.000","Units":"in","Rept_Date":"2020-01-26 14"},"coordinates":[28,5762]},{"type":"Point","properties":{"Station_ID":"LBRM5","Station_Nam":"LAKE BRONSON DAM","Latitude":"48.72410","Longitude":"-96.62180","Snowdepth":"14.000","Units":"in","Rept_Date":"2020-01-26 14"},"coordinates":[145,8131]},{"type":"Point","properties":{"Station_ID":"KSEM4","Station_Nam":"KALKASKA 11SE","Latitude":"44.58970","Longitude":"-85.04860","Snowdepth":"14.000","Units":"in","Rept_Date":"2020-01-26 13"},"coordinates":[2861,5559]},{"type":"Point","properties":{"Station_ID":"GRFN8","Station_Nam":"UNIVERSITY","Latitude":"47.93330","Longitude":"-97.08330","Snowdepth":"14.000","Units":"in","Rept_Date":"2020-01-27 06"},"coordinates":[36,7639]},{"type":"Point","properties":{"Station_ID":"FISM1","Station_Nam":"FORT KENT COOP","Latitude":"47.23850","Longitude":"-68.61240","Snowdepth":"14.000","Units":"in","Rept_Date":"2020-01-26 12"},"coordinates":[6718,7207]},{"type":"Point","properties":{"Station_ID":"ESAM4","Station_Nam":"ESCANABA","Latitude":"45.74380","Longitude":"-87.04060","Snowdepth":"14.000","Units":"in","Rept_Date":"2020-01-26 12"},"coordinates":[2393,6277]},{"type":"Point","properties":{"Station_ID":"ELRW3","Station_Nam":"EAU CLAIRE 3SW","Latitude":"44.78780","Longitude":"-91.51650","Snowdepth":"14.000","Units":"in","Rept_Date":"2020-01-27 06"},"coordinates":[1343,5682]},{"type":"Point","properties":{"Station_ID":"CORV1","Station_Nam":"CORINTH","Latitude":"44.00690","Longitude":"-72.31940","Snowdepth":"14.000","Units":"in","Rept_Date":"2020-01-26 12"},"coordinates":[5848,5196]},{"type":"Point","properties":{"Station_ID":"CAN-PE-7","Station_Nam":"MORELL 1.4 NNW, CA","Latitude":"46.42741","Longitude":"-62.70870","Snowdepth":"14.000","Units":"in","Rept_Date":"2020-01-26 12"},"coordinates":[8104,6702]},{"type":"Point","properties":{"Station_ID":"BKEM5","Station_Nam":"BRECKENRIDGE 4NE","Latitude":"46.30470","Longitude":"-96.52170","Snowdepth":"14.000","Units":"in","Rept_Date":"2020-01-26 13"},"coordinates":[168,6626]},{"type":"Point","properties":{"Station_ID":"ARTM5","Station_Nam":"ARTICHOKE LAKE 1 E","Latitude":"45.38560","Longitude":"-96.12570","Snowdepth":"14.000","Units":"in","Rept_Date":"2020-01-27 00"},"coordinates":[261,6054]},{"type":"Point","properties":{"Station_ID":"CAN-PE-20","Station_Nam":"BONSHAW 6.6 NNE, CAN","Latitude":"46.25082","Longitude":"-63.33409","Snowdepth":"13.800","Units":"in","Rept_Date":"2020-01-26 12"},"coordinates":[7957,6592]},{"type":"Point","properties":{"Station_ID":"VT-WS-7","Station_Nam":"MIDDLESEX 3.1 ENE, VT","Latitude":"44.31799","Longitude":"-72.62650","Snowdepth":"13.500","Units":"in","Rept_Date":"2020-01-26 14"},"coordinates":[5776,5390]},{"type":"Point","properties":{"Station_ID":"WSFW3","Station_Nam":"TOWN OF WESTFORD","Latitude":"43.47190","Longitude":"-88.88250","Snowdepth":"13.000","Units":"in","Rept_Date":"2020-01-26 13"},"coordinates":[1961,4863]},{"type":"Point","properties":{"Station_ID":"WI-DD-16","Station_Nam":"BEAVER DAM 2.4 WNW, WI","Latitude":"43.47210","Longitude":"-88.88280","Snowdepth":"13.000","Units":"in","Rept_Date":"2020-01-26 13"},"coordinates":[1961,4863]},{"type":"Point","properties":{"Station_ID":"VT-ES-1","Station_Nam":"GRANBY 1.4 NW, VT","Latitude":"44.58330","Longitude":"-71.77870","Snowdepth":"13.000","Units":"in","Rept_Date":"2020-01-26 14"},"coordinates":[5975,5555]},{"type":"Point","properties":{"Station_ID":"RCEM5","Station_Nam":"RICE","Latitude":"45.75760","Longitude":"-94.20720","Snowdepth":"13.000","Units":"in","Rept_Date":"2020-01-26 13"},"coordinates":[711,6285]},{"type":"Point","properties":{"Station_ID":"PULW3","Station_Nam":"PULASKI WWTP","Latitude":"44.67830","Longitude":"-88.22750","Snowdepth":"13.000","Units":"in","Rept_Date":"2020-01-26 12"},"coordinates":[2115,5614]},{"type":"Point","properties":{"Station_ID":"PBAN8","Station_Nam":"SITE 1-3MI.N","Latitude":"48.97420","Longitude":"-97.23860","Snowdepth":"13.000","Units":"in","Rept_Date":"2020-01-26 15"},"coordinates":[0,8286]},{"type":"Point","properties":{"Station_ID":"NONW3","Station_Nam":"NEW LONDON","Latitude":"44.35890","Longitude":"-88.71890","Snowdepth":"13.000","Units":"in","Rept_Date":"2020-01-26 12"},"coordinates":[2000,5415]},{"type":"Point","properties":{"Station_ID":"MRAM5","Station_Nam":"MORA","Latitude":"45.87760","Longitude":"-93.31470","Snowdepth":"13.000","Units":"in","Rept_Date":"2020-01-26 13"},"coordinates":[921,6360]},{"type":"Point","properties":{"Station_ID":"MRAM4","Station_Nam":"MORAN","Latitude":"45.99030","Longitude":"-84.83610","Snowdepth":"13.000","Units":"in","Rept_Date":"2020-01-26 13"},"coordinates":[2911,6430]},{"type":"Point","properties":{"Station_ID":"MNEY8CTB","Station_Nam":"MIDLAND JUNCTION 2.2 ENE","Latitude":"44.33041","Longitude":"-91.95891","Snowdepth":"13.000","Units":"in","Rept_Date":"2020-01-26 14"},"coordinates":[1239,5397]},{"type":"Point","properties":{"Station_ID":"MN-MR-4","Station_Nam":"LITTLE FALLS 1.2 SW, MN","Latitude":"45.96886","Longitude":"-94.37720","Snowdepth":"13.000","Units":"in","Rept_Date":"2020-01-26 13"},"coordinates":[672,6417]},{"type":"Point","properties":{"Station_ID":"MLCM5","Station_Nam":"MILACA","Latitude":"45.75320","Longitude":"-93.66170","Snowdepth":"13.000","Units":"in","Rept_Date":"2020-01-26 13"},"coordinates":[839,6283]},{"type":"Point","properties":{"Station_ID":"MLBS2","Station_Nam":"MILBANK","Latitude":"45.22040","Longitude":"-96.62530","Snowdepth":"13.000","Units":"in","Rept_Date":"2020-01-26 13"},"coordinates":[144,5951]},{"type":"Point","properties":{"Station_ID":"MI-CX-7","Station_Nam":"EAST JORDAN 2.1 NNW, MI","Latitude":"45.18639","Longitude":"-85.14750","Snowdepth":"13.000","Units":"in","Rept_Date":"2020-01-26 13"},"coordinates":[2838,5930]},{"type":"Point","properties":{"Station_ID":"MI-CP-14","Station_Nam":"SAULT STE. MARIE 2.2 E, MI","Latitude":"46.48933","Longitude":"-84.31971","Snowdepth":"13.000","Units":"in","Rept_Date":"2020-01-26 13"},"coordinates":[3032,6740]},{"type":"Point","properties":{"Station_ID":"LILM1","Station_Nam":"LILLE","Latitude":"47.27770","Longitude":"-68.10520","Snowdepth":"13.000","Units":"in","Rept_Date":"2020-01-26 12"},"coordinates":[6837,7231]},{"type":"Point","properties":{"Station_ID":"JIMW3","Station_Nam":"JIM FALLS 3NW","Latitude":"45.08270","Longitude":"-91.33130","Snowdepth":"13.000","Units":"in","Rept_Date":"2020-01-26 12"},"coordinates":[1386,5865]},{"type":"Point","properties":{"Station_ID":"HUBN3","Station_Nam":"HUBBARD BROOK","Latitude":"43.93330","Longitude":"-71.71670","Snowdepth":"13.000","Units":"in","Rept_Date":"2020-01-26 14"},"coordinates":[5990,5150]},{"type":"Point","properties":{"Station_ID":"GRBM5","Station_Nam":"GRAND RAPIDS 12N","Latitude":"47.39800","Longitude":"-93.51330","Snowdepth":"13.000","Units":"in","Rept_Date":"2020-01-26 14"},"coordinates":[874,7306]},{"type":"Point","properties":{"Station_ID":"GHMN3","Station_Nam":"PINKHAM NOTCH","Latitude":"44.25800","Longitude":"-71.25250","Snowdepth":"13.000","Units":"in","Rept_Date":"2020-01-26 10"},"coordinates":[6099,5352]},{"type":"Point","properties":{"Station_ID":"ETTW3","Station_Nam":"ETTRICK 4WNW","Latitude":"44.19000","Longitude":"-91.34240","Snowdepth":"13.000","Units":"in","Rept_Date":"2020-01-26 13"},"coordinates":[1384,5310]},{"type":"Point","properties":{"Station_ID":"EJNM4","Station_Nam":"EAST JORDAN 2NW","Latitude":"45.18630","Longitude":"-85.14770","Snowdepth":"13.000","Units":"in","Rept_Date":"2020-01-26 13"},"coordinates":[2838,5930]},{"type":"Point","properties":{"Station_ID":"EAU","Station_Nam":"CHIPPEWA VALLEY REGIONAL AIRPORT","Latitude":"44.86650","Longitude":"-91.48790","Snowdepth":"13.000","Units":"in","Rept_Date":"2020-01-27 00"},"coordinates":[1350,5731]},{"type":"Point","properties":{"Station_ID":"DFXM1","Station_Nam":"DOVER-FOXCROFT","Latitude":"45.18720","Longitude":"-69.18350","Snowdepth":"13.000","Units":"in","Rept_Date":"2020-01-26 12"},"coordinates":[6584,5930]},{"type":"Point","properties":{"Station_ID":"CAN-PE-3","Station_Nam":"WELLINGTON 1.6 NE, CA","Latitude":"46.46672","Longitude":"-63.98920","Snowdepth":"13.000","Units":"in","Rept_Date":"2020-01-26 11"},"coordinates":[7803,6726]},{"type":"Point","properties":{"Station_ID":"BROS2","Station_Nam":"BROOKINGS,SD","Latitude":"44.31670","Longitude":"-96.76670","Snowdepth":"13.000","Units":"in","Rept_Date":"2020-01-26 14"},"coordinates":[111,5389]},{"type":"Point","properties":{"Station_ID":"AVLV1","Station_Nam":"AVERILL","Latitude":"45.00570","Longitude":"-71.69030","Snowdepth":"13.000","Units":"in","Rept_Date":"2020-01-26 13"},"coordinates":[5996,5817]},{"type":"Point","properties":{"Station_ID":"WI-PT-8","Station_Nam":"RUDOLPH 2.1 NNE, WI","Latitude":"44.52553","Longitude":"-89.78677","Snowdepth":"12.500","Units":"in","Rept_Date":"2020-01-26 11"},"coordinates":[1749,5519]},{"type":"Point","properties":{"Station_ID":"VT-OL-9","Station_Nam":"GREENSBORO 2.1 NNW, VT","Latitude":"44.60528","Longitude":"-72.30940","Snowdepth":"12.500","Units":"in","Rept_Date":"2020-01-26 12"},"coordinates":[5851,5568]},{"type":"Point","properties":{"Station_ID":"VT-CL-18","Station_Nam":"WHEELOCK 1.6 S, VT","Latitude":"44.56491","Longitude":"-72.08830","Snowdepth":"12.500","Units":"in","Rept_Date":"2020-01-26 12"},"coordinates":[5903,5543]},{"type":"Point","properties":{"Station_ID":"ME-CM-15","Station_Nam":"FREEPORT 2.6 WNW, ME","Latitude":"43.86683","Longitude":"-70.15070","Snowdepth":"12.500","Units":"in","Rept_Date":"2020-01-26 12"},"coordinates":[6357,5109]},{"type":"Point","properties":{"Station_ID":"CAN-PE-43","Station_Nam":"GLENCOE 0.3 W, CAN","Latitude":"46.20115","Longitude":"-62.81740","Snowdepth":"12.200","Units":"in","Rept_Date":"2020-01-26 12"},"coordinates":[8078,6561]},{"type":"Point","properties":{"Station_ID":"WTBW3","Station_Nam":"WEST BEND PUBLIC WORKS","Latitude":"43.41110","Longitude":"-88.19380","Snowdepth":"12.000","Units":"in","Rept_Date":"2020-01-26 14"},"coordinates":[2123,4825]},{"type":"Point","properties":{"Station_ID":"WI-BN-6","Station_Nam":"SUAMICO 4.4 WNW, WI","Latitude":"44.66111","Longitude":"-88.11780","Snowdepth":"12.000","Units":"in","Rept_Date":"2020-01-26 13"},"coordinates":[2141,5603]},{"type":"Point","properties":{"Station_ID":"WABM5","Station_Nam":"WABASHA","Latitude":"44.38500","Longitude":"-92.04860","Snowdepth":"12.000","Units":"in","Rept_Date":"2020-01-26 13"},"coordinates":[1218,5431]},{"type":"Point","properties":{"Station_ID":"THLM5","Station_Nam":"THEILMAN 1SSW","Latitude":"44.28130","Longitude":"-92.19430","Snowdepth":"12.000","Units":"in","Rept_Date":"2020-01-26 13"},"coordinates":[1184,5367]},{"type":"Point","properties":{"Station_ID":"STPW3","Station_Nam":"STEVENS POINT","Latitude":"44.51130","Longitude":"-89.58550","Snowdepth":"12.000","Units":"in","Rept_Date":"2020-01-26 12"},"coordinates":[1796,5510]},{"type":"Point","properties":{"Station_ID":"SIBI4","Station_Nam":"SIBLEY","Latitude":"43.40470","Longitude":"-95.74830","Snowdepth":"12.000","Units":"in","Rept_Date":"2020-01-26 13"},"coordinates":[350,4821]},{"type":"Point","properties":{"Station_ID":"SD-BK-7","Station_Nam":"BROOKINGS 0.2 SSW, SD","Latitude":"44.30389","Longitude":"-96.78780","Snowdepth":"12.000","Units":"in","Rept_Date":"2020-01-26 13"},"coordinates":[106,5381]},{"type":"Point","properties":{"Station_ID":"NY-FK-7","Station_Nam":"SARANAC LAKE 6.2 N, NY","Latitude":"44.41359","Longitude":"-74.15211","Snowdepth":"12.000","Units":"in","Rept_Date":"2020-01-26 13"},"coordinates":[5418,5449]},{"type":"Point","properties":{"Station_ID":"NH-CR-15","Station_Nam":"JACKSON 3.7 NW, NH","Latitude":"44.19069","Longitude":"-71.22598","Snowdepth":"12.000","Units":"in","Rept_Date":"2020-01-26 12"},"coordinates":[6105,5310]},{"type":"Point","properties":{"Station_ID":"MN-SR-29","Station_Nam":"ALBANY 3.8 S, MN","Latitude":"45.57441","Longitude":"-94.55543","Snowdepth":"12.000","Units":"in","Rept_Date":"2020-01-26 13"},"coordinates":[630,6171]},{"type":"Point","properties":{"Station_ID":"MN-SH-10","Station_Nam":"BIG LAKE 5.6 NNE, MN","Latitude":"45.41409","Longitude":"-93.69190","Snowdepth":"12.000","Units":"in","Rept_Date":"2020-01-26 13"},"coordinates":[832,6072]},{"type":"Point","properties":{"Station_ID":"MLRM5","Station_Nam":"MELROSE","Latitude":"45.67710","Longitude":"-94.80200","Snowdepth":"12.000","Units":"in","Rept_Date":"2020-01-26 13"},"coordinates":[572,6235]},{"type":"Point","properties":{"Station_ID":"MI-OT-4","Station_Nam":"GAYLORD 1.7 WNW, MI","Latitude":"45.03280","Longitude":"-84.71090","Snowdepth":"12.000","Units":"in","Rept_Date":"2020-01-26 13"},"coordinates":[2940,5834]},{"type":"Point","properties":{"Station_ID":"ME-OX-2","Station_Nam":"HARTFORD 1.4 N, ME","Latitude":"44.39318","Longitude":"-70.34760","Snowdepth":"12.000","Units":"in","Rept_Date":"2020-01-26 14"},"coordinates":[6311,5436]},{"type":"Point","properties":{"Station_ID":"ME-FR-4","Station_Nam":"NEW SHARON 2.0 NW, ME","Latitude":"44.66582","Longitude":"-70.02720","Snowdepth":"12.000","Units":"in","Rept_Date":"2020-01-26 12"},"coordinates":[6386,5606]},{"type":"Point","properties":{"Station_ID":"KINM1","Station_Nam":"KINGFIELD","Latitude":"44.95950","Longitude":"-70.17530","Snowdepth":"12.000","Units":"in","Rept_Date":"2020-01-26 14"},"coordinates":[6352,5789]},{"type":"Point","properties":{"Station_ID":"GAYM4","Station_Nam":"GAYLORD","Latitude":"45.03320","Longitude":"-84.71130","Snowdepth":"12.000","Units":"in","Rept_Date":"2020-01-26 13"},"coordinates":[2940,5835]},{"type":"Point","properties":{"Station_ID":"FORM5","Station_Nam":"FOREST LAKE 5NE","Latitude":"45.33170","Longitude":"-92.89820","Snowdepth":"12.000","Units":"in","Rept_Date":"2020-01-26 13"},"coordinates":[1019,6020]},{"type":"Point","properties":{"Station_ID":"CNTW3","Station_Nam":"CLINTONVILLE","Latitude":"44.62270","Longitude":"-88.74830","Snowdepth":"12.000","Units":"in","Rept_Date":"2020-01-26 13"},"coordinates":[1993,5579]},{"type":"Point","properties":{"Station_ID":"CHRM4","Station_Nam":"CHARLEVOIX","Latitude":"45.31720","Longitude":"-85.26720","Snowdepth":"12.000","Units":"in","Rept_Date":"2020-01-26 13"},"coordinates":[2810,6011]},{"type":"Point","properties":{"Station_ID":"CHPW3","Station_Nam":"CHIPPEWA FALLS","Latitude":"44.92770","Longitude":"-91.40810","Snowdepth":"12.000","Units":"in","Rept_Date":"2020-01-26 14"},"coordinates":[1368,5769]},{"type":"Point","properties":{"Station_ID":"CAN-ON-208","Station_Nam":"PAKENHAM 7.8 NNW, CAN","Latitude":"45.39166","Longitude":"-76.34111","Snowdepth":"12.000","Units":"in","Rept_Date":"2020-01-26 12"},"coordinates":[4904,6058]},{"type":"Point","properties":{"Station_ID":"CAN-NS-60","Station_Nam":"SYDNEY FORKS, CAN","Latitude":"46.05645","Longitude":"-60.31510","Snowdepth":"12.000","Units":"in","Rept_Date":"2020-01-26 14"},"coordinates":[8666,6471]},{"type":"Point","properties":{"Station_ID":"CAN-NS-103","Station_Nam":"TRAFALGAR 4.9 WSW, CAN","Latitude":"45.26217","Longitude":"-62.72285","Snowdepth":"12.000","Units":"in","Rept_Date":"2020-01-26 12"},"coordinates":[8101,5977]},{"type":"Point","properties":{"Station_ID":"CAN-NB-2","Station_Nam":"GRAFTON 2.7 NNE, CA","Latitude":"46.17062","Longitude":"-67.55330","Snowdepth":"12.000","Units":"in","Rept_Date":"2020-01-26 11"},"coordinates":[6967,6542]},{"type":"Point","properties":{"Station_ID":"BFSW3","Station_Nam":"BIG FALLS-5 NW","Latitude":"44.63980","Longitude":"-89.11330","Snowdepth":"12.000","Units":"in","Rept_Date":"2020-01-26 13"},"coordinates":[1907,5590]},{"type":"Point","properties":{"Station_ID":"APXM4","Station_Nam":"GAYLORD 9SSW","Latitude":"44.90720","Longitude":"-84.71880","Snowdepth":"12.000","Units":"in","Rept_Date":"2020-01-27 06"},"coordinates":[2938,5756]},{"type":"Point","properties":{"Station_ID":"ALTM5","Station_Nam":"ALTURA 5W","Latitude":"44.06330","Longitude":"-92.03970","Snowdepth":"12.000","Units":"in","Rept_Date":"2020-01-26 13"},"coordinates":[1220,5231]},{"type":"Point","properties":{"Station_ID":"NH-CR-11","Station_Nam":"NORTH CONWAY 1.4 SSW, NH","Latitude":"44.03556","Longitude":"-71.14010","Snowdepth":"11.500","Units":"in","Rept_Date":"2020-01-26 12"},"coordinates":[6125,5214]},{"type":"Point","properties":{"Station_ID":"ME-CM-125","Station_Nam":"CUMBERLAND CENTER 4.4 NW, ME","Latitude":"43.84640","Longitude":"-70.31340","Snowdepth":"11.500","Units":"in","Rept_Date":"2020-01-26 12"},"coordinates":[6319,5096]},{"type":"Point","properties":{"Station_ID":"CAN-NB-97","Station_Nam":"NEW MARYLAND 0.6 NW, CAN","Latitude":"45.90112","Longitude":"-66.68739","Snowdepth":"11.400","Units":"in","Rept_Date":"2020-01-26 13"},"coordinates":[7170,6375]},{"type":"Point","properties":{"Station_ID":"WMRM5","Station_Nam":"WILLMAR 5N","Latitude":"45.19010","Longitude":"-95.05860","Snowdepth":"11.000","Units":"in","Rept_Date":"2020-01-26 12"},"coordinates":[512,5932]},{"type":"Point","properties":{"Station_ID":"WI-DA-35","Station_Nam":"MADISON 5.5 N, WI","Latitude":"43.15858","Longitude":"-89.37280","Snowdepth":"11.000","Units":"in","Rept_Date":"2020-01-26 14"},"coordinates":[1846,4668]},{"type":"Point","properties":{"Station_ID":"WASW3","Station_Nam":"WASHINGTON IS","Latitude":"45.35800","Longitude":"-86.89110","Snowdepth":"11.000","Units":"in","Rept_Date":"2020-01-26 13"},"coordinates":[2428,6037]},{"type":"Point","properties":{"Station_ID":"VT-WS-15","Station_Nam":"EAST CALAIS 1.5 SW, VT","Latitude":"44.35523","Longitude":"-72.45540","Snowdepth":"11.000","Units":"in","Rept_Date":"2020-01-26 12"},"coordinates":[5816,5413]},{"type":"Point","properties":{"Station_ID":"TAHW3","Station_Nam":"TAYCHEEDAH","Latitude":"43.83390","Longitude":"-88.34690","Snowdepth":"11.000","Units":"in","Rept_Date":"2020-01-26 12"},"coordinates":[2087,5088]},{"type":"Point","properties":{"Station_ID":"SANI4","Station_Nam":"ST ANSGAR","Latitude":"43.38170","Longitude":"-92.92320","Snowdepth":"11.000","Units":"in","Rept_Date":"2020-01-26 12"},"coordinates":[1013,4807]},{"type":"Point","properties":{"Station_ID":"OCNW3","Station_Nam":"OCONTO 4 W","Latitude":"44.89190","Longitude":"-87.95500","Snowdepth":"11.000","Units":"in","Rept_Date":"2020-01-26 13"},"coordinates":[2179,5747]},{"type":"Point","properties":{"Station_ID":"NUMN3","Station_Nam":"NORTHUMBERLAND","Latitude":"44.52830","Longitude":"-71.50440","Snowdepth":"11.000","Units":"in","Rept_Date":"2020-01-26 13"},"coordinates":[6040,5520]},{"type":"Point","properties":{"Station_ID":"NH-CS-4","Station_Nam":"PITTSBURG 6.1 NE, NH","Latitude":"45.11060","Longitude":"-71.29760","Snowdepth":"11.000","Units":"in","Rept_Date":"2020-01-26 12"},"coordinates":[6088,5883]},{"type":"Point","properties":{"Station_ID":"NCBN6","Station_Nam":"NEWCOMB","Latitude":"43.97070","Longitude":"-74.22200","Snowdepth":"11.000","Units":"in","Rept_Date":"2020-01-26 14"},"coordinates":[5402,5174]},{"type":"Point","properties":{"Station_ID":"MNG0GYSN","Station_Nam":"LONSDALE 1.1 SSW","Latitude":"44.46445","Longitude":"-93.43293","Snowdepth":"11.000","Units":"in","Rept_Date":"2020-01-26 12"},"coordinates":[893,5481]},{"type":"Point","properties":{"Station_ID":"MN228YHJ","Station_Nam":"RICE 2.8 ESE","Latitude":"45.73609","Longitude":"-94.17230","Snowdepth":"11.000","Units":"in","Rept_Date":"2020-01-26 13"},"coordinates":[720,6272]},{"type":"Point","properties":{"Station_ID":"MN-RC-1","Station_Nam":"MONTGOMERY 3.2 ENE, MN","Latitude":"44.46400","Longitude":"-93.51980","Snowdepth":"11.000","Units":"in","Rept_Date":"2020-01-26 12"},"coordinates":[873,5480]},{"type":"Point","properties":{"Station_ID":"MDDW3","Station_Nam":"MIDDLETON,WI","Latitude":"43.09060","Longitude":"-89.51470","Snowdepth":"11.000","Units":"in","Rept_Date":"2020-01-26 13"},"coordinates":[1813,4626]},{"type":"Point","properties":{"Station_ID":"MABM5","Station_Nam":"MABEL","Latitude":"43.52410","Longitude":"-91.76160","Snowdepth":"11.000","Units":"in","Rept_Date":"2020-01-26 13"},"coordinates":[1285,4896]},{"type":"Point","properties":{"Station_ID":"LBKV1","Station_Nam":"LYE BROOK","Latitude":"43.05000","Longitude":"-73.03330","Snowdepth":"11.000","Units":"in","Rept_Date":"2020-01-27 06"},"coordinates":[5681,4601]},{"type":"Point","properties":{"Station_ID":"LACN3","Station_Nam":"LACONIA","Latitude":"43.53010","Longitude":"-71.46260","Snowdepth":"11.000","Units":"in","Rept_Date":"2020-01-26 12"},"coordinates":[6049,4899]},{"type":"Point","properties":{"Station_ID":"ISEM5","Station_Nam":"ISLE 12N","Latitude":"46.31970","Longitude":"-93.50140","Snowdepth":"11.000","Units":"in","Rept_Date":"2020-01-26 14"},"coordinates":[877,6635]},{"type":"Point","properties":{"Station_ID":"INDN6","Station_Nam":"INDIAN LAKE","Latitude":"43.75500","Longitude":"-74.27560","Snowdepth":"11.000","Units":"in","Rept_Date":"2020-01-26 13"},"coordinates":[5389,5039]},{"type":"Point","properties":{"Station_ID":"HORW3","Station_Nam":"HORICON WWTP","Latitude":"43.45000","Longitude":"-88.63330","Snowdepth":"11.000","Units":"in","Rept_Date":"2020-01-26 13"},"coordinates":[2020,4850]},{"type":"Point","properties":{"Station_ID":"HOLM1","Station_Nam":"HOLLIS","Latitude":"43.64750","Longitude":"-70.67490","Snowdepth":"11.000","Units":"in","Rept_Date":"2020-01-26 12"},"coordinates":[6234,4972]},{"type":"Point","properties":{"Station_ID":"ESGM1","Station_Nam":"EAST SANGERVILLE","Latitude":"45.13690","Longitude":"-69.28060","Snowdepth":"11.000","Units":"in","Rept_Date":"2020-01-26 12"},"coordinates":[6562,5899]},{"type":"Point","properties":{"Station_ID":"EJDM4","Station_Nam":"EAST JORDAN","Latitude":"45.15190","Longitude":"-85.13220","Snowdepth":"11.000","Units":"in","Rept_Date":"2020-01-26 13"},"coordinates":[2841,5908]},{"type":"Point","properties":{"Station_ID":"DTVM4","Station_Nam":"DETOUR VILLAGE","Latitude":"45.99830","Longitude":"-83.90130","Snowdepth":"11.000","Units":"in","Rept_Date":"2020-01-26 13"},"coordinates":[3130,6435]},{"type":"Point","properties":{"Station_ID":"DGVW3","Station_Nam":"DODGEVILLE","Latitude":"42.96670","Longitude":"-90.11670","Snowdepth":"11.000","Units":"in","Rept_Date":"2020-01-26 13"},"coordinates":[1671,4549]},{"type":"Point","properties":{"Station_ID":"CAN-PE-50","Station_Nam":"BEDFORD CORNER 3.9 WNW, CAN","Latitude":"46.34628","Longitude":"-63.06157","Snowdepth":"11.000","Units":"in","Rept_Date":"2020-01-26 11"},"coordinates":[8021,6651]},{"type":"Point","properties":{"Station_ID":"CAN-NB-64","Station_Nam":"KESWICK RIDGE 4.0 SE, CAN","Latitude":"45.97014","Longitude":"-66.85538","Snowdepth":"11.000","Units":"in","Rept_Date":"2020-01-26 12"},"coordinates":[7131,6417]},{"type":"Point","properties":{"Station_ID":"BTLN3","Station_Nam":"BARTLETT","Latitude":"44.08380","Longitude":"-71.29340","Snowdepth":"11.000","Units":"in","Rept_Date":"2020-01-26 12"},"coordinates":[6089,5244]},{"type":"Point","properties":{"Station_ID":"BRLN3","Station_Nam":"BERLIN","Latitude":"44.45350","Longitude":"-71.18540","Snowdepth":"11.000","Units":"in","Rept_Date":"2020-01-26 13"},"coordinates":[6115,5474]},{"type":"Point","properties":{"Station_ID":"BMRW3","Station_Nam":"BLOOMER","Latitude":"45.09070","Longitude":"-91.48640","Snowdepth":"11.000","Units":"in","Rept_Date":"2020-01-26 14"},"coordinates":[1350,5870]},{"type":"Point","properties":{"Station_ID":"BEAW3","Station_Nam":"BEAVER DAM,WI","Latitude":"43.45000","Longitude":"-88.85000","Snowdepth":"11.000","Units":"in","Rept_Date":"2020-01-26 13"},"coordinates":[1969,4850]},{"type":"Point","properties":{"Station_ID":"APLW3","Station_Nam":"APPLETON WHBY RADIO","Latitude":"44.25110","Longitude":"-88.36440","Snowdepth":"11.000","Units":"in","Rept_Date":"2020-01-26 14"},"coordinates":[2083,5348]},{"type":"Point","properties":{"Station_ID":"AMHW3","Station_Nam":"AMHERST-3 SE","Latitude":"44.41280","Longitude":"-89.26390","Snowdepth":"11.000","Units":"in","Rept_Date":"2020-01-26 13"},"coordinates":[1872,5449]},{"type":"Point","properties":{"Station_ID":"CAN-QC-51","Station_Nam":"BELOEIL 0.7 NW, CAN","Latitude":"45.58049","Longitude":"-73.21218","Snowdepth":"10.800","Units":"in","Rept_Date":"2020-01-26 12"},"coordinates":[5639,6175]},{"type":"Point","properties":{"Station_ID":"CAN-ON-120","Station_Nam":"DUNROBIN 5.8 NE MIVCA, CA","Latitude":"45.46243","Longitude":"-75.97120","Snowdepth":"10.600","Units":"in","Rept_Date":"2020-01-26 12"},"coordinates":[4991,6102]},{"type":"Point","properties":{"Station_ID":"WI-WH-7","Station_Nam":"WILD ROSE 0.5 E, WI","Latitude":"44.17764","Longitude":"-89.23812","Snowdepth":"10.500","Units":"in","Rept_Date":"2020-01-26 13"},"coordinates":[1878,5302]},{"type":"Point","properties":{"Station_ID":"VT-CL-14","Station_Nam":"LYNDONVILLE 1.1 W, VT","Latitude":"44.53582","Longitude":"-72.02867","Snowdepth":"10.500","Units":"in","Rept_Date":"2020-01-26 12"},"coordinates":[5917,5525]},{"type":"Point","properties":{"Station_ID":"NY-CL-12","Station_Nam":"SARANAC 0.8 SSE, NY","Latitude":"44.63980","Longitude":"-73.73848","Snowdepth":"10.500","Units":"in","Rept_Date":"2020-01-26 12"},"coordinates":[5515,5590]},{"type":"Point","properties":{"Station_ID":"NH-GR-49","Station_Nam":"PLYMOUTH 3.7 N, NH","Latitude":"43.79048","Longitude":"-71.68413","Snowdepth":"10.500","Units":"in","Rept_Date":"2020-01-26 12"},"coordinates":[5997,5061]},{"type":"Point","properties":{"Station_ID":"ME-YK-3","Station_Nam":"HOLLIS CENTER 5.4 NW, ME","Latitude":"43.64750","Longitude":"-70.67510","Snowdepth":"10.500","Units":"in","Rept_Date":"2020-01-26 12"},"coordinates":[6234,4972]},{"type":"Point","properties":{"Station_ID":"CAN-NB-1","Station_Nam":"FREDERICTON 4.0 SSE, CA","Latitude":"45.92897","Longitude":"-66.62830","Snowdepth":"10.200","Units":"in","Rept_Date":"2020-01-26 11"},"coordinates":[7184,6392]},{"type":"Point","properties":{"Station_ID":"WWWW3","Station_Nam":"WAUPACA","Latitude":"44.35470","Longitude":"-89.05920","Snowdepth":"10.000","Units":"in","Rept_Date":"2020-01-26 14"},"coordinates":[1920,5412]},{"type":"Point","properties":{"Station_ID":"WNNM5","Station_Nam":"WINNEBAGO","Latitude":"43.76920","Longitude":"-94.18730","Snowdepth":"10.000","Units":"in","Rept_Date":"2020-01-26 14"},"coordinates":[716,5048]},{"type":"Point","properties":{"Station_ID":"WI-WN-9","Station_Nam":"NEENAH 1.1 ENE, WI","Latitude":"44.17370","Longitude":"-88.45130","Snowdepth":"10.000","Units":"in","Rept_Date":"2020-01-26 13"},"coordinates":[2062,5300]},{"type":"Point","properties":{"Station_ID":"WI-WN-5","Station_Nam":"OSHKOSH 5.2 N, WI","Latitude":"44.09351","Longitude":"-88.55310","Snowdepth":"10.000","Units":"in","Rept_Date":"2020-01-26 13"},"coordinates":[2038,5250]},{"type":"Point","properties":{"Station_ID":"WI-WD-2","Station_Nam":"WISCONSIN RAPIDS 4.6 SSE, WI","Latitude":"44.33823","Longitude":"-89.78200","Snowdepth":"10.000","Units":"in","Rept_Date":"2020-01-26 13"},"coordinates":[1750,5402]},{"type":"Point","properties":{"Station_ID":"WI-DR-5","Station_Nam":"ELLISON BAY 2.2 E, WI","Latitude":"45.25750","Longitude":"-87.02670","Snowdepth":"10.000","Units":"in","Rept_Date":"2020-01-26 13"},"coordinates":[2397,5974]},{"type":"Point","properties":{"Station_ID":"WDOM5","Station_Nam":"WINDOM","Latitude":"43.87700","Longitude":"-95.11590","Snowdepth":"10.000","Units":"in","Rept_Date":"2020-01-26 14"},"coordinates":[498,5115]},{"type":"Point","properties":{"Station_ID":"VT-WS-30","Station_Nam":"WOODBURY 3.4 NNW, VT","Latitude":"44.48825","Longitude":"-72.43258","Snowdepth":"10.000","Units":"in","Rept_Date":"2020-01-26 12"},"coordinates":[5822,5496]},{"type":"Point","properties":{"Station_ID":"SHHW3","Station_Nam":"SHAWANO 2SSW","Latitude":"44.76310","Longitude":"-88.61830","Snowdepth":"10.000","Units":"in","Rept_Date":"2020-01-26 14"},"coordinates":[2023,5667]},{"type":"Point","properties":{"Station_ID":"RGNM1","Station_Nam":"RANGELEY 2NW","Latitude":"44.98940","Longitude":"-70.67220","Snowdepth":"10.000","Units":"in","Rept_Date":"2020-01-26 15"},"coordinates":[6235,5807]},{"type":"Point","properties":{"Station_ID":"RDYM4","Station_Nam":"RUDYARD 4S","Latitude":"46.18170","Longitude":"-84.60140","Snowdepth":"10.000","Units":"in","Rept_Date":"2020-01-26 12"},"coordinates":[2966,6549]},{"type":"Point","properties":{"Station_ID":"RANM1","Station_Nam":"RANGELEY","Latitude":"44.98910","Longitude":"-70.67190","Snowdepth":"10.000","Units":"in","Rept_Date":"2020-01-26 14"},"coordinates":[6235,5807]},{"type":"Point","properties":{"Station_ID":"PTBN3","Station_Nam":"PITTSBURG RESERVOIR","Latitude":"45.04690","Longitude":"-71.38300","Snowdepth":"10.000","Units":"in","Rept_Date":"2020-01-26 12"},"coordinates":[6068,5843]},{"type":"Point","properties":{"Station_ID":"OOHW3","Station_Nam":"OSHKOSH 5 N","Latitude":"44.09360","Longitude":"-88.55310","Snowdepth":"10.000","Units":"in","Rept_Date":"2020-01-26 13"},"coordinates":[2038,5250]},{"type":"Point","properties":{"Station_ID":"NPTV1","Station_Nam":"NEWPORT","Latitude":"44.94900","Longitude":"-72.19120","Snowdepth":"10.000","Units":"in","Rept_Date":"2020-01-26 12"},"coordinates":[5878,5782]},{"type":"Point","properties":{"Station_ID":"NH-CR-26","Station_Nam":"CENTER SANDWICH 4.9 E, NH","Latitude":"43.80976","Longitude":"-71.34150","Snowdepth":"10.000","Units":"in","Rept_Date":"2020-01-26 12"},"coordinates":[6078,5073]},{"type":"Point","properties":{"Station_ID":"MRBW3","Station_Nam":"MT HOREB","Latitude":"42.98030","Longitude":"-89.73940","Snowdepth":"10.000","Units":"in","Rept_Date":"2020-01-26 13"},"coordinates":[1760,4557]},{"type":"Point","properties":{"Station_ID":"MONW3","Station_Nam":"MONROE,WI","Latitude":"42.60000","Longitude":"-89.66670","Snowdepth":"10.000","Units":"in","Rept_Date":"2020-01-26 12"},"coordinates":[1777,4321]},{"type":"Point","properties":{"Station_ID":"MN-HN-181","Station_Nam":"MINNEAPOLIS 0.4 NE, MN","Latitude":"44.96708","Longitude":"-93.26222","Snowdepth":"10.000","Units":"in","Rept_Date":"2020-01-26 13"},"coordinates":[933,5793]},{"type":"Point","properties":{"Station_ID":"MN-DK-73","Station_Nam":"LAKEVILLE 2.6 NNE, MN","Latitude":"44.71250","Longitude":"-93.23043","Snowdepth":"10.000","Units":"in","Rept_Date":"2020-01-26 13"},"coordinates":[941,5635]},{"type":"Point","properties":{"Station_ID":"MN-DK-70","Station_Nam":"EAGAN 2.0 NNW, MN","Latitude":"44.84322","Longitude":"-93.17899","Snowdepth":"10.000","Units":"in","Rept_Date":"2020-01-26 14"},"coordinates":[953,5716]},{"type":"Point","properties":{"Station_ID":"MN-CG-16","Station_Nam":"NORTH BRANCH 1.3 NNW, MN","Latitude":"45.53121","Longitude":"-92.97110","Snowdepth":"10.000","Units":"in","Rept_Date":"2020-01-26 12"},"coordinates":[1002,6144]},{"type":"Point","properties":{"Station_ID":"MIAM5","Station_Nam":"MILAN 1NW","Latitude":"45.12190","Longitude":"-95.92690","Snowdepth":"10.000","Units":"in","Rept_Date":"2020-01-27 00"},"coordinates":[308,5890]},{"type":"Point","properties":{"Station_ID":"ME-CM-86","Station_Nam":"POWNAL 4.1 S, ME","Latitude":"43.85370","Longitude":"-70.17210","Snowdepth":"10.000","Units":"in","Rept_Date":"2020-01-26 12"},"coordinates":[6352,5101]},{"type":"Point","properties":{"Station_ID":"LPLN6","Station_Nam":"LAKE PLACID 2 S","Latitude":"44.30420","Longitude":"-73.98390","Snowdepth":"10.000","Units":"in","Rept_Date":"2020-01-26 13"},"coordinates":[5458,5381]},{"type":"Point","properties":{"Station_ID":"KIMM5","Station_Nam":"KIMBALL 3N","Latitude":"45.35330","Longitude":"-94.30560","Snowdepth":"10.000","Units":"in","Rept_Date":"2020-01-26 12"},"coordinates":[688,6034]},{"type":"Point","properties":{"Station_ID":"HRTM1","Station_Nam":"HARTFORD","Latitude":"44.37440","Longitude":"-70.31620","Snowdepth":"10.000","Units":"in","Rept_Date":"2020-01-26 12"},"coordinates":[6318,5425]},{"type":"Point","properties":{"Station_ID":"FYTI4","Station_Nam":"FAYETTE","Latitude":"42.88300","Longitude":"-91.83020","Snowdepth":"10.000","Units":"in","Rept_Date":"2020-01-26 13"},"coordinates":[1269,4497]},{"type":"Point","properties":{"Station_ID":"FARM1","Station_Nam":"FARMINGTON","Latitude":"44.68930","Longitude":"-70.15640","Snowdepth":"10.000","Units":"in","Rept_Date":"2020-01-26 12"},"coordinates":[6356,5621]},{"type":"Point","properties":{"Station_ID":"ESDN3","Station_Nam":"EAST SANDWICH","Latitude":"43.80990","Longitude":"-71.34250","Snowdepth":"10.000","Units":"in","Rept_Date":"2020-01-26 11"},"coordinates":[6078,5074]},{"type":"Point","properties":{"Station_ID":"ENFV1","Station_Nam":"ENOSBURG FALLS 2","Latitude":"44.90960","Longitude":"-72.81370","Snowdepth":"10.000","Units":"in","Rept_Date":"2020-01-26 12"},"coordinates":[5732,5758]},{"type":"Point","properties":{"Station_ID":"EGNM5","Station_Nam":"ELGIN 2SSW","Latitude":"44.09700","Longitude":"-92.27010","Snowdepth":"10.000","Units":"in","Rept_Date":"2020-01-26 13"},"coordinates":[1166,5252]},{"type":"Point","properties":{"Station_ID":"DURM1","Station_Nam":"DURHAM","Latitude":"43.99960","Longitude":"-70.09630","Snowdepth":"10.000","Units":"in","Rept_Date":"2020-01-26 12"},"coordinates":[6370,5192]},{"type":"Point","properties":{"Station_ID":"DENW3","Station_Nam":"DENMARK WWTP","Latitude":"44.35130","Longitude":"-87.81190","Snowdepth":"10.000","Units":"in","Rept_Date":"2020-01-26 14"},"coordinates":[2212,5410]},{"type":"Point","properties":{"Station_ID":"CHES2","Station_Nam":"CHESTER 2N","Latitude":"43.92830","Longitude":"-96.93160","Snowdepth":"10.000","Units":"in","Rept_Date":"2020-01-26 13"},"coordinates":[72,5147]},{"type":"Point","properties":{"Station_ID":"CAN-PE-10","Station_Nam":"NEW LONDON 1.6 ENE, CA","Latitude":"46.46985","Longitude":"-63.49200","Snowdepth":"10.000","Units":"in","Rept_Date":"2020-01-26 12"},"coordinates":[7920,6728]},{"type":"Point","properties":{"Station_ID":"BLGW3","Station_Nam":"BELGIUM WWTP","Latitude":"43.51310","Longitude":"-87.85440","Snowdepth":"10.000","Units":"in","Rept_Date":"2020-01-26 16"},"coordinates":[2202,4889]},{"type":"Point","properties":{"Station_ID":"BDMW3","Station_Nam":"BEAVER DAM 1 N","Latitude":"43.46860","Longitude":"-88.83970","Snowdepth":"10.000","Units":"in","Rept_Date":"2020-01-26 15"},"coordinates":[1971,4861]},{"type":"Point","properties":{"Station_ID":"APPW3","Station_Nam":"APPLETON","Latitude":"44.27690","Longitude":"-88.43770","Snowdepth":"10.000","Units":"in","Rept_Date":"2020-01-26 12"},"coordinates":[2066,5364]},{"type":"Point","properties":{"Station_ID":"ALLW3","Station_Nam":"ALLENTON","Latitude":"43.42360","Longitude":"-88.35110","Snowdepth":"10.000","Units":"in","Rept_Date":"2020-01-26 12"},"coordinates":[2086,4833]},{"type":"Point","properties":{"Station_ID":"ALGI4","Station_Nam":"ALGONA,IA","Latitude":"43.06670","Longitude":"-94.30610","Snowdepth":"10.000","Units":"in","Rept_Date":"2020-01-26 14"},"coordinates":[688,4611]},{"type":"Point","properties":{"Station_ID":"IA-KS-4","Station_Nam":"ALGONA 0.7 SE, IA","Latitude":"43.06627","Longitude":"-94.22214","Snowdepth":"9.800","Units":"in","Rept_Date":"2020-01-26 13"},"coordinates":[708,4611]},{"type":"Point","properties":{"Station_ID":"WI-WK-73","Station_Nam":"MENOMONEE FALLS 3.2 NNW, WI","Latitude":"43.18817","Longitude":"-88.15555","Snowdepth":"9.500","Units":"in","Rept_Date":"2020-01-26 13"},"coordinates":[2132,4687]},{"type":"Point","properties":{"Station_ID":"WI-DD-4","Station_Nam":"BEAVER DAM 1.4 SSW, WI","Latitude":"43.44719","Longitude":"-88.85260","Snowdepth":"9.500","Units":"in","Rept_Date":"2020-01-26 14"},"coordinates":[1968,4848]},{"type":"Point","properties":{"Station_ID":"WI-DA-33","Station_Nam":"OREGON 0.4 SSW, WI","Latitude":"42.92080","Longitude":"-89.38540","Snowdepth":"9.500","Units":"in","Rept_Date":"2020-01-26 13"},"coordinates":[1843,4520]},{"type":"Point","properties":{"Station_ID":"WI-CT-4","Station_Nam":"MENASHA 5.4 ESE, WI","Latitude":"44.19640","Longitude":"-88.33070","Snowdepth":"9.500","Units":"in","Rept_Date":"2020-01-26 13"},"coordinates":[2091,5314]},{"type":"Point","properties":{"Station_ID":"VT-WS-10","Station_Nam":"NORTHFIELD 1.5 N, VT","Latitude":"44.16986","Longitude":"-72.65200","Snowdepth":"9.500","Units":"in","Rept_Date":"2020-01-26 12"},"coordinates":[5770,5297]},{"type":"Point","properties":{"Station_ID":"VT-WR-2","Station_Nam":"POMFRET 2.6 N, VT","Latitude":"43.74230","Longitude":"-72.52550","Snowdepth":"9.500","Units":"in","Rept_Date":"2020-01-26 12"},"coordinates":[5800,5031]},{"type":"Point","properties":{"Station_ID":"MN-DK-53","Station_Nam":"LAKEVILLE 3.8 ENE, MN","Latitude":"44.70423","Longitude":"-93.18460","Snowdepth":"9.500","Units":"in","Rept_Date":"2020-01-26 14"},"coordinates":[951,5630]},{"type":"Point","properties":{"Station_ID":"MN-AA-76","Station_Nam":"NOWTHEN 2.9 SSE, MN","Latitude":"45.30360","Longitude":"-93.42620","Snowdepth":"9.500","Units":"in","Rept_Date":"2020-01-26 13"},"coordinates":[895,6003]},{"type":"Point","properties":{"Station_ID":"MI-GT-21","Station_Nam":"KINGSLEY 2.7 ENE, MI","Latitude":"44.59871","Longitude":"-85.48426","Snowdepth":"9.500","Units":"in","Rept_Date":"2020-01-26 13"},"coordinates":[2759,5564]},{"type":"Point","properties":{"Station_ID":"ME-FR-22","Station_Nam":"FARMINGTON 4.8 NNW, ME","Latitude":"44.73396","Longitude":"-70.18007","Snowdepth":"9.500","Units":"in","Rept_Date":"2020-01-26 14"},"coordinates":[6350,5648]},{"type":"Point","properties":{"Station_ID":"ME-CM-3","Station_Nam":"NEW GLOUCESTER 3.0 SE, ME","Latitude":"43.92372","Longitude":"-70.25790","Snowdepth":"9.500","Units":"in","Rept_Date":"2020-01-26 12"},"coordinates":[6332,5144]},{"type":"Point","properties":{"Station_ID":"WSTW3","Station_Nam":"WEST BEND -FIRE","Latitude":"43.43138","Longitude":"-88.16111","Snowdepth":"9.000","Units":"in","Rept_Date":"2020-01-26 13"},"coordinates":[2130,4838]},{"type":"Point","properties":{"Station_ID":"WORV1","Station_Nam":"WORCESTER 2 W","Latitude":"44.37470","Longitude":"-72.58220","Snowdepth":"9.000","Units":"in","Rept_Date":"2020-01-26 12"},"coordinates":[5787,5425]},{"type":"Point","properties":{"Station_ID":"WMTI4","Station_Nam":"FORT DODGE,IA","Latitude":"42.50610","Longitude":"-94.20110","Snowdepth":"9.000","Units":"in","Rept_Date":"2020-01-26 15"},"coordinates":[713,4262]},{"type":"Point","properties":{"Station_ID":"WLBI4","Station_Nam":"WILLIAMSBURG 3 SE","Latitude":"41.64020","Longitude":"-91.97840","Snowdepth":"9.000","Units":"in","Rept_Date":"2020-01-26 13"},"coordinates":[1235,3724]},{"type":"Point","properties":{"Station_ID":"WI-WN-15","Station_Nam":"OSHKOSH 2.0 W, WI","Latitude":"44.01962","Longitude":"-88.59359","Snowdepth":"9.000","Units":"in","Rept_Date":"2020-01-26 13"},"coordinates":[2029,5204]},{"type":"Point","properties":{"Station_ID":"WI-WK-47","Station_Nam":"NEW BERLIN 1.9 WNW, WI","Latitude":"42.98378","Longitude":"-88.16323","Snowdepth":"9.000","Units":"in","Rept_Date":"2020-01-26 13"},"coordinates":[2130,4560]},{"type":"Point","properties":{"Station_ID":"WI-VR-1","Station_Nam":"HILLSBORO 0.5 WSW, WI","Latitude":"43.65138","Longitude":"-90.34753","Snowdepth":"9.000","Units":"in","Rept_Date":"2020-01-26 13"},"coordinates":[1617,4975]},{"type":"Point","properties":{"Station_ID":"WI-OZ-17","Station_Nam":"WEST BEND 7.3 E, WI","Latitude":"43.42860","Longitude":"-88.03870","Snowdepth":"9.000","Units":"in","Rept_Date":"2020-01-26 13"},"coordinates":[2159,4836]},{"type":"Point","properties":{"Station_ID":"WI-CB-5","Station_Nam":"PORTAGE 7.2 SW, WI","Latitude":"43.47933","Longitude":"-89.57370","Snowdepth":"9.000","Units":"in","Rept_Date":"2020-01-26 13"},"coordinates":[1799,4868]},{"type":"Point","properties":{"Station_ID":"WHTM5","Station_Nam":"WHEATON,MN","Latitude":"45.80000","Longitude":"-96.48330","Snowdepth":"9.000","Units":"in","Rept_Date":"2020-01-26 14"},"coordinates":[177,6312]},{"type":"Point","properties":{"Station_ID":"WAOW3","Station_Nam":"WAUTOMA SILVER LAKE SANITARY DISTRICT","Latitude":"44.04110","Longitude":"-89.24330","Snowdepth":"9.000","Units":"in","Rept_Date":"2020-01-26 14"},"coordinates":[1876,5217]},{"type":"Point","properties":{"Station_ID":"VT-OL-2","Station_Nam":"BARTON 3.0 ENE, VT","Latitude":"44.75863","Longitude":"-72.11680","Snowdepth":"9.000","Units":"in","Rept_Date":"2020-01-26 12"},"coordinates":[5896,5664]},{"type":"Point","properties":{"Station_ID":"VT-ES-3","Station_Nam":"LUNENBURG 2.3 NNW, VT","Latitude":"44.49324","Longitude":"-71.70446","Snowdepth":"9.000","Units":"in","Rept_Date":"2020-01-26 11"},"coordinates":[5993,5499]},{"type":"Point","properties":{"Station_ID":"TMWN3","Station_Nam":"TAMWORTH 4","Latitude":"43.86390","Longitude":"-71.26610","Snowdepth":"9.000","Units":"in","Rept_Date":"2020-01-26 12"},"coordinates":[6096,5107]},{"type":"Point","properties":{"Station_ID":"TCEM4","Station_Nam":"TRAVERSE CITY 5ESE","Latitude":"44.73370","Longitude":"-85.51180","Snowdepth":"9.000","Units":"in","Rept_Date":"2020-01-26 12"},"coordinates":[2752,5648]},{"type":"Point","properties":{"Station_ID":"SSSS2","Station_Nam":"MILBANK-36MI.NW","Latitude":"45.66670","Longitude":"-97.00000","Snowdepth":"9.000","Units":"in","Rept_Date":"2020-01-27 04"},"coordinates":[56,6229]},{"type":"Point","properties":{"Station_ID":"SHDI4","Station_Nam":"SHELDON,IA","Latitude":"43.18080","Longitude":"-95.85280","Snowdepth":"9.000","Units":"in","Rept_Date":"2020-01-26 13"},"coordinates":[325,4682]},{"type":"Point","properties":{"Station_ID":"SD-MH-8","Station_Nam":"HARTFORD 6.4 S, SD","Latitude":"43.53128","Longitude":"-96.95020","Snowdepth":"9.000","Units":"in","Rept_Date":"2020-01-26 14"},"coordinates":[68,4900]},{"type":"Point","properties":{"Station_ID":"RST","Station_Nam":"ROCHESTER INTERNATIONAL ARPT","Latitude":"43.90890","Longitude":"-92.49780","Snowdepth":"9.000","Units":"in","Rept_Date":"2020-01-27 00"},"coordinates":[1113,5135]},{"type":"Point","properties":{"Station_ID":"RSRM5","Station_Nam":"ROCHESTER AP 2NE","Latitude":"43.92810","Longitude":"-92.47580","Snowdepth":"9.000","Units":"in","Rept_Date":"2020-01-26 18"},"coordinates":[1118,5147]},{"type":"Point","properties":{"Station_ID":"RKWI4","Station_Nam":"ROCKWELL CITY,IA","Latitude":"42.40000","Longitude":"-94.61670","Snowdepth":"9.000","Units":"in","Rept_Date":"2020-01-26 13"},"coordinates":[615,4196]},{"type":"Point","properties":{"Station_ID":"PLOW3","Station_Nam":"PLOVER","Latitude":"44.44280","Longitude":"-89.54530","Snowdepth":"9.000","Units":"in","Rept_Date":"2020-01-26 13"},"coordinates":[1806,5467]},{"type":"Point","properties":{"Station_ID":"OSEI4","Station_Nam":"OSCEOLA,IA","Latitude":"41.01670","Longitude":"-93.81670","Snowdepth":"9.000","Units":"in","Rept_Date":"2020-01-26 13"},"coordinates":[803,3336]},{"type":"Point","properties":{"Station_ID":"OOSW3","Station_Nam":"OSHKOSH 6 S","Latitude":"43.93750","Longitude":"-88.54250","Snowdepth":"9.000","Units":"in","Rept_Date":"2020-01-26 13"},"coordinates":[2041,5153]},{"type":"Point","properties":{"Station_ID":"NY-FK-9","Station_Nam":"GABRIELS 1.3 SE, NY","Latitude":"44.41934","Longitude":"-74.16194","Snowdepth":"9.000","Units":"in","Rept_Date":"2020-01-26 12"},"coordinates":[5416,5453]},{"type":"Point","properties":{"Station_ID":"NUMM5","Station_Nam":"NEW ULM 3SE","Latitude":"44.29450","Longitude":"-94.40840","Snowdepth":"9.000","Units":"in","Rept_Date":"2020-01-26 13"},"coordinates":[664,5375]},{"type":"Point","properties":{"Station_ID":"NH-CR-27","Station_Nam":"TAMWORTH 0.4 NNW, NH","Latitude":"43.86449","Longitude":"-71.26610","Snowdepth":"9.000","Units":"in","Rept_Date":"2020-01-26 12"},"coordinates":[6096,5107]},{"type":"Point","properties":{"Station_ID":"NH-BK-9","Station_Nam":"MEREDITH 2.9 SSW, NH","Latitude":"43.62245","Longitude":"-71.53510","Snowdepth":"9.000","Units":"in","Rept_Date":"2020-01-26 12"},"coordinates":[6032,4957]},{"type":"Point","properties":{"Station_ID":"NCON3","Station_Nam":"NORTH CONWAY","Latitude":"44.05620","Longitude":"-71.12970","Snowdepth":"9.000","Units":"in","Rept_Date":"2020-01-26 13"},"coordinates":[6128,5227]},{"type":"Point","properties":{"Station_ID":"NAZW3","Station_Nam":"ST. NAZIANZ-2 W","Latitude":"44.00420","Longitude":"-87.96360","Snowdepth":"9.000","Units":"in","Rept_Date":"2020-01-26 13"},"coordinates":[2177,5194]},{"type":"Point","properties":{"Station_ID":"MTAI4","Station_Nam":"MOUNT AYR,IA","Latitude":"40.68280","Longitude":"-94.29440","Snowdepth":"9.000","Units":"in","Rept_Date":"2020-01-26 13"},"coordinates":[691,3128]},{"type":"Point","properties":{"Station_ID":"MRFS2","Station_Nam":"MADISON,SD","Latitude":"44.00000","Longitude":"-97.23330","Snowdepth":"9.000","Units":"in","Rept_Date":"2020-01-26 15"},"coordinates":[1,5192]},{"type":"Point","properties":{"Station_ID":"MONS2","Station_Nam":"MONTROSE","Latitude":"43.70500","Longitude":"-97.18780","Snowdepth":"9.000","Units":"in","Rept_Date":"2020-01-26 14"},"coordinates":[12,5008]},{"type":"Point","properties":{"Station_ID":"MN-RM-2","Station_Nam":"NORTH SAINT PAUL 1.0 NNW, MN","Latitude":"45.02629","Longitude":"-93.00790","Snowdepth":"9.000","Units":"in","Rept_Date":"2020-01-26 12"},"coordinates":[993,5830]},{"type":"Point","properties":{"Station_ID":"MN-HN-78","Station_Nam":"RICHFIELD 1.9 WNW, MN","Latitude":"44.89129","Longitude":"-93.31410","Snowdepth":"9.000","Units":"in","Rept_Date":"2020-01-26 11"},"coordinates":[921,5746]},{"type":"Point","properties":{"Station_ID":"MN-DK-104","Station_Nam":"HASTINGS 1.6 NW, MN","Latitude":"44.74458","Longitude":"-92.88035","Snowdepth":"9.000","Units":"in","Rept_Date":"2020-01-26 13"},"coordinates":[1023,5655]},{"type":"Point","properties":{"Station_ID":"MI-GT-25","Station_Nam":"TRAVERSE CITY 4.7 ESE, MI","Latitude":"44.73370","Longitude":"-85.51189","Snowdepth":"9.000","Units":"in","Rept_Date":"2020-01-26 12"},"coordinates":[2752,5648]},{"type":"Point","properties":{"Station_ID":"MENM4","Station_Nam":"MENOMINEE NO.2","Latitude":"45.11100","Longitude":"-87.61170","Snowdepth":"9.000","Units":"in","Rept_Date":"2020-01-26 14"},"coordinates":[2259,5883]},{"type":"Point","properties":{"Station_ID":"MAUW3","Station_Nam":"MAUSTON 1SE","Latitude":"43.78990","Longitude":"-90.05970","Snowdepth":"9.000","Units":"in","Rept_Date":"2020-01-26 14"},"coordinates":[1685,5061]},{"type":"Point","properties":{"Station_ID":"MAPM4","Station_Nam":"MAPLE CITY 1E","Latitude":"44.85500","Longitude":"-85.83520","Snowdepth":"9.000","Units":"in","Rept_Date":"2020-01-26 23"},"coordinates":[2676,5724]},{"type":"Point","properties":{"Station_ID":"KNXI4","Station_Nam":"KNOXVILLE,IA","Latitude":"41.31670","Longitude":"-93.13330","Snowdepth":"9.000","Units":"in","Rept_Date":"2020-01-26 14"},"coordinates":[963,3522]},{"type":"Point","properties":{"Station_ID":"JEFN3","Station_Nam":"JEFFERSON","Latitude":"44.41690","Longitude":"-71.50080","Snowdepth":"9.000","Units":"in","Rept_Date":"2020-01-26 12"},"coordinates":[6040,5451]},{"type":"Point","properties":{"Station_ID":"ISLV1","Station_Nam":"ISLAND POND","Latitude":"44.81280","Longitude":"-71.89020","Snowdepth":"9.000","Units":"in","Rept_Date":"2020-01-26 15"},"coordinates":[5949,5697]},{"type":"Point","properties":{"Station_ID":"IL-SP-7","Station_Nam":"DAVIS 0.5 N, IL","Latitude":"42.42919","Longitude":"-89.41730","Snowdepth":"9.000","Units":"in","Rept_Date":"2020-01-26 13"},"coordinates":[1836,4215]},{"type":"Point","properties":{"Station_ID":"IA-PK-88","Station_Nam":"DES MOINES 5.4 WNW, IA","Latitude":"41.61721","Longitude":"-93.70573","Snowdepth":"9.000","Units":"in","Rept_Date":"2020-01-26 13"},"coordinates":[829,3709]},{"type":"Point","properties":{"Station_ID":"FLAM4","Station_Nam":"FIFE LAKE 2WNW","Latitude":"44.58480","Longitude":"-85.36530","Snowdepth":"9.000","Units":"in","Rept_Date":"2020-01-26 12"},"coordinates":[2787,5556]},{"type":"Point","properties":{"Station_ID":"DRYW3","Station_Nam":"APPLETON-4 SE DARBOY","Latitude":"44.24970","Longitude":"-88.32780","Snowdepth":"9.000","Units":"in","Rept_Date":"2020-01-26 13"},"coordinates":[2091,5347]},{"type":"Point","properties":{"Station_ID":"DLDI4","Station_Nam":"MISSISSIPPI RIVER","Latitude":"42.51670","Longitude":"-90.65000","Snowdepth":"9.000","Units":"in","Rept_Date":"2020-01-26 12"},"coordinates":[1546,4269]},{"type":"Point","properties":{"Station_ID":"CRCI4","Station_Nam":"CRESCO 1NE","Latitude":"43.38940","Longitude":"-92.09380","Snowdepth":"9.000","Units":"in","Rept_Date":"2020-01-26 14"},"coordinates":[1207,4812]},{"type":"Point","properties":{"Station_ID":"CDLM4","Station_Nam":"CADILLAC 9&10 NEWS","Latitude":"44.21130","Longitude":"-85.40860","Snowdepth":"9.000","Units":"in","Rept_Date":"2020-01-26 12"},"coordinates":[2776,5323]},{"type":"Point","properties":{"Station_ID":"BRLW3","Station_Nam":"BRILLION,WI","Latitude":"44.18330","Longitude":"-88.06670","Snowdepth":"9.000","Units":"in","Rept_Date":"2020-01-26 13"},"coordinates":[2153,5306]},{"type":"Point","properties":{"Station_ID":"BETM1","Station_Nam":"BETHEL 6 SSE","Latitude":"44.32000","Longitude":"-70.75680","Snowdepth":"9.000","Units":"in","Rept_Date":"2020-01-26 12"},"coordinates":[6215,5391]},{"type":"Point","properties":{"Station_ID":"ALXI4","Station_Nam":"WATERLOO SNOW","Latitude":"42.53130","Longitude":"-92.37550","Snowdepth":"9.000","Units":"in","Rept_Date":"2020-01-27 06"},"coordinates":[1141,4278]},{"type":"Point","properties":{"Station_ID":"ALO","Station_Nam":"WATERLOO MUNICIPAL AIRPORT","Latitude":"42.55690","Longitude":"-92.40000","Snowdepth":"9.000","Units":"in","Rept_Date":"2020-01-27 00"},"coordinates":[1136,4294]},{"type":"Point","properties":{"Station_ID":"8D3","Station_Nam":"SISSETON MUNICIPAL AP","Latitude":"45.67080","Longitude":"-96.99610","Snowdepth":"9.000","Units":"in","Rept_Date":"2020-01-26 12"},"coordinates":[57,6231]},{"type":"Point","properties":{"Station_ID":"WI-WS-5","Station_Nam":"JACKSON 0.2 WSW, WI","Latitude":"43.32007","Longitude":"-88.16820","Snowdepth":"8.500","Units":"in","Rept_Date":"2020-01-26 12"},"coordinates":[2129,4769]},{"type":"Point","properties":{"Station_ID":"WI-DA-39","Station_Nam":"MADISON 4.0 W, WI","Latitude":"43.07741","Longitude":"-89.46757","Snowdepth":"8.500","Units":"in","Rept_Date":"2020-01-26 13"},"coordinates":[1824,4618]},{"type":"Point","properties":{"Station_ID":"MN-GH-28","Station_Nam":"CANNON FALLS 0.5 SE, MN","Latitude":"44.50866","Longitude":"-92.89526","Snowdepth":"8.500","Units":"in","Rept_Date":"2020-01-26 14"},"coordinates":[1019,5508]},{"type":"Point","properties":{"Station_ID":"IA-LN-39","Station_Nam":"CEDAR RAPIDS 2.5 WSW, IA","Latitude":"41.95474","Longitude":"-91.71049","Snowdepth":"8.500","Units":"in","Rept_Date":"2020-01-26 14"},"coordinates":[1297,3919]},{"type":"Point","properties":{"Station_ID":"IA-BH-6","Station_Nam":"WATERLOO 1.9 SSE, IA","Latitude":"42.46500","Longitude":"-92.34100","Snowdepth":"8.500","Units":"in","Rept_Date":"2020-01-26 13"},"coordinates":[1149,4237]},{"type":"Point","properties":{"Station_ID":"CAN-NB-16","Station_Nam":"DORCHESTER 1.0 SSE, CAN","Latitude":"45.89160","Longitude":"-64.51269","Snowdepth":"8.500","Units":"in","Rept_Date":"2020-01-26 11"},"coordinates":[7681,6369]},{"type":"Point","properties":{"Station_ID":"WIRW3","Station_Nam":"WIS RAPIDS GRAND AV B","Latitude":"44.39940","Longitude":"-89.83050","Snowdepth":"8.000","Units":"in","Rept_Date":"2020-01-26 13"},"coordinates":[1739,5440]},{"type":"Point","properties":{"Station_ID":"WI-WS-4","Station_Nam":"KEWASKUM 1.8 WNW, WI","Latitude":"43.52880","Longitude":"-88.26570","Snowdepth":"8.000","Units":"in","Rept_Date":"2020-01-26 13"},"coordinates":[2106,4899]},{"type":"Point","properties":{"Station_ID":"WI-WN-19","Station_Nam":"OSHKOSH 1.6 ESE, WI","Latitude":"44.01097","Longitude":"-88.52354","Snowdepth":"8.000","Units":"in","Rept_Date":"2020-01-26 13"},"coordinates":[2045,5199]},{"type":"Point","properties":{"Station_ID":"WI-GN-5","Station_Nam":"MONTICELLO 2.2 SE, WI","Latitude":"42.71990","Longitude":"-89.56360","Snowdepth":"8.000","Units":"in","Rept_Date":"2020-01-26 13"},"coordinates":[1801,4395]},{"type":"Point","properties":{"Station_ID":"WI-DA-46","Station_Nam":"MADISON 6.4 W, WI","Latitude":"43.08337","Longitude":"-89.51503","Snowdepth":"8.000","Units":"in","Rept_Date":"2020-01-26 13"},"coordinates":[1813,4622]},{"type":"Point","properties":{"Station_ID":"WI-BN-14","Station_Nam":"GREEN BAY 3.8 SSE, WI","Latitude":"44.46772","Longitude":"-87.97350","Snowdepth":"8.000","Units":"in","Rept_Date":"2020-01-26 13"},"coordinates":[2174,5483]},{"type":"Point","properties":{"Station_ID":"WGCI4","Station_Nam":"WAVELAND","Latitude":"41.58330","Longitude":"-93.66670","Snowdepth":"8.000","Units":"in","Rept_Date":"2020-01-26 13"},"coordinates":[838,3688]},{"type":"Point","properties":{"Station_ID":"VQAW3","Station_Nam":"VIROQUA","Latitude":"43.55970","Longitude":"-90.87560","Snowdepth":"8.000","Units":"in","Rept_Date":"2020-01-26 13"},"coordinates":[1493,4918]},{"type":"Point","properties":{"Station_ID":"TRPI4","Station_Nam":"TRIPOLI,IA","Latitude":"42.81310","Longitude":"-92.25830","Snowdepth":"8.000","Units":"in","Rept_Date":"2020-01-26 13"},"coordinates":[1169,4453]},{"type":"Point","properties":{"Station_ID":"STIM4","Station_Nam":"ST IGNACE","Latitude":"45.86080","Longitude":"-84.71960","Snowdepth":"8.000","Units":"in","Rept_Date":"2020-01-26 12"},"coordinates":[2938,6349]},{"type":"Point","properties":{"Station_ID":"SPTI4","Station_Nam":"STRAWBERRY POINT","Latitude":"42.68530","Longitude":"-91.53300","Snowdepth":"8.000","Units":"in","Rept_Date":"2020-01-26 13"},"coordinates":[1339,4374]},{"type":"Point","properties":{"Station_ID":"SLRW3","Station_Nam":"SLINGER","Latitude":"43.33390","Longitude":"-88.29780","Snowdepth":"8.000","Units":"in","Rept_Date":"2020-01-26 14"},"coordinates":[2098,4777]},{"type":"Point","properties":{"Station_ID":"ROBW3","Station_Nam":"ROBERTS WWTP","Latitude":"44.97070","Longitude":"-92.56200","Snowdepth":"8.000","Units":"in","Rept_Date":"2020-01-26 14"},"coordinates":[1098,5796]},{"type":"Point","properties":{"Station_ID":"PTNM5","Station_Nam":"PRESTON","Latitude":"43.67250","Longitude":"-92.07470","Snowdepth":"8.000","Units":"in","Rept_Date":"2020-01-26 14"},"coordinates":[1212,4988]},{"type":"Point","properties":{"Station_ID":"PSHW3","Station_Nam":"PESHTIGO","Latitude":"45.02810","Longitude":"-87.73560","Snowdepth":"8.000","Units":"in","Rept_Date":"2020-01-26 13"},"coordinates":[2230,5831]},{"type":"Point","properties":{"Station_ID":"PIPM5","Station_Nam":"PIPESTONE,MN","Latitude":"44.01390","Longitude":"-96.32580","Snowdepth":"8.000","Units":"in","Rept_Date":"2020-01-26 14"},"coordinates":[214,5200]},{"type":"Point","properties":{"Station_ID":"OSNW3","Station_Nam":"OSHKOSH-NORTH","Latitude":"44.03500","Longitude":"-88.54390","Snowdepth":"8.000","Units":"in","Rept_Date":"2020-01-26 13"},"coordinates":[2041,5214]},{"type":"Point","properties":{"Station_ID":"NH-MR-6","Station_Nam":"DANBURY 2.2 ESE, NH","Latitude":"43.52000","Longitude":"-71.81900","Snowdepth":"8.000","Units":"in","Rept_Date":"2020-01-26 13"},"coordinates":[5966,4893]},{"type":"Point","properties":{"Station_ID":"NH-GR-1","Station_Nam":"BRISTOL 0.4 SSE, NH","Latitude":"43.59490","Longitude":"-71.74140","Snowdepth":"8.000","Units":"in","Rept_Date":"2020-01-26 12"},"coordinates":[5984,4940]},{"type":"Point","properties":{"Station_ID":"NCKN6","Station_Nam":"NORTH CREEK 5 SE","Latitude":"43.66110","Longitude":"-73.89690","Snowdepth":"8.000","Units":"in","Rept_Date":"2020-01-26 12"},"coordinates":[5478,4981]},{"type":"Point","properties":{"Station_ID":"MWN","Station_Nam":"MOUNT WASHINGTON","Latitude":"44.26670","Longitude":"-71.30000","Snowdepth":"8.000","Units":"in","Rept_Date":"2020-01-27 05"},"coordinates":[6088,5358]},{"type":"Point","properties":{"Station_ID":"MSHI4","Station_Nam":"MARSHALLTOWN,IA","Latitude":"42.06670","Longitude":"-92.93330","Snowdepth":"8.000","Units":"in","Rept_Date":"2020-01-26 13"},"coordinates":[1010,3989]},{"type":"Point","properties":{"Station_ID":"MNHZK4CP","Station_Nam":"WATERTOWN 0.8 NW","Latitude":"44.97073","Longitude":"-93.85906","Snowdepth":"8.000","Units":"in","Rept_Date":"2020-01-26 13"},"coordinates":[793,5796]},{"type":"Point","properties":{"Station_ID":"MN-SE-2","Station_Nam":"OWATONNA 0.8 E, MN","Latitude":"44.09170","Longitude":"-93.21380","Snowdepth":"8.000","Units":"in","Rept_Date":"2020-01-26 13"},"coordinates":[945,5249]},{"type":"Point","properties":{"Station_ID":"MN-SC-2","Station_Nam":"PRIOR LAKE 2.0 W, MN","Latitude":"44.71250","Longitude":"-93.46360","Snowdepth":"8.000","Units":"in","Rept_Date":"2020-01-26 13"},"coordinates":[886,5635]},{"type":"Point","properties":{"Station_ID":"MN-RC-11","Station_Nam":"NEW PRAGUE 4.8 ESE, MN","Latitude":"44.51999","Longitude":"-93.48470","Snowdepth":"8.000","Units":"in","Rept_Date":"2020-01-26 11"},"coordinates":[881,5515]},{"type":"Point","properties":{"Station_ID":"MN-CV-8","Station_Nam":"WATERTOWN 0.5 NNW, MN","Latitude":"44.96631","Longitude":"-93.84890","Snowdepth":"8.000","Units":"in","Rept_Date":"2020-01-26 11"},"coordinates":[796,5793]},{"type":"Point","properties":{"Station_ID":"MKX","Station_Nam":"MILWAUKEE, WI","Latitude":"42.96810","Longitude":"-88.54920","Snowdepth":"8.000","Units":"in","Rept_Date":"2020-01-27 06"},"coordinates":[2039,4550]},{"type":"Point","properties":{"Station_ID":"MI-MC-4","Station_Nam":"ST. IGNACE 0.5SE, MI","Latitude":"45.86057","Longitude":"-84.71980","Snowdepth":"8.000","Units":"in","Rept_Date":"2020-01-26 12"},"coordinates":[2938,6349]},{"type":"Point","properties":{"Station_ID":"MI-BZ-1","Station_Nam":"BENZONIA 5.3 S, MI","Latitude":"44.53976","Longitude":"-86.10650","Snowdepth":"8.000","Units":"in","Rept_Date":"2020-01-26 13"},"coordinates":[2613,5528]},{"type":"Point","properties":{"Station_ID":"ME-OX-29","Station_Nam":"SUMNER 1.1 N, ME","Latitude":"44.40840","Longitude":"-70.44010","Snowdepth":"8.000","Units":"in","Rept_Date":"2020-01-26 14"},"coordinates":[6289,5446]},{"type":"Point","properties":{"Station_ID":"ME-AN-32","Station_Nam":"WINTHROP 9.4 W, ME","Latitude":"44.30476","Longitude":"-70.15835","Snowdepth":"8.000","Units":"in","Rept_Date":"2020-01-26 12"},"coordinates":[6356,5381]},{"type":"Point","properties":{"Station_ID":"MCWI4","Station_Nam":"WINNEBAGO RIVER","Latitude":"43.15000","Longitude":"-93.19250","Snowdepth":"8.000","Units":"in","Rept_Date":"2020-01-26 13"},"coordinates":[950,4663]},{"type":"Point","properties":{"Station_ID":"MALN6","Station_Nam":"MALONE","Latitude":"44.84180","Longitude":"-74.30600","Snowdepth":"8.000","Units":"in","Rept_Date":"2020-01-26 12"},"coordinates":[5382,5715]},{"type":"Point","properties":{"Station_ID":"MA-HS-7","Station_Nam":"PLAINFIELD 2.2 SW, MA","Latitude":"42.49272","Longitude":"-72.94540","Snowdepth":"8.000","Units":"in","Rept_Date":"2020-01-26 13"},"coordinates":[5701,4254]},{"type":"Point","properties":{"Station_ID":"LODW3","Station_Nam":"LODI","Latitude":"43.32170","Longitude":"-89.53110","Snowdepth":"8.000","Units":"in","Rept_Date":"2020-01-26 13"},"coordinates":[1809,4770]},{"type":"Point","properties":{"Station_ID":"LKFM5","Station_Nam":"LAKEFIELD,MN","Latitude":"43.68330","Longitude":"-95.18330","Snowdepth":"8.000","Units":"in","Rept_Date":"2020-01-26 13"},"coordinates":[482,4995]},{"type":"Point","properties":{"Station_ID":"KMWN","Station_Nam":"MOUNT WASHINGTON","Latitude":"44.26666","Longitude":"-71.30000","Snowdepth":"8.000","Units":"in","Rept_Date":"2020-01-27 06"},"coordinates":[6088,5358]},{"type":"Point","properties":{"Station_ID":"KDSM","Station_Nam":"DES MOINES INTERNATIONAL","Latitude":"41.53333","Longitude":"-93.66666","Snowdepth":"8.000","Units":"in","Rept_Date":"2020-01-27 06"},"coordinates":[838,3657]},{"type":"Point","properties":{"Station_ID":"JKMM1","Station_Nam":"JACKMAN","Latitude":"45.62600","Longitude":"-70.24600","Snowdepth":"8.000","Units":"in","Rept_Date":"2020-01-26 12"},"coordinates":[6335,6203]},