{"type":"Topology","objects":{"snowdepth_geo":{"type":"GeometryCollection","name":"snowdepth","crs":{"type":"name","properties":{"name":"urn:ogc:def:crs:OGC:1.3:CRS84"}},"geometries":[{"type":"Point","properties":{"Station_ID":"HTLN3","Station_Nam":"HERMIT LAKE SNOWPLOT","Latitude":"44.26130","Longitude":"-71.28330","Snowdepth":"81.000","Units":"in","Rept_Date":"2020-04-13 10"},"coordinates":[6092,2467]},{"type":"Point","properties":{"Station_ID":"PRKM4","Station_Nam":"MUNISING EAST","Latitude":"46.42580","Longitude":"-86.62000","Snowdepth":"76.500","Units":"in","Rept_Date":"2020-04-14 06"},"coordinates":[2492,4650]},{"type":"Point","properties":{"Station_ID":"HVCN3","Station_Nam":"HARVARD CABIN SNOWPLOT","Latitude":"44.26630","Longitude":"-71.27790","Snowdepth":"67.000","Units":"in","Rept_Date":"2020-04-13 09"},"coordinates":[6093,2472]},{"type":"Point","properties":{"Station_ID":"OGIQ6","Station_Nam":"OGOKI CAMP","Latitude":"50.76680","Longitude":"-87.85820","Snowdepth":"61.100","Units":"in","Rept_Date":"2020-04-14 06"},"coordinates":[2202,9030]},{"type":"Point","properties":{"Station_ID":"AUDQ6","Station_Nam":"AUDEN","Latitude":"48.52600","Longitude":"-82.57570","Snowdepth":"47.640","Units":"in","Rept_Date":"2020-04-14 06"},"coordinates":[3441,6769]},{"type":"Point","properties":{"Station_ID":"DVLQ6","Station_Nam":"DEVIOUS LAKE","Latitude":"49.19890","Longitude":"-87.76440","Snowdepth":"43.460","Units":"in","Rept_Date":"2020-04-14 06"},"coordinates":[2224,7448]},{"type":"Point","properties":{"Station_ID":"CLUM4","Station_Nam":"CALUMET-TAMARACK","Latitude":"47.24550","Longitude":"-88.46790","Snowdepth":"37.000","Units":"in","Rept_Date":"2020-04-13 13"},"coordinates":[2058,5477]},{"type":"Point","properties":{"Station_ID":"MNSM4","Station_Nam":"MUNISING","Latitude":"46.41210","Longitude":"-86.66250","Snowdepth":"33.000","Units":"in","Rept_Date":"2020-04-13 10"},"coordinates":[2482,4637]},{"type":"Point","properties":{"Station_ID":"PDLM4","Station_Nam":"PAINESDALE","Latitude":"47.04160","Longitude":"-88.67170","Snowdepth":"32.000","Units":"in","Rept_Date":"2020-04-13 12"},"coordinates":[2011,5272]},{"type":"Point","properties":{"Station_ID":"CAN-NS-39","Station_Nam":"ST. ANNS 2.8 NW, CA","Latitude":"46.25082","Longitude":"-60.64340","Snowdepth":"30.000","Units":"in","Rept_Date":"2020-04-13 12"},"coordinates":[8589,4474]},{"type":"Point","properties":{"Station_ID":"MQT","Station_Nam":"MARQUETTE, MI","Latitude":"46.53140","Longitude":"-87.54920","Snowdepth":"27.000","Units":"in","Rept_Date":"2020-04-14 04"},"coordinates":[2274,4757]},{"type":"Point","properties":{"Station_ID":"NH-CS-10","Station_Nam":"RANDOLPH 1.4 NE, NH","Latitude":"44.38824","Longitude":"-71.26950","Snowdepth":"25.000","Units":"in","Rept_Date":"2020-04-13 12"},"coordinates":[6095,2595]},{"type":"Point","properties":{"Station_ID":"HERM4","Station_Nam":"HERMAN,MI","Latitude":"46.65000","Longitude":"-88.33330","Snowdepth":"25.000","Units":"in","Rept_Date":"2020-04-13 12"},"coordinates":[2090,4877]},{"type":"Point","properties":{"Station_ID":"MI-BG-3","Station_Nam":"L'ANSE 17.8 SE, MI","Latitude":"46.55730","Longitude":"-88.20770","Snowdepth":"24.000","Units":"in","Rept_Date":"2020-04-13 13"},"coordinates":[2119,4783]},{"type":"Point","properties":{"Station_ID":"KSGM4","Station_Nam":"KEARSARGE","Latitude":"47.27520","Longitude":"-88.41700","Snowdepth":"21.000","Units":"in","Rept_Date":"2020-04-13 12"},"coordinates":[2070,5507]},{"type":"Point","properties":{"Station_ID":"CAN-NB-13","Station_Nam":"BATHURST 3.8 NW, CAN","Latitude":"47.64212","Longitude":"-65.68756","Snowdepth":"21.000","Units":"in","Rept_Date":"2020-04-13 11"},"coordinates":[7405,5878]},{"type":"Point","properties":{"Station_ID":"QNCM4","Station_Nam":"QUINCY HILL","Latitude":"47.13640","Longitude":"-88.57950","Snowdepth":"20.000","Units":"in","Rept_Date":"2020-04-13 13"},"coordinates":[2032,5367]},{"type":"Point","properties":{"Station_ID":"MWN","Station_Nam":"MOUNT WASHINGTON","Latitude":"44.26670","Longitude":"-71.30000","Snowdepth":"20.000","Units":"in","Rept_Date":"2020-04-13 12"},"coordinates":[6088,2472]},{"type":"Point","properties":{"Station_ID":"ME-AR-18","Station_Nam":"NEW SWEDEN 4.9 NNW, ME","Latitude":"47.01080","Longitude":"-68.14390","Snowdepth":"20.000","Units":"in","Rept_Date":"2020-04-13 12"},"coordinates":[6828,5241]},{"type":"Point","properties":{"Station_ID":"CAN-NL-81","Station_Nam":"GRAND FALLS-WINDSOR 1.2 S, CAN","Latitude":"48.93123","Longitude":"-55.65333","Snowdepth":"19.700","Units":"in","Rept_Date":"2020-04-13 09"},"coordinates":[9760,7178]},{"type":"Point","properties":{"Station_ID":"MI-KW-2","Station_Nam":"DELAWARE 5.2 SW, MI","Latitude":"47.36928","Longitude":"-88.17919","Snowdepth":"19.000","Units":"in","Rept_Date":"2020-04-13 08"},"coordinates":[2126,5602]},{"type":"Point","properties":{"Station_ID":"BRAM1","Station_Nam":"BRASSUA DAM","Latitude":"45.66020","Longitude":"-69.81190","Snowdepth":"19.000","Units":"in","Rept_Date":"2020-04-13 11"},"coordinates":[6437,3878]},{"type":"Point","properties":{"Station_ID":"CAN-NL-82","Station_Nam":"GANDER 2.7 NW, CAN","Latitude":"48.97737","Longitude":"-54.63396","Snowdepth":"18.900","Units":"in","Rept_Date":"2020-04-13 10"},"coordinates":[9999,7225]},{"type":"Point","properties":{"Station_ID":"RKWM1","Station_Nam":"MOOSEHEAD LAKE","Latitude":"45.58330","Longitude":"-69.71670","Snowdepth":"18.000","Units":"in","Rept_Date":"2020-04-13 11"},"coordinates":[6459,3800]},{"type":"Point","properties":{"Station_ID":"CAN-NB-11","Station_Nam":"MIRAMICHI 3.3 S, CAN","Latitude":"46.99343","Longitude":"-65.50690","Snowdepth":"18.000","Units":"in","Rept_Date":"2020-04-13 11"},"coordinates":[7447,5223]},{"type":"Point","properties":{"Station_ID":"PTLQ6","Station_Nam":"PORTAGE LAKE","Latitude":"49.06950","Longitude":"-86.65940","Snowdepth":"17.910","Units":"in","Rept_Date":"2020-04-14 06"},"coordinates":[2483,7318]},{"type":"Point","properties":{"Station_ID":"SVBQ6","Station_Nam":"SAVANT BASE","Latitude":"50.28730","Longitude":"-90.65670","Snowdepth":"16.540","Units":"in","Rept_Date":"2020-04-14 06"},"coordinates":[1545,8547]},{"type":"Point","properties":{"Station_ID":"STEM4","Station_Nam":"STEUBEN","Latitude":"46.18530","Longitude":"-86.46410","Snowdepth":"16.000","Units":"in","Rept_Date":"2020-04-13 13"},"coordinates":[2529,4408]},{"type":"Point","properties":{"Station_ID":"GGRM4","Station_Nam":"GREEN GARDEN NO.2","Latitude":"46.45330","Longitude":"-87.30380","Snowdepth":"16.000","Units":"in","Rept_Date":"2020-04-13 12"},"coordinates":[2332,4678]},{"type":"Point","properties":{"Station_ID":"TRIQ6","Station_Nam":"TRIO LAKE","Latitude":"49.22880","Longitude":"-87.22920","Snowdepth":"15.630","Units":"in","Rept_Date":"2020-04-14 06"},"coordinates":[2349,7479]},{"type":"Point","properties":{"Station_ID":"MI-MQ-2","Station_Nam":"MARQUETTE 6.5 SSE, MI","Latitude":"46.46461","Longitude":"-87.34064","Snowdepth":"15.000","Units":"in","Rept_Date":"2020-04-13 12"},"coordinates":[2323,4690]},{"type":"Point","properties":{"Station_ID":"FISM1","Station_Nam":"FORT KENT COOP","Latitude":"47.23850","Longitude":"-68.61240","Snowdepth":"15.000","Units":"in","Rept_Date":"2020-04-13 10"},"coordinates":[6718,5470]},{"type":"Point","properties":{"Station_ID":"CEFM4","Station_Nam":"EXPERIMENT FARM #2","Latitude":"46.33330","Longitude":"-86.91670","Snowdepth":"15.000","Units":"in","Rept_Date":"2020-04-13 12"},"coordinates":[2422,4557]},{"type":"Point","properties":{"Station_ID":"CAN-NL-65","Station_Nam":"KIPPENS 0.7 NE, CA","Latitude":"48.55436","Longitude":"-58.61850","Snowdepth":"15.000","Units":"in","Rept_Date":"2020-04-13 12"},"coordinates":[9064,6798]},{"type":"Point","properties":{"Station_ID":"CAN-NB-96","Station_Nam":"SAINT-IGNACE 2.6 NE, CAN","Latitude":"46.71424","Longitude":"-65.05609","Snowdepth":"14.600","Units":"in","Rept_Date":"2020-04-13 11"},"coordinates":[7553,4941]},{"type":"Point","properties":{"Station_ID":"ME-FR-2","Station_Nam":"TEMPLE 1.8 W, ME","Latitude":"44.68329","Longitude":"-70.26420","Snowdepth":"14.500","Units":"in","Rept_Date":"2020-04-13 10"},"coordinates":[6331,2892]},{"type":"Point","properties":{"Station_ID":"RGNM1","Station_Nam":"RANGELEY 2NW","Latitude":"44.98940","Longitude":"-70.67220","Snowdepth":"14.000","Units":"in","Rept_Date":"2020-04-13 10"},"coordinates":[6235,3201]},{"type":"Point","properties":{"Station_ID":"GHMN3","Station_Nam":"PINKHAM NOTCH","Latitude":"44.25800","Longitude":"-71.25250","Snowdepth":"14.000","Units":"in","Rept_Date":"2020-04-13 09"},"coordinates":[6099,2463]},{"type":"Point","properties":{"Station_ID":"WI-LN-2","Station_Nam":"MERRILL 7.0 W, WI","Latitude":"45.17746","Longitude":"-89.84820","Snowdepth":"13.000","Units":"in","Rept_Date":"2020-04-13 12"},"coordinates":[1734,3391]},{"type":"Point","properties":{"Station_ID":"MLLW3","Station_Nam":"MERRILL 8W","Latitude":"45.17810","Longitude":"-89.84810","Snowdepth":"13.000","Units":"in","Rept_Date":"2020-04-13 11"},"coordinates":[1735,3392]},{"type":"Point","properties":{"Station_ID":"IMNM4","Station_Nam":"IRON MOUTAIN 5N","Latitude":"45.87580","Longitude":"-88.04030","Snowdepth":"12.000","Units":"in","Rept_Date":"2020-04-13 12"},"coordinates":[2159,4095]},{"type":"Point","properties":{"Station_ID":"HRVM4","Station_Nam":"HARVEY","Latitude":"46.49080","Longitude":"-87.35470","Snowdepth":"12.000","Units":"in","Rept_Date":"2020-04-13 12"},"coordinates":[2320,4716]},{"type":"Point","properties":{"Station_ID":"BERM4","Station_Nam":"BERGLAND DAM","Latitude":"46.58690","Longitude":"-89.54750","Snowdepth":"12.000","Units":"in","Rept_Date":"2020-04-13 12"},"coordinates":[1805,4813]},{"type":"Point","properties":{"Station_ID":"ABGW3","Station_Nam":"AMBERG 9 E","Latitude":"45.48250","Longitude":"-87.81190","Snowdepth":"12.000","Units":"in","Rept_Date":"2020-04-13 11"},"coordinates":[2212,3699]},{"type":"Point","properties":{"Station_ID":"WI-VL-9","Station_Nam":"LAND O' LAKES 11.7 W, WI","Latitude":"46.19023","Longitude":"-89.45790","Snowdepth":"11.000","Units":"in","Rept_Date":"2020-04-13 13"},"coordinates":[1826,4413]},{"type":"Point","properties":{"Station_ID":"WI-IR-3","Station_Nam":"PENCE 0.1 E, WI","Latitude":"46.41555","Longitude":"-90.27013","Snowdepth":"11.000","Units":"in","Rept_Date":"2020-04-13 13"},"coordinates":[1635,4640]},{"type":"Point","properties":{"Station_ID":"OWEW3","Station_Nam":"OWEN 1E","Latitude":"44.94610","Longitude":"-90.55170","Snowdepth":"11.000","Units":"in","Rept_Date":"2020-04-13 12"},"coordinates":[1569,3157]},{"type":"Point","properties":{"Station_ID":"MRQM4","Station_Nam":"MARQUETTE WFP","Latitude":"46.54580","Longitude":"-87.37950","Snowdepth":"11.000","Units":"in","Rept_Date":"2020-04-13 12"},"coordinates":[2314,4771]},{"type":"Point","properties":{"Station_ID":"MI-MQ-19","Station_Nam":"ISHPEMING 7.2 SW, MI","Latitude":"46.40550","Longitude":"-87.75670","Snowdepth":"11.000","Units":"in","Rept_Date":"2020-04-13 11"},"coordinates":[2225,4630]},{"type":"Point","properties":{"Station_ID":"LNOW3","Station_Nam":"LAND O LAKES","Latitude":"46.19000","Longitude":"-89.45700","Snowdepth":"11.000","Units":"in","Rept_Date":"2020-04-13 12"},"coordinates":[1826,4412]},{"type":"Point","properties":{"Station_ID":"FLNW3","Station_Nam":"FLORENCE","Latitude":"45.93360","Longitude":"-88.25830","Snowdepth":"11.000","Units":"in","Rept_Date":"2020-04-13 12"},"coordinates":[2108,4154]},{"type":"Point","properties":{"Station_ID":"WTNM4","Station_Nam":"WATTON 2WSW","Latitude":"46.52660","Longitude":"-88.64240","Snowdepth":"10.000","Units":"in","Rept_Date":"2020-04-13 12"},"coordinates":[2017,4752]},{"type":"Point","properties":{"Station_ID":"WRPW3","Station_Nam":"WATER PURIFICATION PLANT","Latitude":"44.38800","Longitude":"-89.80550","Snowdepth":"10.000","Units":"in","Rept_Date":"2020-04-13 11"},"coordinates":[1744,2594]},{"type":"Point","properties":{"Station_ID":"WI-RS-3","Station_Nam":"BRUCE 1.9 E, WI","Latitude":"45.45415","Longitude":"-91.23510","Snowdepth":"10.000","Units":"in","Rept_Date":"2020-04-13 13"},"coordinates":[1409,3670]},{"type":"Point","properties":{"Station_ID":"WI-RS-1","Station_Nam":"LADYSMITH 2.8 WNW, WI","Latitude":"45.48180","Longitude":"-91.14680","Snowdepth":"10.000","Units":"in","Rept_Date":"2020-04-13 13"},"coordinates":[1430,3698]},{"type":"Point","properties":{"Station_ID":"WI-ON-8","Station_Nam":"HAZELHURST 2.1 SSE, WI","Latitude":"45.78186","Longitude":"-89.70330","Snowdepth":"10.000","Units":"in","Rept_Date":"2020-04-13 13"},"coordinates":[1768,4001]},{"type":"Point","properties":{"Station_ID":"VT-OL-12","Station_Nam":"GREENSBORO 3.9 NNE, VT","Latitude":"44.63100","Longitude":"-72.28000","Snowdepth":"10.000","Units":"in","Rept_Date":"2020-04-13 12"},"coordinates":[5858,2840]},{"type":"Point","properties":{"Station_ID":"SULW3","Station_Nam":"SUMMIT LAKE","Latitude":"45.37880","Longitude":"-89.19410","Snowdepth":"10.000","Units":"in","Rept_Date":"2020-04-13 10"},"coordinates":[1888,3594]},{"type":"Point","properties":{"Station_ID":"MI-GG-4","Station_Nam":"WATERSMEET 5.0 SE, MI","Latitude":"46.20333","Longitude":"-89.13170","Snowdepth":"10.000","Units":"in","Rept_Date":"2020-04-13 14"},"coordinates":[1903,4426]},{"type":"Point","properties":{"Station_ID":"ME-SM-45","Station_Nam":"BRIGHTON PLANTATION 2.1 N, ME","Latitude":"45.07098","Longitude":"-69.69860","Snowdepth":"10.000","Units":"in","Rept_Date":"2020-04-13 12"},"coordinates":[6463,3283]},{"type":"Point","properties":{"Station_ID":"ME-AR-15","Station_Nam":"PRESQUE ISLE 1.3 WSW, ME","Latitude":"46.67960","Longitude":"-68.01270","Snowdepth":"10.000","Units":"in","Rept_Date":"2020-04-13 12"},"coordinates":[6859,4906]},{"type":"Point","properties":{"Station_ID":"LVDW3","Station_Nam":"LAC VIEUX DESERT","Latitude":"46.12110","Longitude":"-89.07580","Snowdepth":"10.000","Units":"in","Rept_Date":"2020-04-13 13"},"coordinates":[1916,4343]},{"type":"Point","properties":{"Station_ID":"IBLM5","Station_Nam":"ISABELLA 14W","Latitude":"47.59360","Longitude":"-91.65140","Snowdepth":"10.000","Units":"in","Rept_Date":"2020-04-13 14"},"coordinates":[1311,5829]},{"type":"Point","properties":{"Station_ID":"EGNM5","Station_Nam":"ELGIN 2SSW","Latitude":"44.09700","Longitude":"-92.27010","Snowdepth":"10.000","Units":"in","Rept_Date":"2020-04-13 12"},"coordinates":[1166,2301]},{"type":"Point","properties":{"Station_ID":"CNNW3","Station_Nam":"CRANDON","Latitude":"45.55110","Longitude":"-88.89830","Snowdepth":"10.000","Units":"in","Rept_Date":"2020-04-13 11"},"coordinates":[1957,3768]},{"type":"Point","properties":{"Station_ID":"BBEM4","Station_Nam":"BIG BAY 9SW","Latitude":"46.74620","Longitude":"-87.88160","Snowdepth":"10.000","Units":"in","Rept_Date":"2020-04-13 12"},"coordinates":[2196,4974]},{"type":"Point","properties":{"Station_ID":"AURW3","Station_Nam":"AURORA","Latitude":"45.77000","Longitude":"-88.11810","Snowdepth":"10.000","Units":"in","Rept_Date":"2020-04-13 12"},"coordinates":[2141,3989]},{"type":"Point","properties":{"Station_ID":"AMAM4","Station_Nam":"AMASA 1W","Latitude":"46.23470","Longitude":"-88.45440","Snowdepth":"10.000","Units":"in","Rept_Date":"2020-04-13 13"},"coordinates":[2062,4458]},{"type":"Point","properties":{"Station_ID":"AGNW3","Station_Nam":"ARGONNE-1.5 NW","Latitude":"45.67360","Longitude":"-88.90380","Snowdepth":"10.000","Units":"in","Rept_Date":"2020-04-13 13"},"coordinates":[1956,3891]},{"type":"Point","properties":{"Station_ID":"WI-CH-7","Station_Nam":"CHIPPEWA FALLS 1.2 E, WI","Latitude":"44.92920","Longitude":"-91.36730","Snowdepth":"9.700","Units":"in","Rept_Date":"2020-04-13 13"},"coordinates":[1378,3140]},{"type":"Point","properties":{"Station_ID":"WI-EC-23","Station_Nam":"EAU CLAIRE 3.7 S, WI","Latitude":"44.76858","Longitude":"-91.49898","Snowdepth":"9.500","Units":"in","Rept_Date":"2020-04-13 14"},"coordinates":[1347,2978]},{"type":"Point","properties":{"Station_ID":"WI-CH-10","Station_Nam":"CHIPPEWA FALLS 0.6 SSE, WI","Latitude":"44.92452","Longitude":"-91.38623","Snowdepth":"9.500","Units":"in","Rept_Date":"2020-04-13 13"},"coordinates":[1374,3136]},{"type":"Point","properties":{"Station_ID":"WI-BR-2","Station_Nam":"CHETEK 2.0 SE, WI","Latitude":"45.29427","Longitude":"-91.62470","Snowdepth":"9.500","Units":"in","Rept_Date":"2020-04-13 13"},"coordinates":[1318,3509]},{"type":"Point","properties":{"Station_ID":"CAN-QC-47","Station_Nam":"SAINTE-FOY 1.8 ENE, CAN","Latitude":"46.76934","Longitude":"-71.27124","Snowdepth":"9.400","Units":"in","Rept_Date":"2020-04-13 12"},"coordinates":[6094,4997]},{"type":"Point","properties":{"Station_ID":"WTRM4","Station_Nam":"WATERSMEET 12WSW","Latitude":"46.22310","Longitude":"-89.40850","Snowdepth":"9.000","Units":"in","Rept_Date":"2020-04-13 11"},"coordinates":[1838,4446]},{"type":"Point","properties":{"Station_ID":"WSKW3","Station_Nam":"WAUSAUKEE","Latitude":"45.38020","Longitude":"-87.95660","Snowdepth":"9.000","Units":"in","Rept_Date":"2020-04-13 13"},"coordinates":[2178,3595]},{"type":"Point","properties":{"Station_ID":"WI-VL-10","Station_Nam":"LAND O LAKES 4.3 WNW, WI","Latitude":"46.17440","Longitude":"-89.30380","Snowdepth":"9.000","Units":"in","Rept_Date":"2020-04-13 13"},"coordinates":[1862,4397]},{"type":"Point","properties":{"Station_ID":"WI-PR-6","Station_Nam":"PHILLIPS 1.3 S, WI","Latitude":"45.67677","Longitude":"-90.39543","Snowdepth":"9.000","Units":"in","Rept_Date":"2020-04-13 12"},"coordinates":[1606,3895]},{"type":"Point","properties":{"Station_ID":"WI-DN-1","Station_Nam":"BOYCEVILLE 3.3 N, WI","Latitude":"45.08913","Longitude":"-92.02760","Snowdepth":"9.000","Units":"in","Rept_Date":"2020-04-13 13"},"coordinates":[1223,3302]},{"type":"Point","properties":{"Station_ID":"PDGM4","Station_Nam":"PAULDING","Latitude":"46.39760","Longitude":"-89.17940","Snowdepth":"9.000","Units":"in","Rept_Date":"2020-04-13 11"},"coordinates":[1891,4622]},{"type":"Point","properties":{"Station_ID":"ISPM4","Station_Nam":"WWTP","Latitude":"46.50000","Longitude":"-87.68330","Snowdepth":"9.000","Units":"in","Rept_Date":"2020-04-13 12"},"coordinates":[2243,4725]},{"type":"Point","properties":{"Station_ID":"COVM4","Station_Nam":"COVINGTON","Latitude":"46.55880","Longitude":"-88.54190","Snowdepth":"9.000","Units":"in","Rept_Date":"2020-04-13 12"},"coordinates":[2041,4785]},{"type":"Point","properties":{"Station_ID":"CNRM1","Station_Nam":"CONNOR TWP","Latitude":"46.95830","Longitude":"-68.03330","Snowdepth":"9.000","Units":"in","Rept_Date":"2020-04-13 12"},"coordinates":[6854,5188]},{"type":"Point","properties":{"Station_ID":"WI-EC-25","Station_Nam":"EAU CLAIRE 5.4 SSE, WI","Latitude":"44.75300","Longitude":"-91.43830","Snowdepth":"8.800","Units":"in","Rept_Date":"2020-04-13 14"},"coordinates":[1361,2963]},{"type":"Point","properties":{"Station_ID":"WI-ON-6","Station_Nam":"RHINELANDER 5.2 N, WI","Latitude":"45.71388","Longitude":"-89.42150","Snowdepth":"8.500","Units":"in","Rept_Date":"2020-04-13 15"},"coordinates":[1835,3932]},{"type":"Point","properties":{"Station_ID":"MN-OL-18","Station_Nam":"ROCHESTER 2.6 NE, MN","Latitude":"44.03975","Longitude":"-92.43750","Snowdepth":"8.500","Units":"in","Rept_Date":"2020-04-13 12"},"coordinates":[1127,2243]},{"type":"Point","properties":{"Station_ID":"WI-IR-2","Station_Nam":"MERCER 2.0 SE, WI","Latitude":"46.14749","Longitude":"-90.03097","Snowdepth":"8.300","Units":"in","Rept_Date":"2020-04-13 13"},"coordinates":[1692,4370]},{"type":"Point","properties":{"Station_ID":"KABQ6","Station_Nam":"CAB LAKE","Latitude":"49.59950","Longitude":"-89.17990","Snowdepth":"8.070","Units":"in","Rept_Date":"2020-04-14 06"},"coordinates":[1891,7853]},{"type":"Point","properties":{"Station_ID":"ZNOM4","Station_Nam":"NORWAY","Latitude":"45.77810","Longitude":"-87.89560","Snowdepth":"8.000","Units":"in","Rept_Date":"2020-04-14 00"},"coordinates":[2193,3997]},{"type":"Point","properties":{"Station_ID":"WI-WD-15","Station_Nam":"MARSHFIELD 3.0 WSW, WI","Latitude":"44.64844","Longitude":"-90.23257","Snowdepth":"8.000","Units":"in","Rept_Date":"2020-04-13 15"},"coordinates":[1644,2857]},{"type":"Point","properties":{"Station_ID":"WI-PC-10","Station_Nam":"RIVER FALLS 1.4 S, WI","Latitude":"44.83580","Longitude":"-92.62100","Snowdepth":"8.000","Units":"in","Rept_Date":"2020-04-13 13"},"coordinates":[1084,3046]},{"type":"Point","properties":{"Station_ID":"WI-EC-5","Station_Nam":"ALTOONA 0.4 SW, WI","Latitude":"44.80128","Longitude":"-91.44819","Snowdepth":"8.000","Units":"in","Rept_Date":"2020-04-13 12"},"coordinates":[1359,3011]},{"type":"Point","properties":{"Station_ID":"WI-CK-3","Station_Nam":"COLBY 5.9 WSW, WI","Latitude":"44.87209","Longitude":"-90.42463","Snowdepth":"8.000","Units":"in","Rept_Date":"2020-04-14 00"},"coordinates":[1599,3083]},{"type":"Point","properties":{"Station_ID":"WI-BR-18","Station_Nam":"CHETEK 5.8 SW, WI","Latitude":"45.24953","Longitude":"-91.72425","Snowdepth":"8.000","Units":"in","Rept_Date":"2020-04-13 13"},"coordinates":[1294,3464]},{"type":"Point","properties":{"Station_ID":"WABM5","Station_Nam":"WABASHA","Latitude":"44.38500","Longitude":"-92.04860","Snowdepth":"8.000","Units":"in","Rept_Date":"2020-04-13 12"},"coordinates":[1218,2591]},{"type":"Point","properties":{"Station_ID":"UPSW3","Station_Nam":"UPSON,WI","Latitude":"46.36780","Longitude":"-90.41220","Snowdepth":"8.000","Units":"in","Rept_Date":"2020-04-13 23"},"coordinates":[1602,4592]},{"type":"Point","properties":{"Station_ID":"THLM5","Station_Nam":"THEILMAN 1SSW","Latitude":"44.28130","Longitude":"-92.19430","Snowdepth":"8.000","Units":"in","Rept_Date":"2020-04-13 12"},"coordinates":[1184,2487]},{"type":"Point","properties":{"Station_ID":"TAKW3","Station_Nam":"RICE RESERVOIR NO. 2","Latitude":"45.53770","Longitude":"-89.73220","Snowdepth":"8.000","Units":"in","Rept_Date":"2020-04-13 12"},"coordinates":[1762,3754]},{"type":"Point","properties":{"Station_ID":"SUAW3","Station_Nam":"SUAMICO","Latitude":"44.60190","Longitude":"-88.09780","Snowdepth":"8.000","Units":"in","Rept_Date":"2020-04-13 11"},"coordinates":[2145,2810]},{"type":"Point","properties":{"Station_ID":"RST","Station_Nam":"ROCHESTER INTERNATIONAL ARPT","Latitude":"43.90890","Longitude":"-92.49780","Snowdepth":"8.000","Units":"in","Rept_Date":"2020-04-13 12"},"coordinates":[1113,2111]},{"type":"Point","properties":{"Station_ID":"RRLW3","Station_Nam":"MERRILL,WI","Latitude":"45.17860","Longitude":"-89.66170","Snowdepth":"8.000","Units":"in","Rept_Date":"2020-04-13 13"},"coordinates":[1778,3392]},{"type":"Point","properties":{"Station_ID":"RLKW3","Station_Nam":"REST LAKE","Latitude":"46.12220","Longitude":"-89.87720","Snowdepth":"8.000","Units":"in","Rept_Date":"2020-04-13 13"},"coordinates":[1728,4344]},{"type":"Point","properties":{"Station_ID":"RHLW3","Station_Nam":"RHINELANDER 4NE","Latitude":"45.65270","Longitude":"-89.30740","Snowdepth":"8.000","Units":"in","Rept_Date":"2020-04-13 11"},"coordinates":[1861,3870]},{"type":"Point","properties":{"Station_ID":"PHEW3","Station_Nam":"PHELPS","Latitude":"46.06630","Longitude":"-89.07520","Snowdepth":"8.000","Units":"in","Rept_Date":"2020-04-13 12"},"coordinates":[1916,4288]},{"type":"Point","properties":{"Station_ID":"MN-OL-12","Station_Nam":"ROCHESTER 5.5 N, MN","Latitude":"44.09541","Longitude":"-92.46800","Snowdepth":"8.000","Units":"in","Rept_Date":"2020-04-13 16"},"coordinates":[1120,2299]},{"type":"Point","properties":{"Station_ID":"MI-MM-5","Station_Nam":"DAGGETT 4.8 N, MI","Latitude":"45.53069","Longitude":"-87.61920","Snowdepth":"8.000","Units":"in","Rept_Date":"2020-04-13 14"},"coordinates":[2258,3747]},{"type":"Point","properties":{"Station_ID":"HURW3","Station_Nam":"HURLEY","Latitude":"46.46250","Longitude":"-90.19550","Snowdepth":"8.000","Units":"in","Rept_Date":"2020-04-13 13"},"coordinates":[1653,4687]},{"type":"Point","properties":{"Station_ID":"EVRW3","Station_Nam":"EAGLE RIVER-4 E","Latitude":"45.91890","Longitude":"-89.15280","Snowdepth":"8.000","Units":"in","Rept_Date":"2020-04-13 11"},"coordinates":[1898,4139]},{"type":"Point","properties":{"Station_ID":"ERRW3","Station_Nam":"MERRILL-4 W","Latitude":"45.17360","Longitude":"-89.77580","Snowdepth":"8.000","Units":"in","Rept_Date":"2020-04-13 21"},"coordinates":[1751,3387]},{"type":"Point","properties":{"Station_ID":"EGRW3","Station_Nam":"EAGLE RIVER-SOUTH","Latitude":"45.91360","Longitude":"-89.24360","Snowdepth":"8.000","Units":"in","Rept_Date":"2020-04-13 12"},"coordinates":[1876,4134]},{"type":"Point","properties":{"Station_ID":"DFXM1","Station_Nam":"DOVER-FOXCROFT","Latitude":"45.18720","Longitude":"-69.18350","Snowdepth":"8.000","Units":"in","Rept_Date":"2020-04-13 11"},"coordinates":[6584,3401]},{"type":"Point","properties":{"Station_ID":"CRVW3","Station_Nam":"CRIVITZ HIGH FALLS","Latitude":"45.35750","Longitude":"-88.19190","Snowdepth":"8.000","Units":"in","Rept_Date":"2020-04-13 12"},"coordinates":[2123,3573]},{"type":"Point","properties":{"Station_ID":"CLKM4","Station_Nam":"CLARKSBURG","Latitude":"46.49910","Longitude":"-87.84500","Snowdepth":"8.000","Units":"in","Rept_Date":"2020-04-13 11"},"coordinates":[2205,4724]},{"type":"Point","properties":{"Station_ID":"CARM1","Station_Nam":"CARIBOU WFO","Latitude":"46.86810","Longitude":"-68.01250","Snowdepth":"8.000","Units":"in","Rept_Date":"2020-04-14 04"},"coordinates":[6859,5097]},{"type":"Point","properties":{"Station_ID":"ASTW3","Station_Nam":"ATHELSTANE","Latitude":"45.42500","Longitude":"-88.05750","Snowdepth":"8.000","Units":"in","Rept_Date":"2020-04-13 11"},"coordinates":[2155,3641]},{"type":"Point","properties":{"Station_ID":"WI-VL-14","Station_Nam":"BOULDER JUNCTION 1.4 NE, WI","Latitude":"46.12840","Longitude":"-89.62470","Snowdepth":"7.500","Units":"in","Rept_Date":"2020-04-13 13"},"coordinates":[1787,4350]},{"type":"Point","properties":{"Station_ID":"WI-EC-4","Station_Nam":"EAU CLAIRE 2.8 W, WI","Latitude":"44.81720","Longitude":"-91.55000","Snowdepth":"7.500","Units":"in","Rept_Date":"2020-04-13 15"},"coordinates":[1335,3027]},{"type":"Point","properties":{"Station_ID":"MN-DK-73","Station_Nam":"LAKEVILLE 2.6 NNE, MN","Latitude":"44.71250","Longitude":"-93.23043","Snowdepth":"7.500","Units":"in","Rept_Date":"2020-04-13 13"},"coordinates":[941,2922]},{"type":"Point","properties":{"Station_ID":"MI-HG-1","Station_Nam":"HOUGHTON 1.6 ESE, MI","Latitude":"47.10774","Longitude":"-88.52940","Snowdepth":"7.500","Units":"in","Rept_Date":"2020-04-13 13"},"coordinates":[2044,5338]},{"type":"Point","properties":{"Station_ID":"WI-PR-8","Station_Nam":"PHILLIPS 0.4 SSW, WI","Latitude":"45.69086","Longitude":"-90.40200","Snowdepth":"7.400","Units":"in","Rept_Date":"2020-04-13 13"},"coordinates":[1605,3909]},{"type":"Point","properties":{"Station_ID":"WI-DN-16","Station_Nam":"COLFAX 0.4 NE, WI","Latitude":"45.00098","Longitude":"-91.72059","Snowdepth":"7.400","Units":"in","Rept_Date":"2020-04-13 13"},"coordinates":[1295,3213]},{"type":"Point","properties":{"Station_ID":"CAN-NB-105","Station_Nam":"SISSON BROOK 3.8 E, CAN","Latitude":"46.98305","Longitude":"-67.32532","Snowdepth":"7.100","Units":"in","Rept_Date":"2020-04-13 12"},"coordinates":[7020,5213]},{"type":"Point","properties":{"Station_ID":"WI-PR-2","Station_Nam":"BUTTERNUT 5.9 SW, WI","Latitude":"45.96501","Longitude":"-90.59750","Snowdepth":"7.000","Units":"in","Rept_Date":"2020-04-13 12"},"coordinates":[1559,4185]},{"type":"Point","properties":{"Station_ID":"WI-PC-25","Station_Nam":"ELLSWORTH 2.6 SW, WI","Latitude":"44.71119","Longitude":"-92.51849","Snowdepth":"7.000","Units":"in","Rept_Date":"2020-04-13 13"},"coordinates":[1108,2920]},{"type":"Point","properties":{"Station_ID":"RHIW3","Station_Nam":"RHINELANDER","Latitude":"45.59860","Longitude":"-89.45080","Snowdepth":"7.000","Units":"in","Rept_Date":"2020-04-13 12"},"coordinates":[1828,3816]},{"type":"Point","properties":{"Station_ID":"PRDM4","Station_Nam":"PARADISE","Latitude":"46.60380","Longitude":"-85.03960","Snowdepth":"7.000","Units":"in","Rept_Date":"2020-04-13 10"},"coordinates":[2863,4830]},{"type":"Point","properties":{"Station_ID":"MN-HN-78","Station_Nam":"RICHFIELD 1.9 WNW, MN","Latitude":"44.89129","Longitude":"-93.31410","Snowdepth":"7.000","Units":"in","Rept_Date":"2020-04-13 11"},"coordinates":[921,3102]},{"type":"Point","properties":{"Station_ID":"MN-GH-3","Station_Nam":"LAKE CITY 1.2 NNW, MN","Latitude":"44.45597","Longitude":"-92.29070","Snowdepth":"7.000","Units":"in","Rept_Date":"2020-04-13 13"},"coordinates":[1161,2663]},{"type":"Point","properties":{"Station_ID":"MN-GH-28","Station_Nam":"CANNON FALLS 0.5 SE, MN","Latitude":"44.50866","Longitude":"-92.89526","Snowdepth":"7.000","Units":"in","Rept_Date":"2020-04-13 14"},"coordinates":[1019,2716]},{"type":"Point","properties":{"Station_ID":"MN-DK-44","Station_Nam":"ROSEMOUNT 4.5 WSW, MN","Latitude":"44.72079","Longitude":"-93.14970","Snowdepth":"7.000","Units":"in","Rept_Date":"2020-04-13 13"},"coordinates":[960,2930]},{"type":"Point","properties":{"Station_ID":"MN-DK-15","Station_Nam":"BURNSVILLE 3.0 NE, MN","Latitude":"44.79136","Longitude":"-93.23040","Snowdepth":"7.000","Units":"in","Rept_Date":"2020-04-13 13"},"coordinates":[941,3001]},{"type":"Point","properties":{"Station_ID":"MEDW3","Station_Nam":"MEDFORD","Latitude":"45.13080","Longitude":"-90.34390","Snowdepth":"7.000","Units":"in","Rept_Date":"2020-04-13 13"},"coordinates":[1618,3344]},{"type":"Point","properties":{"Station_ID":"JORM5","Station_Nam":"JORDAN 1SSW","Latitude":"44.65010","Longitude":"-93.63560","Snowdepth":"7.000","Units":"in","Rept_Date":"2020-04-13 10"},"coordinates":[846,2859]},{"type":"Point","properties":{"Station_ID":"IWOM4","Station_Nam":"IRONWOOD#2","Latitude":"46.46520","Longitude":"-90.13820","Snowdepth":"7.000","Units":"in","Rept_Date":"2020-04-13 12"},"coordinates":[1666,4690]},{"type":"Point","properties":{"Station_ID":"EPTW3","Station_Nam":"EAU PLEINE TENDER","Latitude":"44.77220","Longitude":"-89.76720","Snowdepth":"7.000","Units":"in","Rept_Date":"2020-04-13 12"},"coordinates":[1753,2982]},{"type":"Point","properties":{"Station_ID":"BREW3","Station_Nam":"SURING","Latitude":"44.99580","Longitude":"-88.37860","Snowdepth":"7.000","Units":"in","Rept_Date":"2020-04-13 15"},"coordinates":[2079,3208]},{"type":"Point","properties":{"Station_ID":"BALW3","Station_Nam":"BALDWIN","Latitude":"44.96330","Longitude":"-92.39050","Snowdepth":"7.000","Units":"in","Rept_Date":"2020-04-13 12"},"coordinates":[1138,3175]},{"type":"Point","properties":{"Station_ID":"SOCQ6","Station_Nam":"SOCKET LAKE","Latitude":"50.77870","Longitude":"-91.79300","Snowdepth":"6.650","Units":"in","Rept_Date":"2020-04-14 06"},"coordinates":[1278,9042]},{"type":"Point","properties":{"Station_ID":"WI-PC-5","Station_Nam":"RIVER FALLS 1.2 SSW, WI","Latitude":"44.84032","Longitude":"-92.63500","Snowdepth":"6.500","Units":"in","Rept_Date":"2020-04-13 13"},"coordinates":[1080,3051]},{"type":"Point","properties":{"Station_ID":"MN-SC-2","Station_Nam":"PRIOR LAKE 2.0 W, MN","Latitude":"44.71250","Longitude":"-93.46360","Snowdepth":"6.500","Units":"in","Rept_Date":"2020-04-13 13"},"coordinates":[886,2922]},{"type":"Point","properties":{"Station_ID":"MN-BW-1","Station_Nam":"SPRINGFIELD 1.7 NNW, MN","Latitude":"44.26120","Longitude":"-94.99220","Snowdepth":"6.500","Units":"in","Rept_Date":"2020-04-13 13"},"coordinates":[527,2466]},{"type":"Point","properties":{"Station_ID":"WUNW3","Station_Nam":"WAUSAU-NORTHEAST","Latitude":"44.97310","Longitude":"-89.61690","Snowdepth":"6.000","Units":"in","Rept_Date":"2020-04-13 10"},"coordinates":[1789,3185]},{"type":"Point","properties":{"Station_ID":"WI-SC-24","Station_Nam":"DEER PARK 2.6 SSE, WI","Latitude":"45.15739","Longitude":"-92.35759","Snowdepth":"6.000","Units":"in","Rept_Date":"2020-04-13 13"},"coordinates":[1146,3371]},{"type":"Point","properties":{"Station_ID":"WI-DN-15","Station_Nam":"MENOMONIE 0.9 NW, WI","Latitude":"44.89832","Longitude":"-91.92398","Snowdepth":"6.000","Units":"in","Rept_Date":"2020-04-13 13"},"coordinates":[1247,3109]},{"type":"Point","properties":{"Station_ID":"VANM1","Station_Nam":"VAN BUREN","Latitude":"47.16600","Longitude":"-67.93900","Snowdepth":"6.000","Units":"in","Rept_Date":"2020-04-13 11"},"coordinates":[6876,5397]},{"type":"Point","properties":{"Station_ID":"STRW3","Station_Nam":"STRATFORD 1NW","Latitude":"44.81750","Longitude":"-90.08990","Snowdepth":"6.000","Units":"in","Rept_Date":"2020-04-13 11"},"coordinates":[1678,3028]},{"type":"Point","properties":{"Station_ID":"SPCW3","Station_Nam":"SPENCER-WWTP","Latitude":"44.75390","Longitude":"-90.28920","Snowdepth":"6.000","Units":"in","Rept_Date":"2020-04-13 12"},"coordinates":[1631,2964]},{"type":"Point","properties":{"Station_ID":"SNBI4","Station_Nam":"SANBORN,IA","Latitude":"43.18170","Longitude":"-95.66030","Snowdepth":"6.000","Units":"in","Rept_Date":"2020-04-13 13"},"coordinates":[370,1377]},{"type":"Point","properties":{"Station_ID":"SIBI4","Station_Nam":"SIBLEY","Latitude":"43.40470","Longitude":"-95.74830","Snowdepth":"6.000","Units":"in","Rept_Date":"2020-04-13 12"},"coordinates":[350,1602]},{"type":"Point","properties":{"Station_ID":"NWCM4","Station_Nam":"NEWBERRY CITY","Latitude":"46.35720","Longitude":"-85.51780","Snowdepth":"6.000","Units":"in","Rept_Date":"2020-04-13 11"},"coordinates":[2751,4581]},{"type":"Point","properties":{"Station_ID":"NUMM5","Station_Nam":"NEW ULM 3SE","Latitude":"44.29450","Longitude":"-94.40840","Snowdepth":"6.000","Units":"in","Rept_Date":"2020-04-13 10"},"coordinates":[664,2500]},{"type":"Point","properties":{"Station_ID":"MSCM5","Station_Nam":"MINNESOTA CITY","Latitude":"44.16000","Longitude":"-91.81220","Snowdepth":"6.000","Units":"in","Rept_Date":"2020-04-13 13"},"coordinates":[1274,2364]},{"type":"Point","properties":{"Station_ID":"MQRW3","Station_Nam":"MINOCQUA","Latitude":"45.88630","Longitude":"-89.73220","Snowdepth":"6.000","Units":"in","Rept_Date":"2020-04-13 11"},"coordinates":[1762,4106]},{"type":"Point","properties":{"Station_ID":"MNG0GYSN","Station_Nam":"LONSDALE 1.1 SSW","Latitude":"44.46445","Longitude":"-93.43293","Snowdepth":"6.000","Units":"in","Rept_Date":"2020-04-13 11"},"coordinates":[893,2671]},{"type":"Point","properties":{"Station_ID":"MNF74YNU","Station_Nam":"NEW ULM 3.3 ESE","Latitude":"44.29029","Longitude":"-94.40196","Snowdepth":"6.000","Units":"in","Rept_Date":"2020-04-13 09"},"coordinates":[666,2496]},{"type":"Point","properties":{"Station_ID":"MNEY8CTB","Station_Nam":"MIDLAND JUNCTION 2.2 ENE","Latitude":"44.33041","Longitude":"-91.95891","Snowdepth":"6.000","Units":"in","Rept_Date":"2020-04-13 13"},"coordinates":[1239,2536]},{"type":"Point","properties":{"Station_ID":"MN-WB-4","Station_Nam":"ZUMBRO FALLS 3.5 SSW, MN","Latitude":"44.23895","Longitude":"-92.45510","Snowdepth":"6.000","Units":"in","Rept_Date":"2020-04-13 13"},"coordinates":[1123,2444]},{"type":"Point","properties":{"Station_ID":"MN-RM-2","Station_Nam":"NORTH SAINT PAUL 1.0 NNW, MN","Latitude":"45.02629","Longitude":"-93.00790","Snowdepth":"6.000","Units":"in","Rept_Date":"2020-04-13 12"},"coordinates":[993,3238]},{"type":"Point","properties":{"Station_ID":"MN-RC-40","Station_Nam":"FARIBAULT 3.5 ESE, MN","Latitude":"44.27958","Longitude":"-93.21301","Snowdepth":"6.000","Units":"in","Rept_Date":"2020-04-13 13"},"coordinates":[945,2485]},{"type":"Point","properties":{"Station_ID":"MN-MT-6","Station_Nam":"FAIRMONT 0.7 E, MN","Latitude":"43.64501","Longitude":"-94.44860","Snowdepth":"6.000","Units":"in","Rept_Date":"2020-04-13 13"},"coordinates":[655,1845]},{"type":"Point","properties":{"Station_ID":"MN-GH-4","Station_Nam":"NERSTRAND 4.2 E, MN","Latitude":"44.34247","Longitude":"-92.97920","Snowdepth":"6.000","Units":"in","Rept_Date":"2020-04-13 13"},"coordinates":[1000,2548]},{"type":"Point","properties":{"Station_ID":"MN-GH-33","Station_Nam":"DENNISON 2.0 NNE, MN","Latitude":"44.43470","Longitude":"-93.02000","Snowdepth":"6.000","Units":"in","Rept_Date":"2020-04-13 13"},"coordinates":[990,2641]},{"type":"Point","properties":{"Station_ID":"MN-CV-40","Station_Nam":"EXCELSIOR 0.8 S, MN","Latitude":"44.88996","Longitude":"-93.56646","Snowdepth":"6.000","Units":"in","Rept_Date":"2020-04-13 13"},"coordinates":[862,3101]},{"type":"Point","properties":{"Station_ID":"MN-CK-18","Station_Nam":"GRAND MARAIS 4.4 WSW, MN","Latitude":"47.74462","Longitude":"-90.43796","Snowdepth":"6.000","Units":"in","Rept_Date":"2020-04-13 13"},"coordinates":[1596,5981]},{"type":"Point","properties":{"Station_ID":"MIEM4","Station_Nam":"MICHIGAMME 3WNW","Latitude":"46.54530","Longitude":"-88.18000","Snowdepth":"6.000","Units":"in","Rept_Date":"2020-04-13 12"},"coordinates":[2126,4771]},{"type":"Point","properties":{"Station_ID":"MEMW3","Station_Nam":"MENOMONIE","Latitude":"44.87430","Longitude":"-91.93640","Snowdepth":"6.000","Units":"in","Rept_Date":"2020-04-13 12"},"coordinates":[1244,3085]},{"type":"Point","properties":{"Station_ID":"LAMM5","Station_Nam":"LAMBERTON SW RESEARCH AND OUTREACH CENTER","Latitude":"44.23950","Longitude":"-95.31520","Snowdepth":"6.000","Units":"in","Rept_Date":"2020-04-13 13"},"coordinates":[451,2445]},{"type":"Point","properties":{"Station_ID":"LAKM5","Station_Nam":"LAKE CITY","Latitude":"44.43630","Longitude":"-92.27930","Snowdepth":"6.000","Units":"in","Rept_Date":"2020-04-13 12"},"coordinates":[1164,2643]},{"type":"Point","properties":{"Station_ID":"IRMM4","Station_Nam":"WWTP","Latitude":"46.46670","Longitude":"-90.18330","Snowdepth":"6.000","Units":"in","Rept_Date":"2020-04-13 12"},"coordinates":[1656,4692]},{"type":"Point","properties":{"Station_ID":"HOLW3","Station_Nam":"HOLCOMBE","Latitude":"45.22370","Longitude":"-91.12700","Snowdepth":"6.000","Units":"in","Rept_Date":"2020-04-13 12"},"coordinates":[1434,3438]},{"type":"Point","properties":{"Station_ID":"GLDM4","Station_Nam":"GLADSTONE NO. 2","Latitude":"45.84330","Longitude":"-87.03910","Snowdepth":"6.000","Units":"in","Rept_Date":"2020-04-13 12"},"coordinates":[2394,4063]},{"type":"Point","properties":{"Station_ID":"ELWW3","Station_Nam":"ELLSWORTH 1E","Latitude":"44.73030","Longitude":"-92.45860","Snowdepth":"6.000","Units":"in","Rept_Date":"2020-04-13 12"},"coordinates":[1122,2940]},{"type":"Point","properties":{"Station_ID":"CVZW3","Station_Nam":"WISCONSIN PUBLIC SERVICE","Latitude":"45.23530","Longitude":"-88.01360","Snowdepth":"6.000","Units":"in","Rept_Date":"2020-04-13 13"},"coordinates":[2165,3449]},{"type":"Point","properties":{"Station_ID":"BOWW3","Station_Nam":"STOCKBRIDGE-MUNSEE RESERVATION","Latitude":"44.87000","Longitude":"-88.90440","Snowdepth":"6.000","Units":"in","Rept_Date":"2020-04-13 12"},"coordinates":[1956,3081]},{"type":"Point","properties":{"Station_ID":"BFHW3","Station_Nam":"BAYFIELD FISH HATCHERY","Latitude":"46.78670","Longitude":"-90.86420","Snowdepth":"6.000","Units":"in","Rept_Date":"2020-04-13 13"},"coordinates":[1496,5015]},{"type":"Point","properties":{"Station_ID":"AVTW3","Station_Nam":"ARBOR VITAE-JOHNSON LAKE","Latitude":"45.89940","Longitude":"-89.72670","Snowdepth":"6.000","Units":"in","Rept_Date":"2020-04-13 11"},"coordinates":[1763,4119]},{"type":"Point","properties":{"Station_ID":"ALBM5","Station_Nam":"ALBERT LEA 3 SE","Latitude":"43.60640","Longitude":"-93.30190","Snowdepth":"6.000","Units":"in","Rept_Date":"2020-04-13 13"},"coordinates":[924,1806]},{"type":"Point","properties":{"Station_ID":"MN-DK-53","Station_Nam":"LAKEVILLE 3.8 ENE, MN","Latitude":"44.70423","Longitude":"-93.18460","Snowdepth":"5.900","Units":"in","Rept_Date":"2020-04-13 13"},"coordinates":[951,2913]},{"type":"Point","properties":{"Station_ID":"WI-ON-11","Station_Nam":"MINOCQUA 6.0 W, WI","Latitude":"45.88660","Longitude":"-89.83084","Snowdepth":"5.500","Units":"in","Rept_Date":"2020-04-13 13"},"coordinates":[1739,4106]},{"type":"Point","properties":{"Station_ID":"VT-CL-3","Station_Nam":"GROTON 4.4 WSW, VT","Latitude":"44.19440","Longitude":"-72.28240","Snowdepth":"5.500","Units":"in","Rept_Date":"2020-04-13 11"},"coordinates":[5857,2399]},{"type":"Point","properties":{"Station_ID":"MN-HN-110","Station_Nam":"EDINA 1.9 SSE, MN","Latitude":"44.86875","Longitude":"-93.33940","Snowdepth":"5.500","Units":"in","Rept_Date":"2020-04-13 13"},"coordinates":[915,3079]},{"type":"Point","properties":{"Station_ID":"MN-DK-70","Station_Nam":"EAGAN 2.0 NNW, MN","Latitude":"44.84322","Longitude":"-93.17899","Snowdepth":"5.500","Units":"in","Rept_Date":"2020-04-13 13"},"coordinates":[953,3054]},{"type":"Point","properties":{"Station_ID":"MN-CV-22","Station_Nam":"VICTORIA 1.6 WSW, MN","Latitude":"44.85670","Longitude":"-93.68640","Snowdepth":"5.500","Units":"in","Rept_Date":"2020-04-13 13"},"coordinates":[834,3067]},{"type":"Point","properties":{"Station_ID":"WLKW3","Station_Nam":"WHITE LAKE 1 SE","Latitude":"45.14520","Longitude":"-88.74160","Snowdepth":"5.000","Units":"in","Rept_Date":"2020-04-13 13"},"coordinates":[1994,3358]},{"type":"Point","properties":{"Station_ID":"WI-BY-2","Station_Nam":"MELLEN 18.6 SW, WI","Latitude":"46.16937","Longitude":"-90.98090","Snowdepth":"5.000","Units":"in","Rept_Date":"2020-04-13 13"},"coordinates":[1469,4392]},{"type":"Point","properties":{"Station_ID":"STMM4","Station_Nam":"STAMBAUGH 2SSE","Latitude":"46.05550","Longitude":"-88.62780","Snowdepth":"5.000","Units":"in","Rept_Date":"2020-04-13 12"},"coordinates":[2021,4277]},{"type":"Point","properties":{"Station_ID":"SPRI4","Station_Nam":"SPIRIT LAKE","Latitude":"43.42310","Longitude":"-95.10000","Snowdepth":"5.000","Units":"in","Rept_Date":"2020-04-13 12"},"coordinates":[502,1621]},{"type":"Point","properties":{"Station_ID":"SD-MH-41","Station_Nam":"SIOUX FALLS 3.9 SW, SD","Latitude":"43.50475","Longitude":"-96.78660","Snowdepth":"5.000","Units":"in","Rept_Date":"2020-04-13 13"},"coordinates":[106,1703]},{"type":"Point","properties":{"Station_ID":"RSTW3","Station_Nam":"ROSHOLT","Latitude":"44.62710","Longitude":"-89.30600","Snowdepth":"5.000","Units":"in","Rept_Date":"2020-04-13 13"},"coordinates":[1862,2836]},{"type":"Point","properties":{"Station_ID":"RSRM5","Station_Nam":"ROCHESTER AP 2NE","Latitude":"43.92810","Longitude":"-92.47580","Snowdepth":"5.000","Units":"in","Rept_Date":"2020-04-13 23"},"coordinates":[1118,2130]},{"type":"Point","properties":{"Station_ID":"RPDM4","Station_Nam":"RAPID RIVER 4SSE","Latitude":"45.87270","Longitude":"-86.94960","Snowdepth":"5.000","Units":"in","Rept_Date":"2020-04-13 11"},"coordinates":[2415,4092]},{"type":"Point","properties":{"Station_ID":"ROBW3","Station_Nam":"ROBERTS WWTP","Latitude":"44.97070","Longitude":"-92.56200","Snowdepth":"5.000","Units":"in","Rept_Date":"2020-04-13 13"},"coordinates":[1098,3182]},{"type":"Point","properties":{"Station_ID":"RMSI4","Station_Nam":"REMSEN NO. 2","Latitude":"42.81050","Longitude":"-95.97530","Snowdepth":"5.000","Units":"in","Rept_Date":"2020-04-13 18"},"coordinates":[296,1003]},{"type":"Point","properties":{"Station_ID":"RHRW3","Station_Nam":"RHINELANDER WJFW TV-12","Latitude":"45.62220","Longitude":"-89.41000","Snowdepth":"5.000","Units":"in","Rept_Date":"2020-04-14 03"},"coordinates":[1837,3840]},{"type":"Point","properties":{"Station_ID":"PRNW3","Station_Nam":"PRENTICE,WI","Latitude":"45.54780","Longitude":"-90.30000","Snowdepth":"5.000","Units":"in","Rept_Date":"2020-04-13 13"},"coordinates":[1628,3765]},{"type":"Point","properties":{"Station_ID":"OWAM5","Station_Nam":"OWATONNA","Latitude":"44.09760","Longitude":"-93.23180","Snowdepth":"5.000","Units":"in","Rept_Date":"2020-04-13 13"},"coordinates":[940,2301]},{"type":"Point","properties":{"Station_ID":"MNOW3","Station_Nam":"CEDAR FALLS HYDRO PLANT","Latitude":"44.93550","Longitude":"-91.88850","Snowdepth":"5.000","Units":"in","Rept_Date":"2020-04-13 12"},"coordinates":[1256,3147]},{"type":"Point","properties":{"Station_ID":"MN0GWSNW","Station_Nam":"LAKE ELMO 2.9 SE","Latitude":"44.97220","Longitude":"-92.83065","Snowdepth":"5.000","Units":"in","Rept_Date":"2020-04-13 12"},"coordinates":[1035,3184]},{"type":"Point","properties":{"Station_ID":"MN-SE-3","Station_Nam":"ELLENDALE 0.3 SW, MN","Latitude":"43.87046","Longitude":"-93.30360","Snowdepth":"5.000","Units":"in","Rept_Date":"2020-04-13 13"},"coordinates":[924,2072]},{"type":"Point","properties":{"Station_ID":"MN-SE-2","Station_Nam":"OWATONNA 0.8 E, MN","Latitude":"44.09170","Longitude":"-93.21380","Snowdepth":"5.000","Units":"in","Rept_Date":"2020-04-13 13"},"coordinates":[945,2295]},{"type":"Point","properties":{"Station_ID":"MN-RC-38","Station_Nam":"FARIBAULT 1.6 S, MN","Latitude":"44.27639","Longitude":"-93.27306","Snowdepth":"5.000","Units":"in","Rept_Date":"2020-04-13 13"},"coordinates":[931,2482]},{"type":"Point","properties":{"Station_ID":"MN-RC-1","Station_Nam":"MONTGOMERY 3.2 ENE, MN","Latitude":"44.46400","Longitude":"-93.51980","Snowdepth":"5.000","Units":"in","Rept_Date":"2020-04-13 11"},"coordinates":[873,2671]},{"type":"Point","properties":{"Station_ID":"MN-OL-27","Station_Nam":"STEWARTVILLE 5.1 W, MN","Latitude":"43.85344","Longitude":"-92.59072","Snowdepth":"5.000","Units":"in","Rept_Date":"2020-04-13 11"},"coordinates":[1091,2055]},{"type":"Point","properties":{"Station_ID":"MN-MW-8","Station_Nam":"AUSTIN 2.4 W, MN","Latitude":"43.67190","Longitude":"-93.02280","Snowdepth":"5.000","Units":"in","Rept_Date":"2020-04-13 13"},"coordinates":[989,1872]},{"type":"Point","properties":{"Station_ID":"MN-LS-13","Station_Nam":"NEW PRAGUE 1.0 S, MN","Latitude":"44.53277","Longitude":"-93.57254","Snowdepth":"5.000","Units":"in","Rept_Date":"2020-04-13 13"},"coordinates":[860,2740]},{"type":"Point","properties":{"Station_ID":"MN-HN-19","Station_Nam":"EDINA 1.3 SW, MN","Latitude":"44.87830","Longitude":"-93.37890","Snowdepth":"5.000","Units":"in","Rept_Date":"2020-04-13 13"},"coordinates":[906,3089]},{"type":"Point","properties":{"Station_ID":"MN-DK-104","Station_Nam":"HASTINGS 1.6 NW, MN","Latitude":"44.74458","Longitude":"-92.88035","Snowdepth":"5.000","Units":"in","Rept_Date":"2020-04-13 13"},"coordinates":[1023,2954]},{"type":"Point","properties":{"Station_ID":"MN-BU-31","Station_Nam":"LAKE CRYSTAL 4.9 N, MN","Latitude":"44.17549","Longitude":"-94.20798","Snowdepth":"5.000","Units":"in","Rept_Date":"2020-04-13 12"},"coordinates":[711,2380]},{"type":"Point","properties":{"Station_ID":"MFDW3","Station_Nam":"MARSHFIELD EXP FARM","Latitude":"44.64110","Longitude":"-90.13330","Snowdepth":"5.000","Units":"in","Rept_Date":"2020-04-13 12"},"coordinates":[1668,2850]},{"type":"Point","properties":{"Station_ID":"LMLI4","Station_Nam":"LAKE MILLS,IA","Latitude":"43.40000","Longitude":"-93.53330","Snowdepth":"5.000","Units":"in","Rept_Date":"2020-04-13 12"},"coordinates":[870,1597]},{"type":"Point","properties":{"Station_ID":"KMWN","Station_Nam":"MOUNT WASHINGTON","Latitude":"44.26666","Longitude":"-71.30000","Snowdepth":"5.000","Units":"in","Rept_Date":"2020-04-14 06"},"coordinates":[6088,2472]},{"type":"Point","properties":{"Station_ID":"JIMW3","Station_Nam":"JIM FALLS 3NW","Latitude":"45.08270","Longitude":"-91.33130","Snowdepth":"5.000","Units":"in","Rept_Date":"2020-04-13 11"},"coordinates":[1386,3295]},{"type":"Point","properties":{"Station_ID":"IA-SX-9","Station_Nam":"ORANGE CITY 0.3 ENE, IA","Latitude":"43.00598","Longitude":"-96.05268","Snowdepth":"5.000","Units":"in","Rept_Date":"2020-04-13 14"},"coordinates":[278,1200]},{"type":"Point","properties":{"Station_ID":"IA-KS-5","Station_Nam":"BURT 0.5 NW, IA","Latitude":"43.20552","Longitude":"-94.22739","Snowdepth":"5.000","Units":"in","Rept_Date":"2020-04-13 13"},"coordinates":[707,1401]},{"type":"Point","properties":{"Station_ID":"IA-DK-11","Station_Nam":"SPIRIT LAKE 1.7 SW, IA","Latitude":"43.40694","Longitude":"-95.13694","Snowdepth":"5.000","Units":"in","Rept_Date":"2020-04-13 13"},"coordinates":[493,1604]},{"type":"Point","properties":{"Station_ID":"HRTM1","Station_Nam":"HARTFORD","Latitude":"44.37440","Longitude":"-70.31620","Snowdepth":"5.000","Units":"in","Rept_Date":"2020-04-13 11"},"coordinates":[6318,2581]},{"type":"Point","properties":{"Station_ID":"EAU","Station_Nam":"CHIPPEWA VALLEY REGIONAL AIRPORT","Latitude":"44.86650","Longitude":"-91.48790","Snowdepth":"5.000","Units":"in","Rept_Date":"2020-04-14 00"},"coordinates":[1350,3077]},{"type":"Point","properties":{"Station_ID":"DRDW3","Station_Nam":"DURAND","Latitude":"44.61970","Longitude":"-91.97950","Snowdepth":"5.000","Units":"in","Rept_Date":"2020-04-13 13"},"coordinates":[1234,2828]},{"type":"Point","properties":{"Station_ID":"DHMM1","Station_Nam":"DEDHAM","Latitude":"44.67880","Longitude":"-68.63560","Snowdepth":"5.000","Units":"in","Rept_Date":"2020-04-13 11"},"coordinates":[6713,2888]},{"type":"Point","properties":{"Station_ID":"CNNS2","Station_Nam":"CANTON","Latitude":"43.31120","Longitude":"-96.58770","Snowdepth":"5.000","Units":"in","Rept_Date":"2020-04-13 12"},"coordinates":[153,1508]},{"type":"Point","properties":{"Station_ID":"CMKW3","Station_Nam":"CLAM LAKE 4W","Latitude":"46.16940","Longitude":"-90.98080","Snowdepth":"5.000","Units":"in","Rept_Date":"2020-04-13 12"},"coordinates":[1469,4392]},{"type":"Point","properties":{"Station_ID":"CHPW3","Station_Nam":"CHIPPEWA FALLS","Latitude":"44.92770","Longitude":"-91.40810","Snowdepth":"5.000","Units":"in","Rept_Date":"2020-04-13 13"},"coordinates":[1368,3139]},{"type":"Point","properties":{"Station_ID":"CHES2","Station_Nam":"CHESTER 2N","Latitude":"43.92830","Longitude":"-96.93160","Snowdepth":"5.000","Units":"in","Rept_Date":"2020-04-13 12"},"coordinates":[72,2131]},{"type":"Point","properties":{"Station_ID":"BGFW3","Station_Nam":"BIG FALLS HYDRO","Latitude":"45.55560","Longitude":"-90.95920","Snowdepth":"5.000","Units":"in","Rept_Date":"2020-04-13 12"},"coordinates":[1474,3772]},{"type":"Point","properties":{"Station_ID":"AVLV1","Station_Nam":"AVERILL","Latitude":"45.00570","Longitude":"-71.69030","Snowdepth":"5.000","Units":"in","Rept_Date":"2020-04-13 12"},"coordinates":[5996,3218]},{"type":"Point","properties":{"Station_ID":"ASTM5","Station_Nam":"AUSTIN WASTE WATER TREATMENT FACILITY","Latitude":"43.65420","Longitude":"-92.97390","Snowdepth":"5.000","Units":"in","Rept_Date":"2020-04-13 12"},"coordinates":[1001,1854]},{"type":"Point","properties":{"Station_ID":"ALTM5","Station_Nam":"ALTURA 5W","Latitude":"44.06330","Longitude":"-92.03970","Snowdepth":"5.000","Units":"in","Rept_Date":"2020-04-13 12"},"coordinates":[1220,2267]},{"type":"Point","properties":{"Station_ID":"MN-BW-13","Station_Nam":"NEW ULM 0.8 SW, MN","Latitude":"44.30516","Longitude":"-94.48142","Snowdepth":"4.700","Units":"in","Rept_Date":"2020-04-13 13"},"coordinates":[647,2511]},{"type":"Point","properties":{"Station_ID":"MN-RM-101","Station_Nam":"FALCON HEIGHTS 0.4 NNW, MN","Latitude":"44.99563","Longitude":"-93.17928","Snowdepth":"4.600","Units":"in","Rept_Date":"2020-04-13 13"},"coordinates":[953,3207]},{"type":"Point","properties":{"Station_ID":"WI-WB-2","Station_Nam":"STONE LAKE 2.0 NW, WI","Latitude":"45.85960","Longitude":"-91.57710","Snowdepth":"4.500","Units":"in","Rept_Date":"2020-04-13 13"},"coordinates":[1329,4079]},{"type":"Point","properties":{"Station_ID":"WI-MT-1","Station_Nam":"SCHOFIELD 3.3 E, WI","Latitude":"44.91806","Longitude":"-89.54470","Snowdepth":"4.500","Units":"in","Rept_Date":"2020-04-13 13"},"coordinates":[1806,3129]},{"type":"Point","properties":{"Station_ID":"WI-DN-5","Station_Nam":"ELK MOUND 1.3 NE, WI","Latitude":"44.88627","Longitude":"-91.66680","Snowdepth":"4.500","Units":"in","Rept_Date":"2020-04-13 12"},"coordinates":[1308,3097]},{"type":"Point","properties":{"Station_ID":"MN-WG-80","Station_Nam":"STILLWATER 0.8 SW, MN","Latitude":"45.04851","Longitude":"-92.83923","Snowdepth":"4.400","Units":"in","Rept_Date":"2020-04-13 14"},"coordinates":[1033,3261]},{"type":"Point","properties":{"Station_ID":"MN-WG-16","Station_Nam":"WOODBURY 1.7 N, MN","Latitude":"44.93054","Longitude":"-92.92490","Snowdepth":"4.400","Units":"in","Rept_Date":"2020-04-13 13"},"coordinates":[1012,3142]},{"type":"Point","properties":{"Station_ID":"WI-SR-1","Station_Nam":"HAYWARD 9.2 NNE, WI","Latitude":"46.13255","Longitude":"-91.40500","Snowdepth":"4.300","Units":"in","Rept_Date":"2020-04-13 12"},"coordinates":[1369,4355]},{"type":"Point","properties":{"Station_ID":"MN-DK-121","Station_Nam":"SOUTH SAINT PAUL 0.5 S, MN","Latitude":"44.88008","Longitude":"-93.04090","Snowdepth":"4.300","Units":"in","Rept_Date":"2020-04-13 13"},"coordinates":[985,3091]},{"type":"Point","properties":{"Station_ID":"MN-HN-175","Station_Nam":"BLOOMINGTON 2.0 SE, MN","Latitude":"44.81138","Longitude":"-93.28594","Snowdepth":"4.200","Units":"in","Rept_Date":"2020-04-13 13"},"coordinates":[928,3022]},{"type":"Point","properties":{"Station_ID":"MN-RC-36","Station_Nam":"NORTHFIELD 3.9 SSW, MN","Latitude":"44.40859","Longitude":"-93.20025","Snowdepth":"4.100","Units":"in","Rept_Date":"2020-04-13 13"},"coordinates":[948,2615]},{"type":"Point","properties":{"Station_ID":"WNNM5","Station_Nam":"WINNEBAGO","Latitude":"43.76920","Longitude":"-94.18730","Snowdepth":"4.000","Units":"in","Rept_Date":"2020-04-13 13"},"coordinates":[716,1970]},{"type":"Point","properties":{"Station_ID":"WIDM5","Station_Nam":"WINONA DAM 5A","Latitude":"44.08750","Longitude":"-91.67030","Snowdepth":"4.000","Units":"in","Rept_Date":"2020-04-13 13"},"coordinates":[1307,2291]},{"type":"Point","properties":{"Station_ID":"WI-TR-8","Station_Nam":"ETTRICK 4.0 WNW, WI","Latitude":"44.19004","Longitude":"-91.34249","Snowdepth":"4.000","Units":"in","Rept_Date":"2020-04-13 13"},"coordinates":[1384,2395]},{"type":"Point","properties":{"Station_ID":"WELM5","Station_Nam":"WELLS","Latitude":"43.74680","Longitude":"-93.73680","Snowdepth":"4.000","Units":"in","Rept_Date":"2020-04-13 13"},"coordinates":[822,1947]},{"type":"Point","properties":{"Station_ID":"SWEI4","Station_Nam":"SWEA CITY,IA","Latitude":"43.38530","Longitude":"-94.25000","Snowdepth":"4.000","Units":"in","Rept_Date":"2020-04-13 11"},"coordinates":[701,1583]},{"type":"Point","properties":{"Station_ID":"SHHW3","Station_Nam":"SHAWANO 2SSW","Latitude":"44.76310","Longitude":"-88.61830","Snowdepth":"4.000","Units":"in","Rept_Date":"2020-04-13 13"},"coordinates":[2023,2973]},{"type":"Point","properties":{"Station_ID":"SHDI4","Station_Nam":"SHELDON,IA","Latitude":"43.18080","Longitude":"-95.85280","Snowdepth":"4.000","Units":"in","Rept_Date":"2020-04-13 12"},"coordinates":[325,1376]},{"type":"Point","properties":{"Station_ID":"SD-MH-82","Station_Nam":"SIOUX FALLS 5.2 E, SD","Latitude":"43.54580","Longitude":"-96.62650","Snowdepth":"4.000","Units":"in","Rept_Date":"2020-04-13 13"},"coordinates":[144,1745]},{"type":"Point","properties":{"Station_ID":"SD-MH-1","Station_Nam":"SIOUX FALLS 5.0 SE ARPT, SD","Latitude":"43.52360","Longitude":"-96.66780","Snowdepth":"4.000","Units":"in","Rept_Date":"2020-04-13 13"},"coordinates":[134,1722]},{"type":"Point","properties":{"Station_ID":"SD-LN-32","Station_Nam":"SIOUX FALLS 3.6 SSE, SD","Latitude":"43.49360","Longitude":"-96.71249","Snowdepth":"4.000","Units":"in","Rept_Date":"2020-04-13 13"},"coordinates":[123,1692]},{"type":"Point","properties":{"Station_ID":"REWM5","Station_Nam":"REDWOOD FALLS","Latitude":"44.54850","Longitude":"-95.09980","Snowdepth":"4.000","Units":"in","Rept_Date":"2020-04-13 12"},"coordinates":[502,2756]},{"type":"Point","properties":{"Station_ID":"RANM1","Station_Nam":"RANGELEY","Latitude":"44.98910","Longitude":"-70.67190","Snowdepth":"4.000","Units":"in","Rept_Date":"2020-04-13 10"},"coordinates":[6235,3201]},{"type":"Point","properties":{"Station_ID":"PTBN3","Station_Nam":"PITTSBURG RESERVOIR","Latitude":"45.04690","Longitude":"-71.38300","Snowdepth":"4.000","Units":"in","Rept_Date":"2020-04-13 12"},"coordinates":[6068,3259]},{"type":"Point","properties":{"Station_ID":"ORCI4","Station_Nam":"ORANGE CITY","Latitude":"43.00080","Longitude":"-96.05390","Snowdepth":"4.000","Units":"in","Rept_Date":"2020-04-13 12"},"coordinates":[278,1195]},{"type":"Point","properties":{"Station_ID":"NH-CR-15","Station_Nam":"JACKSON 3.7 NW, NH","Latitude":"44.19069","Longitude":"-71.22598","Snowdepth":"4.000","Units":"in","Rept_Date":"2020-04-13 12"},"coordinates":[6105,2395]},{"type":"Point","properties":{"Station_ID":"MONS2","Station_Nam":"MONTROSE","Latitude":"43.70500","Longitude":"-97.18780","Snowdepth":"4.000","Units":"in","Rept_Date":"2020-04-13 13"},"coordinates":[12,1905]},{"type":"Point","properties":{"Station_ID":"MNHZK4CP","Station_Nam":"WATERTOWN 0.8 NW","Latitude":"44.97073","Longitude":"-93.85906","Snowdepth":"4.000","Units":"in","Rept_Date":"2020-04-13 12"},"coordinates":[793,3182]},{"type":"Point","properties":{"Station_ID":"MNE9SLWI","Station_Nam":"LEAVENWORTH 5.4 S","Latitude":"44.14481","Longitude":"-94.78882","Snowdepth":"4.000","Units":"in","Rept_Date":"2020-04-13 12"},"coordinates":[575,2349]},{"type":"Point","properties":{"Station_ID":"MN-WG-33","Station_Nam":"COTTAGE GROVE 1.6 NNW, MN","Latitude":"44.83821","Longitude":"-92.93590","Snowdepth":"4.000","Units":"in","Rept_Date":"2020-04-13 12"},"coordinates":[1010,3049]},{"type":"Point","properties":{"Station_ID":"MN-HN-88","Station_Nam":"GOLDEN VALLEY 0.8 WSW, MN","Latitude":"44.98461","Longitude":"-93.37440","Snowdepth":"4.000","Units":"in","Rept_Date":"2020-04-13 13"},"coordinates":[907,3196]},{"type":"Point","properties":{"Station_ID":"MN-HN-6","Station_Nam":"LONG LAKE 0.2 WSW, MN","Latitude":"44.98290","Longitude":"-93.57360","Snowdepth":"4.000","Units":"in","Rept_Date":"2020-04-13 13"},"coordinates":[860,3195]},{"type":"Point","properties":{"Station_ID":"MN-HN-30","Station_Nam":"PLYMOUTH 2.4 ENE, MN","Latitude":"45.04063","Longitude":"-93.41950","Snowdepth":"4.000","Units":"in","Rept_Date":"2020-04-13 13"},"coordinates":[896,3253]},{"type":"Point","properties":{"Station_ID":"MN-CV-8","Station_Nam":"WATERTOWN 0.5 NNW, MN","Latitude":"44.96631","Longitude":"-93.84890","Snowdepth":"4.000","Units":"in","Rept_Date":"2020-04-13 11"},"coordinates":[796,3178]},{"type":"Point","properties":{"Station_ID":"MN-CV-1","Station_Nam":"CARVER 0.7 W, MN","Latitude":"44.75728","Longitude":"-93.64160","Snowdepth":"4.000","Units":"in","Rept_Date":"2020-04-13 13"},"coordinates":[844,2967]},{"type":"Point","properties":{"Station_ID":"MN-CK-6","Station_Nam":"GRAND MARAIS 4.4 W, MN","Latitude":"47.74865","Longitude":"-90.43760","Snowdepth":"4.000","Units":"in","Rept_Date":"2020-04-13 13"},"coordinates":[1596,5985]},{"type":"Point","properties":{"Station_ID":"ME-KX-6","Station_Nam":"UNION 3.0 NW, ME","Latitude":"44.24435","Longitude":"-69.31540","Snowdepth":"4.000","Units":"in","Rept_Date":"2020-04-13 13"},"coordinates":[6553,2449]},{"type":"Point","properties":{"Station_ID":"LKFM5","Station_Nam":"LAKEFIELD,MN","Latitude":"43.68330","Longitude":"-95.18330","Snowdepth":"4.000","Units":"in","Rept_Date":"2020-04-13 12"},"coordinates":[482,1883]},{"type":"Point","properties":{"Station_ID":"LADW3","Station_Nam":"LADYSMITH WTP","Latitude":"45.44290","Longitude":"-91.08970","Snowdepth":"4.000","Units":"in","Rept_Date":"2020-04-13 12"},"coordinates":[1443,3659]},{"type":"Point","properties":{"Station_ID":"KINM1","Station_Nam":"KINGFIELD","Latitude":"44.95950","Longitude":"-70.17530","Snowdepth":"4.000","Units":"in","Rept_Date":"2020-04-13 10"},"coordinates":[6352,3171]},{"type":"Point","properties":{"Station_ID":"JCBM4","Station_Nam":"JACOBSVILLE","Latitude":"47.00830","Longitude":"-88.43180","Snowdepth":"4.000","Units":"in","Rept_Date":"2020-04-13 11"},"coordinates":[2067,5238]},{"type":"Point","properties":{"Station_ID":"GLDM5","Station_Nam":"GAYLORD","Latitude":"44.55640","Longitude":"-94.22070","Snowdepth":"4.000","Units":"in","Rept_Date":"2020-04-13 14"},"coordinates":[708,2764]},{"type":"Point","properties":{"Station_ID":"FSDS2","Station_Nam":"SIOUX FALLS NWS WFO AP","Latitude":"43.58780","Longitude":"-96.73000","Snowdepth":"4.000","Units":"in","Rept_Date":"2020-04-14 05"},"coordinates":[119,1787]},{"type":"Point","properties":{"Station_ID":"FSD","Station_Nam":"SIOUX FALLS, SD","Latitude":"43.58750","Longitude":"-96.72940","Snowdepth":"4.000","Units":"in","Rept_Date":"2020-04-13 12"},"coordinates":[120,1787]},{"type":"Point","properties":{"Station_ID":"EMMI4","Station_Nam":"EMMETSBURG,IA","Latitude":"43.10000","Longitude":"-94.68330","Snowdepth":"4.000","Units":"in","Rept_Date":"2020-04-13 14"},"coordinates":[600,1295]},{"type":"Point","properties":{"Station_ID":"CNTW3","Station_Nam":"CLINTONVILLE","Latitude":"44.62270","Longitude":"-88.74830","Snowdepth":"4.000","Units":"in","Rept_Date":"2020-04-13 12"},"coordinates":[1993,2831]},{"type":"Point","properties":{"Station_ID":"CAN-NS-103","Station_Nam":"TRAFALGAR 4.9 WSW, CAN","Latitude":"45.26217","Longitude":"-62.72285","Snowdepth":"4.000","Units":"in","Rept_Date":"2020-04-13 11"},"coordinates":[8101,3476]},{"type":"Point","properties":{"Station_ID":"BMRW3","Station_Nam":"BLOOMER","Latitude":"45.09070","Longitude":"-91.48640","Snowdepth":"4.000","Units":"in","Rept_Date":"2020-04-13 13"},"coordinates":[1350,3303]},{"type":"Point","properties":{"Station_ID":"BLKW3","Station_Nam":"BLACK RIVER FALLS SEWAGE","Latitude":"44.29040","Longitude":"-90.85360","Snowdepth":"4.000","Units":"in","Rept_Date":"2020-04-13 13"},"coordinates":[1499,2496]},{"type":"Point","properties":{"Station_ID":"BFSW3","Station_Nam":"BIG FALLS-5 NW","Latitude":"44.63980","Longitude":"-89.11330","Snowdepth":"4.000","Units":"in","Rept_Date":"2020-04-13 12"},"coordinates":[1907,2848]},{"type":"Point","properties":{"Station_ID":"CATQ6","Station_Nam":"CAT LAKE","Latitude":"51.72690","Longitude":"-91.82210","Snowdepth":"3.940","Units":"in","Rept_Date":"2020-04-14 06"},"coordinates":[1271,9999]},{"type":"Point","properties":{"Station_ID":"MI-DL-4","Station_Nam":"GLADSTONE 2.1 SW, MI","Latitude":"45.83218","Longitude":"-87.05727","Snowdepth":"3.900","Units":"in","Rept_Date":"2020-04-13 12"},"coordinates":[2389,4051]},{"type":"Point","properties":{"Station_ID":"WI-TR-9","Station_Nam":"ETTRICK 3.2 NE, WI","Latitude":"44.20490","Longitude":"-91.22532","Snowdepth":"3.800","Units":"in","Rept_Date":"2020-04-13 13"},"coordinates":[1411,2410]},{"type":"Point","properties":{"Station_ID":"MN-AA-85","Station_Nam":"LINO LAKES 1.8 W, MN","Latitude":"45.16640","Longitude":"-93.12063","Snowdepth":"3.600","Units":"in","Rept_Date":"2020-04-13 13"},"coordinates":[966,3380]},{"type":"Point","properties":{"Station_ID":"WI-WP-9","Station_Nam":"IOLA 0.4 SSE, WI","Latitude":"44.50388","Longitude":"-89.12250","Snowdepth":"3.500","Units":"in","Rept_Date":"2020-04-13 14"},"coordinates":[1905,2711]},{"type":"Point","properties":{"Station_ID":"MN-BW-8","Station_Nam":"COMFREY 6.5 ENE, MN","Latitude":"44.15109","Longitude":"-94.78516","Snowdepth":"3.500","Units":"in","Rept_Date":"2020-04-13 13"},"coordinates":[576,2355]},{"type":"Point","properties":{"Station_ID":"ME-PN-55","Station_Nam":"ORONO 1.1 SSW, ME","Latitude":"44.87005","Longitude":"-68.69446","Snowdepth":"3.500","Units":"in","Rept_Date":"2020-04-13 12"},"coordinates":[6699,3081]},{"type":"Point","properties":{"Station_ID":"ME-FR-22","Station_Nam":"FARMINGTON 4.8 NNW, ME","Latitude":"44.73396","Longitude":"-70.18007","Snowdepth":"3.500","Units":"in","Rept_Date":"2020-04-13 14"},"coordinates":[6350,2943]},{"type":"Point","properties":{"Station_ID":"IA-LY-9","Station_Nam":"LARCHWOOD 1.2 NNE, IA","Latitude":"43.47210","Longitude":"-96.43129","Snowdepth":"3.500","Units":"in","Rept_Date":"2020-04-13 14"},"coordinates":[189,1670]},{"type":"Point","properties":{"Station_ID":"WI-MT-14","Station_Nam":"MOSINEE 2.7 WSW, WI","Latitude":"44.77240","Longitude":"-89.73441","Snowdepth":"3.400","Units":"in","Rept_Date":"2020-04-13 13"},"coordinates":[1761,2982]},{"type":"Point","properties":{"Station_ID":"MN-RM-63","Station_Nam":"NORTH SAINT PAUL 1.0 NW, MN","Latitude":"45.02410","Longitude":"-93.01400","Snowdepth":"3.300","Units":"in","Rept_Date":"2020-04-13 13"},"coordinates":[991,3236]},{"type":"Point","properties":{"Station_ID":"WILW3","Station_Nam":"RESERVOIR","Latitude":"45.70000","Longitude":"-89.83330","Snowdepth":"3.000","Units":"in","Rept_Date":"2020-04-13 11"},"coordinates":[1738,3918]},{"type":"Point","properties":{"Station_ID":"WI-WD-13","Station_Nam":"BABCOCK 0.6 W, WI","Latitude":"44.30120","Longitude":"-90.12315","Snowdepth":"3.000","Units":"in","Rept_Date":"2020-04-13 13"},"coordinates":[1670,2507]},{"type":"Point","properties":{"Station_ID":"WI-PT-8","Station_Nam":"RUDOLPH 2.1 NNE, WI","Latitude":"44.52553","Longitude":"-89.78677","Snowdepth":"3.000","Units":"in","Rept_Date":"2020-04-13 11"},"coordinates":[1749,2733]},{"type":"Point","properties":{"Station_ID":"WI-BY-14","Station_Nam":"ASHLAND 9.8 W, WI","Latitude":"46.59742","Longitude":"-91.07856","Snowdepth":"3.000","Units":"in","Rept_Date":"2020-04-13 12"},"coordinates":[1446,4824]},{"type":"Point","properties":{"Station_ID":"WACM5","Station_Nam":"WACONIA","Latitude":"44.85330","Longitude":"-93.80260","Snowdepth":"3.000","Units":"in","Rept_Date":"2020-04-13 12"},"coordinates":[806,3064]},{"type":"Point","properties":{"Station_ID":"TURM1","Station_Nam":"TURNER","Latitude":"44.28220","Longitude":"-70.25610","Snowdepth":"3.000","Units":"in","Rept_Date":"2020-04-13 11"},"coordinates":[6333,2488]},{"type":"Point","properties":{"Station_ID":"TOPM1","Station_Nam":"TOPSFIELD","Latitude":"45.43470","Longitude":"-67.72020","Snowdepth":"3.000","Units":"in","Rept_Date":"2020-04-13 11"},"coordinates":[6928,3650]},{"type":"Point","properties":{"Station_ID":"SUXI4","Station_Nam":"SNOW PAID FOR KSUX","Latitude":"42.40530","Longitude":"-96.36000","Snowdepth":"3.000","Units":"in","Rept_Date":"2020-04-13 11"},"coordinates":[206,594]},{"type":"Point","properties":{"Station_ID":"SUX","Station_Nam":"SIOUX GATEWAY AIRPORT","Latitude":"42.40390","Longitude":"-96.38330","Snowdepth":"3.000","Units":"in","Rept_Date":"2020-04-13 12"},"coordinates":[201,592]},{"type":"Point","properties":{"Station_ID":"STIM5","Station_Nam":"STILLWATER 2SW","Latitude":"45.04540","Longitude":"-92.85220","Snowdepth":"3.000","Units":"in","Rept_Date":"2020-04-13 13"},"coordinates":[1029,3258]},{"type":"Point","properties":{"Station_ID":"SRAW3","Station_Nam":"SARONA","Latitude":"45.80250","Longitude":"-91.86700","Snowdepth":"3.000","Units":"in","Rept_Date":"2020-04-13 13"},"coordinates":[1261,4022]},{"type":"Point","properties":{"Station_ID":"SD-UN-2","Station_Nam":"ELK POINT 5.6 NNE, SD","Latitude":"42.76126","Longitude":"-96.65320","Snowdepth":"3.000","Units":"in","Rept_Date":"2020-04-13 14"},"coordinates":[137,953]},{"type":"Point","properties":{"Station_ID":"SAUW3","Station_Nam":"WAUSAU WSAW TV","Latitude":"44.94630","Longitude":"-89.62220","Snowdepth":"3.000","Units":"in","Rept_Date":"2020-04-14 01"},"coordinates":[1788,3158]},{"type":"Point","properties":{"Station_ID":"RWGM5","Station_Nam":"RED WING","Latitude":"44.57120","Longitude":"-92.52830","Snowdepth":"3.000","Units":"in","Rept_Date":"2020-04-13 13"},"coordinates":[1105,2779]},{"type":"Point","properties":{"Station_ID":"RDWM5","Station_Nam":"RED WING DAM 3","Latitude":"44.61030","Longitude":"-92.61010","Snowdepth":"3.000","Units":"in","Rept_Date":"2020-04-13 13"},"coordinates":[1086,2819]},{"type":"Point","properties":{"Station_ID":"PVRW3","Station_Nam":"PLOVER-2-E WATER TREATMENT PLANT","Latitude":"44.45920","Longitude":"-89.49530","Snowdepth":"3.000","Units":"in","Rept_Date":"2020-04-13 12"},"coordinates":[1817,2666]},{"type":"Point","properties":{"Station_ID":"PELW3","Station_Nam":"PELLA 3SE","Latitude":"44.73580","Longitude":"-88.73780","Snowdepth":"3.000","Units":"in","Rept_Date":"2020-04-13 10"},"coordinates":[1995,2945]},{"type":"Point","properties":{"Station_ID":"MN0LCVSN","Station_Nam":"PINE SPRINGS 0.5 N","Latitude":"45.04304","Longitude":"-92.95452","Snowdepth":"3.000","Units":"in","Rept_Date":"2020-04-13 12"},"coordinates":[1005,3255]},{"type":"Point","properties":{"Station_ID":"MN0HS1SL","Station_Nam":"NORTH SAINT PAUL 1.6 NW","Latitude":"45.02800","Longitude":"-93.01506","Snowdepth":"3.000","Units":"in","Rept_Date":"2020-04-13 12"},"coordinates":[991,3240]},{"type":"Point","properties":{"Station_ID":"MN-WG-74","Station_Nam":"OAKDALE 0.4 S, MN","Latitude":"44.98208","Longitude":"-92.96510","Snowdepth":"3.000","Units":"in","Rept_Date":"2020-04-13 13"},"coordinates":[1003,3194]},{"type":"Point","properties":{"Station_ID":"MN-WC-8","Station_Nam":"WASECA 2.0 N, MN","Latitude":"44.11194","Longitude":"-93.49972","Snowdepth":"3.000","Units":"in","Rept_Date":"2020-04-13 12"},"coordinates":[877,2316]},{"type":"Point","properties":{"Station_ID":"MN-RK-5","Station_Nam":"HILLS 0.2 NW, MN","Latitude":"43.52960","Longitude":"-96.36146","Snowdepth":"3.000","Units":"in","Rept_Date":"2020-04-13 14"},"coordinates":[206,1728]},{"type":"Point","properties":{"Station_ID":"MN-MC-7","Station_Nam":"SILVER LAKE 1.7 N, MN","Latitude":"44.92788","Longitude":"-94.20408","Snowdepth":"3.000","Units":"in","Rept_Date":"2020-04-13 13"},"coordinates":[712,3139]},{"type":"Point","properties":{"Station_ID":"MN-HN-181","Station_Nam":"MINNEAPOLIS 0.4 NE, MN","Latitude":"44.96708","Longitude":"-93.26222","Snowdepth":"3.000","Units":"in","Rept_Date":"2020-04-13 13"},"coordinates":[933,3179]},{"type":"Point","properties":{"Station_ID":"MN-HN-134","Station_Nam":"BROOKLYN CENTER 1.1 E, MN","Latitude":"45.06744","Longitude":"-93.29334","Snowdepth":"3.000","Units":"in","Rept_Date":"2020-04-13 13"},"coordinates":[926,3280]},{"type":"Point","properties":{"Station_ID":"MMLM5","Station_Nam":"DIVERSION","Latitude":"44.47060","Longitude":"-95.80000","Snowdepth":"3.000","Units":"in","Rept_Date":"2020-04-13 13"},"coordinates":[338,2678]},{"type":"Point","properties":{"Station_ID":"ME-WL-27","Station_Nam":"PROSPECT 2.6 W, ME","Latitude":"44.55719","Longitude":"-68.91732","Snowdepth":"3.000","Units":"in","Rept_Date":"2020-04-13 11"},"coordinates":[6647,2765]},{"type":"Point","properties":{"Station_ID":"EVYI4","Station_Nam":"EVERLY,IA","Latitude":"43.18330","Longitude":"-95.36670","Snowdepth":"3.000","Units":"in","Rept_Date":"2020-04-13 12"},"coordinates":[439,1379]},{"type":"Point","properties":{"Station_ID":"ESAM4","Station_Nam":"ESCANABA","Latitude":"45.74380","Longitude":"-87.04060","Snowdepth":"3.000","Units":"in","Rept_Date":"2020-04-13 11"},"coordinates":[2393,3962]},{"type":"Point","properties":{"Station_ID":"CKPI4","Station_Nam":"CHEROKEE,IA","Latitude":"42.75720","Longitude":"-95.53780","Snowdepth":"3.000","Units":"in","Rept_Date":"2020-04-13 13"},"coordinates":[399,949]},{"type":"Point","properties":{"Station_ID":"CAN-NS-60","Station_Nam":"SYDNEY FORKS, CAN","Latitude":"46.05645","Longitude":"-60.31510","Snowdepth":"3.000","Units":"in","Rept_Date":"2020-04-13 13"},"coordinates":[8666,4278]},{"type":"Point","properties":{"Station_ID":"BTTI4","Station_Nam":"BRITT,IA","Latitude":"43.08330","Longitude":"-93.80140","Snowdepth":"3.000","Units":"in","Rept_Date":"2020-04-13 13"},"coordinates":[807,1278]},{"type":"Point","properties":{"Station_ID":"BRCM5","Station_Nam":"BRICELYN","Latitude":"43.54400","Longitude":"-93.84230","Snowdepth":"3.000","Units":"in","Rept_Date":"2020-04-13 12"},"coordinates":[797,1743]},{"type":"Point","properties":{"Station_ID":"ANTW3","Station_Nam":"ANTIGO,WI","Latitude":"45.13330","Longitude":"-89.15000","Snowdepth":"3.000","Units":"in","Rept_Date":"2020-04-13 13"},"coordinates":[1898,3346]},{"type":"Point","properties":{"Station_ID":"ANJM4","Station_Nam":"SNOW PAID OBSERVER FOR KANJ","Latitude":"46.48670","Longitude":"-84.40260","Snowdepth":"3.000","Units":"in","Rept_Date":"2020-04-14 06"},"coordinates":[3013,4712]},{"type":"Point","properties":{"Station_ID":"HPN04_MADIS","Station_Nam":"HANOVER","Latitude":"45.16770","Longitude":"-93.63430","Snowdepth":"2.580","Units":"in","Rept_Date":"2020-04-14 06"},"coordinates":[846,3381]},{"type":"Point","properties":{"Station_ID":"WI-WD-2","Station_Nam":"WISCONSIN RAPIDS 4.6 SSE, WI","Latitude":"44.33823","Longitude":"-89.78200","Snowdepth":"2.500","Units":"in","Rept_Date":"2020-04-13 14"},"coordinates":[1750,2544]},{"type":"Point","properties":{"Station_ID":"WI-PK-4","Station_Nam":"DRESSER 6.1 ESE, WI","Latitude":"45.32436","Longitude":"-92.52080","Snowdepth":"2.500","Units":"in","Rept_Date":"2020-04-13 14"},"coordinates":[1107,3539]},{"type":"Point","properties":{"Station_ID":"WI-BY-22","Station_Nam":"MASON 11.5 WNW, WI","Latitude":"46.50198","Longitude":"-91.28339","Snowdepth":"2.500","Units":"in","Rept_Date":"2020-04-13 14"},"coordinates":[1398,4727]},{"type":"Point","properties":{"Station_ID":"MN-RC-11","Station_Nam":"NEW PRAGUE 4.8 ESE, MN","Latitude":"44.51999","Longitude":"-93.48470","Snowdepth":"2.500","Units":"in","Rept_Date":"2020-04-13 11"},"coordinates":[881,2728]},{"type":"Point","properties":{"Station_ID":"MN-MC-5","Station_Nam":"GLENCOE 0.3 WSW, MN","Latitude":"44.76834","Longitude":"-94.15580","Snowdepth":"2.500","Units":"in","Rept_Date":"2020-04-13 14"},"coordinates":[724,2978]},{"type":"Point","properties":{"Station_ID":"MN-CG-7","Station_Nam":"STACY 1.4 NW, MN","Latitude":"45.39504","Longitude":"-93.01810","Snowdepth":"2.500","Units":"in","Rept_Date":"2020-04-13 13"},"coordinates":[991,3610]},{"type":"Point","properties":{"Station_ID":"ME-LN-13","Station_Nam":"WALDOBORO 1.5 NNE, ME","Latitude":"44.11481","Longitude":"-69.36644","Snowdepth":"2.500","Units":"in","Rept_Date":"2020-04-13 13"},"coordinates":[6541,2319]},{"type":"Point","properties":{"Station_ID":"MN-HN-72","Station_Nam":"MAPLE GROVE 2.9 NE, MN","Latitude":"45.13953","Longitude":"-93.42070","Snowdepth":"2.300","Units":"in","Rept_Date":"2020-04-13 14"},"coordinates":[896,3353]},{"type":"Point","properties":{"Station_ID":"WWWW3","Station_Nam":"WAUPACA","Latitude":"44.35470","Longitude":"-89.05920","Snowdepth":"2.000","Units":"in","Rept_Date":"2020-04-13 13"},"coordinates":[1920,2561]},{"type":"Point","properties":{"Station_ID":"WIRW3","Station_Nam":"WIS RAPIDS GRAND AV B","Latitude":"44.39940","Longitude":"-89.83050","Snowdepth":"2.000","Units":"in","Rept_Date":"2020-04-13 12"},"coordinates":[1739,2606]},{"type":"Point","properties":{"Station_ID":"WIPW3","Station_Nam":"WISCONSIN RAPIDS-SOUTHEAST","Latitude":"44.38190","Longitude":"-89.80470","Snowdepth":"2.000","Units":"in","Rept_Date":"2020-04-13 12"},"coordinates":[1745,2588]},{"type":"Point","properties":{"Station_ID":"WI-WD-7","Station_Nam":"NEKOOSA 3.7 SSW, WI","Latitude":"44.26305","Longitude":"-89.93526","Snowdepth":"2.000","Units":"in","Rept_Date":"2020-04-13 13"},"coordinates":[1714,2468]},{"type":"Point","properties":{"Station_ID":"WI-SR-5","Station_Nam":"HAYWARD 9.7 NE, WI","Latitude":"46.12030","Longitude":"-91.35370","Snowdepth":"2.000","Units":"in","Rept_Date":"2020-04-13 14"},"coordinates":[1381,4342]},{"type":"Point","properties":{"Station_ID":"WI-MN-9","Station_Nam":"WARRENS 4.7 WSW, WI","Latitude":"44.10386","Longitude":"-90.58884","Snowdepth":"2.000","Units":"in","Rept_Date":"2020-04-13 13"},"coordinates":[1561,2308]},{"type":"Point","properties":{"Station_ID":"WI-BY-1","Station_Nam":"BAYFIELD 8.8 N, WI","Latitude":"46.93855","Longitude":"-90.83490","Snowdepth":"2.000","Units":"in","Rept_Date":"2020-04-13 13"},"coordinates":[1503,5168]},{"type":"Point","properties":{"Station_ID":"WAYN002","Station_Nam":"WAYNE 0.7 ENE, NE","Latitude":"42.23610","Longitude":"-97.00740","Snowdepth":"2.000","Units":"in","Rept_Date":"2020-04-13 13"},"coordinates":[54,423]},{"type":"Point","properties":{"Station_ID":"WASM5","Station_Nam":"WASECA SOUTHERN RESEARCH AND OUTREACH CENTER","Latitude":"44.07070","Longitude":"-93.52640","Snowdepth":"2.000","Units":"in","Rept_Date":"2020-04-13 13"},"coordinates":[871,2274]},{"type":"Point","properties":{"Station_ID":"WAKN1","Station_Nam":"WAKEFIELD,NE","Latitude":"42.26670","Longitude":"-96.86670","Snowdepth":"2.000","Units":"in","Rept_Date":"2020-04-13 12"},"coordinates":[87,454]},{"type":"Point","properties":{"Station_ID":"STPW3","Station_Nam":"STEVENS POINT","Latitude":"44.51130","Longitude":"-89.58550","Snowdepth":"2.000","Units":"in","Rept_Date":"2020-04-13 12"},"coordinates":[1796,2719]},{"type":"Point","properties":{"Station_ID":"SRTW3","Station_Nam":"SPARTA","Latitude":"43.93650","Longitude":"-90.81630","Snowdepth":"2.000","Units":"in","Rept_Date":"2020-04-13 13"},"coordinates":[1507,2139]},{"type":"Point","properties":{"Station_ID":"SPOW3","Station_Nam":"SPOONER,WI","Latitude":"45.82360","Longitude":"-91.70000","Snowdepth":"2.000","Units":"in","Rept_Date":"2020-04-13 13"},"coordinates":[1300,4043]},{"type":"Point","properties":{"Station_ID":"SPGM5","Station_Nam":"SPRING VALLEY","Latitude":"43.69330","Longitude":"-92.39260","Snowdepth":"2.000","Units":"in","Rept_Date":"2020-04-13 12"},"coordinates":[1137,1893]},{"type":"Point","properties":{"Station_ID":"SLBI4","Station_Nam":"STORM LAKE","Latitude":"42.64690","Longitude":"-95.19330","Snowdepth":"2.000","Units":"in","Rept_Date":"2020-04-13 13"},"coordinates":[480,838]},{"type":"Point","properties":{"Station_ID":"SD-MH-8","Station_Nam":"HARTFORD 6.4 S, SD","Latitude":"43.53128","Longitude":"-96.95020","Snowdepth":"2.000","Units":"in","Rept_Date":"2020-04-13 14"},"coordinates":[68,1730]},{"type":"Point","properties":{"Station_ID":"SD-BK-7","Station_Nam":"BROOKINGS 0.2 SSW, SD","Latitude":"44.30389","Longitude":"-96.78780","Snowdepth":"2.000","Units":"in","Rept_Date":"2020-04-13 13"},"coordinates":[106,2509]},{"type":"Point","properties":{"Station_ID":"RRVM4","Station_Nam":"RAPID RIVER 9S","Latitude":"45.78750","Longitude":"-86.93920","Snowdepth":"2.000","Units":"in","Rept_Date":"2020-04-13 14"},"coordinates":[2417,4006]},{"type":"Point","properties":{"Station_ID":"RFDM5","Station_Nam":"ROCKFORD","Latitude":"45.08960","Longitude":"-93.73990","Snowdepth":"2.000","Units":"in","Rept_Date":"2020-04-13 12"},"coordinates":[821,3302]},{"type":"Point","properties":{"Station_ID":"PULW3","Station_Nam":"PULASKI WWTP","Latitude":"44.67830","Longitude":"-88.22750","Snowdepth":"2.000","Units":"in","Rept_Date":"2020-04-13 11"},"coordinates":[2115,2887]},{"type":"Point","properties":{"Station_ID":"POCI4","Station_Nam":"POCAHONTAS,IA","Latitude":"42.72920","Longitude":"-94.66060","Snowdepth":"2.000","Units":"in","Rept_Date":"2020-04-13 13"},"coordinates":[605,921]},{"type":"Point","properties":{"Station_ID":"PLOW3","Station_Nam":"PLOVER","Latitude":"44.44280","Longitude":"-89.54530","Snowdepth":"2.000","Units":"in","Rept_Date":"2020-04-13 12"},"coordinates":[1806,2650]},{"type":"Point","properties":{"Station_ID":"NEWN1","Station_Nam":"NEWCASTLE","Latitude":"42.65300","Longitude":"-96.87750","Snowdepth":"2.000","Units":"in","Rept_Date":"2020-04-13 11"},"coordinates":[85,844]},{"type":"Point","properties":{"Station_ID":"MWTM1","Station_Nam":"MILLINOCKET WWTP","Latitude":"45.64030","Longitude":"-68.67480","Snowdepth":"2.000","Units":"in","Rept_Date":"2020-04-13 10"},"coordinates":[6704,3858]},{"type":"Point","properties":{"Station_ID":"MSP","Station_Nam":"MINNEAPOLIS-ST PAUL INTL AP","Latitude":"44.88310","Longitude":"-93.22890","Snowdepth":"2.000","Units":"in","Rept_Date":"2020-04-14 00"},"coordinates":[941,3094]},{"type":"Point","properties":{"Station_ID":"MRIW3","Station_Nam":"MARINETTE","Latitude":"45.09830","Longitude":"-87.62360","Snowdepth":"2.000","Units":"in","Rept_Date":"2020-04-13 12"},"coordinates":[2257,3311]},{"type":"Point","properties":{"Station_ID":"MRFS2","Station_Nam":"MADISON,SD","Latitude":"44.00000","Longitude":"-97.23330","Snowdepth":"2.000","Units":"in","Rept_Date":"2020-04-13 14"},"coordinates":[1,2203]},{"type":"Point","properties":{"Station_ID":"MN0LS2GT","Station_Nam":"BALD EAGLE 1.4 NW","Latitude":"45.11552","Longitude":"-93.03572","Snowdepth":"2.000","Units":"in","Rept_Date":"2020-04-13 11"},"coordinates":[986,3328]},{"type":"Point","properties":{"Station_ID":"MN0HS8BP","Station_Nam":"GLOSTER 1.0 NW","Latitude":"45.01321","Longitude":"-93.05527","Snowdepth":"2.000","Units":"in","Rept_Date":"2020-04-13 12"},"coordinates":[982,3225]},{"type":"Point","properties":{"Station_ID":"MN-RM-15","Station_Nam":"ROSEVILLE 2.1 NW, MN","Latitude":"45.03502","Longitude":"-93.18620","Snowdepth":"2.000","Units":"in","Rept_Date":"2020-04-13 12"},"coordinates":[951,3247]},{"type":"Point","properties":{"Station_ID":"MN-HS-4","Station_Nam":"CALEDONIA 5.4 S, MN","Latitude":"43.55696","Longitude":"-91.51300","Snowdepth":"2.000","Units":"in","Rept_Date":"2020-04-13 14"},"coordinates":[1344,1756]},{"type":"Point","properties":{"Station_ID":"MN-HN-31","Station_Nam":"MAPLE GROVE 1.0 NNE, MN","Latitude":"45.12261","Longitude":"-93.45790","Snowdepth":"2.000","Units":"in","Rept_Date":"2020-04-13 17"},"coordinates":[887,3336]},{"type":"Point","properties":{"Station_ID":"MN-HN-178","Station_Nam":"MINNEAPOLIS 4.5 SSE, MN","Latitude":"44.90650","Longitude":"-93.21993","Snowdepth":"2.000","Units":"in","Rept_Date":"2020-04-13 13"},"coordinates":[943,3117]},{"type":"Point","properties":{"Station_ID":"ME-AN-32","Station_Nam":"WINTHROP 9.4 W, ME","Latitude":"44.30476","Longitude":"-70.15835","Snowdepth":"2.000","Units":"in","Rept_Date":"2020-04-13 11"},"coordinates":[6356,2510]},{"type":"Point","properties":{"Station_ID":"LSTM5","Station_Nam":"LESTER PRAIRIE 2S","Latitude":"44.85930","Longitude":"-94.05030","Snowdepth":"2.000","Units":"in","Rept_Date":"2020-04-13 12"},"coordinates":[748,3070]},{"type":"Point","properties":{"Station_ID":"LSNW3","Station_Nam":"LA CROSSE SNOW","Latitude":"43.86220","Longitude":"-91.26660","Snowdepth":"2.000","Units":"in","Rept_Date":"2020-04-13 11"},"coordinates":[1402,2064]},{"type":"Point","properties":{"Station_ID":"LILM1","Station_Nam":"LILLE","Latitude":"47.27770","Longitude":"-68.10520","Snowdepth":"2.000","Units":"in","Rept_Date":"2020-04-13 11"},"coordinates":[6837,5510]},{"type":"Point","properties":{"Station_ID":"KMSP","Station_Nam":"MINNEAPOLIS-ST PAUL INTERNATIONAL","Latitude":"44.86666","Longitude":"-93.21666","Snowdepth":"2.000","Units":"in","Rept_Date":"2020-04-14 06"},"coordinates":[944,3077]},{"type":"Point","properties":{"Station_ID":"JKMM1","Station_Nam":"JACKMAN","Latitude":"45.62600","Longitude":"-70.24600","Snowdepth":"2.000","Units":"in","Rept_Date":"2020-04-13 11"},"coordinates":[6335,3843]},{"type":"Point","properties":{"Station_ID":"ILEW3","Station_Nam":"STILES 1S","Latitude":"44.84190","Longitude":"-88.05420","Snowdepth":"2.000","Units":"in","Rept_Date":"2020-04-13 12"},"coordinates":[2156,3052]},{"type":"Point","properties":{"Station_ID":"HYRW3","Station_Nam":"RANGER STATION","Latitude":"46.00750","Longitude":"-91.46670","Snowdepth":"2.000","Units":"in","Rept_Date":"2020-04-13 18"},"coordinates":[1355,4228]},{"type":"Point","properties":{"Station_ID":"HMNW3","Station_Nam":"HOLMEN 2S","Latitude":"43.93430","Longitude":"-91.24550","Snowdepth":"2.000","Units":"in","Rept_Date":"2020-04-13 12"},"coordinates":[1407,2137]},{"type":"Point","properties":{"Station_ID":"HLYI4","Station_Nam":"HORNICK 4 NNE","Latitude":"42.28390","Longitude":"-96.05800","Snowdepth":"2.000","Units":"in","Rept_Date":"2020-04-13 12"},"coordinates":[277,471]},{"type":"Point","properties":{"Station_ID":"HLSI4","Station_Nam":"HOLSTEIN 5 NNW","Latitude":"42.54630","Longitude":"-95.61100","Snowdepth":"2.000","Units":"in","Rept_Date":"2020-04-13 12"},"coordinates":[382,736]},{"type":"Point","properties":{"Station_ID":"GLVW3","Station_Nam":"GALESVILLE 2WSW","Latitude":"44.07430","Longitude":"-91.38720","Snowdepth":"2.000","Units":"in","Rept_Date":"2020-04-13 12"},"coordinates":[1373,2278]},{"type":"Point","properties":{"Station_ID":"GDCM4","Station_Nam":"GARDEN CORNERS","Latitude":"45.89830","Longitude":"-86.54850","Snowdepth":"2.000","Units":"in","Rept_Date":"2020-04-13 12"},"coordinates":[2509,4118]},{"type":"Point","properties":{"Station_ID":"FORM5","Station_Nam":"FOREST LAKE 5NE","Latitude":"45.33170","Longitude":"-92.89820","Snowdepth":"2.000","Units":"in","Rept_Date":"2020-04-13 12"},"coordinates":[1019,3547]},{"type":"Point","properties":{"Station_ID":"FBTM5","Station_Nam":"FARIBAULT","Latitude":"44.30920","Longitude":"-93.26600","Snowdepth":"2.000","Units":"in","Rept_Date":"2020-04-13 12"},"coordinates":[932,2515]},{"type":"Point","properties":{"Station_ID":"ESGM1","Station_Nam":"EAST SANGERVILLE","Latitude":"45.13690","Longitude":"-69.28060","Snowdepth":"2.000","Units":"in","Rept_Date":"2020-04-13 11"},"coordinates":[6562,3350]},{"type":"Point","properties":{"Station_ID":"CTNW3","Station_Nam":"CASHTON 3NNW","Latitude":"43.78600","Longitude":"-90.79520","Snowdepth":"2.000","Units":"in","Rept_Date":"2020-04-13 13"},"coordinates":[1512,1987]},{"type":"Point","properties":{"Station_ID":"CAN-NB-97","Station_Nam":"NEW MARYLAND 0.6 NW, CAN","Latitude":"45.90112","Longitude":"-66.68739","Snowdepth":"2.000","Units":"in","Rept_Date":"2020-04-13 13"},"coordinates":[7170,4121]},{"type":"Point","properties":{"Station_ID":"CAN-NB-64","Station_Nam":"KESWICK RIDGE 4.0 SE, CAN","Latitude":"45.97014","Longitude":"-66.85538","Snowdepth":"2.000","Units":"in","Rept_Date":"2020-04-13 13"},"coordinates":[7131,4191]},{"type":"Point","properties":{"Station_ID":"CAN-NB-2","Station_Nam":"GRAFTON 2.7 NNE, CA","Latitude":"46.17062","Longitude":"-67.55330","Snowdepth":"2.000","Units":"in","Rept_Date":"2020-04-13 11"},"coordinates":[6967,4393]},{"type":"Point","properties":{"Station_ID":"BTLI4","Station_Nam":"BATTLE CREEK 3NE","Latitude":"42.37030","Longitude":"-95.57490","Snowdepth":"2.000","Units":"in","Rept_Date":"2020-04-13 13"},"coordinates":[390,559]},{"type":"Point","properties":{"Station_ID":"BTHM5","Station_Nam":"BLUE EARTH 1S","Latitude":"43.62370","Longitude":"-94.09470","Snowdepth":"2.000","Units":"in","Rept_Date":"2020-04-13 13"},"coordinates":[738,1823]},{"type":"Point","properties":{"Station_ID":"ASXW3","Station_Nam":"ASHLAND,WI","Latitude":"46.55220","Longitude":"-90.91610","Snowdepth":"2.000","Units":"in","Rept_Date":"2020-04-13 13"},"coordinates":[1484,4778]},{"type":"Point","properties":{"Station_ID":"AMHW3","Station_Nam":"AMHERST-3 SE","Latitude":"44.41280","Longitude":"-89.26390","Snowdepth":"2.000","Units":"in","Rept_Date":"2020-04-13 12"},"coordinates":[1872,2619]},{"type":"Point","properties":{"Station_ID":"ALGI4","Station_Nam":"ALGONA,IA","Latitude":"43.06670","Longitude":"-94.30610","Snowdepth":"2.000","Units":"in","Rept_Date":"2020-04-13 12"},"coordinates":[688,1261]},{"type":"Point","properties":{"Station_ID":"WI-WP-8","Station_Nam":"WAUPACA 5.7 WSW, WI","Latitude":"44.33239","Longitude":"-89.18714","Snowdepth":"1.800","Units":"in","Rept_Date":"2020-04-13 13"},"coordinates":[1890,2538]},{"type":"Point","properties":{"Station_ID":"WI-OG-18","Station_Nam":"NEW LONDON 4.1 N, WI","Latitude":"44.45298","Longitude":"-88.72876","Snowdepth":"1.800","Units":"in","Rept_Date":"2020-04-13 12"},"coordinates":[1997,2660]},{"type":"Point","properties":{"Station_ID":"MN-WR-65","Station_Nam":"OTSEGO 1.8 ENE, MN","Latitude":"45.27422","Longitude":"-93.58412","Snowdepth":"1.700","Units":"in","Rept_Date":"2020-04-13 13"},"coordinates":[858,3489]},{"type":"Point","properties":{"Station_ID":"MN-PG-7","Station_Nam":"THIEF RIVER FALLS 0.6 NW, MN","Latitude":"48.11791","Longitude":"-96.18511","Snowdepth":"1.700","Units":"in","Rept_Date":"2020-04-13 13"},"coordinates":[247,6358]},{"type":"Point","properties":{"Station_ID":"WI-WH-7","Station_Nam":"WILD ROSE 0.5 E, WI","Latitude":"44.17764","Longitude":"-89.23812","Snowdepth":"1.500","Units":"in","Rept_Date":"2020-04-13 13"},"coordinates":[1878,2382]},{"type":"Point","properties":{"Station_ID":"WI-MN-4","Station_Nam":"WILTON 4.2 E, WI","Latitude":"43.81028","Longitude":"-90.44360","Snowdepth":"1.500","Units":"in","Rept_Date":"2020-04-13 13"},"coordinates":[1595,2011]},{"type":"Point","properties":{"Station_ID":"WI-BN-6","Station_Nam":"SUAMICO 4.4 WNW, WI","Latitude":"44.66111","Longitude":"-88.11780","Snowdepth":"1.500","Units":"in","Rept_Date":"2020-04-13 13"},"coordinates":[2141,2870]},{"type":"Point","properties":{"Station_ID":"MN-WR-25","Station_Nam":"SAINT MICHAEL 2.0 ENE, MN","Latitude":"45.20820","Longitude":"-93.65280","Snowdepth":"1.500","Units":"in","Rept_Date":"2020-04-13 12"},"coordinates":[842,3422]},{"type":"Point","properties":{"Station_ID":"MN-MC-16","Station_Nam":"HUTCHINSON 0.1 ENE, MN","Latitude":"44.88633","Longitude":"-94.37503","Snowdepth":"1.500","Units":"in","Rept_Date":"2020-04-13 13"},"coordinates":[672,3097]},{"type":"Point","properties":{"Station_ID":"MN-HN-17","Station_Nam":"EDEN PRAIRIE 3.3 WSW, MN","Latitude":"44.82940","Longitude":"-93.52010","Snowdepth":"1.500","Units":"in","Rept_Date":"2020-04-13 14"},"coordinates":[873,3040]},{"type":"Point","properties":{"Station_ID":"MN-FM-10","Station_Nam":"WYKOFF 3.1 NW, MN","Latitude":"43.74340","Longitude":"-92.30650","Snowdepth":"1.500","Units":"in","Rept_Date":"2020-04-13 13"},"coordinates":[1158,1944]},{"type":"Point","properties":{"Station_ID":"MI-DL-1","Station_Nam":"GARDEN CORNERS 0.8 NW, MI","Latitude":"45.89815","Longitude":"-86.54850","Snowdepth":"1.500","Units":"in","Rept_Date":"2020-04-13 13"},"coordinates":[2509,4118]},{"type":"Point","properties":{"Station_ID":"WI-SW-5","Station_Nam":"PULASKI 3.7 W, WI","Latitude":"44.66780","Longitude":"-88.31156","Snowdepth":"1.400","Units":"in","Rept_Date":"2020-04-13 13"},"coordinates":[2095,2877]},{"type":"Point","properties":{"Station_ID":"MN-AA-76","Station_Nam":"NOWTHEN 2.9 SSE, MN","Latitude":"45.30360","Longitude":"-93.42620","Snowdepth":"1.300","Units":"in","Rept_Date":"2020-04-13 13"},"coordinates":[895,3518]},{"type":"Point","properties":{"Station_ID":"WI-BT-14","Station_Nam":"OAKLAND 9.0 ENE, WI","Latitude":"45.95184","Longitude":"-92.21653","Snowdepth":"1.200","Units":"in","Rept_Date":"2020-04-13 13"},"coordinates":[1179,4172]},{"type":"Point","properties":{"Station_ID":"CAN-NB-98","Station_Nam":"HOYT 4.2 S, CAN","Latitude":"45.54763","Longitude":"-66.55440","Snowdepth":"1.200","Units":"in","Rept_Date":"2020-04-13 11"},"coordinates":[7201,3764]},{"type":"Point","properties":{"Station_ID":"ZITW3","Station_Nam":"FREMONT","Latitude":"44.22200","Longitude":"-88.78300","Snowdepth":"1.000","Units":"in","Rept_Date":"2020-04-13 11"},"coordinates":[1984,2427]},{"type":"Point","properties":{"Station_ID":"WSLW3","Station_Nam":"WEST SALEM","Latitude":"43.89670","Longitude":"-91.08570","Snowdepth":"1.000","Units":"in","Rept_Date":"2020-04-13 12"},"coordinates":[1444,2099]},{"type":"Point","properties":{"Station_ID":"WI-WN-9","Station_Nam":"NEENAH 1.1 ENE, WI","Latitude":"44.17370","Longitude":"-88.45130","Snowdepth":"1.000","Units":"in","Rept_Date":"2020-04-13 13"},"coordinates":[2062,2378]},{"type":"Point","properties":{"Station_ID":"WI-VR-7","Station_Nam":"STODDARD 4.7 NNE, WI","Latitude":"43.71873","Longitude":"-91.16815","Snowdepth":"1.000","Units":"in","Rept_Date":"2020-04-13 13"},"coordinates":[1425,1919]},{"type":"Point","properties":{"Station_ID":"WI-LC-20","Station_Nam":"LA CROSSE 4.4 SSE, WI","Latitude":"43.76580","Longitude":"-91.20600","Snowdepth":"1.000","Units":"in","Rept_Date":"2020-04-13 13"},"coordinates":[1416,1967]},{"type":"Point","properties":{"Station_ID":"WI-LC-1","Station_Nam":"WEST SALEM 0.7 W, WI","Latitude":"43.89817","Longitude":"-91.09548","Snowdepth":"1.000","Units":"in","Rept_Date":"2020-04-13 13"},"coordinates":[1442,2100]},{"type":"Point","properties":{"Station_ID":"WI-DG-20","Station_Nam":"SOLON SPRINGS 1.2 W, WI","Latitude":"46.35217","Longitude":"-91.84405","Snowdepth":"1.000","Units":"in","Rept_Date":"2020-04-13 13"},"coordinates":[1266,4576]},{"type":"Point","properties":{"Station_ID":"WI-AS-4","Station_Nam":"ASHLAND 0.5 WNW, WI","Latitude":"46.58240","Longitude":"-90.88390","Snowdepth":"1.000","Units":"in","Rept_Date":"2020-04-13 13"},"coordinates":[1491,4808]},{"type":"Point","properties":{"Station_ID":"WASW3","Station_Nam":"WASHINGTON IS","Latitude":"45.35800","Longitude":"-86.89110","Snowdepth":"1.000","Units":"in","Rept_Date":"2020-04-13 12"},"coordinates":[2428,3573]},{"type":"Point","properties":{"Station_ID":"VT-ES-1","Station_Nam":"GRANBY 1.4 NW, VT","Latitude":"44.58330","Longitude":"-71.77870","Snowdepth":"1.000","Units":"in","Rept_Date":"2020-04-13 14"},"coordinates":[5975,2791]},{"type":"Point","properties":{"Station_ID":"VQAW3","Station_Nam":"VIROQUA","Latitude":"43.55970","Longitude":"-90.87560","Snowdepth":"1.000","Units":"in","Rept_Date":"2020-04-13 12"},"coordinates":[1493,1759]},{"type":"Point","properties":{"Station_ID":"TREW3","Station_Nam":"DAM 6","Latitude":"43.99970","Longitude":"-91.43580","Snowdepth":"1.000","Units":"in","Rept_Date":"2020-04-13 13"},"coordinates":[1362,2203]},{"type":"Point","properties":{"Station_ID":"SHIW3","Station_Nam":"SHIOCTON","Latitude":"44.43890","Longitude":"-88.58390","Snowdepth":"1.000","Units":"in","Rept_Date":"2020-04-13 12"},"coordinates":[2031,2646]},{"type":"Point","properties":{"Station_ID":"SANI4","Station_Nam":"ST ANSGAR","Latitude":"43.38170","Longitude":"-92.92320","Snowdepth":"1.000","Units":"in","Rept_Date":"2020-04-13 11"},"coordinates":[1013,1579]},{"type":"Point","properties":{"Station_ID":"SACI4","Station_Nam":"SAC CITY,IA","Latitude":"42.42390","Longitude":"-94.99080","Snowdepth":"1.000","Units":"in","Rept_Date":"2020-04-13 11"},"coordinates":[528,613]},{"type":"Point","properties":{"Station_ID":"RLWM5","Station_Nam":"CAMP NORRIS DNR","Latitude":"48.61000","Longitude":"-95.18170","Snowdepth":"1.000","Units":"in","Rept_Date":"2020-04-13 12"},"coordinates":[483,6854]},{"type":"Point","properties":{"Station_ID":"PTNM5","Station_Nam":"PRESTON","Latitude":"43.67250","Longitude":"-92.07470","Snowdepth":"1.000","Units":"in","Rept_Date":"2020-04-13 13"},"coordinates":[1212,1872]},{"type":"Point","properties":{"Station_ID":"PSHW3","Station_Nam":"PESHTIGO","Latitude":"45.02810","Longitude":"-87.73560","Snowdepth":"1.000","Units":"in","Rept_Date":"2020-04-13 12"},"coordinates":[2230,3240]},{"type":"Point","properties":{"Station_ID":"POYW3","Station_Nam":"POY SIPPI - 2 SW","Latitude":"44.10810","Longitude":"-89.01610","Snowdepth":"1.000","Units":"in","Rept_Date":"2020-04-13 12"},"coordinates":[1930,2312]},{"type":"Point","properties":{"Station_ID":"PBAN8","Station_Nam":"SITE 1-3MI.N","Latitude":"48.97420","Longitude":"-97.23860","Snowdepth":"1.000","Units":"in","Rept_Date":"2020-04-13 12"},"coordinates":[0,7222]},{"type":"Point","properties":{"Station_ID":"OTRW3","Station_Nam":"ONTARIO 3E","Latitude":"43.71940","Longitude":"-90.53010","Snowdepth":"1.000","Units":"in","Rept_Date":"2020-04-13 12"},"coordinates":[1574,1920]},{"type":"Point","properties":{"Station_ID":"OOHW3","Station_Nam":"OSHKOSH 5 N","Latitude":"44.09360","Longitude":"-88.55310","Snowdepth":"1.000","Units":"in","Rept_Date":"2020-04-13 12"},"coordinates":[2038,2297]},{"type":"Point","properties":{"Station_ID":"NONW3","Station_Nam":"NEW LONDON","Latitude":"44.35890","Longitude":"-88.71890","Snowdepth":"1.000","Units":"in","Rept_Date":"2020-04-13 11"},"coordinates":[2000,2565]},{"type":"Point","properties":{"Station_ID":"NLDW3","Station_Nam":"NEW LONDON-WWTP","Latitude":"44.39060","Longitude":"-88.75220","Snowdepth":"1.000","Units":"in","Rept_Date":"2020-04-13 12"},"coordinates":[1992,2597]},{"type":"Point","properties":{"Station_ID":"NH-CS-4","Station_Nam":"PITTSBURG 6.1 NE, NH","Latitude":"45.11060","Longitude":"-71.29760","Snowdepth":"1.000","Units":"in","Rept_Date":"2020-04-13 12"},"coordinates":[6088,3323]},{"type":"Point","properties":{"Station_ID":"MPXM5","Station_Nam":"CHANHASSEN WSFO","Latitude":"44.84960","Longitude":"-93.56440","Snowdepth":"1.000","Units":"in","Rept_Date":"2020-04-14 06"},"coordinates":[862,3060]},{"type":"Point","properties":{"Station_ID":"MN7M8EBJ","Station_Nam":"LUTSEN 15.7 NNW","Latitude":"47.85324","Longitude":"-89.92908","Snowdepth":"1.000","Units":"in","Rept_Date":"2020-04-13 13"},"coordinates":[1715,6091]},{"type":"Point","properties":{"Station_ID":"MENM4","Station_Nam":"MENOMINEE NO.2","Latitude":"45.11100","Longitude":"-87.61170","Snowdepth":"1.000","Units":"in","Rept_Date":"2020-04-13 13"},"coordinates":[2259,3324]},{"type":"Point","properties":{"Station_ID":"ME-LN-1","Station_Nam":"NEWCASTLE 2.1 SW, ME","Latitude":"44.02767","Longitude":"-69.56860","Snowdepth":"1.000","Units":"in","Rept_Date":"2020-04-13 12"},"coordinates":[6494,2231]},{"type":"Point","properties":{"Station_ID":"ME-FR-4","Station_Nam":"NEW SHARON 2.0 NW, ME","Latitude":"44.66582","Longitude":"-70.02720","Snowdepth":"1.000","Units":"in","Rept_Date":"2020-04-13 12"},"coordinates":[6386,2875]},{"type":"Point","properties":{"Station_ID":"MAUW3","Station_Nam":"MAUSTON 1SE","Latitude":"43.78990","Longitude":"-90.05970","Snowdepth":"1.000","Units":"in","Rept_Date":"2020-04-13 13"},"coordinates":[1685,1991]},{"type":"Point","properties":{"Station_ID":"MABM5","Station_Nam":"MABEL","Latitude":"43.52410","Longitude":"-91.76160","Snowdepth":"1.000","Units":"in","Rept_Date":"2020-04-13 11"},"coordinates":[1285,1723]},{"type":"Point","properties":{"Station_ID":"LYON1","Station_Nam":"LYONS,NE","Latitude":"41.93810","Longitude":"-96.47920","Snowdepth":"1.000","Units":"in","Rept_Date":"2020-04-13 13"},"coordinates":[178,122]},{"type":"Point","properties":{"Station_ID":"LSXI4","Station_Nam":"LITTLE SIOUX,IA","Latitude":"41.81670","Longitude":"-96.01670","Snowdepth":"1.000","Units":"in","Rept_Date":"2020-04-13 12"},"coordinates":[287,0]},{"type":"Point","properties":{"Station_ID":"LSE","Station_Nam":"LA CROSSE MUNICIPAL AIRPORT","Latitude":"43.87920","Longitude":"-91.25610","Snowdepth":"1.000","Units":"in","Rept_Date":"2020-04-14 00"},"coordinates":[1404,2081]},{"type":"Point","properties":{"Station_ID":"LCFW3","Station_Nam":"LA CROSSE 4NNW","Latitude":"43.86690","Longitude":"-91.27250","Snowdepth":"1.000","Units":"in","Rept_Date":"2020-04-13 12"},"coordinates":[1400,2069]},{"type":"Point","properties":{"Station_ID":"KGFK","Station_Nam":"GRAND FORKS INTERNATIONAL","Latitude":"47.95000","Longitude":"-97.18333","Snowdepth":"1.000","Units":"in","Rept_Date":"2020-04-14 00"},"coordinates":[13,6188]},{"type":"Point","properties":{"Station_ID":"HOKM5","Station_Nam":"HOKAH 4NW","Latitude":"43.79560","Longitude":"-91.42640","Snowdepth":"1.000","Units":"in","Rept_Date":"2020-04-13 12"},"coordinates":[1364,1997]},{"type":"Point","properties":{"Station_ID":"HANW3","Station_Nam":"HANCOCK EXP FARM","Latitude":"44.11860","Longitude":"-89.53580","Snowdepth":"1.000","Units":"in","Rept_Date":"2020-04-13 12"},"coordinates":[1808,2323]},{"type":"Point","properties":{"Station_ID":"GFK","Station_Nam":"GRAND FORKS INTERNATIONAL AIRPORT","Latitude":"47.94920","Longitude":"-97.17610","Snowdepth":"1.000","Units":"in","Rept_Date":"2020-04-14 00"},"coordinates":[15,6187]},{"type":"Point","properties":{"Station_ID":"FRSW3","Station_Nam":"FRIENDSHIP","Latitude":"43.97500","Longitude":"-89.83080","Snowdepth":"1.000","Units":"in","Rept_Date":"2020-04-13 12"},"coordinates":[1739,2178]},{"type":"Point","properties":{"Station_ID":"FORW3","Station_Nam":"FORESTVILLE-4E","Latitude":"44.69780","Longitude":"-87.39690","Snowdepth":"1.000","Units":"in","Rept_Date":"2020-04-13 12"},"coordinates":[2310,2907]},{"type":"Point","properties":{"Station_ID":"EPMW3","Station_Nam":"EPHRAIM-1 NE WWTP","Latitude":"45.17080","Longitude":"-87.15360","Snowdepth":"1.000","Units":"in","Rept_Date":"2020-04-13 13"},"coordinates":[2367,3384]},{"type":"Point","properties":{"Station_ID":"ELMI4","Station_Nam":"ELMA IOWA","Latitude":"43.24190","Longitude":"-92.44330","Snowdepth":"1.000","Units":"in","Rept_Date":"2020-04-13 12"},"coordinates":[1125,1438]},{"type":"Point","properties":{"Station_ID":"ELKM5","Station_Nam":"ELK RIVER","Latitude":"45.30470","Longitude":"-93.58420","Snowdepth":"1.000","Units":"in","Rept_Date":"2020-04-13 12"},"coordinates":[858,3519]},{"type":"Point","properties":{"Station_ID":"DENW3","Station_Nam":"DENMARK WWTP","Latitude":"44.35130","Longitude":"-87.81190","Snowdepth":"1.000","Units":"in","Rept_Date":"2020-04-13 13"},"coordinates":[2212,2557]},{"type":"Point","properties":{"Station_ID":"COUW3","Station_Nam":"COUDERAY,WI","Latitude":"45.86670","Longitude":"-91.45000","Snowdepth":"1.000","Units":"in","Rept_Date":"2020-04-13 21"},"coordinates":[1359,4086]},{"type":"Point","properties":{"Station_ID":"COKM5","Station_Nam":"COOK","Latitude":"47.85060","Longitude":"-92.69250","Snowdepth":"1.000","Units":"in","Rept_Date":"2020-04-13 11"},"coordinates":[1067,6088]},