{"type":"Topology","objects":{"snowdepth_geo":{"type":"GeometryCollection","name":"snowdepth","crs":{"type":"name","properties":{"name":"urn:ogc:def:crs:OGC:1.3:CRS84"}},"geometries":[{"type":"Point","properties":{"Station_ID":"MMSV1","Station_Nam":"MOUNT MANSFIELD","Latitude":"44.53330","Longitude":"-72.83330","Snowdepth":"80.000","Units":"in","Rept_Date":"2019-12-30 05"},"coordinates":[5582,4380]},{"type":"Point","properties":{"Station_ID":"PRKM4","Station_Nam":"MUNISING EAST","Latitude":"46.42580","Longitude":"-86.62000","Snowdepth":"76.500","Units":"in","Rept_Date":"2019-12-30 06"},"coordinates":[2429,5858]},{"type":"Point","properties":{"Station_ID":"OGIQ6","Station_Nam":"OGOKI CAMP","Latitude":"50.76680","Longitude":"-87.85820","Snowdepth":"61.100","Units":"in","Rept_Date":"2019-12-30 06"},"coordinates":[2145,9249]},{"type":"Point","properties":{"Station_ID":"AUDQ6","Station_Nam":"AUDEN","Latitude":"48.52600","Longitude":"-82.57570","Snowdepth":"47.640","Units":"in","Rept_Date":"2019-12-30 06"},"coordinates":[3354,7499]},{"type":"Point","properties":{"Station_ID":"DVLQ6","Station_Nam":"DEVIOUS LAKE","Latitude":"49.19890","Longitude":"-87.76440","Snowdepth":"43.460","Units":"in","Rept_Date":"2019-12-30 06"},"coordinates":[2167,8024]},{"type":"Point","properties":{"Station_ID":"GLRM5","Station_Nam":"GLACIAL RIDGE","Latitude":"47.71670","Longitude":"-96.26670","Snowdepth":"39.000","Units":"in","Rept_Date":"2019-12-30 04"},"coordinates":[222,6866]},{"type":"Point","properties":{"Station_ID":"WLFM5","Station_Nam":"WOLF RIDGE ENVIRON LEARNING CENTER","Latitude":"47.38240","Longitude":"-91.19730","Snowdepth":"28.000","Units":"in","Rept_Date":"2019-12-29 13"},"coordinates":[1382,6605]},{"type":"Point","properties":{"Station_ID":"UPSW3","Station_Nam":"UPSON,WI","Latitude":"46.36780","Longitude":"-90.41220","Snowdepth":"28.000","Units":"in","Rept_Date":"2019-12-30 00"},"coordinates":[1561,5813]},{"type":"Point","properties":{"Station_ID":"SEBM5","Station_Nam":"SEBEKA","Latitude":"46.62540","Longitude":"-95.09670","Snowdepth":"28.000","Units":"in","Rept_Date":"2019-12-29 13"},"coordinates":[490,6014]},{"type":"Point","properties":{"Station_ID":"PDLM4","Station_Nam":"PAINESDALE","Latitude":"47.04160","Longitude":"-88.67170","Snowdepth":"28.000","Units":"in","Rept_Date":"2019-12-29 13"},"coordinates":[1959,6339]},{"type":"Point","properties":{"Station_ID":"IBLM5","Station_Nam":"ISABELLA 14W","Latitude":"47.59360","Longitude":"-91.65140","Snowdepth":"27.000","Units":"in","Rept_Date":"2019-12-29 15"},"coordinates":[1278,6770]},{"type":"Point","properties":{"Station_ID":"MI-HG-18","Station_Nam":"CALUMET 0.7 W (TAMARACK), MI","Latitude":"47.24560","Longitude":"-88.46791","Snowdepth":"26.000","Units":"in","Rept_Date":"2019-12-29 13"},"coordinates":[2006,6498]},{"type":"Point","properties":{"Station_ID":"ILIM5","Station_Nam":"ISLAND LAKE","Latitude":"47.02400","Longitude":"-92.07000","Snowdepth":"25.000","Units":"in","Rept_Date":"2019-12-29 15"},"coordinates":[1182,6325]},{"type":"Point","properties":{"Station_ID":"HURW3","Station_Nam":"HURLEY","Latitude":"46.46250","Longitude":"-90.19550","Snowdepth":"25.000","Units":"in","Rept_Date":"2019-12-29 14"},"coordinates":[1611,5887]},{"type":"Point","properties":{"Station_ID":"WRSM5","Station_Nam":"WRENSHALL","Latitude":"46.61550","Longitude":"-92.38380","Snowdepth":"24.000","Units":"in","Rept_Date":"2019-12-29 14"},"coordinates":[1110,6006]},{"type":"Point","properties":{"Station_ID":"TWOM5","Station_Nam":"TWO HARBORS,MN","Latitude":"47.12580","Longitude":"-91.70750","Snowdepth":"24.000","Units":"in","Rept_Date":"2019-12-30 01"},"coordinates":[1265,6405]},{"type":"Point","properties":{"Station_ID":"MN-SL-15","Station_Nam":"CHISHOLM 0.4 WSW, MN","Latitude":"47.48557","Longitude":"-92.88690","Snowdepth":"24.000","Units":"in","Rept_Date":"2019-12-29 15"},"coordinates":[995,6686]},{"type":"Point","properties":{"Station_ID":"GMSM4","Station_Nam":"GRAND MARAIS 10S","Latitude":"46.50940","Longitude":"-85.96310","Snowdepth":"24.000","Units":"in","Rept_Date":"2019-12-29 12"},"coordinates":[2579,5923]},{"type":"Point","properties":{"Station_ID":"HVCN3","Station_Nam":"HARVARD CABIN SNOWPLOT","Latitude":"44.26630","Longitude":"-71.27790","Snowdepth":"23.000","Units":"in","Rept_Date":"2019-12-29 10"},"coordinates":[5937,4171]},{"type":"Point","properties":{"Station_ID":"HTLN3","Station_Nam":"HERMIT LAKE SNOWPLOT","Latitude":"44.26130","Longitude":"-71.28330","Snowdepth":"23.000","Units":"in","Rept_Date":"2019-12-29 10"},"coordinates":[5936,4167]},{"type":"Point","properties":{"Station_ID":"MI-BG-3","Station_Nam":"L'ANSE 17.8 SE, MI","Latitude":"46.55730","Longitude":"-88.20770","Snowdepth":"21.800","Units":"in","Rept_Date":"2019-12-29 13"},"coordinates":[2065,5961]},{"type":"Point","properties":{"Station_ID":"MN4DC1DW","Station_Nam":"FOUR CORNERS 3.6 E","Latitude":"46.84373","Longitude":"-92.20633","Snowdepth":"21.000","Units":"in","Rept_Date":"2019-12-29 12"},"coordinates":[1151,6184]},{"type":"Point","properties":{"Station_ID":"MN-SL-18","Station_Nam":"DULUTH 1.4 NNW, MN","Latitude":"46.80321","Longitude":"-92.11240","Snowdepth":"21.000","Units":"in","Rept_Date":"2019-12-29 14"},"coordinates":[1172,6153]},{"type":"Point","properties":{"Station_ID":"MN-SL-105","Station_Nam":"DULUTH 11.8 NNE, MN","Latitude":"46.94680","Longitude":"-92.03925","Snowdepth":"21.000","Units":"in","Rept_Date":"2019-12-29 13"},"coordinates":[1189,6265]},{"type":"Point","properties":{"Station_ID":"MI-HG-17","Station_Nam":"CALUMET 0.5 NE (CALUMET LAKE), MI","Latitude":"47.25300","Longitude":"-88.44652","Snowdepth":"21.000","Units":"in","Rept_Date":"2019-12-29 13"},"coordinates":[2011,6504]},{"type":"Point","properties":{"Station_ID":"DLHM5","Station_Nam":"DULUTH NWS","Latitude":"46.83680","Longitude":"-92.21080","Snowdepth":"21.000","Units":"in","Rept_Date":"2019-12-30 06"},"coordinates":[1150,6179]},{"type":"Point","properties":{"Station_ID":"DLH","Station_Nam":"DULUTH, MN","Latitude":"46.83690","Longitude":"-92.21030","Snowdepth":"21.000","Units":"in","Rept_Date":"2019-12-30 00"},"coordinates":[1150,6179]},{"type":"Point","properties":{"Station_ID":"SVBQ6","Station_Nam":"SAVANT BASE","Latitude":"50.28730","Longitude":"-90.65670","Snowdepth":"20.710","Units":"in","Rept_Date":"2019-12-30 06"},"coordinates":[1505,8874]},{"type":"Point","properties":{"Station_ID":"WSKM5","Station_Nam":"WASKISH,MN","Latitude":"48.21670","Longitude":"-94.43330","Snowdepth":"20.000","Units":"in","Rept_Date":"2019-12-29 14"},"coordinates":[642,7257]},{"type":"Point","properties":{"Station_ID":"CSLM5","Station_Nam":"CASS LAKE,MN","Latitude":"47.38470","Longitude":"-94.61470","Snowdepth":"20.000","Units":"in","Rept_Date":"2019-12-29 14"},"coordinates":[600,6607]},{"type":"Point","properties":{"Station_ID":"MN-IT-23","Station_Nam":"BOVEY 13.4 N, MN","Latitude":"47.48855","Longitude":"-93.43497","Snowdepth":"19.500","Units":"in","Rept_Date":"2019-12-29 13"},"coordinates":[870,6688]},{"type":"Point","properties":{"Station_ID":"MN-BM-15","Station_Nam":"BEMIDJI 7.8 ENE, MN","Latitude":"47.52043","Longitude":"-94.72121","Snowdepth":"19.500","Units":"in","Rept_Date":"2019-12-29 14"},"coordinates":[576,6713]},{"type":"Point","properties":{"Station_ID":"THRM5","Station_Nam":"THORHULT,MN","Latitude":"48.21670","Longitude":"-95.25000","Snowdepth":"19.000","Units":"in","Rept_Date":"2019-12-29 23"},"coordinates":[455,7257]},{"type":"Point","properties":{"Station_ID":"QNCM4","Station_Nam":"QUINCY HILL","Latitude":"47.13640","Longitude":"-88.57950","Snowdepth":"19.000","Units":"in","Rept_Date":"2019-12-29 14"},"coordinates":[1980,6413]},{"type":"Point","properties":{"Station_ID":"PHEW3","Station_Nam":"PHELPS","Latitude":"46.06630","Longitude":"-89.07520","Snowdepth":"19.000","Units":"in","Rept_Date":"2019-12-29 13"},"coordinates":[1867,5577]},{"type":"Point","properties":{"Station_ID":"NY-JF-30","Station_Nam":"WEST CARTHAGE 0.3 ENE, NY","Latitude":"43.97493","Longitude":"-75.61640","Snowdepth":"19.000","Units":"in","Rept_Date":"2019-12-29 12"},"coordinates":[4945,3944]},{"type":"Point","properties":{"Station_ID":"MQT","Station_Nam":"MARQUETTE, MI","Latitude":"46.53140","Longitude":"-87.54920","Snowdepth":"19.000","Units":"in","Rept_Date":"2019-12-30 06"},"coordinates":[2216,5941]},{"type":"Point","properties":{"Station_ID":"MI-HG-11","Station_Nam":"HOUGHTON 3.0 SSW, MI","Latitude":"47.07704","Longitude":"-88.59680","Snowdepth":"19.000","Units":"in","Rept_Date":"2019-12-29 13"},"coordinates":[1976,6367]},{"type":"Point","properties":{"Station_ID":"MCLN8","Station_Nam":"MC LEOD,ND","Latitude":"46.40250","Longitude":"-97.23810","Snowdepth":"19.000","Units":"in","Rept_Date":"2019-12-29 13"},"coordinates":[0,5840]},{"type":"Point","properties":{"Station_ID":"KSGM4","Station_Nam":"KEARSARGE","Latitude":"47.27520","Longitude":"-88.41700","Snowdepth":"19.000","Units":"in","Rept_Date":"2019-12-29 13"},"coordinates":[2018,6522]},{"type":"Point","properties":{"Station_ID":"IWOM4","Station_Nam":"IRONWOOD#2","Latitude":"46.46520","Longitude":"-90.13820","Snowdepth":"19.000","Units":"in","Rept_Date":"2019-12-29 13"},"coordinates":[1624,5889]},{"type":"Point","properties":{"Station_ID":"WI-WB-2","Station_Nam":"STONE LAKE 2.0 NW, WI","Latitude":"45.85960","Longitude":"-91.57710","Snowdepth":"18.000","Units":"in","Rept_Date":"2019-12-29 13"},"coordinates":[1295,5416]},{"type":"Point","properties":{"Station_ID":"WI-IR-3","Station_Nam":"PENCE 0.1 E, WI","Latitude":"46.41555","Longitude":"-90.27013","Snowdepth":"18.000","Units":"in","Rept_Date":"2019-12-29 13"},"coordinates":[1594,5850]},{"type":"Point","properties":{"Station_ID":"TOGM5","Station_Nam":"CELINA 2E","Latitude":"47.86630","Longitude":"-93.02660","Snowdepth":"18.000","Units":"in","Rept_Date":"2019-12-29 14"},"coordinates":[963,6983]},{"type":"Point","properties":{"Station_ID":"NYMM5","Station_Nam":"NEW YORK MILLS","Latitude":"46.50920","Longitude":"-95.37990","Snowdepth":"18.000","Units":"in","Rept_Date":"2019-12-29 17"},"coordinates":[425,5923]},{"type":"Point","properties":{"Station_ID":"MN8JKXE2","Station_Nam":"PRAIRIE PORTAGE 5.2 SSW","Latitude":"47.97663","Longitude":"-91.46744","Snowdepth":"18.000","Units":"in","Rept_Date":"2019-12-29 12"},"coordinates":[1320,7069]},{"type":"Point","properties":{"Station_ID":"MN-BK-6","Station_Nam":"LAKE PARK 6.0 S, MN","Latitude":"46.79850","Longitude":"-96.12180","Snowdepth":"18.000","Units":"in","Rept_Date":"2019-12-29 13"},"coordinates":[255,6149]},{"type":"Point","properties":{"Station_ID":"BNDM5","Station_Nam":"ELY 25E","Latitude":"47.97190","Longitude":"-91.44860","Snowdepth":"18.000","Units":"in","Rept_Date":"2019-12-29 13"},"coordinates":[1324,7066]},{"type":"Point","properties":{"Station_ID":"PTLQ6","Station_Nam":"PORTAGE LAKE","Latitude":"49.06950","Longitude":"-86.65940","Snowdepth":"17.440","Units":"in","Rept_Date":"2019-12-30 06"},"coordinates":[2420,7923]},{"type":"Point","properties":{"Station_ID":"WI-BY-14","Station_Nam":"ASHLAND 9.8 W, WI","Latitude":"46.59742","Longitude":"-91.07856","Snowdepth":"17.000","Units":"in","Rept_Date":"2019-12-29 13"},"coordinates":[1409,5992]},{"type":"Point","properties":{"Station_ID":"MMNV1","Station_Nam":"MT. MANSFIELD","Latitude":"44.52480","Longitude":"-72.81540","Snowdepth":"17.000","Units":"in","Rept_Date":"2019-12-29 21"},"coordinates":[5586,4373]},{"type":"Point","properties":{"Station_ID":"MI-HG-14","Station_Nam":"HOUGHTON 0.6 SE, MI","Latitude":"47.10847","Longitude":"-88.55235","Snowdepth":"17.000","Units":"in","Rept_Date":"2019-12-29 13"},"coordinates":[1987,6391]},{"type":"Point","properties":{"Station_ID":"KABM5","Station_Nam":"KABETOGAMA LAKE VISITOR CTR","Latitude":"48.40880","Longitude":"-93.04840","Snowdepth":"17.000","Units":"in","Rept_Date":"2019-12-29 13"},"coordinates":[958,7407]},{"type":"Point","properties":{"Station_ID":"GRFN8","Station_Nam":"UNIVERSITY","Latitude":"47.93330","Longitude":"-97.08330","Snowdepth":"17.000","Units":"in","Rept_Date":"2019-12-30 06"},"coordinates":[36,7036]},{"type":"Point","properties":{"Station_ID":"BERM4","Station_Nam":"BERGLAND DAM","Latitude":"46.58690","Longitude":"-89.54750","Snowdepth":"17.000","Units":"in","Rept_Date":"2019-12-29 13"},"coordinates":[1759,5984]},{"type":"Point","properties":{"Station_ID":"MN-IT-11","Station_Nam":"NASHWAUK 11.5 N, MN","Latitude":"47.54496","Longitude":"-93.19420","Snowdepth":"16.700","Units":"in","Rept_Date":"2019-12-29 12"},"coordinates":[925,6732]},{"type":"Point","properties":{"Station_ID":"KABQ6","Station_Nam":"CAB LAKE","Latitude":"49.59950","Longitude":"-89.17990","Snowdepth":"16.460","Units":"in","Rept_Date":"2019-12-30 06"},"coordinates":[1843,8337]},{"type":"Point","properties":{"Station_ID":"SOCQ6","Station_Nam":"SOCKET LAKE","Latitude":"50.77870","Longitude":"-91.79300","Snowdepth":"16.260","Units":"in","Rept_Date":"2019-12-30 06"},"coordinates":[1245,9258]},{"type":"Point","properties":{"Station_ID":"WLKM5","Station_Nam":"AH-GWAH-CHING","Latitude":"47.15000","Longitude":"-94.65000","Snowdepth":"16.000","Units":"in","Rept_Date":"2019-12-29 16"},"coordinates":[592,6424]},{"type":"Point","properties":{"Station_ID":"WI-FL-3","Station_Nam":"FLORENCE 0.7 ESE, WI","Latitude":"45.91760","Longitude":"-88.23900","Snowdepth":"16.000","Units":"in","Rept_Date":"2019-12-29 11"},"coordinates":[2058,5461]},{"type":"Point","properties":{"Station_ID":"TOHM5","Station_Nam":"TWO HARBORS WWTP","Latitude":"47.01760","Longitude":"-91.66480","Snowdepth":"16.000","Units":"in","Rept_Date":"2019-12-29 13"},"coordinates":[1275,6320]},{"type":"Point","properties":{"Station_ID":"PDGM4","Station_Nam":"PAULDING","Latitude":"46.39760","Longitude":"-89.17940","Snowdepth":"16.000","Units":"in","Rept_Date":"2019-12-29 13"},"coordinates":[1843,5836]},{"type":"Point","properties":{"Station_ID":"ND-GF-13","Station_Nam":"GRAND FORKS 3.7 SSE, ND","Latitude":"47.86533","Longitude":"-97.04935","Snowdepth":"16.000","Units":"in","Rept_Date":"2019-12-29 13"},"coordinates":[43,6983]},{"type":"Point","properties":{"Station_ID":"MN4QO5TH","Station_Nam":"TWO HARBORS 0.7 ESE","Latitude":"47.03297","Longitude":"-91.65673","Snowdepth":"16.000","Units":"in","Rept_Date":"2019-12-29 13"},"coordinates":[1277,6332]},{"type":"Point","properties":{"Station_ID":"MN3LTZND","Station_Nam":"BRAINERD 1.4 S","Latitude":"46.33224","Longitude":"-94.20905","Snowdepth":"16.000","Units":"in","Rept_Date":"2019-12-29 13"},"coordinates":[693,5785]},{"type":"Point","properties":{"Station_ID":"MN-PK-2","Station_Nam":"ERSKINE 7.6 SW, MN","Latitude":"47.58559","Longitude":"-96.12790","Snowdepth":"16.000","Units":"in","Rept_Date":"2019-12-29 14"},"coordinates":[254,6764]},{"type":"Point","properties":{"Station_ID":"MN-PK-15","Station_Nam":"MENTOR 2.5 SSW, MN","Latitude":"47.66625","Longitude":"-96.17328","Snowdepth":"16.000","Units":"in","Rept_Date":"2019-12-29 14"},"coordinates":[244,6827]},{"type":"Point","properties":{"Station_ID":"LVDW3","Station_Nam":"LAC VIEUX DESERT","Latitude":"46.12110","Longitude":"-89.07580","Snowdepth":"16.000","Units":"in","Rept_Date":"2019-12-29 15"},"coordinates":[1867,5620]},{"type":"Point","properties":{"Station_ID":"INL","Station_Nam":"FALLS INTERNATIONAL ARPT","Latitude":"48.56640","Longitude":"-93.40310","Snowdepth":"16.000","Units":"in","Rept_Date":"2019-12-30 00"},"coordinates":[877,7530]},{"type":"Point","properties":{"Station_ID":"IFSM5","Station_Nam":"INTERNATIONAL FALLS SNOW","Latitude":"48.57780","Longitude":"-93.39640","Snowdepth":"16.000","Units":"in","Rept_Date":"2019-12-30 06"},"coordinates":[879,7539]},{"type":"Point","properties":{"Station_ID":"EMBM5","Station_Nam":"EMBARASS,MN","Latitude":"47.65810","Longitude":"-92.19580","Snowdepth":"16.000","Units":"in","Rept_Date":"2019-12-29 12"},"coordinates":[1153,6821]},{"type":"Point","properties":{"Station_ID":"ELYM5","Station_Nam":"ELY","Latitude":"47.90560","Longitude":"-91.82830","Snowdepth":"16.000","Units":"in","Rept_Date":"2019-12-29 14"},"coordinates":[1237,7014]},{"type":"Point","properties":{"Station_ID":"BRAM5","Station_Nam":"BRAINERD","Latitude":"46.34320","Longitude":"-94.20900","Snowdepth":"16.000","Units":"in","Rept_Date":"2019-12-29 13"},"coordinates":[693,5794]},{"type":"Point","properties":{"Station_ID":"TRIQ6","Station_Nam":"TRIO LAKE","Latitude":"49.22880","Longitude":"-87.22920","Snowdepth":"15.510","Units":"in","Rept_Date":"2019-12-30 06"},"coordinates":[2289,8048]},{"type":"Point","properties":{"Station_ID":"WI-VL-10","Station_Nam":"LAND O LAKES 4.3 WNW, WI","Latitude":"46.17440","Longitude":"-89.30380","Snowdepth":"15.500","Units":"in","Rept_Date":"2019-12-29 13"},"coordinates":[1815,5662]},{"type":"Point","properties":{"Station_ID":"MN-SL-108","Station_Nam":"IRON JUNCTION 3.4 NNW, MN","Latitude":"47.46150","Longitude":"-92.63130","Snowdepth":"15.500","Units":"in","Rept_Date":"2019-12-29 13"},"coordinates":[1054,6667]},{"type":"Point","properties":{"Station_ID":"MN-IT-19","Station_Nam":"COHASSET 7.6 NNW, MN","Latitude":"47.34204","Longitude":"-93.69765","Snowdepth":"15.500","Units":"in","Rept_Date":"2019-12-29 13"},"coordinates":[810,6574]},{"type":"Point","properties":{"Station_ID":"MN-IT-17","Station_Nam":"GRAND RAPIDS 6.1 N, MN","Latitude":"47.31165","Longitude":"-93.55036","Snowdepth":"15.500","Units":"in","Rept_Date":"2019-12-29 13"},"coordinates":[844,6550]},{"type":"Point","properties":{"Station_ID":"WI-IR-2","Station_Nam":"MERCER 2.0 SE, WI","Latitude":"46.14749","Longitude":"-90.03097","Snowdepth":"15.200","Units":"in","Rept_Date":"2019-12-29 13"},"coordinates":[1648,5641]},{"type":"Point","properties":{"Station_ID":"WI-VL-9","Station_Nam":"LAND O' LAKES 11.7 W, WI","Latitude":"46.19023","Longitude":"-89.45790","Snowdepth":"15.000","Units":"in","Rept_Date":"2019-12-29 13"},"coordinates":[1780,5674]},{"type":"Point","properties":{"Station_ID":"WI-BY-2","Station_Nam":"MELLEN 18.6 SW, WI","Latitude":"46.16937","Longitude":"-90.98090","Snowdepth":"15.000","Units":"in","Rept_Date":"2019-12-29 13"},"coordinates":[1431,5658]},{"type":"Point","properties":{"Station_ID":"STGW3","Station_Nam":"ST GERMAIN","Latitude":"45.91550","Longitude":"-89.48940","Snowdepth":"15.000","Units":"in","Rept_Date":"2019-12-29 12"},"coordinates":[1772,5459]},{"type":"Point","properties":{"Station_ID":"MN8O09O3","Station_Nam":"ORR 3.6 E","Latitude":"48.04403","Longitude":"-92.75427","Snowdepth":"15.000","Units":"in","Rept_Date":"2019-12-29 12"},"coordinates":[1026,7122]},{"type":"Point","properties":{"Station_ID":"MAIW3","Station_Nam":"MADELINE ISLAND","Latitude":"46.78330","Longitude":"-90.76670","Snowdepth":"15.000","Units":"in","Rept_Date":"2019-12-29 14"},"coordinates":[1480,6137]},{"type":"Point","properties":{"Station_ID":"LNOW3","Station_Nam":"LAND O LAKES","Latitude":"46.19000","Longitude":"-89.45700","Snowdepth":"15.000","Units":"in","Rept_Date":"2019-12-29 13"},"coordinates":[1780,5674]},{"type":"Point","properties":{"Station_ID":"LEIM5","Station_Nam":"ORR 3E","Latitude":"48.05810","Longitude":"-92.75220","Snowdepth":"15.000","Units":"in","Rept_Date":"2019-12-29 12"},"coordinates":[1026,7133]},{"type":"Point","properties":{"Station_ID":"KISM4","Station_Nam":"K.I. SAWYER WWTP","Latitude":"46.33410","Longitude":"-87.37790","Snowdepth":"15.000","Units":"in","Rept_Date":"2019-12-29 13"},"coordinates":[2255,5786]},{"type":"Point","properties":{"Station_ID":"GNLM4","Station_Nam":"GREENLAND 6N","Latitude":"46.87360","Longitude":"-89.10060","Snowdepth":"15.000","Units":"in","Rept_Date":"2019-12-29 13"},"coordinates":[1861,6208]},{"type":"Point","properties":{"Station_ID":"EVRW3","Station_Nam":"EAGLE RIVER-4 E","Latitude":"45.91890","Longitude":"-89.15280","Snowdepth":"15.000","Units":"in","Rept_Date":"2019-12-29 12"},"coordinates":[1849,5462]},{"type":"Point","properties":{"Station_ID":"COTM5","Station_Nam":"COTTON","Latitude":"47.16870","Longitude":"-92.46290","Snowdepth":"15.000","Units":"in","Rept_Date":"2019-12-29 15"},"coordinates":[1092,6438]},{"type":"Point","properties":{"Station_ID":"CMKW3","Station_Nam":"CLAM LAKE 4W","Latitude":"46.16940","Longitude":"-90.98080","Snowdepth":"15.000","Units":"in","Rept_Date":"2019-12-29 13"},"coordinates":[1431,5658]},{"type":"Point","properties":{"Station_ID":"BRUM5","Station_Nam":"BRUNO,MN","Latitude":"46.28330","Longitude":"-92.50000","Snowdepth":"15.000","Units":"in","Rept_Date":"2019-12-29 14"},"coordinates":[1084,5747]},{"type":"Point","properties":{"Station_ID":"WI-BY-1","Station_Nam":"BAYFIELD 8.8 N, WI","Latitude":"46.93855","Longitude":"-90.83490","Snowdepth":"14.500","Units":"in","Rept_Date":"2019-12-29 13"},"coordinates":[1465,6259]},{"type":"Point","properties":{"Station_ID":"MN-IT-1","Station_Nam":"GRAND RAPIDS 2.0 E, MN","Latitude":"47.22266","Longitude":"-93.49600","Snowdepth":"14.500","Units":"in","Rept_Date":"2019-12-29 18"},"coordinates":[856,6481]},{"type":"Point","properties":{"Station_ID":"MN-CW-22","Station_Nam":"FORT RIPLEY 0.8 N, MN","Latitude":"46.18089","Longitude":"-94.36510","Snowdepth":"14.500","Units":"in","Rept_Date":"2019-12-29 13"},"coordinates":[657,5667]},{"type":"Point","properties":{"Station_ID":"ND-CS-4","Station_Nam":"FARGO 3.0 NE, ND","Latitude":"46.91101","Longitude":"-96.77970","Snowdepth":"14.300","Units":"in","Rept_Date":"2019-12-29 14"},"coordinates":[105,6237]},{"type":"Point","properties":{"Station_ID":"MNSM4","Station_Nam":"MUNISING","Latitude":"46.41210","Longitude":"-86.66250","Snowdepth":"14.000","Units":"in","Rept_Date":"2019-12-29 11"},"coordinates":[2419,5847]},{"type":"Point","properties":{"Station_ID":"MI-HG-12","Station_Nam":"DOLLAR BAY 0.2 ENE, MI","Latitude":"47.12067","Longitude":"-88.49895","Snowdepth":"14.000","Units":"in","Rept_Date":"2019-12-29 13"},"coordinates":[1999,6401]},{"type":"Point","properties":{"Station_ID":"GRBM5","Station_Nam":"GRAND RAPIDS 12N","Latitude":"47.39800","Longitude":"-93.51330","Snowdepth":"14.000","Units":"in","Rept_Date":"2019-12-29 12"},"coordinates":[852,6617]},{"type":"Point","properties":{"Station_ID":"CLKS2","Station_Nam":"WATERTOWN-23MI.ESE","Latitude":"44.75000","Longitude":"-96.68330","Snowdepth":"14.000","Units":"in","Rept_Date":"2019-12-29 15"},"coordinates":[127,4549]},{"type":"Point","properties":{"Station_ID":"MN-CW-8","Station_Nam":"BRAINERD 11.5 E, MN","Latitude":"46.38556","Longitude":"-93.95720","Snowdepth":"13.200","Units":"in","Rept_Date":"2019-12-29 14"},"coordinates":[750,5827]},{"type":"Point","properties":{"Station_ID":"WRIM5","Station_Nam":"WRIGHT 3E","Latitude":"46.68040","Longitude":"-92.95420","Snowdepth":"13.000","Units":"in","Rept_Date":"2019-12-29 12"},"coordinates":[980,6057]},{"type":"Point","properties":{"Station_ID":"WI-AS-4","Station_Nam":"ASHLAND 0.5 WNW, WI","Latitude":"46.58240","Longitude":"-90.88390","Snowdepth":"13.000","Units":"in","Rept_Date":"2019-12-29 13"},"coordinates":[1453,5980]},{"type":"Point","properties":{"Station_ID":"SUAW3","Station_Nam":"SUAMICO","Latitude":"44.60190","Longitude":"-88.09780","Snowdepth":"13.000","Units":"in","Rept_Date":"2019-12-29 12"},"coordinates":[2091,4433]},{"type":"Point","properties":{"Station_ID":"SD-CD-8","Station_Nam":"WATERTOWN 2.7 E, SD","Latitude":"44.90740","Longitude":"-97.11160","Snowdepth":"13.000","Units":"in","Rept_Date":"2019-12-29 16"},"coordinates":[29,4672]},{"type":"Point","properties":{"Station_ID":"MN49YOQ4","Station_Nam":"WRIGHT 3.9 NW","Latitude":"46.70182","Longitude":"-93.07461","Snowdepth":"13.000","Units":"in","Rept_Date":"2019-12-29 12"},"coordinates":[952,6074]},{"type":"Point","properties":{"Station_ID":"MN-OT-30","Station_Nam":"FERGUS FALLS 5.7 E, MN","Latitude":"46.28137","Longitude":"-95.95705","Snowdepth":"13.000","Units":"in","Rept_Date":"2019-12-29 14"},"coordinates":[293,5745]},{"type":"Point","properties":{"Station_ID":"MI-HG-16","Station_Nam":"SOUTH RANGE 12.6 WSW, MI","Latitude":"47.02452","Longitude":"-88.90350","Snowdepth":"13.000","Units":"in","Rept_Date":"2019-12-29 13"},"coordinates":[1906,6326]},{"type":"Point","properties":{"Station_ID":"KGFK","Station_Nam":"GRAND FORKS INTERNATIONAL","Latitude":"47.95000","Longitude":"-97.18333","Snowdepth":"13.000","Units":"in","Rept_Date":"2019-12-30 06"},"coordinates":[13,7049]},{"type":"Point","properties":{"Station_ID":"GNFM5","Station_Nam":"GUNFLINT LAKE","Latitude":"48.16670","Longitude":"-90.88750","Snowdepth":"13.000","Units":"in","Rept_Date":"2019-12-29 13"},"coordinates":[1453,7218]},{"type":"Point","properties":{"Station_ID":"GLDM4","Station_Nam":"GLADSTONE NO. 2","Latitude":"45.84330","Longitude":"-87.03910","Snowdepth":"13.000","Units":"in","Rept_Date":"2019-12-29 13"},"coordinates":[2333,5403]},{"type":"Point","properties":{"Station_ID":"FDRN8","Station_Nam":"FARGO 3S","Latitude":"46.82930","Longitude":"-96.79620","Snowdepth":"13.000","Units":"in","Rept_Date":"2019-12-30 06"},"coordinates":[101,6173]},{"type":"Point","properties":{"Station_ID":"FAR","Station_Nam":"HECTOR INTERNATIONAL ARPT","Latitude":"46.91560","Longitude":"-96.81440","Snowdepth":"13.000","Units":"in","Rept_Date":"2019-12-30 00"},"coordinates":[97,6241]},{"type":"Point","properties":{"Station_ID":"CRVW3","Station_Nam":"CRIVITZ HIGH FALLS","Latitude":"45.35750","Longitude":"-88.19190","Snowdepth":"13.000","Units":"in","Rept_Date":"2019-12-29 13"},"coordinates":[2069,5024]},{"type":"Point","properties":{"Station_ID":"BBEM4","Station_Nam":"BIG BAY 9SW","Latitude":"46.74620","Longitude":"-87.88160","Snowdepth":"13.000","Units":"in","Rept_Date":"2019-12-29 13"},"coordinates":[2140,6108]},{"type":"Point","properties":{"Station_ID":"AWXW3","Station_Nam":"ASHLAND","Latitude":"46.58240","Longitude":"-90.88390","Snowdepth":"13.000","Units":"in","Rept_Date":"2019-12-29 13"},"coordinates":[1453,5980]},{"type":"Point","properties":{"Station_ID":"CAN-NB-50","Station_Nam":"DOYLEVILLE 2.4 WNW, CAN","Latitude":"47.90803","Longitude":"-66.13279","Snowdepth":"12.600","Units":"in","Rept_Date":"2019-12-29 13"},"coordinates":[7114,7016]},{"type":"Point","properties":{"Station_ID":"CATQ6","Station_Nam":"CAT LAKE","Latitude":"51.72690","Longitude":"-91.82210","Snowdepth":"12.010","Units":"in","Rept_Date":"2019-12-30 06"},"coordinates":[1239,9999]},{"type":"Point","properties":{"Station_ID":"WI-RS-1","Station_Nam":"LADYSMITH 2.8 WNW, WI","Latitude":"45.48180","Longitude":"-91.14680","Snowdepth":"12.000","Units":"in","Rept_Date":"2019-12-29 13"},"coordinates":[1393,5121]},{"type":"Point","properties":{"Station_ID":"WI-PR-2","Station_Nam":"BUTTERNUT 5.9 SW, WI","Latitude":"45.96501","Longitude":"-90.59750","Snowdepth":"12.000","Units":"in","Rept_Date":"2019-12-29 12"},"coordinates":[1519,5498]},{"type":"Point","properties":{"Station_ID":"WI-FL-4","Station_Nam":"FLORENCE 5.6 ESE, WI","Latitude":"45.89370","Longitude":"-88.14150","Snowdepth":"12.000","Units":"in","Rept_Date":"2019-12-29 13"},"coordinates":[2081,5442]},{"type":"Point","properties":{"Station_ID":"RLKW3","Station_Nam":"REST LAKE","Latitude":"46.12220","Longitude":"-89.87720","Snowdepth":"12.000","Units":"in","Rept_Date":"2019-12-29 14"},"coordinates":[1684,5621]},{"type":"Point","properties":{"Station_ID":"RBLW3","Station_Nam":"RIB LAKE","Latitude":"45.31530","Longitude":"-90.20640","Snowdepth":"12.000","Units":"in","Rept_Date":"2019-12-29 13"},"coordinates":[1608,4991]},{"type":"Point","properties":{"Station_ID":"PRDM4","Station_Nam":"PARADISE","Latitude":"46.60380","Longitude":"-85.03960","Snowdepth":"12.000","Units":"in","Rept_Date":"2019-12-29 12"},"coordinates":[2790,5997]},{"type":"Point","properties":{"Station_ID":"OTTM5","Station_Nam":"OTTERTAIL,MN","Latitude":"46.41670","Longitude":"-95.56670","Snowdepth":"12.000","Units":"in","Rept_Date":"2019-12-29 12"},"coordinates":[382,5851]},{"type":"Point","properties":{"Station_ID":"ND-GF-8","Station_Nam":"GRAND FORKS 2.5 SE, ND","Latitude":"47.89136","Longitude":"-97.03386","Snowdepth":"12.000","Units":"in","Rept_Date":"2019-12-29 11"},"coordinates":[47,7003]},{"type":"Point","properties":{"Station_ID":"MNMQO9OI","Station_Nam":"OTTERTAIL 1.5 WNW","Latitude":"46.43378","Longitude":"-95.58416","Snowdepth":"12.000","Units":"in","Rept_Date":"2019-12-29 10"},"coordinates":[378,5864]},{"type":"Point","properties":{"Station_ID":"MN-MR-13","Station_Nam":"LITTLE FALLS 8.0 NE, MN","Latitude":"46.06785","Longitude":"-94.24789","Snowdepth":"12.000","Units":"in","Rept_Date":"2019-12-29 13"},"coordinates":[684,5578]},{"type":"Point","properties":{"Station_ID":"MN-CY-1","Station_Nam":"MOORHEAD 2.0 N, MN","Latitude":"46.88766","Longitude":"-96.74800","Snowdepth":"12.000","Units":"in","Rept_Date":"2019-12-29 18"},"coordinates":[112,6219]},{"type":"Point","properties":{"Station_ID":"MI-MQ-19","Station_Nam":"ISHPEMING 7.2 SW, MI","Latitude":"46.40550","Longitude":"-87.75670","Snowdepth":"12.000","Units":"in","Rept_Date":"2019-12-29 13"},"coordinates":[2169,5842]},{"type":"Point","properties":{"Station_ID":"MI-HG-1","Station_Nam":"HOUGHTON 1.6 ESE, MI","Latitude":"47.10774","Longitude":"-88.52940","Snowdepth":"12.000","Units":"in","Rept_Date":"2019-12-29 13"},"coordinates":[1992,6391]},{"type":"Point","properties":{"Station_ID":"HERM4","Station_Nam":"HERMAN,MI","Latitude":"46.65000","Longitude":"-88.33330","Snowdepth":"12.000","Units":"in","Rept_Date":"2019-12-29 13"},"coordinates":[2037,6033]},{"type":"Point","properties":{"Station_ID":"GGRM4","Station_Nam":"GREEN GARDEN NO.2","Latitude":"46.45330","Longitude":"-87.30380","Snowdepth":"12.000","Units":"in","Rept_Date":"2019-12-29 14"},"coordinates":[2272,5880]},{"type":"Point","properties":{"Station_ID":"GFK","Station_Nam":"GRAND FORKS INTERNATIONAL AIRPORT","Latitude":"47.94920","Longitude":"-97.17610","Snowdepth":"12.000","Units":"in","Rept_Date":"2019-12-30 00"},"coordinates":[14,7048]},{"type":"Point","properties":{"Station_ID":"EGRW3","Station_Nam":"EAGLE RIVER-SOUTH","Latitude":"45.91360","Longitude":"-89.24360","Snowdepth":"12.000","Units":"in","Rept_Date":"2019-12-29 12"},"coordinates":[1829,5458]},{"type":"Point","properties":{"Station_ID":"CLGM5","Station_Nam":"COLLEGEVILLE ST JOHN","Latitude":"45.57940","Longitude":"-94.39200","Snowdepth":"12.000","Units":"in","Rept_Date":"2019-12-30 00"},"coordinates":[651,5197]},{"type":"Point","properties":{"Station_ID":"BFHW3","Station_Nam":"BAYFIELD FISH HATCHERY","Latitude":"46.78670","Longitude":"-90.86420","Snowdepth":"12.000","Units":"in","Rept_Date":"2019-12-29 14"},"coordinates":[1458,6140]},{"type":"Point","properties":{"Station_ID":"CAN-NL-82","Station_Nam":"GANDER 2.7 NW, CAN","Latitude":"48.97737","Longitude":"-54.63396","Snowdepth":"11.800","Units":"in","Rept_Date":"2019-12-29 11"},"coordinates":[9744,7851]},{"type":"Point","properties":{"Station_ID":"WRUM5","Station_Nam":"WARROAD 4W","Latitude":"48.89600","Longitude":"-95.40700","Snowdepth":"11.000","Units":"in","Rept_Date":"2019-12-30 04"},"coordinates":[419,7788]},{"type":"Point","properties":{"Station_ID":"WILW3","Station_Nam":"RESERVOIR","Latitude":"45.70000","Longitude":"-89.83330","Snowdepth":"11.000","Units":"in","Rept_Date":"2019-12-29 12"},"coordinates":[1694,5291]},{"type":"Point","properties":{"Station_ID":"WI-ON-8","Station_Nam":"HAZELHURST 2.1 SSE, WI","Latitude":"45.78186","Longitude":"-89.70330","Snowdepth":"11.000","Units":"in","Rept_Date":"2019-12-29 13"},"coordinates":[1723,5355]},{"type":"Point","properties":{"Station_ID":"SWTW3","Station_Nam":"SUPERIOR WWTP","Latitude":"46.72700","Longitude":"-92.07200","Snowdepth":"11.000","Units":"in","Rept_Date":"2019-12-30 06"},"coordinates":[1182,6093]},{"type":"Point","properties":{"Station_ID":"MNLGGILP","Station_Nam":"LONG PRAIRIE 1.1 WSW","Latitude":"45.96913","Longitude":"-94.88686","Snowdepth":"11.000","Units":"in","Rept_Date":"2019-12-29 12"},"coordinates":[538,5501]},{"type":"Point","properties":{"Station_ID":"MN7TCHCK","Station_Nam":"COOK 0.2 ENE","Latitude":"47.85225","Longitude":"-92.68378","Snowdepth":"11.000","Units":"in","Rept_Date":"2019-12-29 12"},"coordinates":[1042,6972]},{"type":"Point","properties":{"Station_ID":"MN-CW-29","Station_Nam":"BRAINERD 7.7 SSE, MN","Latitude":"46.24996","Longitude":"-94.14576","Snowdepth":"11.000","Units":"in","Rept_Date":"2019-12-29 13"},"coordinates":[707,5721]},{"type":"Point","properties":{"Station_ID":"MN-CK-18","Station_Nam":"GRAND MARAIS 4.4 WSW, MN","Latitude":"47.74462","Longitude":"-90.43796","Snowdepth":"11.000","Units":"in","Rept_Date":"2019-12-29 13"},"coordinates":[1555,6888]},{"type":"Point","properties":{"Station_ID":"MN-BK-10","Station_Nam":"DETROIT LAKES 5.7 N, MN","Latitude":"46.88666","Longitude":"-95.84444","Snowdepth":"11.000","Units":"in","Rept_Date":"2019-12-29 11"},"coordinates":[319,6218]},{"type":"Point","properties":{"Station_ID":"LTMW3","Station_Nam":"LAKE TOMAHAWK 2 SE","Latitude":"45.80750","Longitude":"-89.55830","Snowdepth":"11.000","Units":"in","Rept_Date":"2019-12-29 14"},"coordinates":[1757,5375]},{"type":"Point","properties":{"Station_ID":"LNGM5","Station_Nam":"LONG PRAIRIE","Latitude":"45.96460","Longitude":"-94.88920","Snowdepth":"11.000","Units":"in","Rept_Date":"2019-12-29 12"},"coordinates":[537,5498]},{"type":"Point","properties":{"Station_ID":"ISEM5","Station_Nam":"ISLE 12N","Latitude":"46.31970","Longitude":"-93.50140","Snowdepth":"11.000","Units":"in","Rept_Date":"2019-12-29 14"},"coordinates":[855,5775]},{"type":"Point","properties":{"Station_ID":"IRMM4","Station_Nam":"WWTP","Latitude":"46.46670","Longitude":"-90.18330","Snowdepth":"11.000","Units":"in","Rept_Date":"2019-12-29 13"},"coordinates":[1614,5890]},{"type":"Point","properties":{"Station_ID":"COKM5","Station_Nam":"COOK","Latitude":"47.85060","Longitude":"-92.69250","Snowdepth":"11.000","Units":"in","Rept_Date":"2019-12-29 12"},"coordinates":[1040,6971]},{"type":"Point","properties":{"Station_ID":"CNNW3","Station_Nam":"CRANDON","Latitude":"45.55110","Longitude":"-88.89830","Snowdepth":"11.000","Units":"in","Rept_Date":"2019-12-29 12"},"coordinates":[1908,5175]},{"type":"Point","properties":{"Station_ID":"CAN-NS-94","Station_Nam":"MARGAREE FORKS 2.6 SSE CBN, CAN","Latitude":"46.30937","Longitude":"-61.07603","Snowdepth":"11.000","Units":"in","Rept_Date":"2019-12-29 13"},"coordinates":[8271,5767]},{"type":"Point","properties":{"Station_ID":"BKEM5","Station_Nam":"BRECKENRIDGE 4NE","Latitude":"46.30470","Longitude":"-96.52170","Snowdepth":"11.000","Units":"in","Rept_Date":"2019-12-29 13"},"coordinates":[164,5763]},{"type":"Point","properties":{"Station_ID":"AVTW3","Station_Nam":"ARBOR VITAE-JOHNSON LAKE","Latitude":"45.89940","Longitude":"-89.72670","Snowdepth":"11.000","Units":"in","Rept_Date":"2019-12-29 12"},"coordinates":[1718,5447]},{"type":"Point","properties":{"Station_ID":"ARTM5","Station_Nam":"ARTICHOKE LAKE 1 E","Latitude":"45.38560","Longitude":"-96.12570","Snowdepth":"11.000","Units":"in","Rept_Date":"2019-12-30 00"},"coordinates":[255,5045]},{"type":"Point","properties":{"Station_ID":"AGNW3","Station_Nam":"ARGONNE-1.5 NW","Latitude":"45.67360","Longitude":"-88.90380","Snowdepth":"11.000","Units":"in","Rept_Date":"2019-12-29 14"},"coordinates":[1906,5270]},{"type":"Point","properties":{"Station_ID":"CAN-NL-81","Station_Nam":"GRAND FALLS-WINDSOR 1.2 S, CAN","Latitude":"48.93123","Longitude":"-55.65333","Snowdepth":"10.600","Units":"in","Rept_Date":"2019-12-29 11"},"coordinates":[9511,7815]},{"type":"Point","properties":{"Station_ID":"WI-SR-5","Station_Nam":"HAYWARD 9.7 NE, WI","Latitude":"46.12030","Longitude":"-91.35370","Snowdepth":"10.500","Units":"in","Rept_Date":"2019-12-29 14"},"coordinates":[1346,5619]},{"type":"Point","properties":{"Station_ID":"WI-PR-8","Station_Nam":"PHILLIPS 0.4 SSW, WI","Latitude":"45.69086","Longitude":"-90.40200","Snowdepth":"10.500","Units":"in","Rept_Date":"2019-12-29 13"},"coordinates":[1564,5284]},{"type":"Point","properties":{"Station_ID":"WI-OC-1","Station_Nam":"MOUNTAIN 1.1 SW, WI","Latitude":"45.17239","Longitude":"-88.48990","Snowdepth":"10.500","Units":"in","Rept_Date":"2019-12-29 17"},"coordinates":[2001,4879]},{"type":"Point","properties":{"Station_ID":"WTRM4","Station_Nam":"WATERSMEET 12WSW","Latitude":"46.22310","Longitude":"-89.40850","Snowdepth":"10.000","Units":"in","Rept_Date":"2019-12-29 13"},"coordinates":[1791,5700]},{"type":"Point","properties":{"Station_ID":"WRTS2","Station_Nam":"WATERTOWN,SD","Latitude":"44.90280","Longitude":"-97.11360","Snowdepth":"10.000","Units":"in","Rept_Date":"2019-12-29 15"},"coordinates":[29,4668]},{"type":"Point","properties":{"Station_ID":"WI-PR-6","Station_Nam":"PHILLIPS 1.3 S, WI","Latitude":"45.67677","Longitude":"-90.39543","Snowdepth":"10.000","Units":"in","Rept_Date":"2019-12-29 12"},"coordinates":[1565,5273]},{"type":"Point","properties":{"Station_ID":"WI-BY-6","Station_Nam":"BARNES 2.2 S, WI","Latitude":"46.30264","Longitude":"-91.50320","Snowdepth":"10.000","Units":"in","Rept_Date":"2019-12-29 13"},"coordinates":[1312,5762]},{"type":"Point","properties":{"Station_ID":"STMM4","Station_Nam":"STAMBAUGH 2SSE","Latitude":"46.05550","Longitude":"-88.62780","Snowdepth":"10.000","Units":"in","Rept_Date":"2019-12-29 13"},"coordinates":[1969,5569]},{"type":"Point","properties":{"Station_ID":"RPDM4","Station_Nam":"RAPID RIVER 4SSE","Latitude":"45.87270","Longitude":"-86.94960","Snowdepth":"10.000","Units":"in","Rept_Date":"2019-12-29 14"},"coordinates":[2353,5426]},{"type":"Point","properties":{"Station_ID":"MOUW3","Station_Nam":"MOUNTAIN 1 SW","Latitude":"45.17220","Longitude":"-88.49390","Snowdepth":"10.000","Units":"in","Rept_Date":"2019-12-29 17"},"coordinates":[2000,4879]},{"type":"Point","properties":{"Station_ID":"MN-MR-4","Station_Nam":"LITTLE FALLS 1.2 SW, MN","Latitude":"45.96886","Longitude":"-94.37720","Snowdepth":"10.000","Units":"in","Rept_Date":"2019-12-29 13"},"coordinates":[654,5501]},{"type":"Point","properties":{"Station_ID":"MN-ML-1","Station_Nam":"ONAMIA 4.3 NW, MN","Latitude":"46.10883","Longitude":"-93.73890","Snowdepth":"10.000","Units":"in","Rept_Date":"2019-12-29 16"},"coordinates":[800,5610]},{"type":"Point","properties":{"Station_ID":"MI-HG-13","Station_Nam":"HOUGHTON 1.2 WNW, MI","Latitude":"47.12035","Longitude":"-88.58525","Snowdepth":"10.000","Units":"in","Rept_Date":"2019-12-29 13"},"coordinates":[1979,6401]},{"type":"Point","properties":{"Station_ID":"LGRN8","Station_Nam":"LIDGERWOOD,ND","Latitude":"46.06670","Longitude":"-97.16670","Snowdepth":"10.000","Units":"in","Rept_Date":"2019-12-29 13"},"coordinates":[16,5578]},{"type":"Point","properties":{"Station_ID":"BGBM4","Station_Nam":"BIG BAY 1NW","Latitude":"46.83250","Longitude":"-87.75040","Snowdepth":"10.000","Units":"in","Rept_Date":"2019-12-29 13"},"coordinates":[2170,6176]},{"type":"Point","properties":{"Station_ID":"WI-ON-6","Station_Nam":"RHINELANDER 5.2 N, WI","Latitude":"45.71388","Longitude":"-89.42150","Snowdepth":"9.500","Units":"in","Rept_Date":"2019-12-29 14"},"coordinates":[1788,5302]},{"type":"Point","properties":{"Station_ID":"SD-BK-48","Station_Nam":"VOLGA 0.1 S, SD","Latitude":"44.32180","Longitude":"-96.92220","Snowdepth":"9.500","Units":"in","Rept_Date":"2019-12-29 21"},"coordinates":[72,4214]},{"type":"Point","properties":{"Station_ID":"MN-SL-139","Station_Nam":"DULUTH 1.2 SE, MN","Latitude":"46.77000","Longitude":"-92.08826","Snowdepth":"9.500","Units":"in","Rept_Date":"2019-12-29 12"},"coordinates":[1178,6127]},{"type":"Point","properties":{"Station_ID":"MN-CK-6","Station_Nam":"GRAND MARAIS 4.4 W, MN","Latitude":"47.74865","Longitude":"-90.43760","Snowdepth":"9.500","Units":"in","Rept_Date":"2019-12-29 13"},"coordinates":[1555,6891]},{"type":"Point","properties":{"Station_ID":"CAN-NL-14","Station_Nam":"WHITBOURNE 1.4 NE, CA","Latitude":"47.42741","Longitude":"-53.51950","Snowdepth":"9.400","Units":"in","Rept_Date":"2019-12-29 13"},"coordinates":[9999,6640]},{"type":"Point","properties":{"Station_ID":"FTHQ6","Station_Nam":"FORT HOPE","Latitude":"51.55820","Longitude":"-87.90510","Snowdepth":"9.250","Units":"in","Rept_Date":"2019-12-30 06"},"coordinates":[2135,9867]},{"type":"Point","properties":{"Station_ID":"WHTM5","Station_Nam":"WHEATON,MN","Latitude":"45.80000","Longitude":"-96.48330","Snowdepth":"9.000","Units":"in","Rept_Date":"2019-12-29 14"},"coordinates":[173,5369]},{"type":"Point","properties":{"Station_ID":"VT-BN-12","Station_Nam":"STAMFORD 5.0 NNE, VT","Latitude":"42.82000","Longitude":"-73.02000","Snowdepth":"9.000","Units":"in","Rept_Date":"2019-12-29 21"},"coordinates":[5539,3041]},{"type":"Point","properties":{"Station_ID":"TAKW3","Station_Nam":"RICE RESERVOIR NO. 2","Latitude":"45.53770","Longitude":"-89.73220","Snowdepth":"9.000","Units":"in","Rept_Date":"2019-12-29 13"},"coordinates":[1717,5164]},{"type":"Point","properties":{"Station_ID":"RCEM5","Station_Nam":"RICE","Latitude":"45.75760","Longitude":"-94.20720","Snowdepth":"9.000","Units":"in","Rept_Date":"2019-12-29 13"},"coordinates":[693,5336]},{"type":"Point","properties":{"Station_ID":"MQRW3","Station_Nam":"MINOCQUA","Latitude":"45.88630","Longitude":"-89.73220","Snowdepth":"9.000","Units":"in","Rept_Date":"2019-12-29 12"},"coordinates":[1717,5437]},{"type":"Point","properties":{"Station_ID":"MN228RRE","Station_Nam":"RICE 0.8 ENE","Latitude":"45.75724","Longitude":"-94.20638","Snowdepth":"9.000","Units":"in","Rept_Date":"2019-12-29 13"},"coordinates":[694,5336]},{"type":"Point","properties":{"Station_ID":"IMNM4","Station_Nam":"IRON MOUTAIN 5N","Latitude":"45.87580","Longitude":"-88.04030","Snowdepth":"9.000","Units":"in","Rept_Date":"2019-12-29 14"},"coordinates":[2104,5428]},{"type":"Point","properties":{"Station_ID":"GDPM5","Station_Nam":"PIGEON RIVER AT MIDDLE FALLS","Latitude":"48.01220","Longitude":"-89.61610","Snowdepth":"9.000","Units":"in","Rept_Date":"2019-12-29 13"},"coordinates":[1743,7097]},{"type":"Point","properties":{"Station_ID":"COUW3","Station_Nam":"COUDERAY,WI","Latitude":"45.86670","Longitude":"-91.45000","Snowdepth":"9.000","Units":"in","Rept_Date":"2019-12-29 22"},"coordinates":[1324,5421]},{"type":"Point","properties":{"Station_ID":"CLKM4","Station_Nam":"CLARKSBURG","Latitude":"46.49910","Longitude":"-87.84500","Snowdepth":"9.000","Units":"in","Rept_Date":"2019-12-29 12"},"coordinates":[2148,5915]},{"type":"Point","properties":{"Station_ID":"CAN-PE-19","Station_Nam":"CHARLOTTETOWN 6.5 NNW, CAN","Latitude":"46.29235","Longitude":"-63.17271","Snowdepth":"8.300","Units":"in","Rept_Date":"2019-12-29 12"},"coordinates":[7791,5754]},{"type":"Point","properties":{"Station_ID":"ZNOM4","Station_Nam":"NORWAY","Latitude":"45.77810","Longitude":"-87.89560","Snowdepth":"8.000","Units":"in","Rept_Date":"2019-12-29 13"},"coordinates":[2137,5352]},{"type":"Point","properties":{"Station_ID":"WLKW3","Station_Nam":"WHITE LAKE 1 SE","Latitude":"45.14520","Longitude":"-88.74160","Snowdepth":"8.000","Units":"in","Rept_Date":"2019-12-29 14"},"coordinates":[1943,4858]},{"type":"Point","properties":{"Station_ID":"WI-LN-2","Station_Nam":"MERRILL 7.0 W, WI","Latitude":"45.17746","Longitude":"-89.84820","Snowdepth":"8.000","Units":"in","Rept_Date":"2019-12-29 12"},"coordinates":[1690,4883]},{"type":"Point","properties":{"Station_ID":"WI-BR-2","Station_Nam":"CHETEK 2.0 SE, WI","Latitude":"45.29427","Longitude":"-91.62470","Snowdepth":"8.000","Units":"in","Rept_Date":"2019-12-29 13"},"coordinates":[1284,4974]},{"type":"Point","properties":{"Station_ID":"SSSS2","Station_Nam":"MILBANK-36MI.NW","Latitude":"45.66670","Longitude":"-97.00000","Snowdepth":"8.000","Units":"in","Rept_Date":"2019-12-30 04"},"coordinates":[55,5265]},{"type":"Point","properties":{"Station_ID":"SRAW3","Station_Nam":"SARONA","Latitude":"45.80250","Longitude":"-91.86700","Snowdepth":"8.000","Units":"in","Rept_Date":"2019-12-29 14"},"coordinates":[1229,5371]},{"type":"Point","properties":{"Station_ID":"SD-CD-30","Station_Nam":"WATERTOWN 2.3 E, SD","Latitude":"44.91604","Longitude":"-97.11925","Snowdepth":"8.000","Units":"in","Rept_Date":"2019-12-29 13"},"coordinates":[27,4679]},{"type":"Point","properties":{"Station_ID":"SD-BK-9","Station_Nam":"BRUCE 4.1 NE, SD","Latitude":"44.48479","Longitude":"-96.83750","Snowdepth":"8.000","Units":"in","Rept_Date":"2019-12-29 13"},"coordinates":[92,4342]},{"type":"Point","properties":{"Station_ID":"NCFM4","Station_Nam":"NEWBERRY CORRECTIONAL FACILITY","Latitude":"46.32850","Longitude":"-85.50360","Snowdepth":"8.000","Units":"in","Rept_Date":"2019-12-29 14"},"coordinates":[2684,5782]},{"type":"Point","properties":{"Station_ID":"MN-SR-29","Station_Nam":"ALBANY 3.8 S, MN","Latitude":"45.57441","Longitude":"-94.55543","Snowdepth":"8.000","Units":"in","Rept_Date":"2019-12-29 13"},"coordinates":[614,5193]},{"type":"Point","properties":{"Station_ID":"MLLW3","Station_Nam":"MERRILL 8W","Latitude":"45.17810","Longitude":"-89.84810","Snowdepth":"8.000","Units":"in","Rept_Date":"2019-12-29 12"},"coordinates":[1690,4883]},{"type":"Point","properties":{"Station_ID":"MLBS2","Station_Nam":"MILBANK","Latitude":"45.22040","Longitude":"-96.62530","Snowdepth":"8.000","Units":"in","Rept_Date":"2019-12-29 13"},"coordinates":[140,4916]},{"type":"Point","properties":{"Station_ID":"MIEM4","Station_Nam":"MICHIGAMME 3WNW","Latitude":"46.54530","Longitude":"-88.18000","Snowdepth":"8.000","Units":"in","Rept_Date":"2019-12-29 13"},"coordinates":[2072,5951]},{"type":"Point","properties":{"Station_ID":"MIAM5","Station_Nam":"MILAN 1NW","Latitude":"45.12190","Longitude":"-95.92690","Snowdepth":"8.000","Units":"in","Rept_Date":"2019-12-30 00"},"coordinates":[300,4839]},{"type":"Point","properties":{"Station_ID":"ME-AR-18","Station_Nam":"NEW SWEDEN 4.9 NNW, ME","Latitude":"47.01080","Longitude":"-68.14390","Snowdepth":"8.000","Units":"in","Rept_Date":"2019-12-29 12"},"coordinates":[6654,6315]},{"type":"Point","properties":{"Station_ID":"JCBM4","Station_Nam":"JACOBSVILLE","Latitude":"47.00830","Longitude":"-88.43180","Snowdepth":"8.000","Units":"in","Rept_Date":"2019-12-29 12"},"coordinates":[2014,6313]},{"type":"Point","properties":{"Station_ID":"ESAM4","Station_Nam":"ESCANABA","Latitude":"45.74380","Longitude":"-87.04060","Snowdepth":"8.000","Units":"in","Rept_Date":"2019-12-29 14"},"coordinates":[2332,5325]},{"type":"Point","properties":{"Station_ID":"CAN-ON-245","Station_Nam":"PHELPSTON 3.1 ESE, CAN","Latitude":"44.50564","Longitude":"-79.81035","Snowdepth":"8.000","Units":"in","Rept_Date":"2019-12-29 14"},"coordinates":[3986,4358]},{"type":"Point","properties":{"Station_ID":"CAN-NS-39","Station_Nam":"ST. ANNS 2.8 NW, CA","Latitude":"46.25082","Longitude":"-60.64340","Snowdepth":"8.000","Units":"in","Rept_Date":"2019-12-29 13"},"coordinates":[8370,5721]},{"type":"Point","properties":{"Station_ID":"ASTW3","Station_Nam":"ATHELSTANE","Latitude":"45.42500","Longitude":"-88.05750","Snowdepth":"8.000","Units":"in","Rept_Date":"2019-12-29 12"},"coordinates":[2100,5076]},{"type":"Point","properties":{"Station_ID":"MA-MD-47","Station_Nam":"WEST TOWNSEND 0.5 W, MA","Latitude":"42.67623","Longitude":"-71.74983","Snowdepth":"7.500","Units":"in","Rept_Date":"2019-12-29 11"},"coordinates":[5830,2929]},{"type":"Point","properties":{"Station_ID":"MN-PN-17","Station_Nam":"BROOK PARK 3.9 S, MN","Latitude":"45.89189","Longitude":"-93.06306","Snowdepth":"7.200","Units":"in","Rept_Date":"2019-12-29 12"},"coordinates":[955,5441]},{"type":"Point","properties":{"Station_ID":"WTNM4","Station_Nam":"WATTON 2WSW","Latitude":"46.52660","Longitude":"-88.64240","Snowdepth":"7.000","Units":"in","Rept_Date":"2019-12-29 13"},"coordinates":[1966,5937]},{"type":"Point","properties":{"Station_ID":"WMRM5","Station_Nam":"WILLMAR 5N","Latitude":"45.19010","Longitude":"-95.05860","Snowdepth":"7.000","Units":"in","Rept_Date":"2019-12-29 12"},"coordinates":[499,4893]},{"type":"Point","properties":{"Station_ID":"WI-MT-14","Station_Nam":"MOSINEE 2.7 WSW, WI","Latitude":"44.77240","Longitude":"-89.73441","Snowdepth":"7.000","Units":"in","Rept_Date":"2019-12-29 12"},"coordinates":[1716,4566]},{"type":"Point","properties":{"Station_ID":"SSMM4","Station_Nam":"SAULT STE MARIE","Latitude":"46.48660","Longitude":"-84.40250","Snowdepth":"7.000","Units":"in","Rept_Date":"2019-12-29 13"},"coordinates":[2936,5906]},{"type":"Point","properties":{"Station_ID":"SIWS2","Station_Nam":"SISSETON 3W","Latitude":"45.65870","Longitude":"-97.12450","Snowdepth":"7.000","Units":"in","Rept_Date":"2019-12-29 13"},"coordinates":[26,5259]},{"type":"Point","properties":{"Station_ID":"SIBI4","Station_Nam":"SIBLEY","Latitude":"43.40470","Longitude":"-95.74830","Snowdepth":"7.000","Units":"in","Rept_Date":"2019-12-29 13"},"coordinates":[341,3498]},{"type":"Point","properties":{"Station_ID":"SD-RB-1","Station_Nam":"SISSETON 3.8 W, SD","Latitude":"45.65865","Longitude":"-97.12370","Snowdepth":"7.000","Units":"in","Rept_Date":"2019-12-29 13"},"coordinates":[26,5259]},{"type":"Point","properties":{"Station_ID":"RHRW3","Station_Nam":"RHINELANDER WJFW TV-12","Latitude":"45.62220","Longitude":"-89.41000","Snowdepth":"7.000","Units":"in","Rept_Date":"2019-12-30 06"},"coordinates":[1790,5230]},{"type":"Point","properties":{"Station_ID":"RHLW3","Station_Nam":"RHINELANDER 4NE","Latitude":"45.65270","Longitude":"-89.30740","Snowdepth":"7.000","Units":"in","Rept_Date":"2019-12-29 12"},"coordinates":[1814,5254]},{"type":"Point","properties":{"Station_ID":"RARM4","Station_Nam":"RAPID RIVER 1 SW","Latitude":"45.91500","Longitude":"-86.98800","Snowdepth":"7.000","Units":"in","Rept_Date":"2019-12-29 12"},"coordinates":[2344,5459]},{"type":"Point","properties":{"Station_ID":"NY-HR-18","Station_Nam":"SALISBURY CENTER 1.8 NW, NY","Latitude":"43.16260","Longitude":"-74.80880","Snowdepth":"7.000","Units":"in","Rept_Date":"2019-12-29 11"},"coordinates":[5130,3309]},{"type":"Point","properties":{"Station_ID":"NH-CS-10","Station_Nam":"RANDOLPH 1.4 NE, NH","Latitude":"44.38824","Longitude":"-71.26950","Snowdepth":"7.000","Units":"in","Rept_Date":"2019-12-29 12"},"coordinates":[5939,4266]},{"type":"Point","properties":{"Station_ID":"MNJ3AYM2","Station_Nam":"WILLMAR 2.8 NNE","Latitude":"45.16114","Longitude":"-95.03260","Snowdepth":"7.000","Units":"in","Rept_Date":"2019-12-29 12"},"coordinates":[505,4870]},{"type":"Point","properties":{"Station_ID":"MN228YHJ","Station_Nam":"RICE 2.8 ESE","Latitude":"45.73609","Longitude":"-94.17230","Snowdepth":"7.000","Units":"in","Rept_Date":"2019-12-29 13"},"coordinates":[701,5319]},{"type":"Point","properties":{"Station_ID":"MEDW3","Station_Nam":"MEDFORD","Latitude":"45.13080","Longitude":"-90.34390","Snowdepth":"7.000","Units":"in","Rept_Date":"2019-12-29 14"},"coordinates":[1577,4846]},{"type":"Point","properties":{"Station_ID":"MA-HS-7","Station_Nam":"PLAINFIELD 2.2 SW, MA","Latitude":"42.49272","Longitude":"-72.94540","Snowdepth":"7.000","Units":"in","Rept_Date":"2019-12-29 13"},"coordinates":[5556,2786]},{"type":"Point","properties":{"Station_ID":"LBRM5","Station_Nam":"LAKE BRONSON DAM","Latitude":"48.72410","Longitude":"-96.62180","Snowdepth":"7.000","Units":"in","Rept_Date":"2019-12-29 14"},"coordinates":[141,7653]},{"type":"Point","properties":{"Station_ID":"BRVM5","Station_Nam":"BROWNS VALLEY,MN","Latitude":"45.61670","Longitude":"-96.83330","Snowdepth":"7.000","Units":"in","Rept_Date":"2019-12-29 13"},"coordinates":[93,5226]},{"type":"Point","properties":{"Station_ID":"ANJM4","Station_Nam":"SNOW PAID OBSERVER FOR KANJ","Latitude":"46.48670","Longitude":"-84.40260","Snowdepth":"7.000","Units":"in","Rept_Date":"2019-12-29 18"},"coordinates":[2936,5906]},{"type":"Point","properties":{"Station_ID":"ANJ","Station_Nam":"SAULT STE MARIE","Latitude":"46.46670","Longitude":"-84.36670","Snowdepth":"7.000","Units":"in","Rept_Date":"2019-12-30 00"},"coordinates":[2944,5890]},{"type":"Point","properties":{"Station_ID":"WI-EC-23","Station_Nam":"EAU CLAIRE 3.7 S, WI","Latitude":"44.76858","Longitude":"-91.49898","Snowdepth":"6.500","Units":"in","Rept_Date":"2019-12-29 14"},"coordinates":[1313,4563]},{"type":"Point","properties":{"Station_ID":"WI-CH-7","Station_Nam":"CHIPPEWA FALLS 1.2 E, WI","Latitude":"44.92920","Longitude":"-91.36730","Snowdepth":"6.500","Units":"in","Rept_Date":"2019-12-29 13"},"coordinates":[1343,4689]},{"type":"Point","properties":{"Station_ID":"CAN-PE-20","Station_Nam":"BONSHAW 6.6 NNE, CAN","Latitude":"46.25082","Longitude":"-63.33409","Snowdepth":"6.100","Units":"in","Rept_Date":"2019-12-29 12"},"coordinates":[7754,5721]},{"type":"Point","properties":{"Station_ID":"WUNW3","Station_Nam":"WAUSAU-NORTHEAST","Latitude":"44.97310","Longitude":"-89.61690","Snowdepth":"6.000","Units":"in","Rept_Date":"2019-12-29 13"},"coordinates":[1743,4723]},{"type":"Point","properties":{"Station_ID":"WLDM5","Station_Nam":"WILD RIVER STATE PARK","Latitude":"45.52310","Longitude":"-92.74890","Snowdepth":"6.000","Units":"in","Rept_Date":"2019-12-29 14"},"coordinates":[1027,5153]},{"type":"Point","properties":{"Station_ID":"WI-DN-15","Station_Nam":"MENOMONIE 0.9 NW, WI","Latitude":"44.89832","Longitude":"-91.92398","Snowdepth":"6.000","Units":"in","Rept_Date":"2019-12-29 13"},"coordinates":[1216,4665]},{"type":"Point","properties":{"Station_ID":"SULW3","Station_Nam":"SUMMIT LAKE","Latitude":"45.37880","Longitude":"-89.19410","Snowdepth":"6.000","Units":"in","Rept_Date":"2019-12-29 11"},"coordinates":[1840,5040]},{"type":"Point","properties":{"Station_ID":"STRW3","Station_Nam":"STRATFORD 1NW","Latitude":"44.81750","Longitude":"-90.08990","Snowdepth":"6.000","Units":"in","Rept_Date":"2019-12-29 12"},"coordinates":[1635,4602]},{"type":"Point","properties":{"Station_ID":"SD-RB-4","Station_Nam":"SISSETON 10.4 ENE, SD","Latitude":"45.69480","Longitude":"-96.83480","Snowdepth":"6.000","Units":"in","Rept_Date":"2019-12-29 13"},"coordinates":[92,5287]},{"type":"Point","properties":{"Station_ID":"RSTW3","Station_Nam":"ROSHOLT","Latitude":"44.62710","Longitude":"-89.30600","Snowdepth":"6.000","Units":"in","Rept_Date":"2019-12-29 14"},"coordinates":[1814,4453]},{"type":"Point","properties":{"Station_ID":"RRLW3","Station_Nam":"MERRILL,WI","Latitude":"45.17860","Longitude":"-89.66170","Snowdepth":"6.000","Units":"in","Rept_Date":"2019-12-29 14"},"coordinates":[1733,4884]},{"type":"Point","properties":{"Station_ID":"NY-AB-54","Station_Nam":"ALTAMONT 2.9 SW, NY","Latitude":"42.68182","Longitude":"-74.08326","Snowdepth":"6.000","Units":"in","Rept_Date":"2019-12-29 12"},"coordinates":[5296,2933]},{"type":"Point","properties":{"Station_ID":"MRFS2","Station_Nam":"MADISON,SD","Latitude":"44.00000","Longitude":"-97.23330","Snowdepth":"6.000","Units":"in","Rept_Date":"2019-12-29 15"},"coordinates":[1,3963]},{"type":"Point","properties":{"Station_ID":"MNV905PW","Station_Nam":"ROOSEVELT 5.3 N","Latitude":"48.87933","Longitude":"-95.08224","Snowdepth":"6.000","Units":"in","Rept_Date":"2019-12-29 13"},"coordinates":[493,7775]},{"type":"Point","properties":{"Station_ID":"MNJLCQKL","Station_Nam":"KIMBALL 2.6 NNW","Latitude":"45.34917","Longitude":"-94.31303","Snowdepth":"6.000","Units":"in","Rept_Date":"2019-12-29 12"},"coordinates":[669,5017]},{"type":"Point","properties":{"Station_ID":"MN20GPME","Station_Nam":"MILACA 0.7 W","Latitude":"45.75695","Longitude":"-93.66835","Snowdepth":"6.000","Units":"in","Rept_Date":"2019-12-29 13"},"coordinates":[817,5336]},{"type":"Point","properties":{"Station_ID":"MN-SH-10","Station_Nam":"BIG LAKE 5.6 NNE, MN","Latitude":"45.41409","Longitude":"-93.69190","Snowdepth":"6.000","Units":"in","Rept_Date":"2019-12-29 13"},"coordinates":[811,5068]},{"type":"Point","properties":{"Station_ID":"MLCM5","Station_Nam":"MILACA","Latitude":"45.75320","Longitude":"-93.66170","Snowdepth":"6.000","Units":"in","Rept_Date":"2019-12-29 13"},"coordinates":[818,5333]},{"type":"Point","properties":{"Station_ID":"MI-DL-4","Station_Nam":"GLADSTONE 2.1 SW, MI","Latitude":"45.83218","Longitude":"-87.05727","Snowdepth":"6.000","Units":"in","Rept_Date":"2019-12-29 13"},"coordinates":[2329,5394]},{"type":"Point","properties":{"Station_ID":"KIMM5","Station_Nam":"KIMBALL 3N","Latitude":"45.35330","Longitude":"-94.30560","Snowdepth":"6.000","Units":"in","Rept_Date":"2019-12-29 12"},"coordinates":[671,5020]},{"type":"Point","properties":{"Station_ID":"HUBN3","Station_Nam":"HUBBARD BROOK","Latitude":"43.93330","Longitude":"-71.71670","Snowdepth":"6.000","Units":"in","Rept_Date":"2019-12-30 06"},"coordinates":[5837,3911]},{"type":"Point","properties":{"Station_ID":"AVLV1","Station_Nam":"AVERILL","Latitude":"45.00570","Longitude":"-71.69030","Snowdepth":"6.000","Units":"in","Rept_Date":"2019-12-29 13"},"coordinates":[5843,4749]},{"type":"Point","properties":{"Station_ID":"ABGW3","Station_Nam":"AMBERG 9 E","Latitude":"45.48250","Longitude":"-87.81190","Snowdepth":"6.000","Units":"in","Rept_Date":"2019-12-29 12"},"coordinates":[2156,5121]},{"type":"Point","properties":{"Station_ID":"MN-CK-7","Station_Nam":"HOVLAND 0.1 NE, MN","Latitude":"47.83922","Longitude":"-89.97119","Snowdepth":"5.800","Units":"in","Rept_Date":"2019-12-29 13"},"coordinates":[1662,6962]},{"type":"Point","properties":{"Station_ID":"CAN-PE-50","Station_Nam":"BEDFORD CORNER 3.9 WNW, CAN","Latitude":"46.34628","Longitude":"-63.06157","Snowdepth":"5.800","Units":"in","Rept_Date":"2019-12-29 11"},"coordinates":[7817,5796]},{"type":"Point","properties":{"Station_ID":"CAN-NB-105","Station_Nam":"SISSON BROOK 3.8 E, CAN","Latitude":"46.98305","Longitude":"-67.32532","Snowdepth":"5.700","Units":"in","Rept_Date":"2019-12-29 12"},"coordinates":[6841,6293]},{"type":"Point","properties":{"Station_ID":"CAN-PE-7","Station_Nam":"MORELL 1.4 NNW, CA","Latitude":"46.42741","Longitude":"-62.70870","Snowdepth":"5.600","Units":"in","Rept_Date":"2019-12-29 12"},"coordinates":[7897,5859]},{"type":"Point","properties":{"Station_ID":"MN-SH-985","Station_Nam":"PRINCETON 3.3 WSW, MN","Latitude":"45.55211","Longitude":"-93.64481","Snowdepth":"5.500","Units":"in","Rept_Date":"2019-12-29 15"},"coordinates":[822,5176]},{"type":"Point","properties":{"Station_ID":"CAN-PE-43","Station_Nam":"GLENCOE 0.3 W, CAN","Latitude":"46.20115","Longitude":"-62.81740","Snowdepth":"5.500","Units":"in","Rept_Date":"2019-12-29 12"},"coordinates":[7872,5683]},{"type":"Point","properties":{"Station_ID":"WI-EC-5","Station_Nam":"ALTOONA 0.4 SW, WI","Latitude":"44.80128","Longitude":"-91.44819","Snowdepth":"5.000","Units":"in","Rept_Date":"2019-12-29 17"},"coordinates":[1324,4589]},{"type":"Point","properties":{"Station_ID":"WDOM5","Station_Nam":"WINDOM","Latitude":"43.87700","Longitude":"-95.11590","Snowdepth":"5.000","Units":"in","Rept_Date":"2019-12-29 14"},"coordinates":[485,3867]},{"type":"Point","properties":{"Station_ID":"VANM1","Station_Nam":"VAN BUREN","Latitude":"47.16600","Longitude":"-67.93900","Snowdepth":"5.000","Units":"in","Rept_Date":"2019-12-29 13"},"coordinates":[6701,6436]},{"type":"Point","properties":{"Station_ID":"STC","Station_Nam":"ST. CLOUD REGIONAL AIRPORT","Latitude":"45.54330","Longitude":"-94.05140","Snowdepth":"5.000","Units":"in","Rept_Date":"2019-12-30 00"},"coordinates":[729,5169]},{"type":"Point","properties":{"Station_ID":"SD-MH-8","Station_Nam":"HARTFORD 6.4 S, SD","Latitude":"43.53128","Longitude":"-96.95020","Snowdepth":"5.000","Units":"in","Rept_Date":"2019-12-29 14"},"coordinates":[66,3597]},{"type":"Point","properties":{"Station_ID":"SD-BK-7","Station_Nam":"BROOKINGS 0.2 SSW, SD","Latitude":"44.30389","Longitude":"-96.78780","Snowdepth":"5.000","Units":"in","Rept_Date":"2019-12-29 13"},"coordinates":[103,4200]},{"type":"Point","properties":{"Station_ID":"SCSM5","Station_Nam":"ST CLOUD STATE","Latitude":"45.55100","Longitude":"-94.14950","Snowdepth":"5.000","Units":"in","Rept_Date":"2019-12-29 12"},"coordinates":[707,5175]},{"type":"Point","properties":{"Station_ID":"SAUW3","Station_Nam":"WAUSAU WSAW TV","Latitude":"44.94630","Longitude":"-89.62220","Snowdepth":"5.000","Units":"in","Rept_Date":"2019-12-30 05"},"coordinates":[1742,4702]},{"type":"Point","properties":{"Station_ID":"RGNM1","Station_Nam":"RANGELEY 2NW","Latitude":"44.98940","Longitude":"-70.67220","Snowdepth":"5.000","Units":"in","Rept_Date":"2019-12-29 15"},"coordinates":[6076,4736]},{"type":"Point","properties":{"Station_ID":"RANM1","Station_Nam":"RANGELEY,ME","Latitude":"44.96670","Longitude":"-70.65000","Snowdepth":"5.000","Units":"in","Rept_Date":"2019-12-29 15"},"coordinates":[6081,4718]},{"type":"Point","properties":{"Station_ID":"MRAM4","Station_Nam":"MORAN","Latitude":"45.99030","Longitude":"-84.83610","Snowdepth":"5.000","Units":"in","Rept_Date":"2019-12-29 13"},"coordinates":[2837,5518]},{"type":"Point","properties":{"Station_ID":"MNEY8CTB","Station_Nam":"MIDLAND JUNCTION 2.2 ENE","Latitude":"44.33041","Longitude":"-91.95891","Snowdepth":"5.000","Units":"in","Rept_Date":"2019-12-29 14"},"coordinates":[1208,4221]},{"type":"Point","properties":{"Station_ID":"MNCR4NWM","Station_Nam":"WINDOM 1.3 NNE","Latitude":"43.87817","Longitude":"-95.12003","Snowdepth":"5.000","Units":"in","Rept_Date":"2019-12-29 14"},"coordinates":[485,3868]},{"type":"Point","properties":{"Station_ID":"MN-MC-16","Station_Nam":"HUTCHINSON 0.1 ENE, MN","Latitude":"44.88633","Longitude":"-94.37503","Snowdepth":"5.000","Units":"in","Rept_Date":"2019-12-29 13"},"coordinates":[655,4655]},{"type":"Point","properties":{"Station_ID":"MN-HN-6","Station_Nam":"LONG LAKE 0.2 WSW, MN","Latitude":"44.98290","Longitude":"-93.57360","Snowdepth":"5.000","Units":"in","Rept_Date":"2019-12-29 13"},"coordinates":[838,4731]},{"type":"Point","properties":{"Station_ID":"MI-OT-17","Station_Nam":"GAYLORD 4.1 S, MI","Latitude":"44.96388","Longitude":"-84.68467","Snowdepth":"5.000","Units":"in","Rept_Date":"2019-12-29 13"},"coordinates":[2871,4716]},{"type":"Point","properties":{"Station_ID":"LPLN6","Station_Nam":"LAKE PLACID 2 S","Latitude":"44.30420","Longitude":"-73.98390","Snowdepth":"5.000","Units":"in","Rept_Date":"2019-12-29 13"},"coordinates":[5319,4201]},{"type":"Point","properties":{"Station_ID":"LBKV1","Station_Nam":"LYE BROOK","Latitude":"43.05000","Longitude":"-73.03330","Snowdepth":"5.000","Units":"in","Rept_Date":"2019-12-30 06"},"coordinates":[5536,3221]},{"type":"Point","properties":{"Station_ID":"HYTS2","Station_Nam":"HAYTI 1W","Latitude":"44.66330","Longitude":"-97.22670","Snowdepth":"5.000","Units":"in","Rept_Date":"2019-12-29 14"},"coordinates":[3,4481]},{"type":"Point","properties":{"Station_ID":"GHMN3","Station_Nam":"PINKHAM NOTCH","Latitude":"44.25800","Longitude":"-71.25250","Snowdepth":"5.000","Units":"in","Rept_Date":"2019-12-29 09"},"coordinates":[5943,4165]},{"type":"Point","properties":{"Station_ID":"EPTW3","Station_Nam":"EAU PLEINE TENDER","Latitude":"44.77220","Longitude":"-89.76720","Snowdepth":"5.000","Units":"in","Rept_Date":"2019-12-29 13"},"coordinates":[1709,4566]},{"type":"Point","properties":{"Station_ID":"CORV1","Station_Nam":"CORINTH","Latitude":"44.00690","Longitude":"-72.31940","Snowdepth":"5.000","Units":"in","Rept_Date":"2019-12-29 12"},"coordinates":[5699,3968]},{"type":"Point","properties":{"Station_ID":"BREW3","Station_Nam":"SURING","Latitude":"44.99580","Longitude":"-88.37860","Snowdepth":"5.000","Units":"in","Rept_Date":"2019-12-29 11"},"coordinates":[2026,4741]},{"type":"Point","properties":{"Station_ID":"BRDM1","Station_Nam":"BRIDGEWATER","Latitude":"46.42870","Longitude":"-67.84370","Snowdepth":"5.000","Units":"in","Rept_Date":"2019-12-29 23"},"coordinates":[6723,5860]},{"type":"Point","properties":{"Station_ID":"VT-OL-1","Station_Nam":"WESTFIELD 0.7 WNW, VT","Latitude":"44.89160","Longitude":"-72.44350","Snowdepth":"4.500","Units":"in","Rept_Date":"2019-12-29 13"},"coordinates":[5671,4660]},{"type":"Point","properties":{"Station_ID":"MI-CP-14","Station_Nam":"SAULT STE. MARIE 2.2 E, MI","Latitude":"46.48933","Longitude":"-84.31971","Snowdepth":"4.500","Units":"in","Rept_Date":"2019-12-29 13"},"coordinates":[2955,5908]},{"type":"Point","properties":{"Station_ID":"ME-PN-45","Station_Nam":"MILLINOCKET 2.7 ESE, ME","Latitude":"45.65002","Longitude":"-68.64472","Snowdepth":"4.500","Units":"in","Rept_Date":"2019-12-29 12"},"coordinates":[6540,5252]},{"type":"Point","properties":{"Station_ID":"WNNM5","Station_Nam":"WINNEBAGO","Latitude":"43.76920","Longitude":"-94.18730","Snowdepth":"4.000","Units":"in","Rept_Date":"2019-12-29 14"},"coordinates":[698,3783]},{"type":"Point","properties":{"Station_ID":"WI-PC-5","Station_Nam":"RIVER FALLS 1.2 SSW, WI","Latitude":"44.84032","Longitude":"-92.63500","Snowdepth":"4.000","Units":"in","Rept_Date":"2019-12-29 13"},"coordinates":[1053,4620]},{"type":"Point","properties":{"Station_ID":"VT-OG-11","Station_Nam":"VERSHIRE 1.5 ESE, VT","Latitude":"43.96138","Longitude":"-72.29777","Snowdepth":"4.000","Units":"in","Rept_Date":"2019-12-29 11"},"coordinates":[5704,3933]},{"type":"Point","properties":{"Station_ID":"SD-BK-2","Station_Nam":"ASTORIA 2.2 SSE, SD","Latitude":"44.53093","Longitude":"-96.52270","Snowdepth":"4.000","Units":"in","Rept_Date":"2019-12-29 13"},"coordinates":[164,4378]},{"type":"Point","properties":{"Station_ID":"PBAN8","Station_Nam":"SITE 1-3MI.N","Latitude":"48.97420","Longitude":"-97.23860","Snowdepth":"4.000","Units":"in","Rept_Date":"2019-12-29 13"},"coordinates":[0,7849]},{"type":"Point","properties":{"Station_ID":"NH-CS-4","Station_Nam":"PITTSBURG 6.1 NE, NH","Latitude":"45.11060","Longitude":"-71.29760","Snowdepth":"4.000","Units":"in","Rept_Date":"2019-12-29 12"},"coordinates":[5933,4831]},{"type":"Point","properties":{"Station_ID":"MWN","Station_Nam":"MOUNT WASHINGTON","Latitude":"44.26670","Longitude":"-71.30000","Snowdepth":"4.000","Units":"in","Rept_Date":"2019-12-30 05"},"coordinates":[5932,4171]},{"type":"Point","properties":{"Station_ID":"MRQM4","Station_Nam":"MARQUETTE WFP","Latitude":"46.54580","Longitude":"-87.37950","Snowdepth":"4.000","Units":"in","Rept_Date":"2019-12-29 13"},"coordinates":[2255,5952]},{"type":"Point","properties":{"Station_ID":"MRAM5","Station_Nam":"MORA","Latitude":"45.87760","Longitude":"-93.31470","Snowdepth":"4.000","Units":"in","Rept_Date":"2019-12-29 13"},"coordinates":[897,5430]},{"type":"Point","properties":{"Station_ID":"MPXM5","Station_Nam":"CHANHASSEN WSFO","Latitude":"44.84960","Longitude":"-93.56440","Snowdepth":"4.000","Units":"in","Rept_Date":"2019-12-30 06"},"coordinates":[840,4627]},{"type":"Point","properties":{"Station_ID":"MNHMOECS","Station_Nam":"HAZELTINE 1.9 NE","Latitude":"44.85545","Longitude":"-93.57125","Snowdepth":"4.000","Units":"in","Rept_Date":"2019-12-29 12"},"coordinates":[839,4631]},{"type":"Point","properties":{"Station_ID":"MN-SC-2","Station_Nam":"PRIOR LAKE 2.0 W, MN","Latitude":"44.71250","Longitude":"-93.46360","Snowdepth":"4.000","Units":"in","Rept_Date":"2019-12-29 12"},"coordinates":[863,4520]},{"type":"Point","properties":{"Station_ID":"MN-CV-40","Station_Nam":"EXCELSIOR 0.8 S, MN","Latitude":"44.88996","Longitude":"-93.56646","Snowdepth":"4.000","Units":"in","Rept_Date":"2019-12-29 13"},"coordinates":[840,4658]},{"type":"Point","properties":{"Station_ID":"MN-CV-22","Station_Nam":"VICTORIA 1.6 WSW, MN","Latitude":"44.85670","Longitude":"-93.68640","Snowdepth":"4.000","Units":"in","Rept_Date":"2019-12-29 13"},"coordinates":[812,4632]},{"type":"Point","properties":{"Station_ID":"MN-AA-76","Station_Nam":"NOWTHEN 2.9 SSE, MN","Latitude":"45.30360","Longitude":"-93.42620","Snowdepth":"4.000","Units":"in","Rept_Date":"2019-12-29 14"},"coordinates":[872,4981]},{"type":"Point","properties":{"Station_ID":"MI-DL-1","Station_Nam":"GARDEN CORNERS 0.8 NW, MI","Latitude":"45.89815","Longitude":"-86.54850","Snowdepth":"4.000","Units":"in","Rept_Date":"2019-12-29 13"},"coordinates":[2445,5446]},{"type":"Point","properties":{"Station_ID":"MI-CX-7","Station_Nam":"EAST JORDAN 2.1 NNW, MI","Latitude":"45.18639","Longitude":"-85.14750","Snowdepth":"4.000","Units":"in","Rept_Date":"2019-12-29 13"},"coordinates":[2765,4890]},{"type":"Point","properties":{"Station_ID":"ME-FR-4","Station_Nam":"NEW SHARON 2.0 NW, ME","Latitude":"44.66582","Longitude":"-70.02720","Snowdepth":"4.000","Units":"in","Rept_Date":"2019-12-29 12"},"coordinates":[6224,4483]},{"type":"Point","properties":{"Station_ID":"LUCW3","Station_Nam":"LUCK","Latitude":"45.57330","Longitude":"-92.48520","Snowdepth":"4.000","Units":"in","Rept_Date":"2019-12-29 16"},"coordinates":[1087,5192]},{"type":"Point","properties":{"Station_ID":"LILM1","Station_Nam":"LILLE","Latitude":"47.27770","Longitude":"-68.10520","Snowdepth":"4.000","Units":"in","Rept_Date":"2019-12-29 12"},"coordinates":[6663,6523]},{"type":"Point","properties":{"Station_ID":"KMWN","Station_Nam":"MOUNT WASHINGTON","Latitude":"44.26666","Longitude":"-71.30000","Snowdepth":"4.000","Units":"in","Rept_Date":"2019-12-30 06"},"coordinates":[5932,4171]},{"type":"Point","properties":{"Station_ID":"JIMW3","Station_Nam":"JIM FALLS 3NW","Latitude":"45.08270","Longitude":"-91.33130","Snowdepth":"4.000","Units":"in","Rept_Date":"2019-12-29 12"},"coordinates":[1351,4809]},{"type":"Point","properties":{"Station_ID":"JEFN3","Station_Nam":"JEFFERSON","Latitude":"44.41690","Longitude":"-71.50080","Snowdepth":"4.000","Units":"in","Rept_Date":"2019-12-29 12"},"coordinates":[5886,4289]},{"type":"Point","properties":{"Station_ID":"GDCM4","Station_Nam":"GARDEN CORNERS","Latitude":"45.89830","Longitude":"-86.54850","Snowdepth":"4.000","Units":"in","Rept_Date":"2019-12-29 13"},"coordinates":[2445,5446]},{"type":"Point","properties":{"Station_ID":"FSDS2","Station_Nam":"SIOUX FALLS NWS WFO AP","Latitude":"43.58780","Longitude":"-96.73000","Snowdepth":"4.000","Units":"in","Rept_Date":"2019-12-30 06"},"coordinates":[116,3641]},{"type":"Point","properties":{"Station_ID":"FORM5","Station_Nam":"FOREST LAKE 5NE","Latitude":"45.33170","Longitude":"-92.89820","Snowdepth":"4.000","Units":"in","Rept_Date":"2019-12-29 14"},"coordinates":[993,5003]},{"type":"Point","properties":{"Station_ID":"ELRW3","Station_Nam":"EAU CLAIRE 3SW","Latitude":"44.78780","Longitude":"-91.51650","Snowdepth":"4.000","Units":"in","Rept_Date":"2019-12-30 06"},"coordinates":[1309,4579]},{"type":"Point","properties":{"Station_ID":"EJNM4","Station_Nam":"EAST JORDAN 2NW","Latitude":"45.18630","Longitude":"-85.14770","Snowdepth":"4.000","Units":"in","Rept_Date":"2019-12-29 13"},"coordinates":[2765,4890]},{"type":"Point","properties":{"Station_ID":"CHES2","Station_Nam":"CHESTER 2N","Latitude":"43.92830","Longitude":"-96.93160","Snowdepth":"4.000","Units":"in","Rept_Date":"2019-12-29 13"},"coordinates":[70,3907]},{"type":"Point","properties":{"Station_ID":"CARM1","Station_Nam":"CARIBOU WFO","Latitude":"46.86810","Longitude":"-68.01250","Snowdepth":"4.000","Units":"in","Rept_Date":"2019-12-30 05"},"coordinates":[6684,6204]},{"type":"Point","properties":{"Station_ID":"CAN-PE-36","Station_Nam":"SPRING VALLEY 1.5 SE - MCPEI, CAN","Latitude":"46.48997","Longitude":"-63.61226","Snowdepth":"3.900","Units":"in","Rept_Date":"2019-12-29 12"},"coordinates":[7691,5908]},{"type":"Point","properties":{"Station_ID":"CAN-ON-757","Station_Nam":"SAULT STE. MARIE 2.8 ESE - GLFC, CAN","Latitude":"46.50300","Longitude":"-84.30300","Snowdepth":"3.900","Units":"in","Rept_Date":"2019-12-29 13"},"coordinates":[2959,5918]},{"type":"Point","properties":{"Station_ID":"MN-HN-72","Station_Nam":"MAPLE GROVE 2.9 NE, MN","Latitude":"45.13953","Longitude":"-93.42070","Snowdepth":"3.800","Units":"in","Rept_Date":"2019-12-29 14"},"coordinates":[873,4853]},{"type":"Point","properties":{"Station_ID":"WI-EC-18","Station_Nam":"EAU CLAIRE 2.3 W, WI","Latitude":"44.82657","Longitude":"-91.53788","Snowdepth":"3.500","Units":"in","Rept_Date":"2019-12-29 11"},"coordinates":[1304,4609]},{"type":"Point","properties":{"Station_ID":"VT-WH-29","Station_Nam":"BRATTLEBORO 0.7 S, VT","Latitude":"42.84030","Longitude":"-72.55580","Snowdepth":"3.500","Units":"in","Rept_Date":"2019-12-29 12"},"coordinates":[5645,3057]},{"type":"Point","properties":{"Station_ID":"MN-WG-33","Station_Nam":"COTTAGE GROVE 1.6 NNW, MN","Latitude":"44.83821","Longitude":"-92.93590","Snowdepth":"3.500","Units":"in","Rept_Date":"2019-12-29 13"},"coordinates":[984,4618]},{"type":"Point","properties":{"Station_ID":"MN-RM-54","Station_Nam":"SAINT PAUL 5.1 SW, MN","Latitude":"44.90390","Longitude":"-93.18820","Snowdepth":"3.500","Units":"in","Rept_Date":"2019-12-29 13"},"coordinates":[926,4669]},{"type":"Point","properties":{"Station_ID":"MN-GH-28","Station_Nam":"CANNON FALLS 0.5 SE, MN","Latitude":"44.50866","Longitude":"-92.89526","Snowdepth":"3.500","Units":"in","Rept_Date":"2019-12-29 14"},"coordinates":[993,4360]},{"type":"Point","properties":{"Station_ID":"MN-FM-10","Station_Nam":"WYKOFF 3.1 NW, MN","Latitude":"43.74340","Longitude":"-92.30650","Snowdepth":"3.500","Units":"in","Rept_Date":"2019-12-29 13"},"coordinates":[1128,3763]},{"type":"Point","properties":{"Station_ID":"MI-CP-7","Station_Nam":"DRUMMOND 2.9 NE, MI","Latitude":"46.05329","Longitude":"-83.69060","Snowdepth":"3.500","Units":"in","Rept_Date":"2019-12-29 14"},"coordinates":[3099,5567]},{"type":"Point","properties":{"Station_ID":"CAN-NS-103","Station_Nam":"TRAFALGAR 4.9 WSW, CAN","Latitude":"45.26217","Longitude":"-62.72285","Snowdepth":"3.500","Units":"in","Rept_Date":"2019-12-29 12"},"coordinates":[7894,4949]},{"type":"Point","properties":{"Station_ID":"WI-PT-8","Station_Nam":"RUDOLPH 2.1 NNE, WI","Latitude":"44.52553","Longitude":"-89.78677","Snowdepth":"3.000","Units":"in","Rept_Date":"2019-12-29 11"},"coordinates":[1704,4374]},{"type":"Point","properties":{"Station_ID":"WI-PK-4","Station_Nam":"DRESSER 6.1 ESE, WI","Latitude":"45.32436","Longitude":"-92.52080","Snowdepth":"3.000","Units":"in","Rept_Date":"2019-12-29 14"},"coordinates":[1079,4998]},{"type":"Point","properties":{"Station_ID":"WI-PC-10","Station_Nam":"RIVER FALLS 1.4 S, WI","Latitude":"44.83580","Longitude":"-92.62100","Snowdepth":"3.000","Units":"in","Rept_Date":"2019-12-29 13"},"coordinates":[1056,4616]},{"type":"Point","properties":{"Station_ID":"WDSV1","Station_Nam":"WOODSTOCK","Latitude":"43.63030","Longitude":"-72.50720","Snowdepth":"3.000","Units":"in","Rept_Date":"2019-12-29 13"},"coordinates":[5656,3674]},{"type":"Point","properties":{"Station_ID":"WACM5","Station_Nam":"WACONIA","Latitude":"44.85330","Longitude":"-93.80260","Snowdepth":"3.000","Units":"in","Rept_Date":"2019-12-29 13"},"coordinates":[786,4630]},{"type":"Point","properties":{"Station_ID":"WABM5","Station_Nam":"WABASHA","Latitude":"44.38500","Longitude":"-92.04860","Snowdepth":"3.000","Units":"in","Rept_Date":"2019-12-29 13"},"coordinates":[1187,4264]},{"type":"Point","properties":{"Station_ID":"VT-WS-10","Station_Nam":"NORTHFIELD 1.5 N, VT","Latitude":"44.16986","Longitude":"-72.65200","Snowdepth":"3.000","Units":"in","Rept_Date":"2019-12-29 12"},"coordinates":[5623,4096]},{"type":"Point","properties":{"Station_ID":"VT-OL-9","Station_Nam":"GREENSBORO 2.1 NNW, VT","Latitude":"44.60528","Longitude":"-72.30940","Snowdepth":"3.000","Units":"in","Rept_Date":"2019-12-29 12"},"coordinates":[5702,4436]},{"type":"Point","properties":{"Station_ID":"VT-OL-12","Station_Nam":"GREENSBORO 3.9 NNE, VT","Latitude":"44.63100","Longitude":"-72.28000","Snowdepth":"3.000","Units":"in","Rept_Date":"2019-12-29 13"},"coordinates":[5708,4456]},{"type":"Point","properties":{"Station_ID":"VT-ES-1","Station_Nam":"GRANBY 1.4 NW, VT","Latitude":"44.58330","Longitude":"-71.77870","Snowdepth":"3.000","Units":"in","Rept_Date":"2019-12-29 12"},"coordinates":[5823,4419]},{"type":"Point","properties":{"Station_ID":"THLM5","Station_Nam":"THEILMAN 1SSW","Latitude":"44.28130","Longitude":"-92.19430","Snowdepth":"3.000","Units":"in","Rept_Date":"2019-12-29 13"},"coordinates":[1154,4183]},{"type":"Point","properties":{"Station_ID":"SUTV1","Station_Nam":"SUTTON","Latitude":"44.61220","Longitude":"-72.04810","Snowdepth":"3.000","Units":"in","Rept_Date":"2019-12-29 13"},"coordinates":[5761,4441]},{"type":"Point","properties":{"Station_ID":"STIM5","Station_Nam":"STILLWATER 2SW","Latitude":"45.04540","Longitude":"-92.85220","Snowdepth":"3.000","Units":"in","Rept_Date":"2019-12-29 14"},"coordinates":[1003,4780]},{"type":"Point","properties":{"Station_ID":"SHHN6","Station_Nam":"SCHOHARIE VILLAGE","Latitude":"42.66500","Longitude":"-74.30360","Snowdepth":"3.000","Units":"in","Rept_Date":"2019-12-29 12"},"coordinates":[5245,2920]},{"type":"Point","properties":{"Station_ID":"ROBW3","Station_Nam":"ROBERTS WWTP","Latitude":"44.97070","Longitude":"-92.56200","Snowdepth":"3.000","Units":"in","Rept_Date":"2019-12-29 14"},"coordinates":[1070,4721]},{"type":"Point","properties":{"Station_ID":"RFDM5","Station_Nam":"ROCKFORD","Latitude":"45.08960","Longitude":"-93.73990","Snowdepth":"3.000","Units":"in","Rept_Date":"2019-12-29 13"},"coordinates":[800,4814]},{"type":"Point","properties":{"Station_ID":"REWM5","Station_Nam":"REDWOOD FALLS","Latitude":"44.54850","Longitude":"-95.09980","Snowdepth":"3.000","Units":"in","Rept_Date":"2019-12-29 13"},"coordinates":[489,4392]},{"type":"Point","properties":{"Station_ID":"PIPM5","Station_Nam":"PIPESTONE,MN","Latitude":"44.01390","Longitude":"-96.32580","Snowdepth":"3.000","Units":"in","Rept_Date":"2019-12-29 14"},"coordinates":[209,3974]},{"type":"Point","properties":{"Station_ID":"PELW3","Station_Nam":"PELLA 3SE","Latitude":"44.73580","Longitude":"-88.73780","Snowdepth":"3.000","Units":"in","Rept_Date":"2019-12-29 11"},"coordinates":[1944,4538]},{"type":"Point","properties":{"Station_ID":"PEKN6","Station_Nam":"PECK LAKE","Latitude":"43.11500","Longitude":"-74.42360","Snowdepth":"3.000","Units":"in","Rept_Date":"2019-12-29 12"},"coordinates":[5218,3272]},{"type":"Point","properties":{"Station_ID":"NY-WR-10","Station_Nam":"WARRENSBURG 2.1 WNW, NY","Latitude":"43.51784","Longitude":"-73.81069","Snowdepth":"3.000","Units":"in","Rept_Date":"2019-12-29 13"},"coordinates":[5358,3586]},{"type":"Point","properties":{"Station_ID":"NY-FK-7","Station_Nam":"SARANAC LAKE 6.2 N, NY","Latitude":"44.41359","Longitude":"-74.15211","Snowdepth":"3.000","Units":"in","Rept_Date":"2019-12-29 13"},"coordinates":[5280,4286]},{"type":"Point","properties":{"Station_ID":"NUMN3","Station_Nam":"NORTHUMBERLAND","Latitude":"44.52830","Longitude":"-71.50440","Snowdepth":"3.000","Units":"in","Rept_Date":"2019-12-29 13"},"coordinates":[5886,4376]},{"type":"Point","properties":{"Station_ID":"NUMM5","Station_Nam":"NEW ULM 3SE","Latitude":"44.29450","Longitude":"-94.40840","Snowdepth":"3.000","Units":"in","Rept_Date":"2019-12-29 14"},"coordinates":[647,4193]},{"type":"Point","properties":{"Station_ID":"NH-MR-60","Station_Nam":"SOUTH SUTTON 1.3 SE, NH","Latitude":"43.29531","Longitude":"-71.90238","Snowdepth":"3.000","Units":"in","Rept_Date":"2019-12-29 13"},"coordinates":[5795,3413]},{"type":"Point","properties":{"Station_ID":"NH-MR-45","Station_Nam":"NORTHFIELD 2.8 E, NH","Latitude":"43.43945","Longitude":"-71.53730","Snowdepth":"3.000","Units":"in","Rept_Date":"2019-12-29 12"},"coordinates":[5878,3525]},{"type":"Point","properties":{"Station_ID":"NH-MR-4","Station_Nam":"BOW 1.6 NW, NH","Latitude":"43.14994","Longitude":"-71.55650","Snowdepth":"3.000","Units":"in","Rept_Date":"2019-12-29 13"},"coordinates":[5874,3299]},{"type":"Point","properties":{"Station_ID":"NCKN6","Station_Nam":"NORTH CREEK 5 SE","Latitude":"43.66110","Longitude":"-73.89690","Snowdepth":"3.000","Units":"in","Rept_Date":"2019-12-29 12"},"coordinates":[5338,3698]},{"type":"Point","properties":{"Station_ID":"MTQM4","Station_Nam":"MANISTIQUE WWTP","Latitude":"45.95120","Longitude":"-86.25130","Snowdepth":"3.000","Units":"in","Rept_Date":"2019-12-29 13"},"coordinates":[2513,5487]},{"type":"Point","properties":{"Station_ID":"MTOM5","Station_Nam":"MANKATO 4E","Latitude":"44.16730","Longitude":"-93.91020","Snowdepth":"3.000","Units":"in","Rept_Date":"2019-12-29 13"},"coordinates":[761,4094]},{"type":"Point","properties":{"Station_ID":"MRLV1","Station_Nam":"MARLBORO","Latitude":"42.86000","Longitude":"-72.72000","Snowdepth":"3.000","Units":"in","Rept_Date":"2019-12-29 13"},"coordinates":[5608,3073]},{"type":"Point","properties":{"Station_ID":"MNIMTS5D","Station_Nam":"ROCKFORD 0.2 SW","Latitude":"45.07964","Longitude":"-93.74464","Snowdepth":"3.000","Units":"in","Rept_Date":"2019-12-29 13"},"coordinates":[799,4806]},{"type":"Point","properties":{"Station_ID":"MNGLSURF","Station_Nam":"REDWOOD FALLS 0.8 NE","Latitude":"44.54864","Longitude":"-95.10639","Snowdepth":"3.000","Units":"in","Rept_Date":"2019-12-29 13"},"coordinates":[488,4392]},{"type":"Point","properties":{"Station_ID":"MNG28BBT","Station_Nam":"HENDERSON 0.6 SE","Latitude":"44.52188","Longitude":"-93.89863","Snowdepth":"3.000","Units":"in","Rept_Date":"2019-12-29 14"},"coordinates":[764,4371]},{"type":"Point","properties":{"Station_ID":"MNG0GYSN","Station_Nam":"LONSDALE 1.1 SSW","Latitude":"44.46445","Longitude":"-93.43293","Snowdepth":"3.000","Units":"in","Rept_Date":"2019-12-29 12"},"coordinates":[870,4326]},{"type":"Point","properties":{"Station_ID":"MNFF4VWA","Station_Nam":"WABASHA 0.8 SSW","Latitude":"44.37265","Longitude":"-92.04459","Snowdepth":"3.000","Units":"in","Rept_Date":"2019-12-29 13"},"coordinates":[1188,4254]},{"type":"Point","properties":{"Station_ID":"MNF74YNU","Station_Nam":"NEW ULM 3.3 ESE","Latitude":"44.29029","Longitude":"-94.40196","Snowdepth":"3.000","Units":"in","Rept_Date":"2019-12-29 11"},"coordinates":[649,4190]},{"type":"Point","properties":{"Station_ID":"MNE9SLWI","Station_Nam":"LEAVENWORTH 5.4 S","Latitude":"44.14481","Longitude":"-94.78882","Snowdepth":"3.000","Units":"in","Rept_Date":"2019-12-29 13"},"coordinates":[560,4076]},{"type":"Point","properties":{"Station_ID":"MNBNKQLL","Station_Nam":"LAKEFIELD 1.9 NE","Latitude":"43.69634","Longitude":"-95.14496","Snowdepth":"3.000","Units":"in","Rept_Date":"2019-12-29 13"},"coordinates":[479,3726]},{"type":"Point","properties":{"Station_ID":"MN-SR-24","Station_Nam":"PAYNESVILLE 1.9 SSW, MN","Latitude":"45.35170","Longitude":"-94.73120","Snowdepth":"3.000","Units":"in","Rept_Date":"2019-12-29 13"},"coordinates":[573,5019]},{"type":"Point","properties":{"Station_ID":"MN-HN-31","Station_Nam":"MAPLE GROVE 1.0 NNE, MN","Latitude":"45.12261","Longitude":"-93.45790","Snowdepth":"3.000","Units":"in","Rept_Date":"2019-12-29 16"},"coordinates":[865,4840]},{"type":"Point","properties":{"Station_ID":"MN-HN-30","Station_Nam":"PLYMOUTH 2.4 ENE, MN","Latitude":"45.04063","Longitude":"-93.41950","Snowdepth":"3.000","Units":"in","Rept_Date":"2019-12-29 14"},"coordinates":[873,4776]},{"type":"Point","properties":{"Station_ID":"MN-HN-19","Station_Nam":"EDINA 1.3 SW, MN","Latitude":"44.87830","Longitude":"-93.37890","Snowdepth":"3.000","Units":"in","Rept_Date":"2019-12-29 13"},"coordinates":[883,4649]},{"type":"Point","properties":{"Station_ID":"MN-CG-16","Station_Nam":"NORTH BRANCH 1.3 NNW, MN","Latitude":"45.53121","Longitude":"-92.97110","Snowdepth":"3.000","Units":"in","Rept_Date":"2019-12-29 12"},"coordinates":[976,5159]},{"type":"Point","properties":{"Station_ID":"MN-BW-8","Station_Nam":"COMFREY 6.5 ENE, MN","Latitude":"44.15109","Longitude":"-94.78516","Snowdepth":"3.000","Units":"in","Rept_Date":"2019-12-29 14"},"coordinates":[561,4081]},{"type":"Point","properties":{"Station_ID":"MI-OT-16","Station_Nam":"GAYLORD 2.2 SSE, MI","Latitude":"44.99441","Longitude":"-84.65820","Snowdepth":"3.000","Units":"in","Rept_Date":"2019-12-29 14"},"coordinates":[2877,4740]},{"type":"Point","properties":{"Station_ID":"MA-WR-22","Station_Nam":"FITCHBURG 2.0 NNE, MA","Latitude":"42.61671","Longitude":"-71.80100","Snowdepth":"3.000","Units":"in","Rept_Date":"2019-12-29 13"},"coordinates":[5818,2883]},{"type":"Point","properties":{"Station_ID":"MA-FR-13","Station_Nam":"CONWAY 2.9 NW, MA","Latitude":"42.54419","Longitude":"-72.72743","Snowdepth":"3.000","Units":"in","Rept_Date":"2019-12-29 13"},"coordinates":[5606,2826]},{"type":"Point","properties":{"Station_ID":"LKFM5","Station_Nam":"LAKEFIELD,MN","Latitude":"43.68330","Longitude":"-95.18330","Snowdepth":"3.000","Units":"in","Rept_Date":"2019-12-29 13"},"coordinates":[470,3716]},{"type":"Point","properties":{"Station_ID":"KINM1","Station_Nam":"KINGFIELD","Latitude":"44.95950","Longitude":"-70.17530","Snowdepth":"3.000","Units":"in","Rept_Date":"2019-12-29 12"},"coordinates":[6190,4713]},{"type":"Point","properties":{"Station_ID":"EAU","Station_Nam":"CHIPPEWA VALLEY REGIONAL AIRPORT","Latitude":"44.86650","Longitude":"-91.48790","Snowdepth":"3.000","Units":"in","Rept_Date":"2019-12-30 00"},"coordinates":[1315,4640]},{"type":"Point","properties":{"Station_ID":"VT-WS-15","Station_Nam":"EAST CALAIS 1.5 SW, VT","Latitude":"44.35523","Longitude":"-72.45540","Snowdepth":"2.500","Units":"in","Rept_Date":"2019-12-29 12"},"coordinates":[5668,4241]},{"type":"Point","properties":{"Station_ID":"VT-WR-2","Station_Nam":"POMFRET 2.6 N, VT","Latitude":"43.74230","Longitude":"-72.52550","Snowdepth":"2.500","Units":"in","Rept_Date":"2019-12-29 12"},"coordinates":[5652,3762]},{"type":"Point","properties":{"Station_ID":"SD-MH-41","Station_Nam":"SIOUX FALLS 3.9 SW, SD","Latitude":"43.50475","Longitude":"-96.78660","Snowdepth":"2.500","Units":"in","Rept_Date":"2019-12-29 13"},"coordinates":[103,3576]},{"type":"Point","properties":{"Station_ID":"NH-HL-48","Station_Nam":"GREENVILLE 1.1 ENE, NH","Latitude":"42.77674","Longitude":"-71.77990","Snowdepth":"2.500","Units":"in","Rept_Date":"2019-12-29 13"},"coordinates":[5823,3008]},{"type":"Point","properties":{"Station_ID":"NH-GR-49","Station_Nam":"PLYMOUTH 3.7 N, NH","Latitude":"43.79048","Longitude":"-71.68413","Snowdepth":"2.500","Units":"in","Rept_Date":"2019-12-29 12"},"coordinates":[5845,3799]},{"type":"Point","properties":{"Station_ID":"MN-MW-8","Station_Nam":"AUSTIN 2.4 W, MN","Latitude":"43.67190","Longitude":"-93.02280","Snowdepth":"2.500","Units":"in","Rept_Date":"2019-12-29 13"},"coordinates":[964,3707]},{"type":"Point","properties":{"Station_ID":"MN-DK-70","Station_Nam":"EAGAN 2.0 NNW, MN","Latitude":"44.84322","Longitude":"-93.17899","Snowdepth":"2.500","Units":"in","Rept_Date":"2019-12-29 15"},"coordinates":[928,4622]},{"type":"Point","properties":{"Station_ID":"CAN-NB-11","Station_Nam":"MIRAMICHI 3.3 S, CAN","Latitude":"46.99343","Longitude":"-65.50690","Snowdepth":"2.500","Units":"in","Rept_Date":"2019-12-29 10"},"coordinates":[7257,6301]},{"type":"Point","properties":{"Station_ID":"CAN-NS-163","Station_Nam":"SYDNEY MINES 2.2 WNW, CAN","Latitude":"46.24851","Longitude":"-60.25161","Snowdepth":"2.400","Units":"in","Rept_Date":"2019-12-29 12"},"coordinates":[8459,5720]},{"type":"Point","properties":{"Station_ID":"NY-CR-5","Station_Nam":"MARATHON 1.0 NW, NY","Latitude":"42.45161","Longitude":"-76.04370","Snowdepth":"2.300","Units":"in","Rept_Date":"2019-12-29 12"},"coordinates":[4847,2754]},{"type":"Point","properties":{"Station_ID":"MN-RM-2","Station_Nam":"NORTH SAINT PAUL 1.0 NNW, MN","Latitude":"45.02629","Longitude":"-93.00790","Snowdepth":"2.200","Units":"in","Rept_Date":"2019-12-29 13"},"coordinates":[968,4765]},{"type":"Point","properties":{"Station_ID":"WRNM5","Station_Nam":"WORTHINGTON,MN","Latitude":"43.65440","Longitude":"-95.57920","Snowdepth":"2.000","Units":"in","Rept_Date":"2019-12-29 13"},"coordinates":[380,3693]},{"type":"Point","properties":{"Station_ID":"WI-BN-6","Station_Nam":"SUAMICO 4.4 WNW, WI","Latitude":"44.66111","Longitude":"-88.11780","Snowdepth":"2.000","Units":"in","Rept_Date":"2019-12-29 13"},"coordinates":[2086,4480]},{"type":"Point","properties":{"Station_ID":"VT-OL-2","Station_Nam":"BARTON 3.0 ENE, VT","Latitude":"44.75863","Longitude":"-72.11680","Snowdepth":"2.000","Units":"in","Rept_Date":"2019-12-29 12"},"coordinates":[5746,4556]},{"type":"Point","properties":{"Station_ID":"VT-BN-3","Station_Nam":"LANDGROVE 1.1 NNE, VT","Latitude":"43.29092","Longitude":"-72.83260","Snowdepth":"2.000","Units":"in","Rept_Date":"2019-12-29 12"},"coordinates":[5582,3409]},{"type":"Point","properties":{"Station_ID":"VADM5","Station_Nam":"VADNAIS LAKE","Latitude":"45.04820","Longitude":"-93.09590","Snowdepth":"2.000","Units":"in","Rept_Date":"2019-12-29 20"},"coordinates":[947,4782]},{"type":"Point","properties":{"Station_ID":"STPW3","Station_Nam":"STEVENS POINT","Latitude":"44.51130","Longitude":"-89.58550","Snowdepth":"2.000","Units":"in","Rept_Date":"2019-12-29 12"},"coordinates":[1750,4363]},{"type":"Point","properties":{"Station_ID":"SHHW3","Station_Nam":"SHAWANO 2SSW","Latitude":"44.76310","Longitude":"-88.61830","Snowdepth":"2.000","Units":"in","Rept_Date":"2019-12-29 14"},"coordinates":[1972,4559]},{"type":"Point","properties":{"Station_ID":"SD-MH-1","Station_Nam":"SIOUX FALLS 5.0 SE ARPT, SD","Latitude":"43.52360","Longitude":"-96.66780","Snowdepth":"2.000","Units":"in","Rept_Date":"2019-12-29 13"},"coordinates":[131,3591]},{"type":"Point","properties":{"Station_ID":"SANI4","Station_Nam":"ST ANSGAR","Latitude":"43.38170","Longitude":"-92.92320","Snowdepth":"2.000","Units":"in","Rept_Date":"2019-12-29 12"},"coordinates":[987,3480]},{"type":"Point","properties":{"Station_ID":"RRVM4","Station_Nam":"RAPID RIVER 9S","Latitude":"45.78750","Longitude":"-86.93920","Snowdepth":"2.000","Units":"in","Rept_Date":"2019-12-29 15"},"coordinates":[2356,5359]},{"type":"Point","properties":{"Station_ID":"PTBN3","Station_Nam":"DAM WITHIN","Latitude":"45.05000","Longitude":"-71.38330","Snowdepth":"2.000","Units":"in","Rept_Date":"2019-12-29 12"},"coordinates":[5913,4783]},{"type":"Point","properties":{"Station_ID":"OCON6","Station_Nam":"OSCEOLA","Latitude":"43.49910","Longitude":"-75.71210","Snowdepth":"2.000","Units":"in","Rept_Date":"2019-12-29 12"},"coordinates":[4923,3572]},{"type":"Point","properties":{"Station_ID":"NH-RC-48","Station_Nam":"NORTHWOOD 2.9 WSW, NH","Latitude":"43.20114","Longitude":"-71.25750","Snowdepth":"2.000","Units":"in","Rept_Date":"2019-12-29 12"},"coordinates":[5942,3339]},{"type":"Point","properties":{"Station_ID":"NH-RC-18","Station_Nam":"DEERFIELD 3.2 WSW, NH","Latitude":"43.13350","Longitude":"-71.27940","Snowdepth":"2.000","Units":"in","Rept_Date":"2019-12-29 12"},"coordinates":[5937,3286]},{"type":"Point","properties":{"Station_ID":"NH-MR-55","Station_Nam":"CANTERBURY 2.5 SSW, NH","Latitude":"43.30277","Longitude":"-71.57893","Snowdepth":"2.000","Units":"in","Rept_Date":"2019-12-29 13"},"coordinates":[5869,3418]},{"type":"Point","properties":{"Station_ID":"NH-CR-41","Station_Nam":"ALBANY 2.8 SW, NH","Latitude":"43.92648","Longitude":"-71.21556","Snowdepth":"2.000","Units":"in","Rept_Date":"2019-12-29 13"},"coordinates":[5952,3906]},{"type":"Point","properties":{"Station_ID":"NCBN6","Station_Nam":"NEWCOMB","Latitude":"43.97070","Longitude":"-74.22200","Snowdepth":"2.000","Units":"in","Rept_Date":"2019-12-29 12"},"coordinates":[5264,3940]},{"type":"Point","properties":{"Station_ID":"MSP","Station_Nam":"MINNEAPOLIS-ST PAUL INTL AP","Latitude":"44.88310","Longitude":"-93.22890","Snowdepth":"2.000","Units":"in","Rept_Date":"2019-12-30 00"},"coordinates":[917,4653]},{"type":"Point","properties":{"Station_ID":"MN0HS1SL","Station_Nam":"NORTH SAINT PAUL 1.6 NW","Latitude":"45.02800","Longitude":"-93.01506","Snowdepth":"2.000","Units":"in","Rept_Date":"2019-12-29 13"},"coordinates":[966,4766]},{"type":"Point","properties":{"Station_ID":"MN0GWSNW","Station_Nam":"LAKE ELMO 2.9 SE","Latitude":"44.97220","Longitude":"-92.83065","Snowdepth":"2.000","Units":"in","Rept_Date":"2019-12-29 13"},"coordinates":[1008,4723]},{"type":"Point","properties":{"Station_ID":"MN-WG-74","Station_Nam":"OAKDALE 0.4 S, MN","Latitude":"44.98208","Longitude":"-92.96510","Snowdepth":"2.000","Units":"in","Rept_Date":"2019-12-29 13"},"coordinates":[977,4730]},{"type":"Point","properties":{"Station_ID":"MN-SE-2","Station_Nam":"OWATONNA 0.8 E, MN","Latitude":"44.09170","Longitude":"-93.21380","Snowdepth":"2.000","Units":"in","Rept_Date":"2019-12-29 13"},"coordinates":[921,4035]},{"type":"Point","properties":{"Station_ID":"MN-RM-63","Station_Nam":"NORTH SAINT PAUL 1.0 NW, MN","Latitude":"45.02410","Longitude":"-93.01400","Snowdepth":"2.000","Units":"in","Rept_Date":"2019-12-29 13"},"coordinates":[966,4763]},{"type":"Point","properties":{"Station_ID":"MN-RC-1","Station_Nam":"MONTGOMERY 3.2 ENE, MN","Latitude":"44.46400","Longitude":"-93.51980","Snowdepth":"2.000","Units":"in","Rept_Date":"2019-12-29 12"},"coordinates":[851,4326]},{"type":"Point","properties":{"Station_ID":"MN-HN-78","Station_Nam":"RICHFIELD 1.9 WNW, MN","Latitude":"44.89129","Longitude":"-93.31410","Snowdepth":"2.000","Units":"in","Rept_Date":"2019-12-29 11"},"coordinates":[898,4659]},{"type":"Point","properties":{"Station_ID":"MN-GH-4","Station_Nam":"NERSTRAND 4.2 E, MN","Latitude":"44.34247","Longitude":"-92.97920","Snowdepth":"2.000","Units":"in","Rept_Date":"2019-12-29 13"},"coordinates":[974,4231]},{"type":"Point","properties":{"Station_ID":"MMLM5","Station_Nam":"DIVERSION","Latitude":"44.47060","Longitude":"-95.80000","Snowdepth":"2.000","Units":"in","Rept_Date":"2019-12-29 15"},"coordinates":[329,4331]},{"type":"Point","properties":{"Station_ID":"MI-OT-4","Station_Nam":"GAYLORD 1.7 WNW, MI","Latitude":"45.03280","Longitude":"-84.71090","Snowdepth":"2.000","Units":"in","Rept_Date":"2019-12-29 13"},"coordinates":[2865,4770]},{"type":"Point","properties":{"Station_ID":"ME-PN-48","Station_Nam":"LOWELL 0.1 SW, ME","Latitude":"45.21149","Longitude":"-68.47496","Snowdepth":"2.000","Units":"in","Rept_Date":"2019-12-29 12"},"coordinates":[6579,4909]},{"type":"Point","properties":{"Station_ID":"LAKM5","Station_Nam":"LAKE CITY","Latitude":"44.43630","Longitude":"-92.27930","Snowdepth":"2.000","Units":"in","Rept_Date":"2019-12-29 13"},"coordinates":[1134,4304]},{"type":"Point","properties":{"Station_ID":"KMSP","Station_Nam":"MINNEAPOLIS-ST PAUL INTERNATIONAL","Latitude":"44.86666","Longitude":"-93.21666","Snowdepth":"2.000","Units":"in","Rept_Date":"2019-12-30 00"},"coordinates":[920,4640]},{"type":"Point","properties":{"Station_ID":"JORM5","Station_Nam":"JORDAN 1SSW","Latitude":"44.65010","Longitude":"-93.63560","Snowdepth":"2.000","Units":"in","Rept_Date":"2019-12-29 11"},"coordinates":[824,4471]},{"type":"Point","properties":{"Station_ID":"JKMM1","Station_Nam":"JACKMAN","Latitude":"45.62600","Longitude":"-70.24600","Snowdepth":"2.000","Units":"in","Rept_Date":"2019-12-29 12"},"coordinates":[6173,5233]},{"type":"Point","properties":{"Station_ID":"JAPN3","Station_Nam":"JAFFREY SILVER RANCH AIRPARK","Latitude":"42.80880","Longitude":"-72.00530","Snowdepth":"2.000","Units":"in","Rept_Date":"2019-12-29 12"},"coordinates":[5771,3033]},{"type":"Point","properties":{"Station_ID":"INDN6","Station_Nam":"INDIAN LAKE","Latitude":"43.75500","Longitude":"-74.27560","Snowdepth":"2.000","Units":"in","Rept_Date":"2019-12-29 14"},"coordinates":[5252,3772]},{"type":"Point","properties":{"Station_ID":"GILV1","Station_Nam":"GILMAN","Latitude":"44.41120","Longitude":"-71.71860","Snowdepth":"2.000","Units":"in","Rept_Date":"2019-12-29 11"},"coordinates":[5837,4284]},{"type":"Point","properties":{"Station_ID":"GAYM4","Station_Nam":"GAYLORD","Latitude":"45.03320","Longitude":"-84.71130","Snowdepth":"2.000","Units":"in","Rept_Date":"2019-12-29 13"},"coordinates":[2865,4770]},{"type":"Point","properties":{"Station_ID":"FSD","Station_Nam":"SIOUX FALLS, SD","Latitude":"43.58750","Longitude":"-96.72940","Snowdepth":"2.000","Units":"in","Rept_Date":"2019-12-29 13"},"coordinates":[116,3641]},{"type":"Point","properties":{"Station_ID":"ESGM1","Station_Nam":"EAST SANGERVILLE","Latitude":"45.13690","Longitude":"-69.28060","Snowdepth":"2.000","Units":"in","Rept_Date":"2019-12-29 12"},"coordinates":[6394,4851]},{"type":"Point","properties":{"Station_ID":"EHYM3","Station_Nam":"EAST HAWLEY","Latitude":"42.57410","Longitude":"-72.86790","Snowdepth":"2.000","Units":"in","Rept_Date":"2019-12-29 13"},"coordinates":[5574,2849]},{"type":"Point","properties":{"Station_ID":"DTVM4","Station_Nam":"DETOUR VILLAGE","Latitude":"45.99830","Longitude":"-83.90130","Snowdepth":"2.000","Units":"in","Rept_Date":"2019-12-29 13"},"coordinates":[3050,5524]},{"type":"Point","properties":{"Station_ID":"DLSN6","Station_Nam":"DELANSON 2NE","Latitude":"42.76720","Longitude":"-74.17110","Snowdepth":"2.000","Units":"in","Rept_Date":"2019-12-29 12"},"coordinates":[5276,3000]},{"type":"Point","properties":{"Station_ID":"DEMS2","Station_Nam":"SIOUX FALLS 5SE FSD ARPT","Latitude":"43.52690","Longitude":"-96.66830","Snowdepth":"2.000","Units":"in","Rept_Date":"2019-12-29 13"},"coordinates":[130,3594]},{"type":"Point","properties":{"Station_ID":"CVZW3","Station_Nam":"WISCONSIN PUBLIC SERVICE","Latitude":"45.23530","Longitude":"-88.01360","Snowdepth":"2.000","Units":"in","Rept_Date":"2019-12-29 13"},"coordinates":[2110,4928]},{"type":"Point","properties":{"Station_ID":"CORM1","Station_Nam":"CORINNA","Latitude":"44.91980","Longitude":"-69.24180","Snowdepth":"2.000","Units":"in","Rept_Date":"2019-12-29 12"},"coordinates":[6403,4682]},{"type":"Point","properties":{"Station_ID":"CON","Station_Nam":"CONCORD MUNI ARPT","Latitude":"43.20280","Longitude":"-71.50220","Snowdepth":"2.000","Units":"in","Rept_Date":"2019-12-29 12"},"coordinates":[5886,3340]},{"type":"Point","properties":{"Station_ID":"CNNS2","Station_Nam":"CANTON","Latitude":"43.31120","Longitude":"-96.58770","Snowdepth":"2.000","Units":"in","Rept_Date":"2019-12-29 14"},"coordinates":[149,3425]},{"type":"Point","properties":{"Station_ID":"CAN-PE-10","Station_Nam":"NEW LONDON 1.6 ENE, CA","Latitude":"46.46985","Longitude":"-63.49200","Snowdepth":"2.000","Units":"in","Rept_Date":"2019-12-29 12"},"coordinates":[7718,5892]},{"type":"Point","properties":{"Station_ID":"CAN-NS-159","Station_Nam":"NORTHPORT 0.1 NE, CAN","Latitude":"45.93299","Longitude":"-63.86711","Snowdepth":"2.000","Units":"in","Rept_Date":"2019-12-29 11"},"coordinates":[7632,5473]},{"type":"Point","properties":{"Station_ID":"CAN-NB-18","Station_Nam":"MCLEOD HILL 1.1 ENE, CA","Latitude":"46.02725","Longitude":"-66.67460","Snowdepth":"2.000","Units":"in","Rept_Date":"2019-12-29 12"},"coordinates":[6990,5547]},{"type":"Point","properties":{"Station_ID":"BLKW3","Station_Nam":"BLACK RIVER FALLS SEWAGE","Latitude":"44.29040","Longitude":"-90.85360","Snowdepth":"2.000","Units":"in","Rept_Date":"2019-12-29 14"},"coordinates":[1460,4190]},{"type":"Point","properties":{"Station_ID":"AMDW3","Station_Nam":"ALMOND-5 NE","Latitude":"44.30830","Longitude":"-89.34640","Snowdepth":"2.000","Units":"in","Rept_Date":"2019-12-29 14"},"coordinates":[1805,4204]},{"type":"Point","properties":{"Station_ID":"ALTM5","Station_Nam":"ALTURA 5W","Latitude":"44.06330","Longitude":"-92.03970","Snowdepth":"2.000","Units":"in","Rept_Date":"2019-12-29 13"},"coordinates":[1189,4013]},{"type":"Point","properties":{"Station_ID":"NH-BK-29","Station_Nam":"SANBORNTON 2.3 WNW, NH","Latitude":"43.49730","Longitude":"-71.62800","Snowdepth":"1.800","Units":"in","Rept_Date":"2019-12-29 12"},"coordinates":[5857,3570]},{"type":"Point","properties":{"Station_ID":"CAN-ON-120","Station_Nam":"DUNROBIN 5.8 NE MIVCA, CA","Latitude":"45.46243","Longitude":"-75.97120","Snowdepth":"1.600","Units":"in","Rept_Date":"2019-12-29 12"},"coordinates":[4864,5105]},{"type":"Point","properties":{"Station_ID":"CAN-NB-96","Station_Nam":"SAINT-IGNACE 2.6 NE, CAN","Latitude":"46.71424","Longitude":"-65.05609","Snowdepth":"1.600","Units":"in","Rept_Date":"2019-12-29 11"},"coordinates":[7360,6083]},{"type":"Point","properties":{"Station_ID":"VT-WS-30","Station_Nam":"WOODBURY 3.4 NNW, VT","Latitude":"44.48825","Longitude":"-72.43258","Snowdepth":"1.500","Units":"in","Rept_Date":"2019-12-29 12"},"coordinates":[5673,4345]},{"type":"Point","properties":{"Station_ID":"VT-CL-23","Station_Nam":"RYEGATE 1.5 N, VT","Latitude":"44.23024","Longitude":"-72.10523","Snowdepth":"1.500","Units":"in","Rept_Date":"2019-12-29 12"},"coordinates":[5748,4143]},{"type":"Point","properties":{"Station_ID":"NY-ES-6","Station_Nam":"OLMSTEDVILLE 4.6 NNE, NY","Latitude":"43.83350","Longitude":"-73.89780","Snowdepth":"1.500","Units":"in","Rept_Date":"2019-12-29 13"},"coordinates":[5338,3833]},{"type":"Point","properties":{"Station_ID":"NH-GR-47","Station_Nam":"LITTLETON 7.3 W, NH","Latitude":"44.31847","Longitude":"-71.91086","Snowdepth":"1.500","Units":"in","Rept_Date":"2019-12-29 13"},"coordinates":[5793,4212]},