{"type":"Topology","objects":{"snowdepth_geo":{"type":"GeometryCollection","name":"snowdepth","crs":{"type":"name","properties":{"name":"urn:ogc:def:crs:OGC:1.3:CRS84"}},"geometries":[{"type":"Point","properties":{"Station_ID":"PRKM4","Station_Nam":"MUNISING EAST","Latitude":"46.42580","Longitude":"-86.62000","Snowdepth":"76.500","Units":"in","Rept_Date":"2020-12-27 06"},"coordinates":[3525,6892]},{"type":"Point","properties":{"Station_ID":"PA-WT-42","Station_Nam":"LIGONIER 0.1 SE, PA","Latitude":"40.24319","Longitude":"-79.23526","Snowdepth":"35.000","Units":"in","Rept_Date":"2020-12-26 12"},"coordinates":[5977,3269]},{"type":"Point","properties":{"Station_ID":"42.0231_080.0856","Station_Nam":"3 ENE McKean  Trained Spotter (X4200801)","Latitude":"42.02314","Longitude":"-80.08558","Snowdepth":"31.000","Units":"in","Rept_Date":"2020-12-27 00"},"coordinates":[5695,4312]},{"type":"Point","properties":{"Station_ID":"42.0131_080.3276","Station_Nam":"1 NNW Girard  Trained Spotter (CLE0196)","Latitude":"42.01312","Longitude":"-80.32758","Snowdepth":"31.000","Units":"in","Rept_Date":"2020-12-26 09"},"coordinates":[5614,4306]},{"type":"Point","properties":{"Station_ID":"41.8791_080.8570","Station_Nam":"2 WSW Harbor  Trained Spotter (CLE1475)","Latitude":"41.87906","Longitude":"-80.85702","Snowdepth":"29.000","Units":"in","Rept_Date":"2020-12-26 11"},"coordinates":[5439,4228]},{"type":"Point","properties":{"Station_ID":"OH-AB-13","Station_Nam":"ASHTABULA 1.2 ESE, OH","Latitude":"41.87478","Longitude":"-80.77541","Snowdepth":"28.000","Units":"in","Rept_Date":"2020-12-26 12"},"coordinates":[5466,4225]},{"type":"Point","properties":{"Station_ID":"AUDQ6","Station_Nam":"AUDEN","Latitude":"48.52600","Longitude":"-82.57570","Snowdepth":"26.020","Units":"in","Rept_Date":"2020-12-27 06"},"coordinates":[4868,8123]},{"type":"Point","properties":{"Station_ID":"TRIQ6","Station_Nam":"TRIO LAKE","Latitude":"49.22880","Longitude":"-87.22920","Snowdepth":"25.870","Units":"in","Rept_Date":"2020-12-27 06"},"coordinates":[3323,8535]},{"type":"Point","properties":{"Station_ID":"PTLQ6","Station_Nam":"PORTAGE LAKE","Latitude":"49.06950","Longitude":"-86.65940","Snowdepth":"23.820","Units":"in","Rept_Date":"2020-12-27 06"},"coordinates":[3512,8442]},{"type":"Point","properties":{"Station_ID":"41.7685_081.0699","Station_Nam":"1 WSW Madison  Trained Spotter (CLE1252)","Latitude":"41.76851","Longitude":"-81.06988","Snowdepth":"22.000","Units":"in","Rept_Date":"2020-12-26 11"},"coordinates":[5368,4163]},{"type":"Point","properties":{"Station_ID":"OH-LK-11","Station_Nam":"MADISON 0.9 WSW, OH","Latitude":"41.76833","Longitude":"-81.06972","Snowdepth":"21.500","Units":"in","Rept_Date":"2020-12-26 11"},"coordinates":[5368,4163]},{"type":"Point","properties":{"Station_ID":"DVLQ6","Station_Nam":"DEVIOUS LAKE","Latitude":"49.19890","Longitude":"-87.76440","Snowdepth":"21.100","Units":"in","Rept_Date":"2020-12-27 06"},"coordinates":[3145,8518]},{"type":"Point","properties":{"Station_ID":"42.2002_079.8021","Station_Nam":"2 ESE North East  Trained Spotter (CLE0183)","Latitude":"42.20018","Longitude":"-79.80210","Snowdepth":"20.000","Units":"in","Rept_Date":"2020-12-27 00"},"coordinates":[5789,4416]},{"type":"Point","properties":{"Station_ID":"42.1284_079.8945","Station_Nam":"NORTHEAST 6SW (CLE0249)","Latitude":"42.12840","Longitude":"-79.89450","Snowdepth":"20.000","Units":"in","Rept_Date":"2020-12-26 23"},"coordinates":[5758,4374]},{"type":"Point","properties":{"Station_ID":"42.0800_080.0143","Station_Nam":"ERIE 5SE  SNOW SPOTTER (X4210800)","Latitude":"42.08000","Longitude":"-80.01430","Snowdepth":"20.000","Units":"in","Rept_Date":"2020-12-27 00"},"coordinates":[5718,4346]},{"type":"Point","properties":{"Station_ID":"QLB","Station_Nam":"QLB","Latitude":"50.72360","Longitude":"-75.10000","Snowdepth":"19.803","Units":"in","Rept_Date":"2020-12-26 12"},"coordinates":[7350,9411]},{"type":"Point","properties":{"Station_ID":"LKVN6","Station_Nam":"LAKE VIEW","Latitude":"42.73180","Longitude":"-78.92400","Snowdepth":"19.000","Units":"in","Rept_Date":"2020-12-26 13"},"coordinates":[6080,4728]},{"type":"Point","properties":{"Station_ID":"41.9996_080.1669","Station_Nam":"MCKEAN  SNOW SPOTTER (X4200802)","Latitude":"41.99960","Longitude":"-80.16690","Snowdepth":"19.000","Units":"in","Rept_Date":"2020-12-26 23"},"coordinates":[5668,4298]},{"type":"Point","properties":{"Station_ID":"41.8034_080.9389","Station_Nam":"GENEVA  SNOW SPOTTER (CLE1467)","Latitude":"41.80340","Longitude":"-80.93890","Snowdepth":"19.000","Units":"in","Rept_Date":"2020-12-26 23"},"coordinates":[5411,4184]},{"type":"Point","properties":{"Station_ID":"41.6825_081.2331","Station_Nam":"1 NW Concord  Trained Spotter (CLE1259)","Latitude":"41.68248","Longitude":"-81.23310","Snowdepth":"19.000","Units":"in","Rept_Date":"2020-12-26 13"},"coordinates":[5314,4113]},{"type":"Point","properties":{"Station_ID":"PA-ER-2","Station_Nam":"ERIE 5.6 SW, PA","Latitude":"42.06086","Longitude":"-80.15260","Snowdepth":"18.100","Units":"in","Rept_Date":"2020-12-26 12"},"coordinates":[5672,4334]},{"type":"Point","properties":{"Station_ID":"42.0609_080.1526","Station_Nam":"6 SW Erie  CoCoRaHS (PA-ER-2)","Latitude":"42.06090","Longitude":"-80.15260","Snowdepth":"18.100","Units":"in","Rept_Date":"2020-12-26 11"},"coordinates":[5672,4334]},{"type":"Point","properties":{"Station_ID":"SNOW2","Station_Nam":"SNOWSHOE","Latitude":"38.39900","Longitude":"-79.99490","Snowdepth":"18.000","Units":"in","Rept_Date":"2020-12-26 11"},"coordinates":[5725,2188]},{"type":"Point","properties":{"Station_ID":"NY-ER-96","Station_Nam":"ELMA 2.7 WSW, NY","Latitude":"42.81004","Longitude":"-78.68130","Snowdepth":"18.000","Units":"in","Rept_Date":"2020-12-26 12"},"coordinates":[6161,4773]},{"type":"Point","properties":{"Station_ID":"KBUF","Station_Nam":"GREATER BUFFALO INTERNATIONAL  AIRPORT","Latitude":"42.93333","Longitude":"-78.73333","Snowdepth":"18.000","Units":"in","Rept_Date":"2020-12-27 06"},"coordinates":[6144,4846]},{"type":"Point","properties":{"Station_ID":"HURW3","Station_Nam":"HURLEY","Latitude":"46.46250","Longitude":"-90.19550","Snowdepth":"18.000","Units":"in","Rept_Date":"2020-12-26 14"},"coordinates":[2338,6914]},{"type":"Point","properties":{"Station_ID":"BUF","Station_Nam":"BUFFALO, NY","Latitude":"42.94140","Longitude":"-78.71920","Snowdepth":"18.000","Units":"in","Rept_Date":"2020-12-27 06"},"coordinates":[6148,4850]},{"type":"Point","properties":{"Station_ID":"NY-ER-66","Station_Nam":"EAST AURORA 1.0 ESE, NY","Latitude":"42.76450","Longitude":"-78.59800","Snowdepth":"17.000","Units":"in","Rept_Date":"2020-12-26 15"},"coordinates":[6189,4747]},{"type":"Point","properties":{"Station_ID":"NY-ER-65","Station_Nam":"BOSTON 1.5 NE, NY","Latitude":"42.65470","Longitude":"-78.72010","Snowdepth":"17.000","Units":"in","Rept_Date":"2020-12-26 12"},"coordinates":[6148,4682]},{"type":"Point","properties":{"Station_ID":"NY-ER-39","Station_Nam":"HAMBURG 0.4 WSW, NY","Latitude":"42.72253","Longitude":"-78.84330","Snowdepth":"17.000","Units":"in","Rept_Date":"2020-12-26 12"},"coordinates":[6107,4722]},{"type":"Point","properties":{"Station_ID":"NY-ER-178","Station_Nam":"WEST SENECA 2.5 SE, NY","Latitude":"42.81374","Longitude":"-78.71399","Snowdepth":"17.000","Units":"in","Rept_Date":"2020-12-26 11"},"coordinates":[6150,4776]},{"type":"Point","properties":{"Station_ID":"42.2168_079.8473","Station_Nam":"NORTH EAST  SNOW SPOTTER (X4220798)","Latitude":"42.21680","Longitude":"-79.84730","Snowdepth":"17.000","Units":"in","Rept_Date":"2020-12-27 01"},"coordinates":[5774,4426]},{"type":"Point","properties":{"Station_ID":"42.1173_079.8962","Station_Nam":"4 W Colt Station  Trained Spotter (CLE0298)","Latitude":"42.11734","Longitude":"-79.89615","Snowdepth":"17.000","Units":"in","Rept_Date":"2020-12-27 01"},"coordinates":[5758,4367]},{"type":"Point","properties":{"Station_ID":"41.8605_080.7684","Station_Nam":"ASHTABULA  SNOW SPOTTER (CLE1449)","Latitude":"41.86050","Longitude":"-80.76840","Snowdepth":"17.000","Units":"in","Rept_Date":"2020-12-27 00"},"coordinates":[5468,4217]},{"type":"Point","properties":{"Station_ID":"41.8478_080.6111","Station_Nam":"4 SSW CONNEAUT I-90  TRAINED SPOTTER (CLE1457)","Latitude":"41.84780","Longitude":"-80.61110","Snowdepth":"17.000","Units":"in","Rept_Date":"2020-12-26 15"},"coordinates":[5520,4210]},{"type":"Point","properties":{"Station_ID":"41.7260_080.9910","Station_Nam":"3 E South Madison  Trained Spotter (CLE1474)","Latitude":"41.72602","Longitude":"-80.99102","Snowdepth":"17.000","Units":"in","Rept_Date":"2020-12-26 13"},"coordinates":[5394,4138]},{"type":"Point","properties":{"Station_ID":"41.6522_081.3097","Station_Nam":"1 NNE Kirtland Hills  Trained Spotter (X4170813)","Latitude":"41.65218","Longitude":"-81.30974","Snowdepth":"17.000","Units":"in","Rept_Date":"2020-12-26 13"},"coordinates":[5288,4095]},{"type":"Point","properties":{"Station_ID":"QGO","Station_Nam":"QGO","Latitude":"48.85500","Longitude":"-74.20640","Snowdepth":"16.339","Units":"in","Rept_Date":"2020-12-26 12"},"coordinates":[7647,8316]},{"type":"Point","properties":{"Station_ID":"SILN6","Station_Nam":"SILVER CREEK","Latitude":"42.53800","Longitude":"-79.16990","Snowdepth":"16.000","Units":"in","Rept_Date":"2020-12-26 12"},"coordinates":[5999,4614]},{"type":"Point","properties":{"Station_ID":"OH-LK-18","Station_Nam":"MENTOR 2.1 ESE, OH","Latitude":"41.67790","Longitude":"-81.29710","Snowdepth":"16.000","Units":"in","Rept_Date":"2020-12-26 12"},"coordinates":[5292,4110]},{"type":"Point","properties":{"Station_ID":"OH-GG-11","Station_Nam":"MADISON 4.2 S, OH","Latitude":"41.71238","Longitude":"-81.03871","Snowdepth":"16.000","Units":"in","Rept_Date":"2020-12-26 12"},"coordinates":[5378,4130]},{"type":"Point","properties":{"Station_ID":"NY-ER-56","Station_Nam":"COLDEN 1.4 NNW, NY","Latitude":"42.64740","Longitude":"-78.71120","Snowdepth":"16.000","Units":"in","Rept_Date":"2020-12-26 12"},"coordinates":[6151,4678]},{"type":"Point","properties":{"Station_ID":"NY-ER-189","Station_Nam":"HAMBURG 2.0 N, NY","Latitude":"42.75337","Longitude":"-78.83452","Snowdepth":"16.000","Units":"in","Rept_Date":"2020-12-26 12"},"coordinates":[6110,4740]},{"type":"Point","properties":{"Station_ID":"CODN6","Station_Nam":"COLDEN","Latitude":"42.64720","Longitude":"-78.71110","Snowdepth":"16.000","Units":"in","Rept_Date":"2020-12-26 12"},"coordinates":[6151,4678]},{"type":"Point","properties":{"Station_ID":"42.1792_079.9756","Station_Nam":"HARBORCREEK TWP  SNOW SPOTTER (X4220800)","Latitude":"42.17920","Longitude":"-79.97560","Snowdepth":"16.000","Units":"in","Rept_Date":"2020-12-26 22"},"coordinates":[5731,4404]},{"type":"Point","properties":{"Station_ID":"41.8275_080.5321","Station_Nam":"MONROE TWP  SNOW SPOTTER (X4180805)","Latitude":"41.82750","Longitude":"-80.53210","Snowdepth":"16.000","Units":"in","Rept_Date":"2020-12-27 00"},"coordinates":[5546,4198]},{"type":"Point","properties":{"Station_ID":"41.6807_081.2654","Station_Nam":"2 WNW Concord  Trained Spotter (CLE1255)","Latitude":"41.68070","Longitude":"-81.26535","Snowdepth":"16.000","Units":"in","Rept_Date":"2020-12-26 15"},"coordinates":[5303,4112]},{"type":"Point","properties":{"Station_ID":"41.6781_081.2971","Station_Nam":"2 ESE Mentor  Trained Spotter (CLE1260)","Latitude":"41.67808","Longitude":"-81.29714","Snowdepth":"16.000","Units":"in","Rept_Date":"2020-12-26 14"},"coordinates":[5292,4110]},{"type":"Point","properties":{"Station_ID":"41.6779_081.2971","Station_Nam":"2 ESE Mentor  CoCoRaHS (OH-LK-18)","Latitude":"41.67790","Longitude":"-81.29710","Snowdepth":"16.000","Units":"in","Rept_Date":"2020-12-26 12"},"coordinates":[5292,4110]},{"type":"Point","properties":{"Station_ID":"41.5844_081.2035","Station_Nam":"CHARDON (CLE1302)","Latitude":"41.58440","Longitude":"-81.20350","Snowdepth":"16.000","Units":"in","Rept_Date":"2020-12-26 15"},"coordinates":[5324,4055]},{"type":"Point","properties":{"Station_ID":"OGIQ6","Station_Nam":"OGOKI CAMP","Latitude":"50.76680","Longitude":"-87.85820","Snowdepth":"15.550","Units":"in","Rept_Date":"2020-12-27 06"},"coordinates":[3114,9436]},{"type":"Point","properties":{"Station_ID":"OH-LK-9","Station_Nam":"WILLOUGHBY 2.9 SW, OH","Latitude":"41.61506","Longitude":"-81.44592","Snowdepth":"15.500","Units":"in","Rept_Date":"2020-12-26 12"},"coordinates":[5243,4073]},{"type":"Point","properties":{"Station_ID":"NY-ER-166","Station_Nam":"BOSTON 2.5 NE, NY","Latitude":"42.65480","Longitude":"-78.70300","Snowdepth":"15.500","Units":"in","Rept_Date":"2020-12-26 12"},"coordinates":[6154,4682]},{"type":"Point","properties":{"Station_ID":"41.6151_081.4459","Station_Nam":"3 SW Willoughby  CoCoRaHS (OH-LK-9)","Latitude":"41.61510","Longitude":"-81.44590","Snowdepth":"15.500","Units":"in","Rept_Date":"2020-12-26 12"},"coordinates":[5243,4073]},{"type":"Point","properties":{"Station_ID":"NY-ER-75","Station_Nam":"ELMA CENTER 0.7 SE, NY","Latitude":"42.81936","Longitude":"-78.62140","Snowdepth":"15.000","Units":"in","Rept_Date":"2020-12-26 14"},"coordinates":[6181,4779]},{"type":"Point","properties":{"Station_ID":"NY-CQ-22","Station_Nam":"FREDONIA 0.8 WNW, NY","Latitude":"42.44414","Longitude":"-79.34610","Snowdepth":"15.000","Units":"in","Rept_Date":"2020-12-26 10"},"coordinates":[5940,4559]},{"type":"Point","properties":{"Station_ID":"IWOM4","Station_Nam":"IRONWOOD#2","Latitude":"46.46520","Longitude":"-90.13820","Snowdepth":"15.000","Units":"in","Rept_Date":"2020-12-26 13"},"coordinates":[2357,6915]},{"type":"Point","properties":{"Station_ID":"CAN-ON-245","Station_Nam":"PHELPSTON 3.1 ESE, CAN","Latitude":"44.50564","Longitude":"-79.81035","Snowdepth":"15.000","Units":"in","Rept_Date":"2020-12-26 12"},"coordinates":[5786,5767]},{"type":"Point","properties":{"Station_ID":"42.0452_080.3039","Station_Nam":"LAKE CITY  SNOW SPOTTER (CLE0157)","Latitude":"42.04520","Longitude":"-80.30390","Snowdepth":"15.000","Units":"in","Rept_Date":"2020-12-26 23"},"coordinates":[5622,4325]},{"type":"Point","properties":{"Station_ID":"41.8838_080.8561","Station_Nam":"ASHTABULA-SAYBROOK  SNOW SPOTTER (CLE1463)","Latitude":"41.88380","Longitude":"-80.85610","Snowdepth":"15.000","Units":"in","Rept_Date":"2020-12-26 14"},"coordinates":[5439,4231]},{"type":"Point","properties":{"Station_ID":"41.8520_080.7999","Station_Nam":"ASHTABULA 3S (CLE1402)","Latitude":"41.85200","Longitude":"-80.79990","Snowdepth":"15.000","Units":"in","Rept_Date":"2020-12-26 13"},"coordinates":[5458,4212]},{"type":"Point","properties":{"Station_ID":"41.6613_081.2084","Station_Nam":"1 SE Concord  Trained Spotter (X4170812)","Latitude":"41.66133","Longitude":"-81.20838","Snowdepth":"15.000","Units":"in","Rept_Date":"2020-12-26 12"},"coordinates":[5322,4100]},{"type":"Point","properties":{"Station_ID":"41.5904_081.3914","Station_Nam":"1 S Waite Hill  Trained Spotter (CLE1261)","Latitude":"41.59042","Longitude":"-81.39139","Snowdepth":"15.000","Units":"in","Rept_Date":"2020-12-26 14"},"coordinates":[5261,4059]},{"type":"Point","properties":{"Station_ID":"NY-ER-194","Station_Nam":"GLENWOOD 1.0 SE, NY","Latitude":"42.60740","Longitude":"-78.64610","Snowdepth":"14.500","Units":"in","Rept_Date":"2020-12-26 12"},"coordinates":[6173,4655]},{"type":"Point","properties":{"Station_ID":"NY-CQ-41","Station_Nam":"MAYVILLE 0.2 ESE, NY","Latitude":"42.25194","Longitude":"-79.49809","Snowdepth":"14.500","Units":"in","Rept_Date":"2020-12-26 12"},"coordinates":[5890,4446]},{"type":"Point","properties":{"Station_ID":"OH-CY-58","Station_Nam":"SOUTH EUCLID 0.2 ESE, OH","Latitude":"41.52358","Longitude":"-81.52191","Snowdepth":"14.200","Units":"in","Rept_Date":"2020-12-26 13"},"coordinates":[5218,4020]},{"type":"Point","properties":{"Station_ID":"CAN-ON-784","Station_Nam":"KOMOKA 3.1 W, CAN","Latitude":"42.96000","Longitude":"-81.43805","Snowdepth":"14.200","Units":"in","Rept_Date":"2020-12-26 13"},"coordinates":[5246,4861]},{"type":"Point","properties":{"Station_ID":"41.5236_081.5219","Station_Nam":"South Euclid  Trained Spotter (CLE1186)","Latitude":"41.52356","Longitude":"-81.52192","Snowdepth":"14.200","Units":"in","Rept_Date":"2020-12-26 13"},"coordinates":[5218,4020]},{"type":"Point","properties":{"Station_ID":"PDLM4","Station_Nam":"PAINESDALE","Latitude":"47.04160","Longitude":"-88.67170","Snowdepth":"14.000","Units":"in","Rept_Date":"2020-12-26 13"},"coordinates":[2844,7253]},{"type":"Point","properties":{"Station_ID":"NY-ER-50","Station_Nam":"EAST AURORA 0.1 ENE, NY","Latitude":"42.76750","Longitude":"-78.61580","Snowdepth":"14.000","Units":"in","Rept_Date":"2020-12-26 13"},"coordinates":[6183,4749]},{"type":"Point","properties":{"Station_ID":"CAN-ON-118","Station_Nam":"DURHAM 1.4 S, CAN","Latitude":"44.16525","Longitude":"-80.82064","Snowdepth":"14.000","Units":"in","Rept_Date":"2020-12-26 12"},"coordinates":[5451,5568]},{"type":"Point","properties":{"Station_ID":"BERM4","Station_Nam":"BERGLAND DAM","Latitude":"46.58690","Longitude":"-89.54750","Snowdepth":"14.000","Units":"in","Rept_Date":"2020-12-26 13"},"coordinates":[2553,6987]},{"type":"Point","properties":{"Station_ID":"42.0816_080.1778","Station_Nam":"Erie Intl Airport  Trained Spotter (CLE0102)","Latitude":"42.08163","Longitude":"-80.17779","Snowdepth":"14.000","Units":"in","Rept_Date":"2020-12-27 00"},"coordinates":[5664,4347]},{"type":"Point","properties":{"Station_ID":"41.8966_080.1567","Station_Nam":"2 NW EDINBORO  SNOW SPOTTER (CLE0251)","Latitude":"41.89660","Longitude":"-80.15670","Snowdepth":"14.000","Units":"in","Rept_Date":"2020-12-26 22"},"coordinates":[5671,4238]},{"type":"Point","properties":{"Station_ID":"41.8344_081.0520","Station_Nam":"MADISON-ON-THE-LAKE (CLE1242)","Latitude":"41.83440","Longitude":"-81.05200","Snowdepth":"14.000","Units":"in","Rept_Date":"2020-12-26 12"},"coordinates":[5374,4202]},{"type":"Point","properties":{"Station_ID":"41.4330_081.4097","Station_Nam":"CHAGRIN FALLS  SNOW SPOTTER (CLE1172)","Latitude":"41.43300","Longitude":"-81.40970","Snowdepth":"14.000","Units":"in","Rept_Date":"2020-12-26 13"},"coordinates":[5255,3966]},{"type":"Point","properties":{"Station_ID":"41.4329_081.3246","Station_Nam":"South Russell  Trained Spotter (CLE1339)","Latitude":"41.43291","Longitude":"-81.32455","Snowdepth":"14.000","Units":"in","Rept_Date":"2020-12-26 13"},"coordinates":[5283,3966]},{"type":"Point","properties":{"Station_ID":"QTM","Station_Nam":"QTM","Latitude":"51.05780","Longitude":"-72.57190","Snowdepth":"13.779","Units":"in","Rept_Date":"2020-12-26 12"},"coordinates":[8189,9607]},{"type":"Point","properties":{"Station_ID":"OH-PT-10","Station_Nam":"KENT 3.6 NE, OH","Latitude":"41.20083","Longitude":"-81.33890","Snowdepth":"13.500","Units":"in","Rept_Date":"2020-12-26 13"},"coordinates":[5279,3830]},{"type":"Point","properties":{"Station_ID":"NC-MS-7","Station_Nam":"HOT SPRINGS 8.4 SSW, NC","Latitude":"35.78343","Longitude":"-82.89470","Snowdepth":"13.500","Units":"in","Rept_Date":"2020-12-26 14"},"coordinates":[4762,656]},{"type":"Point","properties":{"Station_ID":"41.2008_081.3389","Station_Nam":"4 NE Kent  CoCoRaHS (OH-PT-10)","Latitude":"41.20080","Longitude":"-81.33890","Snowdepth":"13.500","Units":"in","Rept_Date":"2020-12-26 13"},"coordinates":[5279,3830]},{"type":"Point","properties":{"Station_ID":"QLI","Station_Nam":"QLI","Latitude":"50.27080","Longitude":"-73.92280","Snowdepth":"13.386","Units":"in","Rept_Date":"2020-12-26 12"},"coordinates":[7741,9146]},{"type":"Point","properties":{"Station_ID":"WLFM5","Station_Nam":"WOLF RIDGE ENVIRON LEARNING CENTER","Latitude":"47.38240","Longitude":"-91.19730","Snowdepth":"13.000","Units":"in","Rept_Date":"2020-12-26 13"},"coordinates":[2006,7453]},{"type":"Point","properties":{"Station_ID":"SGVN6","Station_Nam":"SPRINGVILLE","Latitude":"42.54970","Longitude":"-78.57670","Snowdepth":"13.000","Units":"in","Rept_Date":"2020-12-26 23"},"coordinates":[6196,4621]},{"type":"Point","properties":{"Station_ID":"SBOP1","Station_Nam":"SPRINGBORO","Latitude":"41.81660","Longitude":"-80.43330","Snowdepth":"13.000","Units":"in","Rept_Date":"2020-12-26 12"},"coordinates":[5579,4191]},{"type":"Point","properties":{"Station_ID":"QNCM4","Station_Nam":"QUINCY HILL","Latitude":"47.13640","Longitude":"-88.57950","Snowdepth":"13.000","Units":"in","Rept_Date":"2020-12-26 14"},"coordinates":[2875,7309]},{"type":"Point","properties":{"Station_ID":"PA-CW-8","Station_Nam":"SPRINGBORO 3.0 WNW, PA","Latitude":"41.81654","Longitude":"-80.42540","Snowdepth":"13.000","Units":"in","Rept_Date":"2020-12-26 12"},"coordinates":[5582,4191]},{"type":"Point","properties":{"Station_ID":"NY-CQ-27","Station_Nam":"SILVER CREEK 1.0 SSE, NY","Latitude":"42.53088","Longitude":"-79.15986","Snowdepth":"13.000","Units":"in","Rept_Date":"2020-12-26 14"},"coordinates":[6002,4610]},{"type":"Point","properties":{"Station_ID":"MTLT1","Station_Nam":"GATLINBURG,TN","Latitude":"35.65500","Longitude":"-83.44110","Snowdepth":"13.000","Units":"in","Rept_Date":"2020-12-26 12"},"coordinates":[4581,580]},{"type":"Point","properties":{"Station_ID":"KSGM4","Station_Nam":"KEARSARGE","Latitude":"47.27520","Longitude":"-88.41700","Snowdepth":"13.000","Units":"in","Rept_Date":"2020-12-26 13"},"coordinates":[2929,7390]},{"type":"Point","properties":{"Station_ID":"42.1154_080.1310","Station_Nam":"ERIE  SNOW SPOTTER (CLE0161)","Latitude":"42.11540","Longitude":"-80.13100","Snowdepth":"13.000","Units":"in","Rept_Date":"2020-12-26 23"},"coordinates":[5680,4366]},{"type":"Point","properties":{"Station_ID":"41.8166_080.4333","Station_Nam":"3 WNW Springboro  Co-Op Observer (SBOP1)","Latitude":"41.81660","Longitude":"-80.43330","Snowdepth":"13.000","Units":"in","Rept_Date":"2020-12-26 12"},"coordinates":[5579,4191]},{"type":"Point","properties":{"Station_ID":"41.8165_080.4254","Station_Nam":"3 WNW Springboro  CoCoRaHS (PA-CW-8)","Latitude":"41.81650","Longitude":"-80.42540","Snowdepth":"13.000","Units":"in","Rept_Date":"2020-12-26 12"},"coordinates":[5582,4191]},{"type":"Point","properties":{"Station_ID":"41.6898_081.3089","Station_Nam":"1 E Mentor  Trained Spotter (CLE1214)","Latitude":"41.68981","Longitude":"-81.30887","Snowdepth":"13.000","Units":"in","Rept_Date":"2020-12-26 13"},"coordinates":[5289,4117]},{"type":"Point","properties":{"Station_ID":"NC-MS-22","Station_Nam":"HOT SPRINGS 6.5 SW, NC","Latitude":"35.82765","Longitude":"-82.91419","Snowdepth":"12.600","Units":"in","Rept_Date":"2020-12-26 14"},"coordinates":[4756,682]},{"type":"Point","properties":{"Station_ID":"MN-SL-15","Station_Nam":"CHISHOLM 0.4 WSW, MN","Latitude":"47.48557","Longitude":"-92.88690","Snowdepth":"12.500","Units":"in","Rept_Date":"2020-12-26 13"},"coordinates":[1445,7513]},{"type":"Point","properties":{"Station_ID":"KABQ6","Station_Nam":"CAB LAKE","Latitude":"49.59950","Longitude":"-89.17990","Snowdepth":"12.480","Units":"in","Rept_Date":"2020-12-27 06"},"coordinates":[2675,8752]},{"type":"Point","properties":{"Station_ID":"QMD","Station_Nam":"QMD","Latitude":"49.29060","Longitude":"-75.84500","Snowdepth":"12.441","Units":"in","Rept_Date":"2020-12-26 12"},"coordinates":[7103,8571]},{"type":"Point","properties":{"Station_ID":"SOCQ6","Station_Nam":"SOCKET LAKE","Latitude":"50.77870","Longitude":"-91.79300","Snowdepth":"12.200","Units":"in","Rept_Date":"2020-12-27 06"},"coordinates":[1808,9443]},{"type":"Point","properties":{"Station_ID":"NY-CQ-9","Station_Nam":"DUNKIRK 0.7 SW, NY","Latitude":"42.47167","Longitude":"-79.33360","Snowdepth":"12.200","Units":"in","Rept_Date":"2020-12-26 12"},"coordinates":[5944,4575]},{"type":"Point","properties":{"Station_ID":"CAN-ON-452","Station_Nam":"CHATSWORTH 1.8 ENE - GSCA, CAN","Latitude":"44.46118","Longitude":"-80.87506","Snowdepth":"12.200","Units":"in","Rept_Date":"2020-12-26 12"},"coordinates":[5433,5741]},{"type":"Point","properties":{"Station_ID":"SVBQ6","Station_Nam":"SAVANT BASE","Latitude":"50.28730","Longitude":"-90.65670","Snowdepth":"12.010","Units":"in","Rept_Date":"2020-12-27 06"},"coordinates":[2185,9155]},{"type":"Point","properties":{"Station_ID":"WLSN6","Station_Nam":"WALES","Latitude":"42.73920","Longitude":"-78.58780","Snowdepth":"12.000","Units":"in","Rept_Date":"2020-12-26 12"},"coordinates":[6192,4732]},{"type":"Point","properties":{"Station_ID":"OH-TR-4","Station_Nam":"NEWTON FALLS 0.6 N, OH","Latitude":"41.19773","Longitude":"-80.97210","Snowdepth":"12.000","Units":"in","Rept_Date":"2020-12-26 12"},"coordinates":[5400,3829]},{"type":"Point","properties":{"Station_ID":"OH-PT-13","Station_Nam":"MANTUA 1.0 NNW, OH","Latitude":"41.29421","Longitude":"-81.23160","Snowdepth":"12.000","Units":"in","Rept_Date":"2020-12-26 13"},"coordinates":[5314,3885]},{"type":"Point","properties":{"Station_ID":"NY-ER-158","Station_Nam":"EAST AURORA 2.7 SSE, NY","Latitude":"42.72936","Longitude":"-78.60561","Snowdepth":"12.000","Units":"in","Rept_Date":"2020-12-26 13"},"coordinates":[6186,4726]},{"type":"Point","properties":{"Station_ID":"MI-BN-5","Station_Nam":"BUCHANAN 1.3 WNW, MI","Latitude":"41.83634","Longitude":"-86.38900","Snowdepth":"12.000","Units":"in","Rept_Date":"2020-12-26 12"},"coordinates":[3602,4203]},{"type":"Point","properties":{"Station_ID":"KGTB","Station_Nam":"FORT DRUM / WHEELER-SACK U. S. ARMY AIRFIELD","Latitude":"44.05000","Longitude":"-75.73333","Snowdepth":"12.000","Units":"in","Rept_Date":"2020-12-27 06"},"coordinates":[7140,5500]},{"type":"Point","properties":{"Station_ID":"IRMM4","Station_Nam":"WWTP","Latitude":"46.46670","Longitude":"-90.18330","Snowdepth":"12.000","Units":"in","Rept_Date":"2020-12-26 13"},"coordinates":[2342,6916]},{"type":"Point","properties":{"Station_ID":"GNLM4","Station_Nam":"GREENLAND 6N","Latitude":"46.87360","Longitude":"-89.10060","Snowdepth":"12.000","Units":"in","Rept_Date":"2020-12-26 13"},"coordinates":[2702,7155]},{"type":"Point","properties":{"Station_ID":"DKKN6","Station_Nam":"DUNKIRK 1S","Latitude":"42.47180","Longitude":"-79.33370","Snowdepth":"12.000","Units":"in","Rept_Date":"2020-12-26 12"},"coordinates":[5944,4575]},{"type":"Point","properties":{"Station_ID":"41.8717_080.0850","Station_Nam":"EDINBORO 2E  SNOW SPOTTER (X4190801)","Latitude":"41.87170","Longitude":"-80.08500","Snowdepth":"12.000","Units":"in","Rept_Date":"2020-12-26 23"},"coordinates":[5695,4224]},{"type":"Point","properties":{"Station_ID":"41.7396_080.5416","Station_Nam":"PIERPONT 2SE (CLE1412)","Latitude":"41.73960","Longitude":"-80.54160","Snowdepth":"12.000","Units":"in","Rept_Date":"2020-12-26 14"},"coordinates":[5543,4146]},{"type":"Point","properties":{"Station_ID":"41.6972_080.9056","Station_Nam":"3 ENE Trumbull  Trained Spotter (CLE1480)","Latitude":"41.69720","Longitude":"-80.90557","Snowdepth":"12.000","Units":"in","Rept_Date":"2020-12-26 13"},"coordinates":[5422,4121]},{"type":"Point","properties":{"Station_ID":"41.6533_080.1440","Station_Nam":"MEADVILLE  SNOW SPOTTER (X4170801)","Latitude":"41.65330","Longitude":"-80.14400","Snowdepth":"12.000","Units":"in","Rept_Date":"2020-12-26 22"},"coordinates":[5675,4096]},{"type":"Point","properties":{"Station_ID":"41.6413_081.0131","Station_Nam":"2 ESE South Thompson  Trained Spotter (X4160810)","Latitude":"41.64127","Longitude":"-81.01313","Snowdepth":"12.000","Units":"in","Rept_Date":"2020-12-26 16"},"coordinates":[5387,4089]},{"type":"Point","properties":{"Station_ID":"41.5020_081.5839","Station_Nam":"1 WSW Cleveland Heights  Trained Spotter (CLE1190)","Latitude":"41.50201","Longitude":"-81.58393","Snowdepth":"12.000","Units":"in","Rept_Date":"2020-12-26 13"},"coordinates":[5197,4007]},{"type":"Point","properties":{"Station_ID":"41.4948_081.5867","Station_Nam":"2 SW Cleveland Heights  Trained Spotter (CLE1181)","Latitude":"41.49481","Longitude":"-81.58671","Snowdepth":"12.000","Units":"in","Rept_Date":"2020-12-26 13"},"coordinates":[5196,4003]},{"type":"Point","properties":{"Station_ID":"41.4746_081.5687","Station_Nam":"1 W Shaker Heights  Trained Spotter (CLE1179)","Latitude":"41.47460","Longitude":"-81.56872","Snowdepth":"12.000","Units":"in","Rept_Date":"2020-12-26 15"},"coordinates":[5202,3991]},{"type":"Point","properties":{"Station_ID":"41.4727_081.1835","Station_Nam":"2 W Burton  Trained Spotter (CLE1337)","Latitude":"41.47271","Longitude":"-81.18346","Snowdepth":"12.000","Units":"in","Rept_Date":"2020-12-26 12"},"coordinates":[5330,3990]},{"type":"Point","properties":{"Station_ID":"41.3151_081.1434","Station_Nam":"HIRAM (CLE2220)","Latitude":"41.31510","Longitude":"-81.14340","Snowdepth":"12.000","Units":"in","Rept_Date":"2020-12-26 15"},"coordinates":[5343,3897]},{"type":"Point","properties":{"Station_ID":"41.2942_081.2316","Station_Nam":"1 NNW Mantua  CoCoRaHS (OH-PT-13)","Latitude":"41.29420","Longitude":"-81.23160","Snowdepth":"12.000","Units":"in","Rept_Date":"2020-12-26 13"},"coordinates":[5314,3885]},{"type":"Point","properties":{"Station_ID":"41.1977_080.9721","Station_Nam":"1 N Newton Falls  CoCoRaHS (OH-TR-4)","Latitude":"41.19770","Longitude":"-80.97210","Snowdepth":"12.000","Units":"in","Rept_Date":"2020-12-26 12"},"coordinates":[5400,3829]},{"type":"Point","properties":{"Station_ID":"41.1970_080.9871","Station_Nam":"NEWTON FALLS (CLE2322)","Latitude":"41.19700","Longitude":"-80.98710","Snowdepth":"12.000","Units":"in","Rept_Date":"2020-12-26 13"},"coordinates":[5395,3828]},{"type":"Point","properties":{"Station_ID":"CAN-ON-491","Station_Nam":"MILVERTON 1.1 ESE- CANWARN, CAN","Latitude":"43.56074","Longitude":"-80.90887","Snowdepth":"11.700","Units":"in","Rept_Date":"2020-12-26 11"},"coordinates":[5421,5213]},{"type":"Point","properties":{"Station_ID":"OH-PT-9","Station_Nam":"HIRAM 0.4 N, OH","Latitude":"41.31595","Longitude":"-81.14340","Snowdepth":"11.500","Units":"in","Rept_Date":"2020-12-26 13"},"coordinates":[5343,3898]},{"type":"Point","properties":{"Station_ID":"OH-PT-21","Station_Nam":"AURORA 1.6 WNW, OH","Latitude":"41.31840","Longitude":"-81.37449","Snowdepth":"11.500","Units":"in","Rept_Date":"2020-12-26 12"},"coordinates":[5267,3899]},{"type":"Point","properties":{"Station_ID":"NY-ER-63","Station_Nam":"GLENWOOD 1.5 SE, NY","Latitude":"42.60195","Longitude":"-78.63910","Snowdepth":"11.500","Units":"in","Rept_Date":"2020-12-26 13"},"coordinates":[6175,4651]},{"type":"Point","properties":{"Station_ID":"NY-ER-138","Station_Nam":"EAST AURORA 3.4 NNE, NY","Latitude":"42.81400","Longitude":"-78.59670","Snowdepth":"11.500","Units":"in","Rept_Date":"2020-12-26 14"},"coordinates":[6189,4776]},{"type":"Point","properties":{"Station_ID":"41.3160_081.1434","Station_Nam":"N Hiram  CoCoRaHS (OH-PT-9)","Latitude":"41.31600","Longitude":"-81.14340","Snowdepth":"11.500","Units":"in","Rept_Date":"2020-12-26 13"},"coordinates":[5343,3898]},{"type":"Point","properties":{"Station_ID":"QOU","Station_Nam":"QOU","Latitude":"50.79250","Longitude":"-69.67470","Snowdepth":"11.496","Units":"in","Rept_Date":"2020-12-26 12"},"coordinates":[9151,9451]},{"type":"Point","properties":{"Station_ID":"WNDP1","Station_Nam":"WINDBER COUNTY CLUB","Latitude":"40.28780","Longitude":"-78.77530","Snowdepth":"11.000","Units":"in","Rept_Date":"2020-12-26 12"},"coordinates":[6130,3295]},{"type":"Point","properties":{"Station_ID":"MN-CK-6","Station_Nam":"GRAND MARAIS 4.4 W, MN","Latitude":"47.74865","Longitude":"-90.43760","Snowdepth":"11.000","Units":"in","Rept_Date":"2020-12-26 13"},"coordinates":[2258,7668]},{"type":"Point","properties":{"Station_ID":"CAN-ON-5","Station_Nam":"OWEN SOUND 1.5 NW - GSCA, CAN","Latitude":"44.57837","Longitude":"-80.95461","Snowdepth":"11.000","Units":"in","Rept_Date":"2020-12-26 13"},"coordinates":[5406,5810]},{"type":"Point","properties":{"Station_ID":"BNDM5","Station_Nam":"ELY 25E","Latitude":"47.97190","Longitude":"-91.44860","Snowdepth":"11.000","Units":"in","Rept_Date":"2020-12-26 13"},"coordinates":[1922,7798]},{"type":"Point","properties":{"Station_ID":"BABM5","Station_Nam":"BABBITT","Latitude":"47.71210","Longitude":"-91.95330","Snowdepth":"11.000","Units":"in","Rept_Date":"2020-12-26 13"},"coordinates":[1755,7646]},{"type":"Point","properties":{"Station_ID":"41.6801_081.3287","Station_Nam":"MENTOR (CLE1240)","Latitude":"41.68010","Longitude":"-81.32870","Snowdepth":"11.000","Units":"in","Rept_Date":"2020-12-26 14"},"coordinates":[5282,4111]},{"type":"Point","properties":{"Station_ID":"41.6333_080.1432","Station_Nam":"1 S Meadville  Trained Spotter (CLE0350)","Latitude":"41.63328","Longitude":"-80.14322","Snowdepth":"11.000","Units":"in","Rept_Date":"2020-12-26 15"},"coordinates":[5676,4084]},{"type":"Point","properties":{"Station_ID":"41.4901_082.0871","Station_Nam":"SHEFFIELD LAKE (CLE1015)","Latitude":"41.49010","Longitude":"-82.08710","Snowdepth":"11.000","Units":"in","Rept_Date":"2020-12-26 14"},"coordinates":[5030,4000]},{"type":"Point","properties":{"Station_ID":"41.4479_081.9326","Station_Nam":"WESTLAKE  SNOW SPOTTER (CLE1174)","Latitude":"41.44790","Longitude":"-81.93260","Snowdepth":"11.000","Units":"in","Rept_Date":"2020-12-26 13"},"coordinates":[5081,3975]},{"type":"Point","properties":{"Station_ID":"41.3691_081.4520","Station_Nam":"SOLON (CLE1123)","Latitude":"41.36910","Longitude":"-81.45200","Snowdepth":"11.000","Units":"in","Rept_Date":"2020-12-26 14"},"coordinates":[5241,3929]},{"type":"Point","properties":{"Station_ID":"OH-PT-17","Station_Nam":"KENT 1.5 W, OH","Latitude":"41.14718","Longitude":"-81.39079","Snowdepth":"10.500","Units":"in","Rept_Date":"2020-12-26 12"},"coordinates":[5261,3799]},{"type":"Point","properties":{"Station_ID":"OH-LR-3","Station_Nam":"SHEFFIELD LAKE 0.5 E, OH","Latitude":"41.49000","Longitude":"-82.08740","Snowdepth":"10.500","Units":"in","Rept_Date":"2020-12-26 14"},"coordinates":[5030,4000]},{"type":"Point","properties":{"Station_ID":"OH-CY-39","Station_Nam":"WESTLAKE 0.5 SSW, OH","Latitude":"41.44795","Longitude":"-81.93260","Snowdepth":"10.500","Units":"in","Rept_Date":"2020-12-26 13"},"coordinates":[5081,3975]},{"type":"Point","properties":{"Station_ID":"41.4900_082.0874","Station_Nam":"1 E Sheffield Lake  CoCoRaHS (OH-LR-3)","Latitude":"41.49000","Longitude":"-82.08740","Snowdepth":"10.500","Units":"in","Rept_Date":"2020-12-26 14"},"coordinates":[5030,4000]},{"type":"Point","properties":{"Station_ID":"41.4480_081.9326","Station_Nam":"1 SSW Westlake  CoCoRaHS (OH-CY-39)","Latitude":"41.44800","Longitude":"-81.93260","Snowdepth":"10.500","Units":"in","Rept_Date":"2020-12-26 13"},"coordinates":[5081,3975]},{"type":"Point","properties":{"Station_ID":"STWO1","Station_Nam":"MONROE FALLS","Latitude":"41.13110","Longitude":"-81.40000","Snowdepth":"10.000","Units":"in","Rept_Date":"2020-12-26 12"},"coordinates":[5258,3790]},{"type":"Point","properties":{"Station_ID":"OH-CY-41","Station_Nam":"LAKEWOOD 1.3 SSW, OH","Latitude":"41.46666","Longitude":"-81.81116","Snowdepth":"10.000","Units":"in","Rept_Date":"2020-12-26 12"},"coordinates":[5122,3986]},{"type":"Point","properties":{"Station_ID":"MN-SL-108","Station_Nam":"IRON JUNCTION 3.4 NNW, MN","Latitude":"47.46150","Longitude":"-92.63130","Snowdepth":"10.000","Units":"in","Rept_Date":"2020-12-26 13"},"coordinates":[1530,7499]},{"type":"Point","properties":{"Station_ID":"MI-BN-4","Station_Nam":"NILES 2.7 W, MI","Latitude":"41.83705","Longitude":"-86.30050","Snowdepth":"10.000","Units":"in","Rept_Date":"2020-12-26 13"},"coordinates":[3631,4203]},{"type":"Point","properties":{"Station_ID":"MI-BN-13","Station_Nam":"ST. JOSEPH 1.5 SSE, MI","Latitude":"42.07745","Longitude":"-86.48030","Snowdepth":"10.000","Units":"in","Rept_Date":"2020-12-26 12"},"coordinates":[3572,4344]},{"type":"Point","properties":{"Station_ID":"LAUP1","Station_Nam":"1.5MI S OF RT 30 ON SMIT (LAUREL RIDGE)","Latitude":"40.05000","Longitude":"-79.22060","Snowdepth":"10.000","Units":"in","Rept_Date":"2020-12-26 12"},"coordinates":[5982,3156]},{"type":"Point","properties":{"Station_ID":"HVJP1","Station_Nam":"HIDDEN VALLEY COOP","Latitude":"40.04200","Longitude":"-79.25660","Snowdepth":"10.000","Units":"in","Rept_Date":"2020-12-26 13"},"coordinates":[5970,3151]},{"type":"Point","properties":{"Station_ID":"HERM4","Station_Nam":"HERMAN,MI","Latitude":"46.65000","Longitude":"-88.33330","Snowdepth":"10.000","Units":"in","Rept_Date":"2020-12-26 13"},"coordinates":[2957,7024]},{"type":"Point","properties":{"Station_ID":"GNFM5","Station_Nam":"GUNFLINT LAKE","Latitude":"48.16670","Longitude":"-90.88750","Snowdepth":"10.000","Units":"in","Rept_Date":"2020-12-26 13"},"coordinates":[2109,7913]},{"type":"Point","properties":{"Station_ID":"ELYM5","Station_Nam":"ELY","Latitude":"47.90560","Longitude":"-91.82830","Snowdepth":"10.000","Units":"in","Rept_Date":"2020-12-26 14"},"coordinates":[1796,7760]},{"type":"Point","properties":{"Station_ID":"COKM5","Station_Nam":"COOK","Latitude":"47.85060","Longitude":"-92.69250","Snowdepth":"10.000","Units":"in","Rept_Date":"2020-12-26 12"},"coordinates":[1509,7727]},{"type":"Point","properties":{"Station_ID":"CAN-ON-451","Station_Nam":"OWEN SOUND 1.2 N - GSCA, CAN","Latitude":"44.58092","Longitude":"-80.93025","Snowdepth":"10.000","Units":"in","Rept_Date":"2020-12-26 13"},"coordinates":[5414,5811]},{"type":"Point","properties":{"Station_ID":"CAN-MB-56","Station_Nam":"WINNIPEG 7.6 ENE, CAN","Latitude":"49.93264","Longitude":"-97.04752","Snowdepth":"10.000","Units":"in","Rept_Date":"2020-12-26 14"},"coordinates":[63,8948]},{"type":"Point","properties":{"Station_ID":"41.9034_079.6523","Station_Nam":"CORRY (CLE0230)","Latitude":"41.90340","Longitude":"-79.65230","Snowdepth":"10.000","Units":"in","Rept_Date":"2020-12-26 14"},"coordinates":[5839,4242]},{"type":"Point","properties":{"Station_ID":"41.5909_081.0473","Station_Nam":"MONTVILLE (CLE1322)","Latitude":"41.59090","Longitude":"-81.04730","Snowdepth":"10.000","Units":"in","Rept_Date":"2020-12-26 11"},"coordinates":[5375,4059]},{"type":"Point","properties":{"Station_ID":"41.5186_080.2187","Station_Nam":"6 E Atlantic  Trained Spotter (CLE0352)","Latitude":"41.51859","Longitude":"-80.21871","Snowdepth":"10.000","Units":"in","Rept_Date":"2020-12-27 02"},"coordinates":[5650,4017]},{"type":"Point","properties":{"Station_ID":"41.4667_081.8111","Station_Nam":"1 NNE CLEVELAND-KAMMS CORNER  SNOW SPOTTER (X4150818)","Latitude":"41.46670","Longitude":"-81.81110","Snowdepth":"10.000","Units":"in","Rept_Date":"2020-12-26 15"},"coordinates":[5122,3986]},{"type":"Point","properties":{"Station_ID":"41.4295_081.7112","Station_Nam":"CLEVELAND-OLD BROOKLYN (CLE1126)","Latitude":"41.42950","Longitude":"-81.71120","Snowdepth":"10.000","Units":"in","Rept_Date":"2020-12-26 11"},"coordinates":[5155,3964]},{"type":"Point","properties":{"Station_ID":"41.3292_080.7272","Station_Nam":"Cortland  Trained Spotter (X4130807)","Latitude":"41.32922","Longitude":"-80.72719","Snowdepth":"10.000","Units":"in","Rept_Date":"2020-12-26 11"},"coordinates":[5482,3906]},{"type":"Point","properties":{"Station_ID":"41.1311_081.4000","Station_Nam":"MONROE FALLS  CO-OP OBSERVER (STWO1)","Latitude":"41.13110","Longitude":"-81.40000","Snowdepth":"10.000","Units":"in","Rept_Date":"2020-12-26 12"},"coordinates":[5258,3790]},{"type":"Point","properties":{"Station_ID":"WV-PR-10","Station_Nam":"TERRA ALTA 4.9 NNE, WV","Latitude":"39.51024","Longitude":"-79.51024","Snowdepth":"9.900","Units":"in","Rept_Date":"2020-12-26 13"},"coordinates":[5886,2840]},{"type":"Point","properties":{"Station_ID":"CAN-ON-804","Station_Nam":"KEMBLE 1.6 S - GSCA, CAN","Latitude":"44.71013","Longitude":"-80.92735","Snowdepth":"9.800","Units":"in","Rept_Date":"2020-12-26 13"},"coordinates":[5415,5887]},{"type":"Point","properties":{"Station_ID":"MI-BG-3","Station_Nam":"THREE LAKES, MI","Latitude":"46.55730","Longitude":"-88.20770","Snowdepth":"9.700","Units":"in","Rept_Date":"2020-12-26 13"},"coordinates":[2998,6969]},{"type":"Point","properties":{"Station_ID":"MN-CK-18","Station_Nam":"GRAND MARAIS 4.4 WSW, MN","Latitude":"47.74462","Longitude":"-90.43796","Snowdepth":"9.500","Units":"in","Rept_Date":"2020-12-26 13"},"coordinates":[2258,7665]},{"type":"Point","properties":{"Station_ID":"MI-HG-20","Station_Nam":"CALUMET 1.1 SSW, MI","Latitude":"47.23165","Longitude":"-88.45823","Snowdepth":"9.500","Units":"in","Rept_Date":"2020-12-26 11"},"coordinates":[2915,7365]},{"type":"Point","properties":{"Station_ID":"OH-PT-8","Station_Nam":"STREETSBORO 2.1 SSW, OH","Latitude":"41.20976","Longitude":"-81.35480","Snowdepth":"9.300","Units":"in","Rept_Date":"2020-12-26 12"},"coordinates":[5273,3836]},{"type":"Point","properties":{"Station_ID":"41.2098_081.3548","Station_Nam":"2 SSW Streetsboro  CoCoRaHS (OH-PT-8)","Latitude":"41.20980","Longitude":"-81.35480","Snowdepth":"9.300","Units":"in","Rept_Date":"2020-12-26 12"},"coordinates":[5273,3836]},{"type":"Point","properties":{"Station_ID":"WRSM5","Station_Nam":"WRENSHALL","Latitude":"46.61550","Longitude":"-92.38380","Snowdepth":"9.000","Units":"in","Rept_Date":"2020-12-26 14"},"coordinates":[1612,7004]},{"type":"Point","properties":{"Station_ID":"TOHM5","Station_Nam":"TWO HARBORS WWTP","Latitude":"47.01760","Longitude":"-91.66480","Snowdepth":"9.000","Units":"in","Rept_Date":"2020-12-26 13"},"coordinates":[1850,7239]},{"type":"Point","properties":{"Station_ID":"OH-GG-7","Station_Nam":"MIDDLEFIELD 0.6 NE, OH","Latitude":"41.46438","Longitude":"-81.06520","Snowdepth":"9.000","Units":"in","Rept_Date":"2020-12-26 13"},"coordinates":[5369,3985]},{"type":"Point","properties":{"Station_ID":"OH-CY-54","Station_Nam":"SEVEN HILLS 0.6 NNE, OH","Latitude":"41.38811","Longitude":"-81.67098","Snowdepth":"9.000","Units":"in","Rept_Date":"2020-12-26 14"},"coordinates":[5168,3940]},{"type":"Point","properties":{"Station_ID":"NY-CQ-39","Station_Nam":"GERRY 0.8 N, NY","Latitude":"42.20500","Longitude":"-79.24700","Snowdepth":"9.000","Units":"in","Rept_Date":"2020-12-26 13"},"coordinates":[5973,4419]},{"type":"Point","properties":{"Station_ID":"NC-MS-5","Station_Nam":"MARSHALL 13.6 NNW, NC","Latitude":"35.98208","Longitude":"-82.76720","Snowdepth":"9.000","Units":"in","Rept_Date":"2020-12-26 13"},"coordinates":[4804,772]},{"type":"Point","properties":{"Station_ID":"MNBW2","Station_Nam":"MT. NEBO 1S","Latitude":"38.18790","Longitude":"-80.84840","Snowdepth":"9.000","Units":"in","Rept_Date":"2020-12-26 12"},"coordinates":[5441,2065]},{"type":"Point","properties":{"Station_ID":"LEIM5","Station_Nam":"ORR 3E","Latitude":"48.05810","Longitude":"-92.75220","Snowdepth":"9.000","Units":"in","Rept_Date":"2020-12-26 12"},"coordinates":[1489,7849]},{"type":"Point","properties":{"Station_ID":"JSTN6","Station_Nam":"JAMESTOWN 4 ENE","Latitude":"42.11000","Longitude":"-79.15910","Snowdepth":"9.000","Units":"in","Rept_Date":"2020-12-26 11"},"coordinates":[6002,4363]},{"type":"Point","properties":{"Station_ID":"FLDM5","Station_Nam":"FLOODWOOD,MN","Latitude":"47.00000","Longitude":"-92.91670","Snowdepth":"9.000","Units":"in","Rept_Date":"2020-12-26 14"},"coordinates":[1435,7229]},{"type":"Point","properties":{"Station_ID":"CVWP1","Station_Nam":"CHANDLER VALLEY 1SE","Latitude":"41.93010","Longitude":"-79.29700","Snowdepth":"9.000","Units":"in","Rept_Date":"2020-12-26 12"},"coordinates":[5956,4258]},{"type":"Point","properties":{"Station_ID":"COTM5","Station_Nam":"COTTON","Latitude":"47.16870","Longitude":"-92.46290","Snowdepth":"9.000","Units":"in","Rept_Date":"2020-12-26 13"},"coordinates":[1586,7328]},{"type":"Point","properties":{"Station_ID":"BBEM4","Station_Nam":"BIG BAY 9SW","Latitude":"46.74620","Longitude":"-87.88160","Snowdepth":"9.000","Units":"in","Rept_Date":"2020-12-26 13"},"coordinates":[3106,7080]},{"type":"Point","properties":{"Station_ID":"ATAN6","Station_Nam":"ATTICA 7 SW","Latitude":"42.81070","Longitude":"-78.39790","Snowdepth":"9.000","Units":"in","Rept_Date":"2020-12-26 11"},"coordinates":[6255,4774]},{"type":"Point","properties":{"Station_ID":"41.7413_080.7594","Station_Nam":"JEFFERSON  SNOW SPOTTER (X4170808)","Latitude":"41.74130","Longitude":"-80.75940","Snowdepth":"9.000","Units":"in","Rept_Date":"2020-12-26 23"},"coordinates":[5471,4147]},{"type":"Point","properties":{"Station_ID":"41.6368_080.6674","Station_Nam":"2 N Cherry Valley  Trained Spotter (CLE1482)","Latitude":"41.63679","Longitude":"-80.66740","Snowdepth":"9.000","Units":"in","Rept_Date":"2020-12-27 02"},"coordinates":[5502,4086]},{"type":"Point","properties":{"Station_ID":"41.2688_081.5174","Station_Nam":"2 N CLE AIRPORT  TRAINED SPOTTER (CLE2141)","Latitude":"41.26880","Longitude":"-81.51740","Snowdepth":"9.000","Units":"in","Rept_Date":"2020-12-26 13"},"coordinates":[5219,3870]},{"type":"Point","properties":{"Station_ID":"41.1978_081.6324","Station_Nam":"BATH TWP  TRAINED SPOTTER (CLE2135)","Latitude":"41.19780","Longitude":"-81.63240","Snowdepth":"9.000","Units":"in","Rept_Date":"2020-12-26 12"},"coordinates":[5181,3829]},{"type":"Point","properties":{"Station_ID":"OH-SM-39","Station_Nam":"TALLMADGE 0.8 NNE, OH","Latitude":"41.11402","Longitude":"-81.41970","Snowdepth":"8.900","Units":"in","Rept_Date":"2020-12-26 13"},"coordinates":[5252,3780]},{"type":"Point","properties":{"Station_ID":"41.1140_081.4197","Station_Nam":"1 NNE Tallmadge  CoCoRaHS (OH-SM-39)","Latitude":"41.11400","Longitude":"-81.41970","Snowdepth":"8.900","Units":"in","Rept_Date":"2020-12-26 13"},"coordinates":[5252,3780]},{"type":"Point","properties":{"Station_ID":"CATQ6","Station_Nam":"CAT LAKE","Latitude":"51.72690","Longitude":"-91.82210","Snowdepth":"8.820","Units":"in","Rept_Date":"2020-12-27 06"},"coordinates":[1798,9999]},{"type":"Point","properties":{"Station_ID":"CAN-ON-86","Station_Nam":"GUELPH 5.1 S - CANWARN, CAN","Latitude":"43.49691","Longitude":"-80.24385","Snowdepth":"8.700","Units":"in","Rept_Date":"2020-12-26 12"},"coordinates":[5642,5176]},{"type":"Point","properties":{"Station_ID":"WI-BY-29","Station_Nam":"BAYFIELD 5.1 NNW, WI","Latitude":"46.88063","Longitude":"-90.85854","Snowdepth":"8.500","Units":"in","Rept_Date":"2020-12-26 13"},"coordinates":[2118,7159]},{"type":"Point","properties":{"Station_ID":"OH-LR-25","Station_Nam":"NORTH RIDGEVILLE 2.5 NE, OH","Latitude":"41.41550","Longitude":"-81.98440","Snowdepth":"8.500","Units":"in","Rept_Date":"2020-12-26 12"},"coordinates":[5064,3956]},{"type":"Point","properties":{"Station_ID":"OH-CY-14","Station_Nam":"CLEVELAND 7.0 SW, OH","Latitude":"41.45224","Longitude":"-81.81475","Snowdepth":"8.500","Units":"in","Rept_Date":"2020-12-27 03"},"coordinates":[5121,3978]},{"type":"Point","properties":{"Station_ID":"OH-CB-8","Station_Nam":"HANOVERTON 0.4 ENE, OH","Latitude":"40.75696","Longitude":"-80.92919","Snowdepth":"8.500","Units":"in","Rept_Date":"2020-12-26 09"},"coordinates":[5415,3570]},{"type":"Point","properties":{"Station_ID":"FTHQ6","Station_Nam":"FORT HOPE","Latitude":"51.55820","Longitude":"-87.90510","Snowdepth":"8.430","Units":"in","Rept_Date":"2020-12-27 06"},"coordinates":[3099,9900]},{"type":"Point","properties":{"Station_ID":"YNG","Station_Nam":"YOUNGSTOWN-WARREN REG AIRPRT","Latitude":"41.25890","Longitude":"-80.67610","Snowdepth":"8.000","Units":"in","Rept_Date":"2020-12-27 00"},"coordinates":[5499,3864]},{"type":"Point","properties":{"Station_ID":"WSWN6","Station_Nam":"WARSAW","Latitude":"42.74220","Longitude":"-78.20850","Snowdepth":"8.000","Units":"in","Rept_Date":"2020-12-26 12"},"coordinates":[6318,4734]},{"type":"Point","properties":{"Station_ID":"WI-SR-1","Station_Nam":"HAYWARD 9.2 NNE, WI","Latitude":"46.13255","Longitude":"-91.40500","Snowdepth":"8.000","Units":"in","Rept_Date":"2020-12-26 12"},"coordinates":[1937,6721]},{"type":"Point","properties":{"Station_ID":"TOGM5","Station_Nam":"CELINA 2E","Latitude":"47.86630","Longitude":"-93.02660","Snowdepth":"8.000","Units":"in","Rept_Date":"2020-12-26 15"},"coordinates":[1398,7737]},{"type":"Point","properties":{"Station_ID":"OH-ER-5","Station_Nam":"WAKEMAN 4.6 NNE, OH","Latitude":"41.31902","Longitude":"-82.37730","Snowdepth":"8.000","Units":"in","Rept_Date":"2020-12-26 13"},"coordinates":[4934,3900]},{"type":"Point","properties":{"Station_ID":"OH-CY-24","Station_Nam":"PARMA 1.9 NNW, OH","Latitude":"41.40881","Longitude":"-81.74480","Snowdepth":"8.000","Units":"in","Rept_Date":"2020-12-26 13"},"coordinates":[5144,3952]},{"type":"Point","properties":{"Station_ID":"OH-AS-5","Station_Nam":"SULLIVAN 1.1 NNE, OH","Latitude":"41.04200","Longitude":"-82.21260","Snowdepth":"8.000","Units":"in","Rept_Date":"2020-12-26 12"},"coordinates":[4989,3737]},{"type":"Point","properties":{"Station_ID":"OBEO1","Station_Nam":"OBERLIN,OH","Latitude":"41.26670","Longitude":"-82.21670","Snowdepth":"8.000","Units":"in","Rept_Date":"2020-12-26 13"},"coordinates":[4987,3869]},{"type":"Point","properties":{"Station_ID":"NY-ER-102","Station_Nam":"CHEEKTOWAGA 2.7 NE, NY","Latitude":"42.94119","Longitude":"-78.71933","Snowdepth":"8.000","Units":"in","Rept_Date":"2020-12-26 12"},"coordinates":[6148,4850]},{"type":"Point","properties":{"Station_ID":"NY-CT-33","Station_Nam":"GREAT VALLEY 2.2 WNW, NY","Latitude":"42.22790","Longitude":"-78.67580","Snowdepth":"8.000","Units":"in","Rept_Date":"2020-12-26 12"},"coordinates":[6163,4432]},{"type":"Point","properties":{"Station_ID":"NC-MS-21","Station_Nam":"HOT SPRINGS 5.6 SSW, NC","Latitude":"35.81531","Longitude":"-82.86098","Snowdepth":"8.000","Units":"in","Rept_Date":"2020-12-26 09"},"coordinates":[4773,674]},{"type":"Point","properties":{"Station_ID":"NC-MS-20","Station_Nam":"MARSHALL 7.5 WSW, NC","Latitude":"35.77006","Longitude":"-82.81285","Snowdepth":"8.000","Units":"in","Rept_Date":"2020-12-26 12"},"coordinates":[4789,648]},{"type":"Point","properties":{"Station_ID":"MN-GH-28","Station_Nam":"CANNON FALLS 0.5 SE, MN","Latitude":"44.50866","Longitude":"-92.89526","Snowdepth":"8.000","Units":"in","Rept_Date":"2020-12-26 14"},"coordinates":[1442,5769]},{"type":"Point","properties":{"Station_ID":"MI-HG-1","Station_Nam":"HOUGHTON 1.6 ESE, MI","Latitude":"47.10774","Longitude":"-88.52940","Snowdepth":"8.000","Units":"in","Rept_Date":"2020-12-26 13"},"coordinates":[2891,7292]},{"type":"Point","properties":{"Station_ID":"KYNG","Station_Nam":"YOUNGSTOWN-WARREN REG AIRPRT","Latitude":"41.25000","Longitude":"-80.66666","Snowdepth":"8.000","Units":"in","Rept_Date":"2020-12-27 06"},"coordinates":[5502,3859]},{"type":"Point","properties":{"Station_ID":"KY-PR-4","Station_Nam":"VIPER 0.5 N, KY","Latitude":"37.18771","Longitude":"-83.14938","Snowdepth":"8.000","Units":"in","Rept_Date":"2020-12-26 11"},"coordinates":[4678,1479]},{"type":"Point","properties":{"Station_ID":"KCAK","Station_Nam":"AKRON-CANTON REGIONAL AIRPORT","Latitude":"40.91666","Longitude":"-81.45000","Snowdepth":"8.000","Units":"in","Rept_Date":"2020-12-26 18"},"coordinates":[5242,3664]},{"type":"Point","properties":{"Station_ID":"INL","Station_Nam":"FALLS INTERNATIONAL ARPT","Latitude":"48.56640","Longitude":"-93.40310","Snowdepth":"8.000","Units":"in","Rept_Date":"2020-12-27 00"},"coordinates":[1273,8147]},{"type":"Point","properties":{"Station_ID":"IFSM5","Station_Nam":"INTERNATIONAL FALLS SNOW","Latitude":"48.57780","Longitude":"-93.39640","Snowdepth":"8.000","Units":"in","Rept_Date":"2020-12-26 18"},"coordinates":[1276,8154]},{"type":"Point","properties":{"Station_ID":"HIRO1","Station_Nam":"HIRAM","Latitude":"41.30720","Longitude":"-81.01340","Snowdepth":"8.000","Units":"in","Rept_Date":"2020-12-26 13"},"coordinates":[5387,3893]},{"type":"Point","properties":{"Station_ID":"CFLK2","Station_Nam":"CARR FORK LAKE","Latitude":"37.23330","Longitude":"-83.03330","Snowdepth":"8.000","Units":"in","Rept_Date":"2020-12-26 12"},"coordinates":[4716,1505]},{"type":"Point","properties":{"Station_ID":"CAN-ON-668","Station_Nam":"SCOTLAND 2.1 ENE - BSCIA02, CAN","Latitude":"43.02846","Longitude":"-80.34917","Snowdepth":"8.000","Units":"in","Rept_Date":"2020-12-26 12"},"coordinates":[5607,4901]},{"type":"Point","properties":{"Station_ID":"CAK","Station_Nam":"AKRON-CANTON REGIONAL ARPT","Latitude":"40.91640","Longitude":"-81.44250","Snowdepth":"8.000","Units":"in","Rept_Date":"2020-12-27 00"},"coordinates":[5244,3664]},{"type":"Point","properties":{"Station_ID":"BKBW2","Station_Nam":"DAVIS.","Latitude":"39.09830","Longitude":"-79.43190","Snowdepth":"8.000","Units":"in","Rept_Date":"2020-12-26 12"},"coordinates":[5912,2598]},{"type":"Point","properties":{"Station_ID":"41.6544_080.1373","Station_Nam":"MEADVILLE  SNOW SPOTTER (CLE0342)","Latitude":"41.65440","Longitude":"-80.13730","Snowdepth":"8.000","Units":"in","Rept_Date":"2020-12-27 02"},"coordinates":[5678,4096]},{"type":"Point","properties":{"Station_ID":"41.4897_081.8131","Station_Nam":"1 NW Lakewood  Trained Spotter (X4150818)","Latitude":"41.48973","Longitude":"-81.81311","Snowdepth":"8.000","Units":"in","Rept_Date":"2020-12-27 02"},"coordinates":[5121,4000]},{"type":"Point","properties":{"Station_ID":"41.4159_081.9847","Station_Nam":"N RIDGEVILLE (CLE1009)","Latitude":"41.41590","Longitude":"-81.98470","Snowdepth":"8.000","Units":"in","Rept_Date":"2020-12-26 12"},"coordinates":[5064,3956]},{"type":"Point","properties":{"Station_ID":"41.4088_081.7448","Station_Nam":"2 NNW Parma  CoCoRaHS (OH-CY-24)","Latitude":"41.40880","Longitude":"-81.74480","Snowdepth":"8.000","Units":"in","Rept_Date":"2020-12-26 13"},"coordinates":[5144,3952]},{"type":"Point","properties":{"Station_ID":"41.4019_081.8479","Station_Nam":"Cleveland Hopkins Airport  Trained Spotter (CLE1104)","Latitude":"41.40193","Longitude":"-81.84787","Snowdepth":"8.000","Units":"in","Rept_Date":"2020-12-27 00"},"coordinates":[5110,3948]},{"type":"Point","properties":{"Station_ID":"41.2982_081.8151","Station_Nam":"1 SE Strongsville  Trained Spotter (CLE1180)","Latitude":"41.29818","Longitude":"-81.81507","Snowdepth":"8.000","Units":"in","Rept_Date":"2020-12-26 12"},"coordinates":[5121,3887]},{"type":"Point","properties":{"Station_ID":"41.2667_082.2167","Station_Nam":"1 S OBERLIN  CO-OP OBSERVER (OBEO1)","Latitude":"41.26670","Longitude":"-82.21670","Snowdepth":"8.000","Units":"in","Rept_Date":"2020-12-26 13"},"coordinates":[4987,3869]},{"type":"Point","properties":{"Station_ID":"41.2574_080.6670","Station_Nam":"Youngstown Regional Airport  Trained Spotter (CLE2302)","Latitude":"41.25735","Longitude":"-80.66700","Snowdepth":"8.000","Units":"in","Rept_Date":"2020-12-27 00"},"coordinates":[5502,3864]},{"type":"Point","properties":{"Station_ID":"41.2282_080.8472","Station_Nam":"WARREN (CLE2324)","Latitude":"41.22820","Longitude":"-80.84720","Snowdepth":"8.000","Units":"in","Rept_Date":"2020-12-26 13"},"coordinates":[5442,3846]},{"type":"Point","properties":{"Station_ID":"41.2019_081.6342","Station_Nam":"1 N Bath  Trained Spotter (CLE2148)","Latitude":"41.20192","Longitude":"-81.63420","Snowdepth":"8.000","Units":"in","Rept_Date":"2020-12-26 12"},"coordinates":[5181,3831]},{"type":"Point","properties":{"Station_ID":"41.0420_082.2126","Station_Nam":"1 NNE Sullivan  CoCoRaHS (OH-AS-5)","Latitude":"41.04200","Longitude":"-82.21260","Snowdepth":"8.000","Units":"in","Rept_Date":"2020-12-26 12"},"coordinates":[4989,3737]},{"type":"Point","properties":{"Station_ID":"40.8570_081.1246","Station_Nam":"ALLIANCE  SNOW SPOTTER (CLE3201)","Latitude":"40.85700","Longitude":"-81.12460","Snowdepth":"8.000","Units":"in","Rept_Date":"2020-12-26 11"},"coordinates":[5350,3629]},{"type":"Point","properties":{"Station_ID":"CAN-ON-593","Station_Nam":"KITCHENER 4.5 E, CAN","Latitude":"43.45147","Longitude":"-80.43180","Snowdepth":"7.900","Units":"in","Rept_Date":"2020-12-26 14"},"coordinates":[5580,5149]},{"type":"Point","properties":{"Station_ID":"CAN-ON-342","Station_Nam":"LURGAN BEACH 1.4 NNE - LHCC, CAN","Latitude":"44.09777","Longitude":"-81.72765","Snowdepth":"7.900","Units":"in","Rept_Date":"2020-12-26 12"},"coordinates":[5150,5528]},{"type":"Point","properties":{"Station_ID":"CAN-MB-368","Station_Nam":"WHITESHELL 1.3 NE, CAN","Latitude":"49.74405","Longitude":"-95.19123","Snowdepth":"7.700","Units":"in","Rept_Date":"2020-12-26 14"},"coordinates":[680,8837]},{"type":"Point","properties":{"Station_ID":"PA-BT-42","Station_Nam":"BUTLER 1.5 W, PA","Latitude":"40.86398","Longitude":"-79.92596","Snowdepth":"7.500","Units":"in","Rept_Date":"2020-12-26 13"},"coordinates":[5748,3633]},{"type":"Point","properties":{"Station_ID":"OH-LC-10","Station_Nam":"GRANVILLE 4.0 N, OH","Latitude":"40.12820","Longitude":"-82.51580","Snowdepth":"7.500","Units":"in","Rept_Date":"2020-12-26 12"},"coordinates":[4888,3202]},{"type":"Point","properties":{"Station_ID":"NY-CR-5","Station_Nam":"MARATHON 1.0 NW, NY","Latitude":"42.45161","Longitude":"-76.04370","Snowdepth":"7.500","Units":"in","Rept_Date":"2020-12-26 12"},"coordinates":[7037,4563]},{"type":"Point","properties":{"Station_ID":"NC-MS-19","Station_Nam":"MARSHALL 15.1 NNE, NC","Latitude":"36.00835","Longitude":"-82.61821","Snowdepth":"7.500","Units":"in","Rept_Date":"2020-12-26 12"},"coordinates":[4854,787]},{"type":"Point","properties":{"Station_ID":"MN-HN-298","Station_Nam":"EXCELSIOR 1.8 W, MN","Latitude":"44.89722","Longitude":"-93.60286","Snowdepth":"7.500","Units":"in","Rept_Date":"2020-12-26 13"},"coordinates":[1207,5997]},{"type":"Point","properties":{"Station_ID":"MN-CN-36","Station_Nam":"CLOQUET 3.4 ENE, MN","Latitude":"46.74146","Longitude":"-92.42698","Snowdepth":"7.500","Units":"in","Rept_Date":"2020-12-26 13"},"coordinates":[1597,7077]},{"type":"Point","properties":{"Station_ID":"MI-OT-17","Station_Nam":"GAYLORD 4.1 S, MI","Latitude":"44.96388","Longitude":"-84.68467","Snowdepth":"7.500","Units":"in","Rept_Date":"2020-12-26 12"},"coordinates":[4168,6036]},{"type":"Point","properties":{"Station_ID":"OH-MD-1","Station_Nam":"WADSWORTH 4.7 WNW, OH","Latitude":"41.04276","Longitude":"-81.81930","Snowdepth":"7.400","Units":"in","Rept_Date":"2020-12-26 12"},"coordinates":[5119,3738]},{"type":"Point","properties":{"Station_ID":"41.0428_081.8193","Station_Nam":"5 WNW Wadsworth  CoCoRaHS (OH-MD-1)","Latitude":"41.04280","Longitude":"-81.81930","Snowdepth":"7.400","Units":"in","Rept_Date":"2020-12-26 10"},"coordinates":[5119,3738]},{"type":"Point","properties":{"Station_ID":"WRNK2","Station_Nam":"WARNOCK 2","Latitude":"38.49460","Longitude":"-83.01830","Snowdepth":"7.000","Units":"in","Rept_Date":"2020-12-26 11"},"coordinates":[4721,2244]},{"type":"Point","properties":{"Station_ID":"WRIM5","Station_Nam":"WRIGHT 3E","Latitude":"46.68040","Longitude":"-92.95420","Snowdepth":"7.000","Units":"in","Rept_Date":"2020-12-26 12"},"coordinates":[1422,7042]},{"type":"Point","properties":{"Station_ID":"WI-WB-2","Station_Nam":"STONE LAKE 2.0 NW, WI","Latitude":"45.85960","Longitude":"-91.57710","Snowdepth":"7.000","Units":"in","Rept_Date":"2020-12-26 13"},"coordinates":[1880,6561]},{"type":"Point","properties":{"Station_ID":"WI-PC-5","Station_Nam":"RIVER FALLS 1.2 SSW, WI","Latitude":"44.84032","Longitude":"-92.63500","Snowdepth":"7.000","Units":"in","Rept_Date":"2020-12-26 13"},"coordinates":[1528,5963]},{"type":"Point","properties":{"Station_ID":"WI-PC-10","Station_Nam":"RIVER FALLS 1.4 S, WI","Latitude":"44.83580","Longitude":"-92.62100","Snowdepth":"7.000","Units":"in","Rept_Date":"2020-12-26 13"},"coordinates":[1533,5961]},{"type":"Point","properties":{"Station_ID":"WI-DG-20","Station_Nam":"SOLON SPRINGS 1.2 W, WI","Latitude":"46.35217","Longitude":"-91.84405","Snowdepth":"7.000","Units":"in","Rept_Date":"2020-12-26 13"},"coordinates":[1791,6849]},{"type":"Point","properties":{"Station_ID":"WI-BY-2","Station_Nam":"MELLEN 18.6 SW, WI","Latitude":"46.16937","Longitude":"-90.98090","Snowdepth":"7.000","Units":"in","Rept_Date":"2020-12-26 13"},"coordinates":[2078,6742]},{"type":"Point","properties":{"Station_ID":"WI-BY-14","Station_Nam":"ASHLAND 9.8 W, WI","Latitude":"46.59742","Longitude":"-91.07856","Snowdepth":"7.000","Units":"in","Rept_Date":"2020-12-26 12"},"coordinates":[2045,6993]},{"type":"Point","properties":{"Station_ID":"WHBK2","Station_Nam":"WHITESBURG,KY","Latitude":"37.10280","Longitude":"-82.80470","Snowdepth":"7.000","Units":"in","Rept_Date":"2020-12-26 12"},"coordinates":[4792,1429]},{"type":"Point","properties":{"Station_ID":"SBNW3","Station_Nam":"STEUBEN 4SE","Latitude":"43.13430","Longitude":"-90.83720","Snowdepth":"7.000","Units":"in","Rept_Date":"2020-12-26 13"},"coordinates":[2125,4963]},{"type":"Point","properties":{"Station_ID":"RCVW2","Station_Nam":"ROCK CAVE 2NE","Latitude":"38.85610","Longitude":"-80.30740","Snowdepth":"7.000","Units":"in","Rept_Date":"2020-12-26 13"},"coordinates":[5621,2456]},{"type":"Point","properties":{"Station_ID":"PRDM4","Station_Nam":"PARADISE","Latitude":"46.60380","Longitude":"-85.03960","Snowdepth":"7.000","Units":"in","Rept_Date":"2020-12-26 11"},"coordinates":[4050,6997]},{"type":"Point","properties":{"Station_ID":"PA-BT-47","Station_Nam":"VALENCIA 0.6 E, PA","Latitude":"40.67625","Longitude":"-79.97704","Snowdepth":"7.000","Units":"in","Rept_Date":"2020-12-26 13"},"coordinates":[5731,3523]},{"type":"Point","properties":{"Station_ID":"OLVK2","Station_Nam":"OLIVE HILL 5NE","Latitude":"38.34230","Longitude":"-83.10380","Snowdepth":"7.000","Units":"in","Rept_Date":"2020-12-26 13"},"coordinates":[4693,2155]},{"type":"Point","properties":{"Station_ID":"OH-MH-11","Station_Nam":"CANFIELD 0.5 N, OH","Latitude":"41.03644","Longitude":"-80.76585","Snowdepth":"7.000","Units":"in","Rept_Date":"2020-12-26 14"},"coordinates":[5469,3734]},{"type":"Point","properties":{"Station_ID":"OH-MD-2","Station_Nam":"BRUNSWICK 0.5 NE, OH","Latitude":"41.24980","Longitude":"-81.81330","Snowdepth":"7.000","Units":"in","Rept_Date":"2020-12-26 12"},"coordinates":[5121,3859]},{"type":"Point","properties":{"Station_ID":"OH-LC-28","Station_Nam":"NEWARK 9.9 ENE, OH","Latitude":"40.14487","Longitude":"-82.26640","Snowdepth":"7.000","Units":"in","Rept_Date":"2020-12-26 12"},"coordinates":[4971,3212]},{"type":"Point","properties":{"Station_ID":"OH-CW-1","Station_Nam":"GALION 1.1 W, OH","Latitude":"40.73024","Longitude":"-82.81170","Snowdepth":"7.000","Units":"in","Rept_Date":"2020-12-26 12"},"coordinates":[4790,3555]},{"type":"Point","properties":{"Station_ID":"NY-ER-177","Station_Nam":"CLARENCE 3.8 SSW, NY","Latitude":"42.96084","Longitude":"-78.66569","Snowdepth":"7.000","Units":"in","Rept_Date":"2020-12-26 12"},"coordinates":[6166,4862]},{"type":"Point","properties":{"Station_ID":"NWLO1","Station_Nam":"NEW LEXINGTON 2 NW","Latitude":"39.73320","Longitude":"-82.21560","Snowdepth":"7.000","Units":"in","Rept_Date":"2020-12-26 12"},"coordinates":[4988,2970]},{"type":"Point","properties":{"Station_ID":"NOHM5","Station_Nam":"NORTHOME","Latitude":"47.83590","Longitude":"-94.25550","Snowdepth":"7.000","Units":"in","Rept_Date":"2020-12-26 13"},"coordinates":[990,7719]},{"type":"Point","properties":{"Station_ID":"NH-MR-60","Station_Nam":"SOUTH SUTTON 1.3 SE, NH","Latitude":"43.29531","Longitude":"-71.90238","Snowdepth":"7.000","Units":"in","Rept_Date":"2020-12-26 13"},"coordinates":[8411,5058]},{"type":"Point","properties":{"Station_ID":"NC-WT-68","Station_Nam":"VILAS 6.3 NNW, NC","Latitude":"36.33379","Longitude":"-81.82169","Snowdepth":"7.000","Units":"in","Rept_Date":"2020-12-26 12"},"coordinates":[5118,978]},{"type":"Point","properties":{"Station_ID":"NC-ML-1","Station_Nam":"BAKERSVILLE 5.4 N, NC","Latitude":"36.09200","Longitude":"-82.17500","Snowdepth":"7.000","Units":"in","Rept_Date":"2020-12-26 12"},"coordinates":[5001,836]},{"type":"Point","properties":{"Station_ID":"MSP","Station_Nam":"MINNEAPOLIS-ST PAUL INTL AP","Latitude":"44.88310","Longitude":"-93.22890","Snowdepth":"7.000","Units":"in","Rept_Date":"2020-12-27 00"},"coordinates":[1331,5988]},{"type":"Point","properties":{"Station_ID":"MNSM4","Station_Nam":"MUNISING","Latitude":"46.41210","Longitude":"-86.66250","Snowdepth":"7.000","Units":"in","Rept_Date":"2020-12-26 11"},"coordinates":[3511,6884]},{"type":"Point","properties":{"Station_ID":"MN-IS-18","Station_Nam":"BRAHAM 0.7 SW, MN","Latitude":"45.71379","Longitude":"-93.18095","Snowdepth":"7.000","Units":"in","Rept_Date":"2020-12-26 14"},"coordinates":[1347,6475]},{"type":"Point","properties":{"Station_ID":"MN-HN-72","Station_Nam":"MAPLE GROVE 2.9 NE, MN","Latitude":"45.13953","Longitude":"-93.42070","Snowdepth":"7.000","Units":"in","Rept_Date":"2020-12-26 14"},"coordinates":[1268,6139]},{"type":"Point","properties":{"Station_ID":"MGYP1","Station_Nam":"MONTGOMERY DAM","Latitude":"40.64830","Longitude":"-80.38500","Snowdepth":"7.000","Units":"in","Rept_Date":"2020-12-26 11"},"coordinates":[5595,3507]},{"type":"Point","properties":{"Station_ID":"KMSP","Station_Nam":"MINNEAPOLIS-ST PAUL INTERNATIONAL","Latitude":"44.86666","Longitude":"-93.21666","Snowdepth":"7.000","Units":"in","Rept_Date":"2020-12-27 06"},"coordinates":[1335,5979]},{"type":"Point","properties":{"Station_ID":"HVAW2","Station_Nam":"HACKER VALLEY","Latitude":"38.61950","Longitude":"-80.38210","Snowdepth":"7.000","Units":"in","Rept_Date":"2020-12-26 12"},"coordinates":[5596,2318]},{"type":"Point","properties":{"Station_ID":"GWDP1","Station_Nam":"DASHIELDS DAM","Latitude":"40.54940","Longitude":"-80.20610","Snowdepth":"7.000","Units":"in","Rept_Date":"2020-12-26 11"},"coordinates":[5655,3449]},{"type":"Point","properties":{"Station_ID":"CMKW3","Station_Nam":"CLAM LAKE 4W","Latitude":"46.16940","Longitude":"-90.98080","Snowdepth":"7.000","Units":"in","Rept_Date":"2020-12-26 13"},"coordinates":[2078,6742]},{"type":"Point","properties":{"Station_ID":"CLE","Station_Nam":"CLEVELAND, OH","Latitude":"41.41170","Longitude":"-81.84970","Snowdepth":"7.000","Units":"in","Rept_Date":"2020-12-27 00"},"coordinates":[5109,3954]},{"type":"Point","properties":{"Station_ID":"CAAW2","Station_Nam":"CANAAN VALLEY","Latitude":"39.05890","Longitude":"-79.44030","Snowdepth":"7.000","Units":"in","Rept_Date":"2020-12-26 14"},"coordinates":[5909,2575]},{"type":"Point","properties":{"Station_ID":"BERO1","Station_Nam":"BERLIN LAKE DAM","Latitude":"41.11690","Longitude":"-81.00940","Snowdepth":"7.000","Units":"in","Rept_Date":"2020-12-26 12"},"coordinates":[5388,3781]},{"type":"Point","properties":{"Station_ID":"41.5363_080.8353","Station_Nam":"ORWELL 1E  SNOW SPOTTER (CLE1445)","Latitude":"41.53630","Longitude":"-80.83530","Snowdepth":"7.000","Units":"in","Rept_Date":"2020-12-26 13"},"coordinates":[5446,4027]},{"type":"Point","properties":{"Station_ID":"41.2288_081.7159","Station_Nam":"HINCKLEY  TRAINED SPOTTER (CLE2006)","Latitude":"41.22880","Longitude":"-81.71590","Snowdepth":"7.000","Units":"in","Rept_Date":"2020-12-26 14"},"coordinates":[5153,3847]},{"type":"Point","properties":{"Station_ID":"41.1403_081.4956","Station_Nam":"CUYAHOGA FALLS (CLE2128)","Latitude":"41.14030","Longitude":"-81.49560","Snowdepth":"7.000","Units":"in","Rept_Date":"2020-12-26 13"},"coordinates":[5227,3795]},{"type":"Point","properties":{"Station_ID":"41.1229_081.6252","Station_Nam":"FAIRLAWN  SNOW SPOTTER (X4110816)","Latitude":"41.12290","Longitude":"-81.62520","Snowdepth":"7.000","Units":"in","Rept_Date":"2020-12-26 15"},"coordinates":[5184,3785]},{"type":"Point","properties":{"Station_ID":"41.1184_081.4397","Station_Nam":"TALLMADGE (CLE2118)","Latitude":"41.11840","Longitude":"-81.43970","Snowdepth":"7.000","Units":"in","Rept_Date":"2020-12-26 14"},"coordinates":[5245,3782]},{"type":"Point","properties":{"Station_ID":"41.1169_081.0094","Station_Nam":"Berlin Lake Dam  Co-Op Observer (BERO1)","Latitude":"41.11690","Longitude":"-81.00940","Snowdepth":"7.000","Units":"in","Rept_Date":"2020-12-26 12"},"coordinates":[5388,3781]},{"type":"Point","properties":{"Station_ID":"41.1091_082.4398","Station_Nam":"3 NW New London  Trained Spotter (CLE1905)","Latitude":"41.10907","Longitude":"-82.43975","Snowdepth":"7.000","Units":"in","Rept_Date":"2020-12-26 11"},"coordinates":[4913,3777]},{"type":"Point","properties":{"Station_ID":"41.0525_081.3883","Station_Nam":"1 ENE Mogadore  Trained Spotter (CLE2227)","Latitude":"41.05249","Longitude":"-81.38832","Snowdepth":"7.000","Units":"in","Rept_Date":"2020-12-26 14"},"coordinates":[5262,3743]},{"type":"Point","properties":{"Station_ID":"41.0364_080.7659","Station_Nam":"1 N Canfield  CoCoRaHS (OH-MH-11)","Latitude":"41.03640","Longitude":"-80.76590","Snowdepth":"7.000","Units":"in","Rept_Date":"2020-12-26 14"},"coordinates":[5469,3734]},{"type":"Point","properties":{"Station_ID":"41.0364_080.7658","Station_Nam":"Canfield  Trained Spotter (CLE3322)","Latitude":"41.03638","Longitude":"-80.76579","Snowdepth":"7.000","Units":"in","Rept_Date":"2020-12-26 13"},"coordinates":[5469,3734]},{"type":"Point","properties":{"Station_ID":"40.9167_081.4354","Station_Nam":"Akron-Canton Airport  Trained Spotter (CLE2105)","Latitude":"40.91669","Longitude":"-81.43544","Snowdepth":"7.000","Units":"in","Rept_Date":"2020-12-27 00"},"coordinates":[5247,3664]},{"type":"Point","properties":{"Station_ID":"40.7302_082.8117","Station_Nam":"1 W Galion  CoCoRaHS (OH-CW-1)","Latitude":"40.73020","Longitude":"-82.81170","Snowdepth":"7.000","Units":"in","Rept_Date":"2020-12-26 12"},"coordinates":[4790,3555]},{"type":"Point","properties":{"Station_ID":"40.7301_082.8116","Station_Nam":"GALION (CLE2801)","Latitude":"40.73010","Longitude":"-82.81160","Snowdepth":"7.000","Units":"in","Rept_Date":"2020-12-26 13"},"coordinates":[4790,3555]},{"type":"Point","properties":{"Station_ID":"40.6532_081.2911","Station_Nam":"MAGNOLIA  SNOW SPOTTER (CLE3234)","Latitude":"40.65320","Longitude":"-81.29110","Snowdepth":"7.000","Units":"in","Rept_Date":"2020-12-26 13"},"coordinates":[5294,3509]},{"type":"Point","properties":{"Station_ID":"OH-LC-29","Station_Nam":"PATASKALA 0.2 E, OH","Latitude":"40.00081","Longitude":"-82.66960","Snowdepth":"6.900","Units":"in","Rept_Date":"2020-12-26 13"},"coordinates":[4837,3127]},{"type":"Point","properties":{"Station_ID":"CAN-ON-477","Station_Nam":"CALEDONIA 0.3 NW - GRCA, CAN","Latitude":"43.07135","Longitude":"-79.95667","Snowdepth":"6.900","Units":"in","Rept_Date":"2020-12-26 12"},"coordinates":[5737,4927]},{"type":"Point","properties":{"Station_ID":"WV-PR-19","Station_Nam":"TERRA ALTA 3.3 ENE, WV","Latitude":"39.45929","Longitude":"-79.48470","Snowdepth":"6.700","Units":"in","Rept_Date":"2020-12-26 12"},"coordinates":[5894,2810]},{"type":"Point","properties":{"Station_ID":"WI-BY-6","Station_Nam":"BARNES 2.2 S, WI","Latitude":"46.30264","Longitude":"-91.50320","Snowdepth":"6.500","Units":"in","Rept_Date":"2020-12-26 13"},"coordinates":[1904,6820]},{"type":"Point","properties":{"Station_ID":"PA-MR-12","Station_Nam":"HERMITAGE 2.2 SSW, PA","Latitude":"41.19941","Longitude":"-80.45645","Snowdepth":"6.500","Units":"in","Rept_Date":"2020-12-26 14"},"coordinates":[5572,3830]},{"type":"Point","properties":{"Station_ID":"OH-SC-8","Station_Nam":"LUCASVILLE 0.9 ENE, OH","Latitude":"38.88450","Longitude":"-82.98017","Snowdepth":"6.500","Units":"in","Rept_Date":"2020-12-26 12"},"coordinates":[4734,2473]},{"type":"Point","properties":{"Station_ID":"OH-CC-4","Station_Nam":"FRESNO 2.2 NNE, OH","Latitude":"40.35825","Longitude":"-81.71925","Snowdepth":"6.500","Units":"in","Rept_Date":"2020-12-26 13"},"coordinates":[5152,3337]},{"type":"Point","properties":{"Station_ID":"KY-EL-1","Station_Nam":"OLIVE HILL 9.0 SSE, KY","Latitude":"38.19330","Longitude":"-83.08170","Snowdepth":"6.500","Units":"in","Rept_Date":"2020-12-26 14"},"coordinates":[4700,2068]},{"type":"Point","properties":{"Station_ID":"IN-SJ-28","Station_Nam":"SOUTH BEND 4.6 SE, IN","Latitude":"41.62090","Longitude":"-86.21520","Snowdepth":"6.500","Units":"in","Rept_Date":"2020-12-26 12"},"coordinates":[3660,4077]},{"type":"Point","properties":{"Station_ID":"IN-SJ-58","Station_Nam":"SOUTH BEND 4.5 SE, IN","Latitude":"41.62246","Longitude":"-86.21630","Snowdepth":"6.400","Units":"in","Rept_Date":"2020-12-26 13"},"coordinates":[3659,4077]},{"type":"Point","properties":{"Station_ID":"HPN04_MADIS","Station_Nam":"HANOVER","Latitude":"45.16770","Longitude":"-93.63430","Snowdepth":"6.300","Units":"in","Rept_Date":"2020-12-27 06"},"coordinates":[1197,6155]},{"type":"Point","properties":{"Station_ID":"PA-WS-8","Station_Nam":"VENETIA 0.7 WNW, PA","Latitude":"40.25222","Longitude":"-80.05390","Snowdepth":"6.200","Units":"in","Rept_Date":"2020-12-26 15"},"coordinates":[5705,3274]},{"type":"Point","properties":{"Station_ID":"WV-OH-6","Station_Nam":"VALLEY GROVE 3.5 NNE, WV","Latitude":"40.13800","Longitude":"-80.54350","Snowdepth":"6.000","Units":"in","Rept_Date":"2020-12-26 12"},"coordinates":[5543,3208]},{"type":"Point","properties":{"Station_ID":"WV-NC-4","Station_Nam":"CRAIGSVILLE 0.6 NE, WV","Latitude":"38.33698","Longitude":"-80.64520","Snowdepth":"6.000","Units":"in","Rept_Date":"2020-12-26 12"},"coordinates":[5509,2152]},{"type":"Point","properties":{"Station_ID":"WV-KN-31","Station_Nam":"CHARLESTON 2.3 W, WV","Latitude":"38.34941","Longitude":"-81.67339","Snowdepth":"6.000","Units":"in","Rept_Date":"2020-12-26 12"},"coordinates":[5168,2159]},{"type":"Point","properties":{"Station_ID":"WV-DD-1","Station_Nam":"CENTER POINT 2.2 NNW, WV","Latitude":"39.41954","Longitude":"-80.65610","Snowdepth":"6.000","Units":"in","Rept_Date":"2020-12-26 12"},"coordinates":[5505,2786]},{"type":"Point","properties":{"Station_ID":"WI-AS-4","Station_Nam":"ASHLAND 0.5 WNW, WI","Latitude":"46.58240","Longitude":"-90.88390","Snowdepth":"6.000","Units":"in","Rept_Date":"2020-12-26 13"},"coordinates":[2110,6984]},{"type":"Point","properties":{"Station_ID":"VADM5","Station_Nam":"VADNAIS LAKE","Latitude":"45.04820","Longitude":"-93.09590","Snowdepth":"6.000","Units":"in","Rept_Date":"2020-12-26 20"},"coordinates":[1375,6085]},{"type":"Point","properties":{"Station_ID":"TN-HC-2","Station_Nam":"KYLES FORD 1.0 N, TN","Latitude":"36.58910","Longitude":"-83.03980","Snowdepth":"6.000","Units":"in","Rept_Date":"2020-12-26 13"},"coordinates":[4714,1128]},{"type":"Point","properties":{"Station_ID":"SWEI4","Station_Nam":"SWEA CITY,IA","Latitude":"43.38530","Longitude":"-94.25000","Snowdepth":"6.000","Units":"in","Rept_Date":"2020-12-26 12"},"coordinates":[992,5111]},{"type":"Point","properties":{"Station_ID":"SUMW2","Station_Nam":"SUMMERSVILLE LAKE","Latitude":"38.22010","Longitude":"-80.89380","Snowdepth":"6.000","Units":"in","Rept_Date":"2020-12-26 12"},"coordinates":[5426,2084]},{"type":"Point","properties":{"Station_ID":"SKLK2","Station_Nam":"SKYLINE,KY","Latitude":"37.06670","Longitude":"-82.96670","Snowdepth":"6.000","Units":"in","Rept_Date":"2020-12-26 12"},"coordinates":[4738,1408]},{"type":"Point","properties":{"Station_ID":"SBSI3","Station_Nam":"SOUTH BEND","Latitude":"41.70050","Longitude":"-86.24870","Snowdepth":"6.000","Units":"in","Rept_Date":"2020-12-27 05"},"coordinates":[3649,4123]},{"type":"Point","properties":{"Station_ID":"SBNN6","Station_Nam":"SANBORN","Latitude":"43.17050","Longitude":"-78.81810","Snowdepth":"6.000","Units":"in","Rept_Date":"2020-12-26 12"},"coordinates":[6115,4985]},{"type":"Point","properties":{"Station_ID":"SBN","Station_Nam":"SOUTH BEND REGIONAL AIRPORT","Latitude":"41.70890","Longitude":"-86.31830","Snowdepth":"6.000","Units":"in","Rept_Date":"2020-12-27 00"},"coordinates":[3625,4128]},{"type":"Point","properties":{"Station_ID":"SACO1","Station_Nam":"SALEM CENTER 2 E","Latitude":"39.07010","Longitude":"-82.29090","Snowdepth":"6.000","Units":"in","Rept_Date":"2020-12-26 12"},"coordinates":[4963,2582]},{"type":"Point","properties":{"Station_ID":"ROBW3","Station_Nam":"ROBERTS WWTP","Latitude":"44.97070","Longitude":"-92.56200","Snowdepth":"6.000","Units":"in","Rept_Date":"2020-12-26 14"},"coordinates":[1553,6040]},{"type":"Point","properties":{"Station_ID":"RKWI4","Station_Nam":"ROCKWELL CITY,IA","Latitude":"42.40000","Longitude":"-94.61670","Snowdepth":"6.000","Units":"in","Rept_Date":"2020-12-26 13"},"coordinates":[870,4533]},{"type":"Point","properties":{"Station_ID":"PNVK2","Station_Nam":"DRAINAGE BASIN-BIG SANDY #1","Latitude":"37.81670","Longitude":"-82.78330","Snowdepth":"6.000","Units":"in","Rept_Date":"2020-12-26 12"},"coordinates":[4799,1847]},{"type":"Point","properties":{"Station_ID":"PHEW3","Station_Nam":"PHELPS","Latitude":"46.06630","Longitude":"-89.07520","Snowdepth":"6.000","Units":"in","Rept_Date":"2020-12-26 13"},"coordinates":[2710,6682]},{"type":"Point","properties":{"Station_ID":"PDGM4","Station_Nam":"PAULDING","Latitude":"46.39760","Longitude":"-89.17940","Snowdepth":"6.000","Units":"in","Rept_Date":"2020-12-26 15"},"coordinates":[2676,6876]},{"type":"Point","properties":{"Station_ID":"PA-VN-7","Station_Nam":"COOPERSTOWN 1.3 E, PA","Latitude":"41.50067","Longitude":"-79.84970","Snowdepth":"6.000","Units":"in","Rept_Date":"2020-12-26 12"},"coordinates":[5773,4006]},{"type":"Point","properties":{"Station_ID":"PA-MR-5","Station_Nam":"WEST MIDDLESEX 2.1 S, PA","Latitude":"41.14334","Longitude":"-80.45519","Snowdepth":"6.000","Units":"in","Rept_Date":"2020-12-26 14"},"coordinates":[5572,3797]},{"type":"Point","properties":{"Station_ID":"PA-BT-34","Station_Nam":"BUTLER 1.9 WSW, PA","Latitude":"40.85573","Longitude":"-79.93139","Snowdepth":"6.000","Units":"in","Rept_Date":"2020-12-26 12"},"coordinates":[5746,3628]},{"type":"Point","properties":{"Station_ID":"PA-BT-15","Station_Nam":"FOX RUN 1.6 NNE, PA","Latitude":"40.72384","Longitude":"-80.07056","Snowdepth":"6.000","Units":"in","Rept_Date":"2020-12-26 11"},"coordinates":[5700,3551]},{"type":"Point","properties":{"Station_ID":"PA-AL-1","Station_Nam":"BRIDGEVILLE 1.4 SW, PA","Latitude":"40.34174","Longitude":"-80.12290","Snowdepth":"6.000","Units":"in","Rept_Date":"2020-12-26 12"},"coordinates":[5682,3327]},{"type":"Point","properties":{"Station_ID":"OH-PT-12","Station_Nam":"MOGADORE 4.7 SE, OH","Latitude":"41.00849","Longitude":"-81.32900","Snowdepth":"6.000","Units":"in","Rept_Date":"2020-12-26 12"},"coordinates":[5282,3718]},{"type":"Point","properties":{"Station_ID":"OH-MK-12","Station_Nam":"NORWICH 1.1 SE, OH","Latitude":"39.97526","Longitude":"-81.77666","Snowdepth":"6.000","Units":"in","Rept_Date":"2020-12-26 12"},"coordinates":[5133,3112]},{"type":"Point","properties":{"Station_ID":"OH-LR-8","Station_Nam":"ELYRIA 0.4 SE, OH","Latitude":"41.37628","Longitude":"-82.09920","Snowdepth":"6.000","Units":"in","Rept_Date":"2020-12-26 13"},"coordinates":[5026,3933]},{"type":"Point","properties":{"Station_ID":"OH-CB-18","Station_Nam":"WELLSVILLE 4.3 N, OH","Latitude":"40.66436","Longitude":"-80.64236","Snowdepth":"6.000","Units":"in","Rept_Date":"2020-12-26 14"},"coordinates":[5510,3516]},{"type":"Point","properties":{"Station_ID":"NY-TG-26","Station_Nam":"CANDOR 0.7 NW, NY","Latitude":"42.23428","Longitude":"-76.34758","Snowdepth":"6.000","Units":"in","Rept_Date":"2020-12-26 12"},"coordinates":[6936,4436]},{"type":"Point","properties":{"Station_ID":"NY-NG-2","Station_Nam":"NORTH TONAWANDA 1.0 NNE, NY","Latitude":"43.05725","Longitude":"-78.86170","Snowdepth":"6.000","Units":"in","Rept_Date":"2020-12-26 12"},"coordinates":[6101,4918]},{"type":"Point","properties":{"Station_ID":"NY-ER-86","Station_Nam":"TONAWANDA 1.5 NNE, NY","Latitude":"43.00507","Longitude":"-78.86600","Snowdepth":"6.000","Units":"in","Rept_Date":"2020-12-26 14"},"coordinates":[6100,4888]},{"type":"Point","properties":{"Station_ID":"NY-CT-2","Station_Nam":"RANDOLPH 1.1 ENE, NY","Latitude":"42.17056","Longitude":"-78.96120","Snowdepth":"6.000","Units":"in","Rept_Date":"2020-12-26 12"},"coordinates":[6068,4399]},{"type":"Point","properties":{"Station_ID":"NY-AL-11","Station_Nam":"WELLSVILLE 2.4 ENE, NY","Latitude":"42.13750","Longitude":"-77.90550","Snowdepth":"6.000","Units":"in","Rept_Date":"2020-12-26 12"},"coordinates":[6418,4379]},{"type":"Point","properties":{"Station_ID":"NTON6","Station_Nam":"NORTH TONAWANDA","Latitude":"43.05730","Longitude":"-78.86170","Snowdepth":"6.000","Units":"in","Rept_Date":"2020-12-26 12"},"coordinates":[6101,4918]},{"type":"Point","properties":{"Station_ID":"NILM4","Station_Nam":"NILES","Latitude":"41.84050","Longitude":"-86.26580","Snowdepth":"6.000","Units":"in","Rept_Date":"2020-12-26 19"},"coordinates":[3643,4205]},{"type":"Point","properties":{"Station_ID":"NC-ML-15","Station_Nam":"BULADEAN 1.3 ESE, NC","Latitude":"36.10222","Longitude":"-82.17261","Snowdepth":"6.000","Units":"in","Rept_Date":"2020-12-26 14"},"coordinates":[5002,842]},{"type":"Point","properties":{"Station_ID":"NC-AV-1","Station_Nam":"FLAT SPRINGS 1.2 E, NC","Latitude":"36.25250","Longitude":"-81.91330","Snowdepth":"6.000","Units":"in","Rept_Date":"2020-12-26 12"},"coordinates":[5088,931]},{"type":"Point","properties":{"Station_ID":"MQT","Station_Nam":"MARQUETTE, MI","Latitude":"46.53140","Longitude":"-87.54920","Snowdepth":"6.000","Units":"in","Rept_Date":"2020-12-27 06"},"coordinates":[3217,6954]},{"type":"Point","properties":{"Station_ID":"MPXM5","Station_Nam":"CHANHASSEN WSFO","Latitude":"44.84960","Longitude":"-93.56440","Snowdepth":"6.000","Units":"in","Rept_Date":"2020-12-27 06"},"coordinates":[1220,5969]},{"type":"Point","properties":{"Station_ID":"MN-SH-34","Station_Nam":"ZIMMERMAN 0.9 NNE, MN","Latitude":"45.45470","Longitude":"-93.59166","Snowdepth":"6.000","Units":"in","Rept_Date":"2020-12-26 12"},"coordinates":[1211,6323]},{"type":"Point","properties":{"Station_ID":"MN-RM-120","Station_Nam":"MAPLEWOOD 5.6 SSE, MN","Latitude":"44.90588","Longitude":"-92.99712","Snowdepth":"6.000","Units":"in","Rept_Date":"2020-12-26 15"},"coordinates":[1408,6002]},{"type":"Point","properties":{"Station_ID":"MN-IT-23","Station_Nam":"BOVEY 13.4 N, MN","Latitude":"47.48855","Longitude":"-93.43497","Snowdepth":"6.000","Units":"in","Rept_Date":"2020-12-26 13"},"coordinates":[1263,7515]},{"type":"Point","properties":{"Station_ID":"MN-IS-21","Station_Nam":"ISANTI 5.0 SW, MN","Latitude":"45.43360","Longitude":"-93.30200","Snowdepth":"6.000","Units":"in","Rept_Date":"2020-12-26 14"},"coordinates":[1307,6311]},{"type":"Point","properties":{"Station_ID":"MN-HN-31","Station_Nam":"MAPLE GROVE 1.0 NNE, MN","Latitude":"45.12261","Longitude":"-93.45790","Snowdepth":"6.000","Units":"in","Rept_Date":"2020-12-26 15"},"coordinates":[1255,6129]},{"type":"Point","properties":{"Station_ID":"MN-DK-53","Station_Nam":"LAKEVILLE 3.8 ENE, MN","Latitude":"44.70423","Longitude":"-93.18460","Snowdepth":"6.000","Units":"in","Rept_Date":"2020-12-26 14"},"coordinates":[1346,5883]},{"type":"Point","properties":{"Station_ID":"MN-CW-22","Station_Nam":"FORT RIPLEY 0.8 N, MN","Latitude":"46.18089","Longitude":"-94.36510","Snowdepth":"6.000","Units":"in","Rept_Date":"2020-12-26 13"},"coordinates":[954,6749]},{"type":"Point","properties":{"Station_ID":"MMNV1","Station_Nam":"MT. MANSFIELD","Latitude":"44.52480","Longitude":"-72.81540","Snowdepth":"6.000","Units":"in","Rept_Date":"2020-12-26 21"},"coordinates":[8108,5778]},{"type":"Point","properties":{"Station_ID":"MI-OT-4","Station_Nam":"GAYLORD 1.7 WNW, MI","Latitude":"45.03280","Longitude":"-84.71090","Snowdepth":"6.000","Units":"in","Rept_Date":"2020-12-26 13"},"coordinates":[4159,6076]},{"type":"Point","properties":{"Station_ID":"MI-OT-16","Station_Nam":"GAYLORD 2.2 SSE, MI","Latitude":"44.99441","Longitude":"-84.65820","Snowdepth":"6.000","Units":"in","Rept_Date":"2020-12-26 14"},"coordinates":[4177,6054]},{"type":"Point","properties":{"Station_ID":"MI-BN-2","Station_Nam":"STEVENSVILLE 1.7 SSE, MI","Latitude":"41.99114","Longitude":"-86.50860","Snowdepth":"6.000","Units":"in","Rept_Date":"2020-12-26 12"},"coordinates":[3562,4294]},{"type":"Point","properties":{"Station_ID":"MFD","Station_Nam":"LAHM MUNICIPAL AIRPORT","Latitude":"40.82140","Longitude":"-82.51640","Snowdepth":"6.000","Units":"in","Rept_Date":"2020-12-27 00"},"coordinates":[4888,3608]},{"type":"Point","properties":{"Station_ID":"MD-GR-4","Station_Nam":"MC HENRY 4.8 SSE, MD","Latitude":"39.48539","Longitude":"-79.31830","Snowdepth":"6.000","Units":"in","Rept_Date":"2020-12-26 13"},"coordinates":[5949,2825]},{"type":"Point","properties":{"Station_ID":"LTVN6","Station_Nam":"LITTLE VALLEY","Latitude":"42.24730","Longitude":"-78.81250","Snowdepth":"6.000","Units":"in","Rept_Date":"2020-12-26 12"},"coordinates":[6117,4444]},{"type":"Point","properties":{"Station_ID":"KY-BE-6","Station_Nam":"CAMPTON 9.3 SE, KY","Latitude":"37.65732","Longitude":"-83.40796","Snowdepth":"6.000","Units":"in","Rept_Date":"2020-12-26 12"},"coordinates":[4592,1754]},{"type":"Point","properties":{"Station_ID":"KCLE","Station_Nam":"CLEVELAND-HOPKINS INTERNATIONAL","Latitude":"41.40000","Longitude":"-81.85000","Snowdepth":"6.000","Units":"in","Rept_Date":"2020-12-27 06"},"coordinates":[5109,3947]},{"type":"Point","properties":{"Station_ID":"HUNW2","Station_Nam":"HUNTINGTON AIRPORT SNOW OBSERVATIONS","Latitude":"38.36940","Longitude":"-82.55690","Snowdepth":"6.000","Units":"in","Rept_Date":"2020-12-26 12"},"coordinates":[4874,2171]},{"type":"Point","properties":{"Station_ID":"HTLN3","Station_Nam":"HERMIT LAKE SNOWPLOT","Latitude":"44.26130","Longitude":"-71.28330","Snowdepth":"6.000","Units":"in","Rept_Date":"2020-12-26 10"},"coordinates":[8617,5624]},{"type":"Point","properties":{"Station_ID":"HGHN6","Station_Nam":"HIGHMARKET","Latitude":"43.60510","Longitude":"-75.55430","Snowdepth":"6.000","Units":"in","Rept_Date":"2020-12-26 11"},"coordinates":[7199,5239]},{"type":"Point","properties":{"Station_ID":"GOVN6","Station_Nam":"GOUVERNEUR 3 NW","Latitude":"44.35400","Longitude":"-75.51230","Snowdepth":"6.000","Units":"in","Rept_Date":"2020-12-26 12"},"coordinates":[7213,5678]},{"type":"Point","properties":{"Station_ID":"GAYM4","Station_Nam":"GAYLORD","Latitude":"45.03320","Longitude":"-84.71130","Snowdepth":"6.000","Units":"in","Rept_Date":"2020-12-26 13"},"coordinates":[4159,6076]},{"type":"Point","properties":{"Station_ID":"FTSN7","Station_Nam":"FLAT SPRINGS 1E","Latitude":"36.25270","Longitude":"-81.91360","Snowdepth":"6.000","Units":"in","Rept_Date":"2020-12-26 12"},"coordinates":[5088,931]},{"type":"Point","properties":{"Station_ID":"FORM5","Station_Nam":"FOREST LAKE 5NE","Latitude":"45.33170","Longitude":"-92.89820","Snowdepth":"6.000","Units":"in","Rept_Date":"2020-12-26 13"},"coordinates":[1441,6251]},{"type":"Point","properties":{"Station_ID":"EMBM5","Station_Nam":"EMBARASS,MN","Latitude":"47.65810","Longitude":"-92.19580","Snowdepth":"6.000","Units":"in","Rept_Date":"2020-12-26 12"},"coordinates":[1674,7615]},{"type":"Point","properties":{"Station_ID":"CTRO1","Station_Nam":"CENTERBURG,OH","Latitude":"40.30000","Longitude":"-82.65000","Snowdepth":"6.000","Units":"in","Rept_Date":"2020-12-26 13"},"coordinates":[4843,3302]},{"type":"Point","properties":{"Station_ID":"CSLM5","Station_Nam":"CASS LAKE,MN","Latitude":"47.38470","Longitude":"-94.61470","Snowdepth":"6.000","Units":"in","Rept_Date":"2020-12-26 14"},"coordinates":[871,7454]},{"type":"Point","properties":{"Station_ID":"COVP1","Station_Nam":"COVINGTON 2WSW","Latitude":"41.73330","Longitude":"-77.11670","Snowdepth":"6.000","Units":"in","Rept_Date":"2020-12-26 12"},"coordinates":[6680,4142]},{"type":"Point","properties":{"Station_ID":"CLWV2","Station_Nam":"CLINTWOOD,VA","Latitude":"37.15000","Longitude":"-82.46670","Snowdepth":"6.000","Units":"in","Rept_Date":"2020-12-26 12"},"coordinates":[4904,1456]},{"type":"Point","properties":{"Station_ID":"CLKM4","Station_Nam":"CLARKSBURG","Latitude":"46.49910","Longitude":"-87.84500","Snowdepth":"6.000","Units":"in","Rept_Date":"2020-12-26 12"},"coordinates":[3119,6935]},{"type":"Point","properties":{"Station_ID":"CAN-ON-230","Station_Nam":"MORPETH 0.5 ENE, CAN","Latitude":"42.39471","Longitude":"-81.84043","Snowdepth":"6.000","Units":"in","Rept_Date":"2020-12-26 13"},"coordinates":[5112,4530]},{"type":"Point","properties":{"Station_ID":"BUTW3","Station_Nam":"BUTTERNUT 3SW","Latitude":"45.98080","Longitude":"-90.54170","Snowdepth":"6.000","Units":"in","Rept_Date":"2020-12-26 12"},"coordinates":[2223,6632]},{"type":"Point","properties":{"Station_ID":"BUCK2","Station_Nam":"BUCKHORN LAKE","Latitude":"37.33330","Longitude":"-83.46670","Snowdepth":"6.000","Units":"in","Rept_Date":"2020-12-26 12"},"coordinates":[4572,1564]},{"type":"Point","properties":{"Station_ID":"BRAM5","Station_Nam":"BRAINERD","Latitude":"46.34320","Longitude":"-94.20900","Snowdepth":"6.000","Units":"in","Rept_Date":"2020-12-26 13"},"coordinates":[1006,6844]},{"type":"Point","properties":{"Station_ID":"BCHN7","Station_Nam":"BEECH MOUNTAIN","Latitude":"36.18780","Longitude":"-81.87360","Snowdepth":"6.000","Units":"in","Rept_Date":"2020-12-26 12"},"coordinates":[5101,893]},{"type":"Point","properties":{"Station_ID":"BBVK2","Station_Nam":"WATERPLANT","Latitude":"36.86670","Longitude":"-83.88330","Snowdepth":"6.000","Units":"in","Rept_Date":"2020-12-26 12"},"coordinates":[4434,1290]},{"type":"Point","properties":{"Station_ID":"AWXW3","Station_Nam":"ASHLAND","Latitude":"46.58240","Longitude":"-90.88390","Snowdepth":"6.000","Units":"in","Rept_Date":"2020-12-26 13"},"coordinates":[2110,6984]},{"type":"Point","properties":{"Station_ID":"ANJM4","Station_Nam":"SNOW PAID OBSERVER FOR KANJ","Latitude":"46.48670","Longitude":"-84.40260","Snowdepth":"6.000","Units":"in","Rept_Date":"2020-12-27 06"},"coordinates":[4261,6928]},{"type":"Point","properties":{"Station_ID":"41.3763_082.0992","Station_Nam":"Elyria  Trained Spotter (CLE1010)","Latitude":"41.37628","Longitude":"-82.09918","Snowdepth":"6.000","Units":"in","Rept_Date":"2020-12-26 14"},"coordinates":[5026,3933]},{"type":"Point","properties":{"Station_ID":"41.2499_081.8127","Station_Nam":"BRUNSWICK (CLE2007)","Latitude":"41.24990","Longitude":"-81.81270","Snowdepth":"6.000","Units":"in","Rept_Date":"2020-12-27 01"},"coordinates":[5121,3859]},{"type":"Point","properties":{"Station_ID":"40.8130_082.5161","Station_Nam":"Mansfield Lahm Airport  Trained Spotter (CLE2901)","Latitude":"40.81299","Longitude":"-82.51614","Snowdepth":"6.000","Units":"in","Rept_Date":"2020-12-27 00"},"coordinates":[4888,3603]},{"type":"Point","properties":{"Station_ID":"40.7020_081.2929","Station_Nam":"WAYNESBURG  SNOW SPOTTER (X4070813)","Latitude":"40.70200","Longitude":"-81.29290","Snowdepth":"6.000","Units":"in","Rept_Date":"2020-12-26 13"},"coordinates":[5294,3538]},{"type":"Point","properties":{"Station_ID":"40.3000_082.6500","Station_Nam":"2 SE CENTERBURG  CO-OP OBSERVER (CTRO1)","Latitude":"40.30000","Longitude":"-82.65000","Snowdepth":"6.000","Units":"in","Rept_Date":"2020-12-26 13"},"coordinates":[4843,3302]},{"type":"Point","properties":{"Station_ID":"TN-GN-15","Station_Nam":"GREENEVILLE 1.6 W, TN","Latitude":"36.16886","Longitude":"-82.84715","Snowdepth":"5.900","Units":"in","Rept_Date":"2020-12-26 12"},"coordinates":[4778,881]},{"type":"Point","properties":{"Station_ID":"CAN-ON-187","Station_Nam":"WATERLOO 1.9 E - UOFW, CAN","Latitude":"43.47024","Longitude":"-80.50634","Snowdepth":"5.900","Units":"in","Rept_Date":"2020-12-26 13"},"coordinates":[5555,5160]},{"type":"Point","properties":{"Station_ID":"PA-BF-20","Station_Nam":"SAYRE 0.7 S, PA","Latitude":"41.97510","Longitude":"-76.52100","Snowdepth":"5.800","Units":"in","Rept_Date":"2020-12-26 13"},"coordinates":[6878,4284]},{"type":"Point","properties":{"Station_ID":"PA-BV-11","Station_Nam":"NEW BRIGHTON 3.0 NE, PA","Latitude":"40.76937","Longitude":"-80.27285","Snowdepth":"5.700","Units":"in","Rept_Date":"2020-12-26 13"},"coordinates":[5633,3578]},{"type":"Point","properties":{"Station_ID":"HPN02_MADIS","Station_Nam":"MAPLE GROVE","Latitude":"45.11820","Longitude":"-93.42830","Snowdepth":"5.700","Units":"in","Rept_Date":"2020-12-27 06"},"coordinates":[1265,6126]},{"type":"Point","properties":{"Station_ID":"CAN-ON-837","Station_Nam":"TORONTO 9.7 ENE, CAN","Latitude":"43.68938","Longitude":"-79.27299","Snowdepth":"5.700","Units":"in","Rept_Date":"2020-12-26 11"},"coordinates":[5964,5289]},{"type":"Point","properties":{"Station_ID":"CAN-ON-771","Station_Nam":"KENORA 8.7 NNE - CANWARN, CAN","Latitude":"49.84171","Longitude":"-94.44386","Snowdepth":"5.700","Units":"in","Rept_Date":"2020-12-26 13"},"coordinates":[928,8894]},{"type":"Point","properties":{"Station_ID":"WV-RT-2","Station_Nam":"PENNSBORO 1.2 ESE, WV","Latitude":"39.27361","Longitude":"-80.95578","Snowdepth":"5.500","Units":"in","Rept_Date":"2020-12-26 12"},"coordinates":[5406,2701]},{"type":"Point","properties":{"Station_ID":"WV-MG-16","Station_Nam":"MORGANTOWN 5.9 SW, WV","Latitude":"39.56615","Longitude":"-80.01490","Snowdepth":"5.500","Units":"in","Rept_Date":"2020-12-26 12"},"coordinates":[5718,2872]},{"type":"Point","properties":{"Station_ID":"WV-DD-3","Station_Nam":"WEST UNION 5.9 NE, WV","Latitude":"39.35332","Longitude":"-80.69260","Snowdepth":"5.500","Units":"in","Rept_Date":"2020-12-26 12"},"coordinates":[5493,2748]},{"type":"Point","properties":{"Station_ID":"PA-VN-22","Station_Nam":"FRANKLIN 1.4 SSW, PA","Latitude":"41.37283","Longitude":"-79.85013","Snowdepth":"5.500","Units":"in","Rept_Date":"2020-12-26 11"},"coordinates":[5773,3931]},{"type":"Point","properties":{"Station_ID":"PA-FR-1","Station_Nam":"TIONESTA 7.3 SSE, PA","Latitude":"41.39404","Longitude":"-79.41310","Snowdepth":"5.500","Units":"in","Rept_Date":"2020-12-26 12"},"coordinates":[5918,3944]},{"type":"Point","properties":{"Station_ID":"PA-BT-6","Station_Nam":"BUTLER 6.6 SW, PA","Latitude":"40.77069","Longitude":"-79.93850","Snowdepth":"5.500","Units":"in","Rept_Date":"2020-12-26 11"},"coordinates":[5744,3578]},{"type":"Point","properties":{"Station_ID":"OH-TS-1","Station_Nam":"DOVER 4.6 WNW, OH","Latitude":"40.55070","Longitude":"-81.56400","Snowdepth":"5.500","Units":"in","Rept_Date":"2020-12-26 12"},"coordinates":[5204,3449]},{"type":"Point","properties":{"Station_ID":"OH-MW-4","Station_Nam":"MOUNT GILEAD 4.9 ESE, OH","Latitude":"40.51426","Longitude":"-82.75561","Snowdepth":"5.500","Units":"in","Rept_Date":"2020-12-26 12"},"coordinates":[4808,3428]},{"type":"Point","properties":{"Station_ID":"OH-LC-26","Station_Nam":"KIRKERSVILLE 3.3 N, OH","Latitude":"39.99803","Longitude":"-82.59864","Snowdepth":"5.500","Units":"in","Rept_Date":"2020-12-26 13"},"coordinates":[4860,3126]},{"type":"Point","properties":{"Station_ID":"OH-FR-8","Station_Nam":"NEW ALBANY 2.8 SSE, OH","Latitude":"40.04029","Longitude":"-82.79800","Snowdepth":"5.500","Units":"in","Rept_Date":"2020-12-26 12"},"coordinates":[4794,3150]},{"type":"Point","properties":{"Station_ID":"NY-SR-22","Station_Nam":"GREENFIELD CENTER 1.6 W, NY","Latitude":"43.12684","Longitude":"-73.87860","Snowdepth":"5.500","Units":"in","Rept_Date":"2020-12-26 12"},"coordinates":[7755,4959]},{"type":"Point","properties":{"Station_ID":"NY-ER-151","Station_Nam":"CLARENCE CENTER 0.2 ESE, NY","Latitude":"43.00742","Longitude":"-78.62917","Snowdepth":"5.500","Units":"in","Rept_Date":"2020-12-26 13"},"coordinates":[6178,4889]},{"type":"Point","properties":{"Station_ID":"NC-WT-48","Station_Nam":"SEVEN DEVILS 0.1 E, NC","Latitude":"36.14965","Longitude":"-81.81214","Snowdepth":"5.500","Units":"in","Rept_Date":"2020-12-26 13"},"coordinates":[5121,870]},{"type":"Point","properties":{"Station_ID":"CAN-ON-672","Station_Nam":"WHEATLEY 7.1 NNW, CAN","Latitude":"42.15600","Longitude":"-82.48147","Snowdepth":"5.500","Units":"in","Rept_Date":"2020-12-26 12"},"coordinates":[4899,4390]},{"type":"Point","properties":{"Station_ID":"CAN-ON-178","Station_Nam":"GODERICH 10.2 S - MVCA, CAN","Latitude":"43.64655","Longitude":"-81.70734","Snowdepth":"5.500","Units":"in","Rept_Date":"2020-12-26 13"},"coordinates":[5156,5264]},{"type":"Point","properties":{"Station_ID":"40.5143_082.7556","Station_Nam":"5 ESE Mount Gilead  CoCoRaHS (OH-MW-4)","Latitude":"40.51430","Longitude":"-82.75560","Snowdepth":"5.500","Units":"in","Rept_Date":"2020-12-26 11"},"coordinates":[4808,3428]},{"type":"Point","properties":{"Station_ID":"WI-IR-2","Station_Nam":"MERCER 2.0 SE, WI","Latitude":"46.14749","Longitude":"-90.03097","Snowdepth":"5.400","Units":"in","Rept_Date":"2020-12-26 13"},"coordinates":[2393,6729]},{"type":"Point","properties":{"Station_ID":"CAN-ON-646","Station_Nam":"MISSISSAUGA 6.4 SSE - CANWARN, CAN","Latitude":"43.53417","Longitude":"-79.62089","Snowdepth":"5.300","Units":"in","Rept_Date":"2020-12-26 14"},"coordinates":[5849,5198]},{"type":"Point","properties":{"Station_ID":"NC-MS-16","Station_Nam":"MARS HILL 2.2 SSE, NC","Latitude":"35.80150","Longitude":"-82.53048","Snowdepth":"5.200","Units":"in","Rept_Date":"2020-12-26 13"},"coordinates":[4883,666]},{"type":"Point","properties":{"Station_ID":"NY-NG-30","Station_Nam":"LOCKPORT 2.5 ESE, NY","Latitude":"43.15207","Longitude":"-78.65338","Snowdepth":"5.100","Units":"in","Rept_Date":"2020-12-26 12"},"coordinates":[6170,4974]},{"type":"Point","properties":{"Station_ID":"MN-BK-15","Station_Nam":"LAKE PARK 9.9 S, MN","Latitude":"46.74150","Longitude":"-96.11090","Snowdepth":"5.100","Units":"in","Rept_Date":"2020-12-26 14"},"coordinates":[374,7077]},{"type":"Point","properties":{"Station_ID":"YALM4","Station_Nam":"YALE,MI","Latitude":"43.15000","Longitude":"-82.80000","Snowdepth":"5.000","Units":"in","Rept_Date":"2020-12-26 12"},"coordinates":[4794,4973]},{"type":"Point","properties":{"Station_ID":"WVYN6","Station_Nam":"WAVERLY","Latitude":"41.98470","Longitude":"-76.50140","Snowdepth":"5.000","Units":"in","Rept_Date":"2020-12-26 12"},"coordinates":[6885,4290]},{"type":"Point","properties":{"Station_ID":"WV-WD-18","Station_Nam":"WALKER 2.1 SW, WV","Latitude":"39.15838","Longitude":"-81.41237","Snowdepth":"5.000","Units":"in","Rept_Date":"2020-12-26 12"},"coordinates":[5254,2633]},{"type":"Point","properties":{"Station_ID":"WV-WD-11","Station_Nam":"VIENNA 1.3 NE, WV","Latitude":"39.33779","Longitude":"-81.52233","Snowdepth":"5.000","Units":"in","Rept_Date":"2020-12-26 12"},"coordinates":[5218,2739]},{"type":"Point","properties":{"Station_ID":"WV-PT-11","Station_Nam":"ELEANOR 0.2 SSW, WV","Latitude":"38.53649","Longitude":"-81.93188","Snowdepth":"5.000","Units":"in","Rept_Date":"2020-12-26 13"},"coordinates":[5082,2269]},{"type":"Point","properties":{"Station_ID":"WV-MC-11","Station_Nam":"PRINCETON 0.3 NNW, WV","Latitude":"37.37189","Longitude":"-81.09819","Snowdepth":"5.000","Units":"in","Rept_Date":"2020-12-26 12"},"coordinates":[5359,1587]},{"type":"Point","properties":{"Station_ID":"WV-KN-33","Station_Nam":"CHARLESTON 2.6 W, WV","Latitude":"38.34419","Longitude":"-81.67852","Snowdepth":"5.000","Units":"in","Rept_Date":"2020-12-26 12"},"coordinates":[5166,2156]},{"type":"Point","properties":{"Station_ID":"WV-KN-1","Station_Nam":"ALUM CREEK 3.0 E, WV","Latitude":"38.28720","Longitude":"-81.78740","Snowdepth":"5.000","Units":"in","Rept_Date":"2020-12-26 12"},"coordinates":[5130,2123]},{"type":"Point","properties":{"Station_ID":"WV-GL-4","Station_Nam":"GLENVILLE 5.9 W, WV","Latitude":"38.95326","Longitude":"-80.94213","Snowdepth":"5.000","Units":"in","Rept_Date":"2020-12-26 12"},"coordinates":[5410,2513]},{"type":"Point","properties":{"Station_ID":"WTNM4","Station_Nam":"WATTON 2WSW","Latitude":"46.52660","Longitude":"-88.64240","Snowdepth":"5.000","Units":"in","Rept_Date":"2020-12-26 13"},"coordinates":[2854,6951]},{"type":"Point","properties":{"Station_ID":"WRSN6","Station_Nam":"WARSAW 6SW","Latitude":"42.68550","Longitude":"-78.22020","Snowdepth":"5.000","Units":"in","Rept_Date":"2020-12-26 12"},"coordinates":[6314,4700]},{"type":"Point","properties":{"Station_ID":"WILW2","Station_Nam":"WILLIAMSON","Latitude":"37.67310","Longitude":"-82.27620","Snowdepth":"5.000","Units":"in","Rept_Date":"2020-12-26 12"},"coordinates":[4967,1763]},{"type":"Point","properties":{"Station_ID":"WI-PK-4","Station_Nam":"DRESSER 6.1 ESE, WI","Latitude":"45.32436","Longitude":"-92.52080","Snowdepth":"5.000","Units":"in","Rept_Date":"2020-12-26 14"},"coordinates":[1566,6247]},{"type":"Point","properties":{"Station_ID":"WI-BT-14","Station_Nam":"OAKLAND 9.0 ENE, WI","Latitude":"45.95184","Longitude":"-92.21653","Snowdepth":"5.000","Units":"in","Rept_Date":"2020-12-26 13"},"coordinates":[1667,6615]},{"type":"Point","properties":{"Station_ID":"WATO1","Station_Nam":"WATERLOO","Latitude":"38.70030","Longitude":"-82.47360","Snowdepth":"5.000","Units":"in","Rept_Date":"2020-12-26 12"},"coordinates":[4902,2365]},{"type":"Point","properties":{"Station_ID":"VA-SC-1","Station_Nam":"GATE CITY 6.2 NNE, VA","Latitude":"36.72167","Longitude":"-82.53670","Snowdepth":"5.000","Units":"in","Rept_Date":"2020-12-26 13"},"coordinates":[4881,1205]},{"type":"Point","properties":{"Station_ID":"VA-LE-2","Station_Nam":"JONESVILLE 2E, VA","Latitude":"36.69960","Longitude":"-83.05690","Snowdepth":"5.000","Units":"in","Rept_Date":"2020-12-26 12"},