{"type":"Topology","objects":{"snowdepth_geo":{"type":"GeometryCollection","geometries":[{"type":"Point","coordinates":[-72.8154,44.5248],"properties":{"Station_ID":"MMNV1","Station_Nam":"MT. MANSFIELD","Latitude":"44.52480","Longitude":"-72.81540","Snowdepth":"85.000","Units":"in","Rept_Date":"2025-04-02 20"}},{"type":"Point","coordinates":[-86.62,46.4258],"properties":{"Station_ID":"PRKM4","Station_Nam":"MUNISING EAST","Latitude":"46.42580","Longitude":"-86.62000","Snowdepth":"76.500","Units":"in","Rept_Date":"2025-04-03 06"}},{"type":"Point","coordinates":[-86.6625,46.4121],"properties":{"Station_ID":"MNSM4","Station_Nam":"MUNISING","Latitude":"46.41210","Longitude":"-86.66250","Snowdepth":"47.000","Units":"in","Rept_Date":"2025-04-02 11"}},{"type":"Point","coordinates":[-88.6717,47.0416],"properties":{"Station_ID":"PDLM4","Station_Nam":"PAINESDALE","Latitude":"47.04160","Longitude":"-88.67170","Snowdepth":"40.000","Units":"in","Rept_Date":"2025-04-02 12"}},{"type":"Point","coordinates":[-69.6747,50.7925],"properties":{"Station_ID":"CQOU","Station_Nam":"CQOU","Latitude":"50.79250","Longitude":"-69.67470","Snowdepth":"39.173","Units":"in","Rept_Date":"2025-04-02 12"}},{"type":"Point","coordinates":[-67.1394,51.1114],"properties":{"Station_ID":"CQGD","Station_Nam":"CQGD","Latitude":"51.11140","Longitude":"-67.13940","Snowdepth":"38.740","Units":"in","Rept_Date":"2025-04-02 12"}},{"type":"Point","coordinates":[-68.8236,50.6617],"properties":{"Station_ID":"CMLZ","Station_Nam":"CMLZ","Latitude":"50.66170","Longitude":"-68.82360","Snowdepth":"37.441","Units":"in","Rept_Date":"2025-04-02 12"}},{"type":"Point","coordinates":[-75.1,50.7236],"properties":{"Station_ID":"CQLB","Station_Nam":"CQLB","Latitude":"50.72360","Longitude":"-75.10000","Snowdepth":"34.331","Units":"in","Rept_Date":"2025-04-02 12"}},{"type":"Point","coordinates":[-82.5757,48.526],"properties":{"Station_ID":"AUDQ6","Station_Nam":"AUDEN","Latitude":"48.52600","Longitude":"-82.57570","Snowdepth":"30.590","Units":"in","Rept_Date":"2025-04-03 06"}},{"type":"Point","coordinates":[-86.6594,49.0695],"properties":{"Station_ID":"PTLQ6","Station_Nam":"PORTAGE LAKE","Latitude":"49.06950","Longitude":"-86.65940","Snowdepth":"29.720","Units":"in","Rept_Date":"2025-04-03 06"}},{"type":"Point","coordinates":[-87.2292,49.2288],"properties":{"Station_ID":"TRIQ6","Station_Nam":"TRIO LAKE","Latitude":"49.22880","Longitude":"-87.22920","Snowdepth":"29.650","Units":"in","Rept_Date":"2025-04-03 06"}},{"type":"Point","coordinates":[-88.2077,46.5573],"properties":{"Station_ID":"MI-BG-3","Station_Nam":"THREE LAKES, MI","Latitude":"46.55730","Longitude":"-88.20770","Snowdepth":"29.500","Units":"in","Rept_Date":"2025-04-02 12"}},{"type":"Point","coordinates":[-74.2064,48.855],"properties":{"Station_ID":"CQGO","Station_Nam":"CQGO","Latitude":"48.85500","Longitude":"-74.20640","Snowdepth":"28.504","Units":"in","Rept_Date":"2025-04-02 12"}},{"type":"Point","coordinates":[-88.5795,47.1364],"properties":{"Station_ID":"QNCM4","Station_Nam":"QUINCY HILL","Latitude":"47.13640","Longitude":"-88.57950","Snowdepth":"28.000","Units":"in","Rept_Date":"2025-04-02 11"}},{"type":"Point","coordinates":[-74.4039,50.8328],"properties":{"Station_ID":"CQFT","Station_Nam":"CQFT","Latitude":"50.83280","Longitude":"-74.40390","Snowdepth":"27.008","Units":"in","Rept_Date":"2025-04-02 12"}},{"type":"Point","coordinates":[-87.7644,49.1989],"properties":{"Station_ID":"DVLQ6","Station_Nam":"DEVIOUS LAKE","Latitude":"49.19890","Longitude":"-87.76440","Snowdepth":"26.690","Units":"in","Rept_Date":"2025-04-03 06"}},{"type":"Point","coordinates":[-69.3569,49.66],"properties":{"Station_ID":"CQTV","Station_Nam":"CQTV","Latitude":"49.66000","Longitude":"-69.35690","Snowdepth":"26.496","Units":"in","Rept_Date":"2025-04-02 12"}},{"type":"Point","coordinates":[-91.793,50.7787],"properties":{"Station_ID":"SOCQ6","Station_Nam":"SOCKET LAKE","Latitude":"50.77870","Longitude":"-91.79300","Snowdepth":"26.100","Units":"in","Rept_Date":"2025-04-03 06"}},{"type":"Point","coordinates":[-87.45705,46.47288],"properties":{"Station_ID":"MI-MQ-30","Station_Nam":"MARQUETTE 6.1 SSW, MI","Latitude":"46.47288","Longitude":"-87.45705","Snowdepth":"26.000","Units":"in","Rept_Date":"2025-04-02 13"}},{"type":"Point","coordinates":[-88.3333,46.65],"properties":{"Station_ID":"HERM4","Station_Nam":"HERMAN,MI","Latitude":"46.65000","Longitude":"-88.33330","Snowdepth":"26.000","Units":"in","Rept_Date":"2025-04-02 12"}},{"type":"Point","coordinates":[-70.0806,51.3283],"properties":{"Station_ID":"CQCX","Station_Nam":"CQCX","Latitude":"51.32830","Longitude":"-70.08060","Snowdepth":"25.433","Units":"in","Rept_Date":"2025-04-02 12"}},{"type":"Point","coordinates":[-86.95857,46.5029],"properties":{"Station_ID":"MI-AG-8","Station_Nam":"AU TRAIN 7.8 NW, MI","Latitude":"46.50290","Longitude":"-86.95857","Snowdepth":"25.000","Units":"in","Rept_Date":"2025-04-02 12"}},{"type":"Point","coordinates":[-87.8582,50.7668],"properties":{"Station_ID":"OGIQ6","Station_Nam":"OGOKI CAMP","Latitude":"50.76680","Longitude":"-87.85820","Snowdepth":"24.090","Units":"in","Rept_Date":"2025-04-03 06"}},{"type":"Point","coordinates":[-90.6567,50.2873],"properties":{"Station_ID":"SVBQ6","Station_Nam":"SAVANT BASE","Latitude":"50.28730","Longitude":"-90.65670","Snowdepth":"23.460","Units":"in","Rept_Date":"2025-04-03 06"}},{"type":"Point","coordinates":[-67.6264,49.6472],"properties":{"Station_ID":"CQGT","Station_Nam":"CQGT","Latitude":"49.64720","Longitude":"-67.62640","Snowdepth":"22.638","Units":"in","Rept_Date":"2025-04-02 12"}},{"type":"Point","coordinates":[-88.6926,47.13156],"properties":{"Station_ID":"MI-HG-21","Station_Nam":"ATLANTIC MINE 3.9 NW, MI","Latitude":"47.13156","Longitude":"-88.69260","Snowdepth":"22.500","Units":"in","Rept_Date":"2025-04-02 11"}},{"type":"Point","coordinates":[-76.5983,47.8275],"properties":{"Station_ID":"CQCU","Station_Nam":"CQCU","Latitude":"47.82750","Longitude":"-76.59830","Snowdepth":"22.362","Units":"in","Rept_Date":"2025-04-02 12"}},{"type":"Point","coordinates":[-87.5492,46.5314],"properties":{"Station_ID":"MQT","Station_Nam":"MARQUETTE, MI","Latitude":"46.53140","Longitude":"-87.54920","Snowdepth":"22.000","Units":"in","Rept_Date":"2025-04-03 06"}},{"type":"Point","coordinates":[-70.4719,50.1033],"properties":{"Station_ID":"CQMA","Station_Nam":"CQMA","Latitude":"50.10330","Longitude":"-70.47190","Snowdepth":"21.614","Units":"in","Rept_Date":"2025-04-02 12"}},{"type":"Point","coordinates":[-88.5294,47.10774],"properties":{"Station_ID":"MI-HG-1","Station_Nam":"HOUGHTON 1.6 ESE, MI","Latitude":"47.10774","Longitude":"-88.52940","Snowdepth":"21.500","Units":"in","Rept_Date":"2025-04-02 12"}},{"type":"Point","coordinates":[-91.8221,51.7269],"properties":{"Station_ID":"CATQ6","Station_Nam":"CAT LAKE","Latitude":"51.72690","Longitude":"-91.82210","Snowdepth":"20.160","Units":"in","Rept_Date":"2025-04-03 06"}},{"type":"Point","coordinates":[-88.417,47.2752],"properties":{"Station_ID":"KSGM4","Station_Nam":"KEARSARGE","Latitude":"47.27520","Longitude":"-88.41700","Snowdepth":"20.000","Units":"in","Rept_Date":"2025-04-02 11"}},{"type":"Point","coordinates":[-72.5719,51.0578],"properties":{"Station_ID":"CQTM","Station_Nam":"CQTM","Latitude":"51.05780","Longitude":"-72.57190","Snowdepth":"19.567","Units":"in","Rept_Date":"2025-04-02 12"}},{"type":"Point","coordinates":[-66.9111,51.5217],"properties":{"Station_ID":"CMFU","Station_Nam":"CMFU","Latitude":"51.52170","Longitude":"-66.91110","Snowdepth":"19.213","Units":"in","Rept_Date":"2025-04-02 12"}},{"type":"Point","coordinates":[-87.8816,46.7462],"properties":{"Station_ID":"BBEM4","Station_Nam":"BIG BAY 9SW","Latitude":"46.74620","Longitude":"-87.88160","Snowdepth":"19.000","Units":"in","Rept_Date":"2025-04-02 12"}},{"type":"Point","coordinates":[-88.7038,49.19],"properties":{"Station_ID":"NONQ6","Station_Nam":"NONWATIN","Latitude":"49.19000","Longitude":"-88.70380","Snowdepth":"18.660","Units":"in","Rept_Date":"2025-04-03 06"}},{"type":"Point","coordinates":[-70.2528,48.9203],"properties":{"Station_ID":"CQLM","Station_Nam":"CQLM","Latitude":"48.92030","Longitude":"-70.25280","Snowdepth":"18.583","Units":"in","Rept_Date":"2025-04-02 12"}},{"type":"Point","coordinates":[-86.9375,50.6386],"properties":{"Station_ID":"ANAQ6","Station_Nam":"ANACONDA","Latitude":"50.63860","Longitude":"-86.93750","Snowdepth":"18.070","Units":"in","Rept_Date":"2025-04-02 22"}},{"type":"Point","coordinates":[-89.5475,46.5869],"properties":{"Station_ID":"BERM4","Station_Nam":"BERGLAND DAM","Latitude":"46.58690","Longitude":"-89.54750","Snowdepth":"18.000","Units":"in","Rept_Date":"2025-04-02 12"}},{"type":"Point","coordinates":[-68.8406,51.2833],"properties":{"Station_ID":"CMRL","Station_Nam":"CMRL","Latitude":"51.28330","Longitude":"-68.84060","Snowdepth":"17.953","Units":"in","Rept_Date":"2025-04-02 12"}},{"type":"Point","coordinates":[-73.8067,47.8461],"properties":{"Station_ID":"CQWE","Station_Nam":"CQWE","Latitude":"47.84610","Longitude":"-73.80670","Snowdepth":"17.638","Units":"in","Rept_Date":"2025-04-02 12"}},{"type":"Point","coordinates":[-89.1799,49.5995],"properties":{"Station_ID":"KABQ6","Station_Nam":"CAB LAKE","Latitude":"49.59950","Longitude":"-89.17990","Snowdepth":"17.520","Units":"in","Rept_Date":"2025-04-03 06"}},{"type":"Point","coordinates":[-87.4503,46.28397],"properties":{"Station_ID":"61591_MADIS","Station_Nam":"GWINN 0.7 SW, MI","Latitude":"46.28397","Longitude":"-87.45030","Snowdepth":"17.500","Units":"in","Rept_Date":"2025-04-02 13"}},{"type":"Point","coordinates":[-66.13279,47.90803],"properties":{"Station_ID":"CAN-NB-50","Station_Nam":"DOYLEVILLE 2.4 WNW, CAN","Latitude":"47.90803","Longitude":"-66.13279","Snowdepth":"17.100","Units":"in","Rept_Date":"2025-04-02 12"}},{"type":"Point","coordinates":[-84.4025,46.4866],"properties":{"Station_ID":"SSMM4","Station_Nam":"SAULT STE MARIE","Latitude":"46.48660","Longitude":"-84.40250","Snowdepth":"17.000","Units":"in","Rept_Date":"2025-04-02 11"}},{"type":"Point","coordinates":[-84.31971,46.48933],"properties":{"Station_ID":"MI-CP-14","Station_Nam":"SAULT STE. MARIE 2.2 E, MI","Latitude":"46.48933","Longitude":"-84.31971","Snowdepth":"17.000","Units":"in","Rept_Date":"2025-04-02 11"}},{"type":"Point","coordinates":[-84.4026,46.4867],"properties":{"Station_ID":"ANJM4","Station_Nam":"SNOW PAID OBSERVER FOR KANJ","Latitude":"46.48670","Longitude":"-84.40260","Snowdepth":"17.000","Units":"in","Rept_Date":"2025-04-03 00"}},{"type":"Point","coordinates":[-73.9228,50.2708],"properties":{"Station_ID":"CQLI","Station_Nam":"CQLI","Latitude":"50.27080","Longitude":"-73.92280","Snowdepth":"16.850","Units":"in","Rept_Date":"2025-04-02 12"}},{"type":"Point","coordinates":[-84.28515,46.50299],"properties":{"Station_ID":"CAN-ON-915","Station_Nam":"SAULT STE. MARIE 3.9 ESE, CAN","Latitude":"46.50299","Longitude":"-84.28515","Snowdepth":"16.500","Units":"in","Rept_Date":"2025-04-02 12"}},{"type":"Point","coordinates":[-88.854,46.8944],"properties":{"Station_ID":"57011_MADIS","Station_Nam":"TWIN LAKES 0.2 SW, MI","Latitude":"46.89440","Longitude":"-88.85400","Snowdepth":"16.000","Units":"in","Rept_Date":"2025-04-02 12"}},{"type":"Point","coordinates":[-72.2011,51.4528],"properties":{"Station_ID":"CQCO","Station_Nam":"CQCO","Latitude":"51.45280","Longitude":"-72.20110","Snowdepth":"15.945","Units":"in","Rept_Date":"2025-04-02 12"}},{"type":"Point","coordinates":[-75.845,49.2906],"properties":{"Station_ID":"CQMD","Station_Nam":"CQMD","Latitude":"49.29060","Longitude":"-75.84500","Snowdepth":"15.866","Units":"in","Rept_Date":"2025-04-02 12"}},{"type":"Point","coordinates":[-91.4716,48.7067],"properties":{"Station_ID":"ATIQ6","Station_Nam":"ATIKOKAN","Latitude":"48.70670","Longitude":"-91.47160","Snowdepth":"15.160","Units":"in","Rept_Date":"2025-04-03 06"}},{"type":"Point","coordinates":[-88.5137,47.1167],"properties":{"Station_ID":"CGPM4","Station_Nam":"DOLLAR BAY","Latitude":"47.11670","Longitude":"-88.51370","Snowdepth":"15.000","Units":"in","Rept_Date":"2025-04-02 12"}},{"type":"Point","coordinates":[-87.3779,46.3341],"properties":{"Station_ID":"KISM4","Station_Nam":"K.I. SAWYER WWTP","Latitude":"46.33410","Longitude":"-87.37790","Snowdepth":"14.000","Units":"in","Rept_Date":"2025-04-02 12"}},{"type":"Point","coordinates":[-87.3547,46.4908],"properties":{"Station_ID":"HRVM4","Station_Nam":"HARVEY","Latitude":"46.49080","Longitude":"-87.35470","Snowdepth":"14.000","Units":"in","Rept_Date":"2025-04-02 11"}},{"type":"Point","coordinates":[-87.845,46.4991],"properties":{"Station_ID":"CLKM4","Station_Nam":"CLARKSBURG","Latitude":"46.49910","Longitude":"-87.84500","Snowdepth":"14.000","Units":"in","Rept_Date":"2025-04-02 11"}},{"type":"Point","coordinates":[-94.2577,52.1145],"properties":{"Station_ID":"POPQ6","Station_Nam":"POPLAR HILL","Latitude":"52.11450","Longitude":"-94.25770","Snowdepth":"13.940","Units":"in","Rept_Date":"2025-04-03 06"}},{"type":"Point","coordinates":[-90.30508,47.8062],"properties":{"Station_ID":"MN-CK-29","Station_Nam":"GRAND MARAIS 3.8 NNE, MN","Latitude":"47.80620","Longitude":"-90.30508","Snowdepth":"13.500","Units":"in","Rept_Date":"2025-04-02 12"}},{"type":"Point","coordinates":[-87.7567,46.4055],"properties":{"Station_ID":"MI-MQ-19","Station_Nam":"ISHPEMING 7.2 SW, MI","Latitude":"46.40550","Longitude":"-87.75670","Snowdepth":"13.000","Units":"in","Rept_Date":"2025-04-02 10"}},{"type":"Point","coordinates":[-75.5543,43.6051],"properties":{"Station_ID":"HGHN6","Station_Nam":"HIGHMARKET","Latitude":"43.60510","Longitude":"-75.55430","Snowdepth":"13.000","Units":"in","Rept_Date":"2025-04-02 10"}},{"type":"Point","coordinates":[-87.9051,51.5582],"properties":{"Station_ID":"FTHQ6","Station_Nam":"FORT HOPE","Latitude":"51.55820","Longitude":"-87.90510","Snowdepth":"12.680","Units":"in","Rept_Date":"2025-04-03 06"}},{"type":"Point","coordinates":[-84.303,46.503],"properties":{"Station_ID":"CAN-ON-757","Station_Nam":"SAULT STE. MARIE 2.8 ESE - GLFC, CAN","Latitude":"46.50300","Longitude":"-84.30300","Snowdepth":"12.600","Units":"in","Rept_Date":"2025-04-02 12"}},{"type":"Point","coordinates":[-87.3038,46.4533],"properties":{"Station_ID":"GGRM4","Station_Nam":"GREEN GARDEN NO.2","Latitude":"46.45330","Longitude":"-87.30380","Snowdepth":"12.000","Units":"in","Rept_Date":"2025-04-02 12"}},{"type":"Point","coordinates":[-88.6424,46.5266],"properties":{"Station_ID":"WTNM4","Station_Nam":"WATTON 2WSW","Latitude":"46.52660","Longitude":"-88.64240","Snowdepth":"11.000","Units":"in","Rept_Date":"2025-04-02 12"}},{"type":"Point","coordinates":[-71.4127,44.2196],"properties":{"Station_ID":"CAWN3","Station_Nam":"CRAWFORD NOTCH","Latitude":"44.21960","Longitude":"-71.41270","Snowdepth":"11.000","Units":"in","Rept_Date":"2025-04-02 11"}},{"type":"Point","coordinates":[-90.87444,48.14388],"properties":{"Station_ID":"MN-CK-56","Station_Nam":"GRAND MARAIS 36.2 NW, MN","Latitude":"48.14388","Longitude":"-90.87444","Snowdepth":"10.500","Units":"in","Rept_Date":"2025-04-02 12"}},{"type":"Point","coordinates":[-70.18007,44.73396],"properties":{"Station_ID":"ME-FR-22","Station_Nam":"FARMINGTON 4.8 NNW, ME","Latitude":"44.73396","Longitude":"-70.18007","Snowdepth":"10.500","Units":"in","Rept_Date":"2025-04-02 13"}},{"type":"Point","coordinates":[-91.7075,47.1258],"properties":{"Station_ID":"TWOM5","Station_Nam":"TWO HARBORS,MN","Latitude":"47.12580","Longitude":"-91.70750","Snowdepth":"10.000","Units":"in","Rept_Date":"2025-04-03 00"}},{"type":"Point","coordinates":[-73.9839,44.3042],"properties":{"Station_ID":"LPLN6","Station_Nam":"LAKE PLACID 2 S","Latitude":"44.30420","Longitude":"-73.98390","Snowdepth":"10.000","Units":"in","Rept_Date":"2025-04-02 22"}},{"type":"Point","coordinates":[-74.8088,43.1626],"properties":{"Station_ID":"NY-HR-18","Station_Nam":"SALISBURY CENTER 1.8 NW, NY","Latitude":"43.16260","Longitude":"-74.80880","Snowdepth":"9.500","Units":"in","Rept_Date":"2025-04-02 11"}},{"type":"Point","coordinates":[-87.21344,46.33748],"properties":{"Station_ID":"MI-MQ-34","Station_Nam":"SKANDIA 3.0 SSE, MI","Latitude":"46.33748","Longitude":"-87.21344","Snowdepth":"9.500","Units":"in","Rept_Date":"2025-04-02 11"}},{"type":"Point","coordinates":[-84.3239,46.1864],"properties":{"Station_ID":"PICM4","Station_Nam":"PICKFORD 3NE","Latitude":"46.18640","Longitude":"-84.32390","Snowdepth":"9.000","Units":"in","Rept_Date":"2025-04-02 22"}},{"type":"Point","coordinates":[-72.8333,44.5333],"properties":{"Station_ID":"MMSV1","Station_Nam":"MOUNT MANSFIELD","Latitude":"44.53330","Longitude":"-72.83330","Snowdepth":"9.000","Units":"in","Rept_Date":"2025-04-03 06"}},{"type":"Point","coordinates":[-90.08287,46.54936],"properties":{"Station_ID":"MI-GG-11","Station_Nam":"IRONWOOD 7.3 NNE, MI","Latitude":"46.54936","Longitude":"-90.08287","Snowdepth":"9.000","Units":"in","Rept_Date":"2025-04-02 12"}},{"type":"Point","coordinates":[-71.27124,46.76934],"properties":{"Station_ID":"CAN-QC-47","Station_Nam":"SAINTE-FOY 1.8 ENE, CAN","Latitude":"46.76934","Longitude":"-71.27124","Snowdepth":"8.700","Units":"in","Rept_Date":"2025-04-02 11"}},{"type":"Point","coordinates":[-68.5431,49.8239],"properties":{"Station_ID":"CQIQ","Station_Nam":"CQIQ","Latitude":"49.82390","Longitude":"-68.54310","Snowdepth":"8.622","Units":"in","Rept_Date":"2025-04-02 12"}},{"type":"Point","coordinates":[-90.27013,46.41555],"properties":{"Station_ID":"WI-IR-3","Station_Nam":"PENCE 0.1 E, WI","Latitude":"46.41555","Longitude":"-90.27013","Snowdepth":"8.500","Units":"in","Rept_Date":"2025-04-02 12"}},{"type":"Point","coordinates":[-97.04752,49.93264],"properties":{"Station_ID":"CAN-MB-56","Station_Nam":"WINNIPEG 7.6 ENE, CAN","Latitude":"49.93264","Longitude":"-97.04752","Snowdepth":"8.500","Units":"in","Rept_Date":"2025-04-02 13"}},{"type":"Point","coordinates":[-73.7381,47.2564],"properties":{"Station_ID":"CQGA","Station_Nam":"CQGA","Latitude":"47.25640","Longitude":"-73.73810","Snowdepth":"8.425","Units":"in","Rept_Date":"2025-04-02 12"}},{"type":"Point","coordinates":[-97.0626,45.3036],"properties":{"Station_ID":"SMTS2","Station_Nam":"SUMMIT 1 W","Latitude":"45.30360","Longitude":"-97.06260","Snowdepth":"8.000","Units":"in","Rept_Date":"2025-04-02 12"}},{"type":"Point","coordinates":[-90.1955,46.4625],"properties":{"Station_ID":"HURW3","Station_Nam":"HURLEY","Latitude":"46.46250","Longitude":"-90.19550","Snowdepth":"8.000","Units":"in","Rept_Date":"2025-04-02 13"}},{"type":"Point","coordinates":[-71.22598,44.19069],"properties":{"Station_ID":"NH-CR-15","Station_Nam":"JACKSON 3.7 NW, NH","Latitude":"44.19069","Longitude":"-71.22598","Snowdepth":"7.500","Units":"in","Rept_Date":"2025-04-02 11"}},{"type":"Point","coordinates":[-91.86862,47.88254],"properties":{"Station_ID":"MN-SL-328","Station_Nam":"ELY 1.8 SSW, MN","Latitude":"47.88254","Longitude":"-91.86862","Snowdepth":"7.500","Units":"in","Rept_Date":"2025-04-02 12"}},{"type":"Point","coordinates":[-79.81035,44.50564],"properties":{"Station_ID":"CAN-ON-245","Station_Nam":"PHELPSTON 3.1 ESE, CAN","Latitude":"44.50564","Longitude":"-79.81035","Snowdepth":"7.500","Units":"in","Rept_Date":"2025-04-02 11"}},{"type":"Point","coordinates":[-75.6147,48.8722],"properties":{"Station_ID":"CQYR","Station_Nam":"CQYR","Latitude":"48.87220","Longitude":"-75.61470","Snowdepth":"7.008","Units":"in","Rept_Date":"2025-04-02 12"}},{"type":"Point","coordinates":[-95.9269,45.1219],"properties":{"Station_ID":"MIAM5","Station_Nam":"MILAN 1NW","Latitude":"45.12190","Longitude":"-95.92690","Snowdepth":"7.000","Units":"in","Rept_Date":"2025-04-02 23"}},{"type":"Point","coordinates":[-97.12,45.09],"properties":{"Station_ID":"SHSS2","Station_Nam":"SOUTH SHORE 8W SOUTH DAKOTA MESONET","Latitude":"45.09000","Longitude":"-97.12000","Snowdepth":"6.810","Units":"in","Rept_Date":"2025-04-03 06"}},{"type":"Point","coordinates":[-73.4594,48.4889],"properties":{"Station_ID":"CQWG","Station_Nam":"CQWG","Latitude":"48.48890","Longitude":"-73.45940","Snowdepth":"6.024","Units":"in","Rept_Date":"2025-04-02 12"}},{"type":"Point","coordinates":[-88.7416,45.1452],"properties":{"Station_ID":"WLKW3","Station_Nam":"WHITE LAKE 1 SE","Latitude":"45.14520","Longitude":"-88.74160","Snowdepth":"6.000","Units":"in","Rept_Date":"2025-04-02 13"}},{"type":"Point","coordinates":[-90.1696,46.388],"properties":{"Station_ID":"WI-IR-6","Station_Nam":"HURLEY 4.1 SSE, WI","Latitude":"46.38800","Longitude":"-90.16960","Snowdepth":"6.000","Units":"in","Rept_Date":"2025-04-02 12"}},{"type":"Point","coordinates":[-90.98092,46.16937],"properties":{"Station_ID":"WI-BY-2","Station_Nam":"CLAM LAKE 4 W, WI","Latitude":"46.16937","Longitude":"-90.98092","Snowdepth":"6.000","Units":"in","Rept_Date":"2025-04-02 12"}},{"type":"Point","coordinates":[-90.4122,46.3678],"properties":{"Station_ID":"UPSW3","Station_Nam":"UPSON,WI","Latitude":"46.36780","Longitude":"-90.41220","Snowdepth":"6.000","Units":"in","Rept_Date":"2025-04-02 23"}},{"type":"Point","coordinates":[-97,45.6667],"properties":{"Station_ID":"SSSS2","Station_Nam":"MILBANK-36MI.NW","Latitude":"45.66670","Longitude":"-97.00000","Snowdepth":"6.000","Units":"in","Rept_Date":"2025-04-03 03"}},{"type":"Point","coordinates":[-85.5162,46.3515],"properties":{"Station_ID":"NCFM4","Station_Nam":"NEWBERRY-LUCE COUNTY ROAD COMMISSION","Latitude":"46.35150","Longitude":"-85.51620","Snowdepth":"6.000","Units":"in","Rept_Date":"2025-04-02 12"}},{"type":"Point","coordinates":[-90.1382,46.4652],"properties":{"Station_ID":"IWOM4","Station_Nam":"IRONWOOD#2","Latitude":"46.46520","Longitude":"-90.13820","Snowdepth":"6.000","Units":"in","Rept_Date":"2025-04-02 12"}},{"type":"Point","coordinates":[-90.1833,46.4667],"properties":{"Station_ID":"IRMM4","Station_Nam":"WWTP","Latitude":"46.46670","Longitude":"-90.18330","Snowdepth":"6.000","Units":"in","Rept_Date":"2025-04-02 12"}},{"type":"Point","coordinates":[-92.2108,46.8368],"properties":{"Station_ID":"DLHM5","Station_Nam":"DULUTH NWS","Latitude":"46.83680","Longitude":"-92.21080","Snowdepth":"6.000","Units":"in","Rept_Date":"2025-04-03 06"}},{"type":"Point","coordinates":[-90.9808,46.1694],"properties":{"Station_ID":"CMKW3","Station_Nam":"CLAM LAKE 4W","Latitude":"46.16940","Longitude":"-90.98080","Snowdepth":"6.000","Units":"in","Rept_Date":"2025-04-02 12"}},{"type":"Point","coordinates":[-95.8902,50.14747],"properties":{"Station_ID":"CAN-MB-32","Station_Nam":"PINAWA 1.0 SW, CA","Latitude":"50.14747","Longitude":"-95.89020","Snowdepth":"6.000","Units":"in","Rept_Date":"2025-04-02 12"}},{"type":"Point","coordinates":[-96.1257,45.3856],"properties":{"Station_ID":"ARTM5","Station_Nam":"ARTICHOKE LAKE 1 E","Latitude":"45.38560","Longitude":"-96.12570","Snowdepth":"6.000","Units":"in","Rept_Date":"2025-04-02 23"}},{"type":"Point","coordinates":[-88.4544,46.2347],"properties":{"Station_ID":"AMAM4","Station_Nam":"AMASA 1W","Latitude":"46.23470","Longitude":"-88.45440","Snowdepth":"6.000","Units":"in","Rept_Date":"2025-04-02 13"}},{"type":"Point","coordinates":[-88.4899,45.17239],"properties":{"Station_ID":"WI-OC-1","Station_Nam":"MOUNTAIN 1.1 SW, WI","Latitude":"45.17239","Longitude":"-88.48990","Snowdepth":"5.500","Units":"in","Rept_Date":"2025-04-02 20"}},{"type":"Point","coordinates":[-91.0109,46.689],"properties":{"Station_ID":"WI-BY-56","Station_Nam":"WASHBURN 5.7 W, WI","Latitude":"46.68900","Longitude":"-91.01090","Snowdepth":"5.500","Units":"in","Rept_Date":"2025-04-02 12"}},{"type":"Point","coordinates":[-90.8839,46.5824],"properties":{"Station_ID":"WI-AS-4","Station_Nam":"ASHLAND 0.5 WNW, WI","Latitude":"46.58240","Longitude":"-90.88390","Snowdepth":"5.500","Units":"in","Rept_Date":"2025-04-02 12"}},{"type":"Point","coordinates":[-97.11925,44.91604],"properties":{"Station_ID":"SD-CD-30","Station_Nam":"WATERTOWN 2.3 E, SD","Latitude":"44.91604","Longitude":"-97.11925","Snowdepth":"5.500","Units":"in","Rept_Date":"2025-04-02 13"}},{"type":"Point","coordinates":[-91.96437,45.69577],"properties":{"Station_ID":"WI-WB-19","Station_Nam":"SHELL LAKE 4.3 SW, WI","Latitude":"45.69577","Longitude":"-91.96437","Snowdepth":"5.000","Units":"in","Rept_Date":"2025-04-02 13"}},{"type":"Point","coordinates":[-89.4579,46.19023],"properties":{"Station_ID":"WI-VL-9","Station_Nam":"LAND O' LAKES 11.7 W, WI","Latitude":"46.19023","Longitude":"-89.45790","Snowdepth":"5.000","Units":"in","Rept_Date":"2025-04-02 12"}},{"type":"Point","coordinates":[-88.1415,45.89369],"properties":{"Station_ID":"WI-FL-4","Station_Nam":"FLORENCE 5.6 ESE, WI","Latitude":"45.89369","Longitude":"-88.14150","Snowdepth":"5.000","Units":"in","Rept_Date":"2025-04-02 12"}},{"type":"Point","coordinates":[-91.07856,46.59742],"properties":{"Station_ID":"WI-BY-14","Station_Nam":"ASHLAND 9.8 W, WI","Latitude":"46.59742","Longitude":"-91.07856","Snowdepth":"5.000","Units":"in","Rept_Date":"2025-04-02 11"}},{"type":"Point","coordinates":[-88.4939,45.1722],"properties":{"Station_ID":"MOUW3","Station_Nam":"MOUNTAIN 1 SW","Latitude":"45.17220","Longitude":"-88.49390","Snowdepth":"5.000","Units":"in","Rept_Date":"2025-04-02 20"}},{"type":"Point","coordinates":[-93.216,48.59631],"properties":{"Station_ID":"MN-KC-20","Station_Nam":"INTERNATIONAL FALLS 8.8 E, MN","Latitude":"48.59631","Longitude":"-93.21600","Snowdepth":"5.000","Units":"in","Rept_Date":"2025-04-02 12"}},{"type":"Point","coordinates":[-88.08416,45.82719],"properties":{"Station_ID":"MI-DC-6","Station_Nam":"IRON MOUNTAIN 1.1 W, MI","Latitude":"45.82719","Longitude":"-88.08416","Snowdepth":"5.000","Units":"in","Rept_Date":"2025-04-02 12"}},{"type":"Point","coordinates":[-89.457,46.19],"properties":{"Station_ID":"LNOW3","Station_Nam":"LAND O LAKES","Latitude":"46.19000","Longitude":"-89.45700","Snowdepth":"5.000","Units":"in","Rept_Date":"2025-04-02 12"}},{"type":"Point","coordinates":[-71.3093,44.3326],"properties":{"Station_ID":"GKBN3","Station_Nam":"GRAY KNOB","Latitude":"44.33260","Longitude":"-71.30930","Snowdepth":"5.000","Units":"in","Rept_Date":"2025-04-02 13"}},{"type":"Point","coordinates":[-90.8839,46.5824],"properties":{"Station_ID":"AWXW3","Station_Nam":"ASHLAND","Latitude":"46.58240","Longitude":"-90.88390","Snowdepth":"5.000","Units":"in","Rept_Date":"2025-04-02 12"}},{"type":"Point","coordinates":[-87.4833,46.0667],"properties":{"Station_ID":"AROM4","Station_Nam":"ARNOLD,MI","Latitude":"46.06670","Longitude":"-87.48330","Snowdepth":"5.000","Units":"in","Rept_Date":"2025-04-02 12"}},{"type":"Point","coordinates":[-95.00585,45.44896],"properties":{"Station_ID":"MN-SR-121","Station_Nam":"BELGRADE 0.3 WSW, MN","Latitude":"45.44896","Longitude":"-95.00585","Snowdepth":"4.500","Units":"in","Rept_Date":"2025-04-02 13"}},{"type":"Point","coordinates":[-94.10155,47.82442],"properties":{"Station_ID":"MN-IT-80","Station_Nam":"NORTHOME 8.4 ESE, MN","Latitude":"47.82442","Longitude":"-94.10155","Snowdepth":"4.500","Units":"in","Rept_Date":"2025-04-02 13"}},{"type":"Point","coordinates":[-89.28143,46.85396],"properties":{"Station_ID":"MI-ON-4","Station_Nam":"ONTONAGON 1.8 ESE, MI","Latitude":"46.85396","Longitude":"-89.28143","Snowdepth":"4.500","Units":"in","Rept_Date":"2025-04-02 12"}},{"type":"Point","coordinates":[-66.68739,45.90112],"properties":{"Station_ID":"CAN-NB-97","Station_Nam":"NEW MARYLAND 0.6 NW, CAN","Latitude":"45.90112","Longitude":"-66.68739","Snowdepth":"4.500","Units":"in","Rept_Date":"2025-04-02 10"}},{"type":"Point","coordinates":[-89.4085,46.2231],"properties":{"Station_ID":"WTRM4","Station_Nam":"WATERSMEET 12WSW","Latitude":"46.22310","Longitude":"-89.40850","Snowdepth":"4.000","Units":"in","Rept_Date":"2025-04-02 11"}},{"type":"Point","coordinates":[-95.407,48.896],"properties":{"Station_ID":"WRUM5","Station_Nam":"WARROAD 4W","Latitude":"48.89600","Longitude":"-95.40700","Snowdepth":"4.000","Units":"in","Rept_Date":"2025-04-03 03"}},{"type":"Point","coordinates":[-91.5771,45.8596],"properties":{"Station_ID":"WI-WB-2","Station_Nam":"STONE LAKE 2.0 NW, WI","Latitude":"45.85960","Longitude":"-91.57710","Snowdepth":"4.000","Units":"in","Rept_Date":"2025-04-02 12"}},{"type":"Point","coordinates":[-97.1152,44.9074],"properties":{"Station_ID":"WATS2","Station_Nam":"WATERTOWN COOP","Latitude":"44.90740","Longitude":"-97.11520","Snowdepth":"4.000","Units":"in","Rept_Date":"2025-04-02 11"}},{"type":"Point","coordinates":[-72.8326,43.29092],"properties":{"Station_ID":"VT-BN-3","Station_Nam":"LANDGROVE 1.1 NNE, VT","Latitude":"43.29092","Longitude":"-72.83260","Snowdepth":"4.000","Units":"in","Rept_Date":"2025-04-02 12"}},{"type":"Point","coordinates":[-89.7322,45.5377],"properties":{"Station_ID":"TAKW3","Station_Nam":"RICE RESERVOIR NO. 2","Latitude":"45.53770","Longitude":"-89.73220","Snowdepth":"4.000","Units":"in","Rept_Date":"2025-04-02 12"}},{"type":"Point","coordinates":[-88.6278,46.0555],"properties":{"Station_ID":"STMM4","Station_Nam":"STAMBAUGH 2SSE","Latitude":"46.05550","Longitude":"-88.62780","Snowdepth":"4.000","Units":"in","Rept_Date":"2025-04-02 12"}},{"type":"Point","coordinates":[-89.4508,45.5986],"properties":{"Station_ID":"RHIW3","Station_Nam":"RHINELANDER","Latitude":"45.59860","Longitude":"-89.45080","Snowdepth":"4.000","Units":"in","Rept_Date":"2025-04-02 12"}},{"type":"Point","coordinates":[-89.7322,45.8863],"properties":{"Station_ID":"MQRW3","Station_Nam":"MINOCQUA","Latitude":"45.88630","Longitude":"-89.73220","Snowdepth":"4.000","Units":"in","Rept_Date":"2025-04-02 11"}},{"type":"Point","coordinates":[-94.84649,46.00588],"properties":{"Station_ID":"MN-TD-12","Station_Nam":"LONG PRAIRIE 2.1 NNE, MN","Latitude":"46.00588","Longitude":"-94.84649","Snowdepth":"4.000","Units":"in","Rept_Date":"2025-04-02 14"}},{"type":"Point","coordinates":[-94.24789,46.06785],"properties":{"Station_ID":"MN-MR-13","Station_Nam":"LITTLE FALLS 8.0 NE, MN","Latitude":"46.06785","Longitude":"-94.24789","Snowdepth":"4.000","Units":"in","Rept_Date":"2025-04-02 12"}},{"type":"Point","coordinates":[-95.35315,45.96212],"properties":{"Station_ID":"MN-DS-37","Station_Nam":"CARLOS 3.0 WSW, MN","Latitude":"45.96212","Longitude":"-95.35315","Snowdepth":"4.000","Units":"in","Rept_Date":"2025-04-02 12"}},{"type":"Point","coordinates":[-90.43796,47.74462],"properties":{"Station_ID":"MN-CK-18","Station_Nam":"GRAND MARAIS 4.4 WSW, MN","Latitude":"47.74462","Longitude":"-90.43796","Snowdepth":"4.000","Units":"in","Rept_Date":"2025-04-02 12"}},{"type":"Point","coordinates":[-88.18,46.5453],"properties":{"Station_ID":"MIEM4","Station_Nam":"MICHIGAMME 3WNW","Latitude":"46.54530","Longitude":"-88.18000","Snowdepth":"4.000","Units":"in","Rept_Date":"2025-04-02 12"}},{"type":"Point","coordinates":[-90.0722,46.1683],"properties":{"Station_ID":"MERW3","Station_Nam":"MERCER,WI","Latitude":"46.16830","Longitude":"-90.07220","Snowdepth":"4.000","Units":"in","Rept_Date":"2025-04-02 14"}},{"type":"Point","coordinates":[-96.1661,45.0023],"properties":{"Station_ID":"MADM5","Station_Nam":"MADISON WWTP","Latitude":"45.00230","Longitude":"-96.16610","Snowdepth":"4.000","Units":"in","Rept_Date":"2025-04-02 13"}},{"type":"Point","coordinates":[-89.0758,46.1211],"properties":{"Station_ID":"LVDW3","Station_Nam":"LAC VIEUX DESERT","Latitude":"46.12110","Longitude":"-89.07580","Snowdepth":"4.000","Units":"in","Rept_Date":"2025-04-02 13"}},{"type":"Point","coordinates":[-94.8892,45.9646],"properties":{"Station_ID":"LNGM5","Station_Nam":"LONG PRAIRIE","Latitude":"45.96460","Longitude":"-94.88920","Snowdepth":"4.000","Units":"in","Rept_Date":"2025-04-02 11"}},{"type":"Point","coordinates":[-94.3056,45.3533],"properties":{"Station_ID":"KIMM5","Station_Nam":"KIMBALL 3N","Latitude":"45.35330","Longitude":"-94.30560","Snowdepth":"4.000","Units":"in","Rept_Date":"2025-04-02 10"}},{"type":"Point","coordinates":[-93.0484,48.4088],"properties":{"Station_ID":"KABM5","Station_Nam":"KABETOGAMA","Latitude":"48.40880","Longitude":"-93.04840","Snowdepth":"4.000","Units":"in","Rept_Date":"2025-04-02 12"}},{"type":"Point","coordinates":[-93.3964,48.5778],"properties":{"Station_ID":"IFSM5","Station_Nam":"INTL FALLS SNOW","Latitude":"48.57780","Longitude":"-93.39640","Snowdepth":"4.000","Units":"in","Rept_Date":"2025-04-03 00"}},{"type":"Point","coordinates":[-95.3869,45.6658],"properties":{"Station_ID":"GLWM5","Station_Nam":"GLENWOOD 1N","Latitude":"45.66580","Longitude":"-95.38690","Snowdepth":"4.000","Units":"in","Rept_Date":"2025-04-02 12"}},{"type":"Point","coordinates":[-89.1528,45.9189],"properties":{"Station_ID":"EVRW3","Station_Nam":"EAGLE RIVER-4 E","Latitude":"45.91890","Longitude":"-89.15280","Snowdepth":"4.000","Units":"in","Rept_Date":"2025-04-02 12"}},{"type":"Point","coordinates":[-87.0406,45.7438],"properties":{"Station_ID":"ESAM4","Station_Nam":"ESCANABA","Latitude":"45.74380","Longitude":"-87.04060","Snowdepth":"4.000","Units":"in","Rept_Date":"2025-04-02 11"}},{"type":"Point","coordinates":[-91.4486,47.9719],"properties":{"Station_ID":"BNDM5","Station_Nam":"ELY 25E","Latitude":"47.97190","Longitude":"-91.44860","Snowdepth":"4.000","Units":"in","Rept_Date":"2025-04-02 13"}},{"type":"Point","coordinates":[-86.413,45.80105],"properties":{"Station_ID":"75281_MADIS","Station_Nam":"MANISTIQUE 13.4 SW, MI","Latitude":"45.80105","Longitude":"-86.41300","Snowdepth":"4.000","Units":"in","Rept_Date":"2025-04-02 12"}},{"type":"Point","coordinates":[-91.28339,46.50198],"properties":{"Station_ID":"WI-BY-22","Station_Nam":"MASON 11.5 WNW, WI","Latitude":"46.50198","Longitude":"-91.28339","Snowdepth":"3.800","Units":"in","Rept_Date":"2025-04-02 12"}},{"type":"Point","coordinates":[-93.9424,45.14021],"properties":{"Station_ID":"MN-WR-140","Station_Nam":"BUFFALO 4.7 SW, MN","Latitude":"45.14021","Longitude":"-93.94240","Snowdepth":"3.700","Units":"in","Rept_Date":"2025-04-02 12"}},{"type":"Point","coordinates":[-88.0856,45.78378],"properties":{"Station_ID":"62681_MADIS","Station_Nam":"AURORA 0.7 E, WI","Latitude":"45.78378","Longitude":"-88.08560","Snowdepth":"3.700","Units":"in","Rept_Date":"2025-04-02 12"}},{"type":"Point","coordinates":[-93.32459,45.16289],"properties":{"Station_ID":"MN-AA-90","Station_Nam":"COON RAPIDS 1.1 SW, MN","Latitude":"45.16289","Longitude":"-93.32459","Snowdepth":"3.600","Units":"in","Rept_Date":"2025-04-02 12"}},{"type":"Point","coordinates":[-72.6383,48.1392],"properties":{"Station_ID":"CQLP","Station_Nam":"CQLP","Latitude":"48.13920","Longitude":"-72.63830","Snowdepth":"3.504","Units":"in","Rept_Date":"2025-04-02 12"}},{"type":"Point","coordinates":[-89.69321,44.95812],"properties":{"Station_ID":"WI-MT-24","Station_Nam":"WAUSAU 2.4 W, WI","Latitude":"44.95812","Longitude":"-89.69321","Snowdepth":"3.500","Units":"in","Rept_Date":"2025-04-02 13"}},{"type":"Point","coordinates":[-90.85854,46.88063],"properties":{"Station_ID":"WI-BY-29","Station_Nam":"BAYFIELD 5.1 NNW, WI","Latitude":"46.88063","Longitude":"-90.85854","Snowdepth":"3.500","Units":"in","Rept_Date":"2025-04-02 12"}},{"type":"Point","coordinates":[-94.19737,45.4195],"properties":{"Station_ID":"MN-SR-48","Station_Nam":"SAINT AUGUSTA 2.1 S, MN","Latitude":"45.41950","Longitude":"-94.19737","Snowdepth":"3.500","Units":"in","Rept_Date":"2025-04-02 12"}},{"type":"Point","coordinates":[-93.24779,44.59646],"properties":{"Station_ID":"MN-DK-225","Station_Nam":"LAKEVILLE 5.6 S, MN","Latitude":"44.59646","Longitude":"-93.24779","Snowdepth":"3.500","Units":"in","Rept_Date":"2025-04-02 12"}},{"type":"Point","coordinates":[-93.6277,45.11329],"properties":{"Station_ID":"74581_MADIS","Station_Nam":"CORCORAN 2.2 W, MN","Latitude":"45.11329","Longitude":"-93.62770","Snowdepth":"3.500","Units":"in","Rept_Date":"2025-04-02 10"}},{"type":"Point","coordinates":[-93.50529,45.0055],"properties":{"Station_ID":"MN-HN-561","Station_Nam":"PLYMOUTH 2.4 WSW, MN","Latitude":"45.00550","Longitude":"-93.50529","Snowdepth":"3.300","Units":"in","Rept_Date":"2025-04-02 12"}},{"type":"Point","coordinates":[-94.22819,45.46309],"properties":{"Station_ID":"MN-SR-63","Station_Nam":"SAINT CLOUD 7.6 SW, MN","Latitude":"45.46309","Longitude":"-94.22819","Snowdepth":"3.100","Units":"in","Rept_Date":"2025-04-02 12"}},{"type":"Point","coordinates":[-89.0778,44.35038],"properties":{"Station_ID":"68941_MADIS","Station_Nam":"WAUPACA 0.3 SSW, WI","Latitude":"44.35038","Longitude":"-89.07780","Snowdepth":"3.100","Units":"in","Rept_Date":"2025-04-02 23"}},{"type":"Point","coordinates":[-89.6169,44.9731],"properties":{"Station_ID":"WUNW3","Station_Nam":"WAUSAU-NORTHEAST","Latitude":"44.97310","Longitude":"-89.61690","Snowdepth":"3.000","Units":"in","Rept_Date":"2025-04-02 11"}},{"type":"Point","coordinates":[-89.23812,44.17764],"properties":{"Station_ID":"WI-WH-7","Station_Nam":"WILD ROSE 0.5 E, WI","Latitude":"44.17764","Longitude":"-89.23812","Snowdepth":"3.000","Units":"in","Rept_Date":"2025-04-02 10"}},{"type":"Point","coordinates":[-91.75905,45.69597],"properties":{"Station_ID":"WI-WB-32","Station_Nam":"SARONA 2.5 ESE, WI","Latitude":"45.69597","Longitude":"-91.75905","Snowdepth":"3.000","Units":"in","Rept_Date":"2025-04-02 12"}},{"type":"Point","coordinates":[-91.67867,45.75095],"properties":{"Station_ID":"WI-WB-20","Station_Nam":"SARONA 6.8 ENE, WI","Latitude":"45.75095","Longitude":"-91.67867","Snowdepth":"3.000","Units":"in","Rept_Date":"2025-04-02 13"}},{"type":"Point","coordinates":[-89.6247,46.1284],"properties":{"Station_ID":"WI-VL-14","Station_Nam":"BOULDER JUNCTION 1.4 NE, WI","Latitude":"46.12840","Longitude":"-89.62470","Snowdepth":"3.000","Units":"in","Rept_Date":"2025-04-02 12"}},{"type":"Point","coordinates":[-89.78677,44.52553],"properties":{"Station_ID":"WI-PT-8","Station_Nam":"RUDOLPH 2.1 NNE, WI","Latitude":"44.52553","Longitude":"-89.78677","Snowdepth":"3.000","Units":"in","Rept_Date":"2025-04-02 10"}},{"type":"Point","coordinates":[-89.54716,44.44225],"properties":{"Station_ID":"WI-PT-23","Station_Nam":"PLOVER 1.4 S, WI","Latitude":"44.44225","Longitude":"-89.54716","Snowdepth":"3.000","Units":"in","Rept_Date":"2025-04-02 12"}},{"type":"Point","coordinates":[-92.51849,44.71119],"properties":{"Station_ID":"WI-PC-25","Station_Nam":"ELLSWORTH 2.6 SW, WI","Latitude":"44.71119","Longitude":"-92.51849","Snowdepth":"3.000","Units":"in","Rept_Date":"2025-04-02 12"}},{"type":"Point","coordinates":[-89.48293,45.7014],"properties":{"Station_ID":"WI-ON-14","Station_Nam":"RHINELANDER 5.5 NW, WI","Latitude":"45.70140","Longitude":"-89.48293","Snowdepth":"3.000","Units":"in","Rept_Date":"2025-04-02 11"}},{"type":"Point","coordinates":[-91.92398,44.89832],"properties":{"Station_ID":"WI-DN-15","Station_Nam":"MENOMONIE 0.9 NW, WI","Latitude":"44.89832","Longitude":"-91.92398","Snowdepth":"3.000","Units":"in","Rept_Date":"2025-04-02 12"}},{"type":"Point","coordinates":[-93.1799,44.9902],"properties":{"Station_ID":"UMNM5","Station_Nam":"UNIVERSITY OF MN ST. PAUL","Latitude":"44.99020","Longitude":"-93.17990","Snowdepth":"3.000","Units":"in","Rept_Date":"2025-04-02 13"}},{"type":"Point","coordinates":[-70.6722,44.9894],"properties":{"Station_ID":"RGNM1","Station_Nam":"RANGELEY 2NW","Latitude":"44.98940","Longitude":"-70.67220","Snowdepth":"3.000","Units":"in","Rept_Date":"2025-04-02 10"}},{"type":"Point","coordinates":[-94.2072,45.7576],"properties":{"Station_ID":"RCEM5","Station_Nam":"RICE","Latitude":"45.75760","Longitude":"-94.20720","Snowdepth":"3.000","Units":"in","Rept_Date":"2025-04-02 12"}},{"type":"Point","coordinates":[-97.1494,44.9733],"properties":{"Station_ID":"RALS2","Station_Nam":"RAUVILLE 2W","Latitude":"44.97330","Longitude":"-97.14940","Snowdepth":"3.000","Units":"in","Rept_Date":"2025-04-02 12"}},{"type":"Point","coordinates":[-89.1794,46.3976],"properties":{"Station_ID":"PDGM4","Station_Nam":"PAULDING","Latitude":"46.39760","Longitude":"-89.17940","Snowdepth":"3.000","Units":"in","Rept_Date":"2025-04-02 13"}},{"type":"Point","coordinates":[-86.4011,45.7961],"properties":{"Station_ID":"PARM4","Station_Nam":"PARENT BAY","Latitude":"45.79610","Longitude":"-86.40110","Snowdepth":"3.000","Units":"in","Rept_Date":"2025-04-02 18"}},{"type":"Point","coordinates":[-93.65106,45.25167],"properties":{"Station_ID":"MN-WR-74","Station_Nam":"ALBERTVILLE 1.2 NNE, MN","Latitude":"45.25167","Longitude":"-93.65106","Snowdepth":"3.000","Units":"in","Rept_Date":"2025-04-02 13"}},{"type":"Point","coordinates":[-94.0098,45.2268],"properties":{"Station_ID":"MN-WR-129","Station_Nam":"MAPLE LAKE 0.5 SSW, MN","Latitude":"45.22680","Longitude":"-94.00980","Snowdepth":"3.000","Units":"in","Rept_Date":"2025-04-02 12"}},{"type":"Point","coordinates":[-95.13102,46.44368],"properties":{"Station_ID":"MN-WD-18","Station_Nam":"WADENA 0.3 ENE, MN","Latitude":"46.44368","Longitude":"-95.13102","Snowdepth":"3.000","Units":"in","Rept_Date":"2025-04-02 13"}},{"type":"Point","coordinates":[-95.60851,45.31338],"properties":{"Station_ID":"MN-SW-5","Station_Nam":"BENSON 0.1 SW, MN","Latitude":"45.31338","Longitude":"-95.60851","Snowdepth":"3.000","Units":"in","Rept_Date":"2025-04-02 12"}},{"type":"Point","coordinates":[-92.16401,46.73912],"properties":{"Station_ID":"MN-SL-335","Station_Nam":"DULUTH 4.1 SW, MN","Latitude":"46.73912","Longitude":"-92.16401","Snowdepth":"3.000","Units":"in","Rept_Date":"2025-04-02 11"}},{"type":"Point","coordinates":[-93.58713,44.47409],"properties":{"Station_ID":"MN-LS-24","Station_Nam":"MONTGOMERY 2.1 N, MN","Latitude":"44.47409","Longitude":"-93.58713","Snowdepth":"3.000","Units":"in","Rept_Date":"2025-04-02 13"}},{"type":"Point","coordinates":[-93.5736,44.9829],"properties":{"Station_ID":"MN-HN-6","Station_Nam":"LONG LAKE 0.2 WSW, MN","Latitude":"44.98290","Longitude":"-93.57360","Snowdepth":"3.000","Units":"in","Rept_Date":"2025-04-02 12"}},{"type":"Point","coordinates":[-93.46271,44.96869],"properties":{"Station_ID":"MN-HN-572","Station_Nam":"WAYZATA 2.5 E, MN","Latitude":"44.96869","Longitude":"-93.46271","Snowdepth":"3.000","Units":"in","Rept_Date":"2025-04-02 12"}},{"type":"Point","coordinates":[-93.4579,45.12261],"properties":{"Station_ID":"MN-HN-31","Station_Nam":"MAPLE GROVE 1.0 NNE, MN","Latitude":"45.12261","Longitude":"-93.45790","Snowdepth":"3.000","Units":"in","Rept_Date":"2025-04-02 13"}},{"type":"Point","coordinates":[-93.4895,45.10451],"properties":{"Station_ID":"MN-HN-241","Station_Nam":"MAPLE GROVE 1.4 WSW, MN","Latitude":"45.10451","Longitude":"-93.48950","Snowdepth":"3.000","Units":"in","Rept_Date":"2025-04-02 12"}},{"type":"Point","coordinates":[-93.3789,44.8783],"properties":{"Station_ID":"MN-HN-19","Station_Nam":"EDINA 1.3 SW, MN","Latitude":"44.87830","Longitude":"-93.37890","Snowdepth":"3.000","Units":"in","Rept_Date":"2025-04-02 12"}},{"type":"Point","coordinates":[-94.14576,46.24996],"properties":{"Station_ID":"MN-CW-29","Station_Nam":"BRAINERD 7.7 SSE, MN","Latitude":"46.24996","Longitude":"-94.14576","Snowdepth":"3.000","Units":"in","Rept_Date":"2025-04-02 12"}},{"type":"Point","coordinates":[-94.3651,46.18089],"properties":{"Station_ID":"MN-CW-22","Station_Nam":"FORT RIPLEY 0.8 N, MN","Latitude":"46.18089","Longitude":"-94.36510","Snowdepth":"3.000","Units":"in","Rept_Date":"2025-04-02 12"}},{"type":"Point","coordinates":[-96.1109,46.7415],"properties":{"Station_ID":"MN-BK-15","Station_Nam":"LAKE PARK 9.9 S, MN","Latitude":"46.74150","Longitude":"-96.11090","Snowdepth":"3.000","Units":"in","Rept_Date":"2025-04-02 13"}},{"type":"Point","coordinates":[-96.6234,45.2267],"properties":{"Station_ID":"MLBS2","Station_Nam":"MILBANK","Latitude":"45.22670","Longitude":"-96.62340","Snowdepth":"3.000","Units":"in","Rept_Date":"2025-04-02 12"}},{"type":"Point","coordinates":[-84.68467,44.96388],"properties":{"Station_ID":"MI-OT-17","Station_Nam":"GAYLORD 4.1 S, MI","Latitude":"44.96388","Longitude":"-84.68467","Snowdepth":"3.000","Units":"in","Rept_Date":"2025-04-02 11"}},{"type":"Point","coordinates":[-84.73582,45.86422],"properties":{"Station_ID":"MI-MC-5","Station_Nam":"ST. IGNACE 0.6 WSW, MI","Latitude":"45.86422","Longitude":"-84.73582","Snowdepth":"3.000","Units":"in","Rept_Date":"2025-04-02 11"}},{"type":"Point","coordinates":[-86.5485,45.89815],"properties":{"Station_ID":"MI-DL-1","Station_Nam":"GARDEN CORNERS 0.8 NW, MI","Latitude":"45.89815","Longitude":"-86.54850","Snowdepth":"3.000","Units":"in","Rept_Date":"2025-04-02 12"}},{"type":"Point","coordinates":[-73.0333,43.05],"properties":{"Station_ID":"LBKV1","Station_Nam":"LYE BROOK","Latitude":"43.05000","Longitude":"-73.03330","Snowdepth":"3.000","Units":"in","Rept_Date":"2025-04-03 06"}},{"type":"Point","coordinates":[-88.0403,45.8758],"properties":{"Station_ID":"IMNM4","Station_Nam":"IRON MOUTAIN 5N","Latitude":"45.87580","Longitude":"-88.04030","Snowdepth":"3.000","Units":"in","Rept_Date":"2025-04-03 00"}},{"type":"Point","coordinates":[-97.2267,44.6633],"properties":{"Station_ID":"HYTS2","Station_Nam":"HAYTI 1W","Latitude":"44.66330","Longitude":"-97.22670","Snowdepth":"3.000","Units":"in","Rept_Date":"2025-04-02 13"}},{"type":"Point","coordinates":[-71.7167,43.9333],"properties":{"Station_ID":"HUBN3","Station_Nam":"HUBBARD BROOK","Latitude":"43.93330","Longitude":"-71.71670","Snowdepth":"3.000","Units":"in","Rept_Date":"2025-04-03 06"}},{"type":"Point","coordinates":[-87.0391,45.8433],"properties":{"Station_ID":"GLDM4","Station_Nam":"GLADSTONE NO. 2","Latitude":"45.84330","Longitude":"-87.03910","Snowdepth":"3.000","Units":"in","Rept_Date":"2025-04-02 11"}},{"type":"Point","coordinates":[-86.5485,45.8983],"properties":{"Station_ID":"GDCM4","Station_Nam":"GARDEN CORNERS","Latitude":"45.89830","Longitude":"-86.54850","Snowdepth":"3.000","Units":"in","Rept_Date":"2025-04-02 12"}},{"type":"Point","coordinates":[-93.7772,45.047],"properties":{"Station_ID":"DLNM5","Station_Nam":"DELANO","Latitude":"45.04700","Longitude":"-93.77720","Snowdepth":"3.000","Units":"in","Rept_Date":"2025-04-02 12"}},{"type":"Point","coordinates":[-66.68965,46.01577],"properties":{"Station_ID":"CAN-NB-174","Station_Nam":"MCLEOD HILL 1.3 SSW, CAN","Latitude":"46.01577","Longitude":"-66.68965","Snowdepth":"3.000","Units":"in","Rept_Date":"2025-04-02 10"}},{"type":"Point","coordinates":[-96.2696,44.7184],"properties":{"Station_ID":"CANM5","Station_Nam":"CANBY","Latitude":"44.71840","Longitude":"-96.26960","Snowdepth":"3.000","Units":"in","Rept_Date":"2025-04-02 13"}},{"type":"Point","coordinates":[-69.8119,45.6602],"properties":{"Station_ID":"BRAM1","Station_Nam":"BRASSUA DAM","Latitude":"45.66020","Longitude":"-69.81190","Snowdepth":"3.000","Units":"in","Rept_Date":"2025-04-02 11"}},{"type":"Point","coordinates":[-88.9044,44.87],"properties":{"Station_ID":"BOWW3","Station_Nam":"STOCKBRIDGE-MUNSEE RESERVATION","Latitude":"44.87000","Longitude":"-88.90440","Snowdepth":"3.000","Units":"in","Rept_Date":"2025-04-02 12"}},{"type":"Point","coordinates":[-89.1133,44.6398],"properties":{"Station_ID":"BFSW3","Station_Nam":"BIG FALLS-5 NW","Latitude":"44.63980","Longitude":"-89.11330","Snowdepth":"3.000","Units":"in","Rept_Date":"2025-04-02 12"}},{"type":"Point","coordinates":[-90.8642,46.7867],"properties":{"Station_ID":"BFHW3","Station_Nam":"BAYFIELD FISH HATCHERY","Latitude":"46.78670","Longitude":"-90.86420","Snowdepth":"3.000","Units":"in","Rept_Date":"2025-04-02 13"}},{"type":"Point","coordinates":[-90.9161,46.5522],"properties":{"Station_ID":"ASXW3","Station_Nam":"ASHLAND,WI","Latitude":"46.55220","Longitude":"-90.91610","Snowdepth":"3.000","Units":"in","Rept_Date":"2025-04-02 13"}},{"type":"Point","coordinates":[-88.9038,45.6736],"properties":{"Station_ID":"AGNW3","Station_Nam":"ARGONNE-1.5 NW","Latitude":"45.67360","Longitude":"-88.90380","Snowdepth":"3.000","Units":"in","Rept_Date":"2025-04-02 13"}},{"type":"Point","coordinates":[-87.8119,45.4825],"properties":{"Station_ID":"ABGW3","Station_Nam":"AMBERG 9 E","Latitude":"45.48250","Longitude":"-87.81190","Snowdepth":"3.000","Units":"in","Rept_Date":"2025-04-02 12"}},{"type":"Point","coordinates":[-93.1201,45.00553],"properties":{"Station_ID":"78301_MADIS","Station_Nam":"ROSEVILLE 1.8 ESE, MN","Latitude":"45.00553","Longitude":"-93.12010","Snowdepth":"3.000","Units":"in","Rept_Date":"2025-04-02 12"}},{"type":"Point","coordinates":[-95.7736,46.58256],"properties":{"Station_ID":"74471_MADIS","Station_Nam":"DENT 3.3 NW, MN","Latitude":"46.58256","Longitude":"-95.77360","Snowdepth":"3.000","Units":"in","Rept_Date":"2025-04-02 16"}},{"type":"Point","coordinates":[-93.9764,45.39375],"properties":{"Station_ID":"69951_MADIS","Station_Nam":"CLEAR LAKE 3.9 SSE, MN","Latitude":"45.39375","Longitude":"-93.97640","Snowdepth":"3.000","Units":"in","Rept_Date":"2025-04-02 11"}},{"type":"Point","coordinates":[-89.6159,44.97329],"properties":{"Station_ID":"55131_MADIS","Station_Nam":"WAUSAU 1.6 ENE, WI","Latitude":"44.97329","Longitude":"-89.61590","Snowdepth":"3.000","Units":"in","Rept_Date":"2025-04-02 10"}},{"type":"Point","coordinates":[-90.84932,47.56499],"properties":{"Station_ID":"MN-CK-31","Station_Nam":"TOFTE 0.9 SW, MN","Latitude":"47.56499","Longitude":"-90.84932","Snowdepth":"2.800","Units":"in","Rept_Date":"2025-04-02 12"}},{"type":"Point","coordinates":[-93.502,45.20586],"properties":{"Station_ID":"72801_MADIS","Station_Nam":"DAYTON 2.5 SSE, MN","Latitude":"45.20586","Longitude":"-93.50200","Snowdepth":"2.800","Units":"in","Rept_Date":"2025-04-02 12"}},{"type":"Point","coordinates":[-91.3537,46.1203],"properties":{"Station_ID":"WI-SR-5","Station_Nam":"HAYWARD 9.7 NE, WI","Latitude":"46.12030","Longitude":"-91.35370","Snowdepth":"2.500","Units":"in","Rept_Date":"2025-04-02 13"}},{"type":"Point","coordinates":[-91.43826,45.95322],"properties":{"Station_ID":"WI-SR-4","Station_Nam":"HAYWARD 4.4 SSE, WI","Latitude":"45.95322","Longitude":"-91.43826","Snowdepth":"2.500","Units":"in","Rept_Date":"2025-04-02 12"}},{"type":"Point","coordinates":[-89.26314,44.41345],"properties":{"Station_ID":"WI-PT-19","Station_Nam":"AMHERST 2.6 SSE, WI","Latitude":"44.41345","Longitude":"-89.26314","Snowdepth":"2.500","Units":"in","Rept_Date":"2025-04-02 12"}},{"type":"Point","coordinates":[-89.4215,45.71388],"properties":{"Station_ID":"WI-ON-6","Station_Nam":"RHINELANDER 5.2 N, WI","Latitude":"45.71388","Longitude":"-89.42150","Snowdepth":"2.500","Units":"in","Rept_Date":"2025-04-02 13"}},{"type":"Point","coordinates":[-88.47802,44.88591],"properties":{"Station_ID":"WI-OC-23","Station_Nam":"GILLETT 8.4 W, WI","Latitude":"44.88591","Longitude":"-88.47802","Snowdepth":"2.500","Units":"in","Rept_Date":"2025-04-02 13"}},{"type":"Point","coordinates":[-72.4435,44.8916],"properties":{"Station_ID":"VT-OL-1","Station_Nam":"WESTFIELD 0.7 WNW, VT","Latitude":"44.89160","Longitude":"-72.44350","Snowdepth":"2.500","Units":"in","Rept_Date":"2025-04-02 11"}},{"type":"Point","coordinates":[-94.7312,45.3517],"properties":{"Station_ID":"MN-SR-24","Station_Nam":"PAYNESVILLE 1.9 SSW, MN","Latitude":"45.35170","Longitude":"-94.73120","Snowdepth":"2.500","Units":"in","Rept_Date":"2025-04-02 12"}},{"type":"Point","coordinates":[-93.43338,44.73907],"properties":{"Station_ID":"MN-SC-8","Station_Nam":"PRIOR LAKE 0.9 NNE, MN","Latitude":"44.73907","Longitude":"-93.43338","Snowdepth":"2.500","Units":"in","Rept_Date":"2025-04-02 12"}},{"type":"Point","coordinates":[-93.11871,44.93555],"properties":{"Station_ID":"MN-RM-203","Station_Nam":"SAINT PAUL 1.1 SW, MN","Latitude":"44.93555","Longitude":"-93.11871","Snowdepth":"2.500","Units":"in","Rept_Date":"2025-04-02 12"}},{"type":"Point","coordinates":[-93.11142,45.07282],"properties":{"Station_ID":"MN-RM-166","Station_Nam":"SHOREVIEW 1.4 ESE, MN","Latitude":"45.07282","Longitude":"-93.11142","Snowdepth":"2.500","Units":"in","Rept_Date":"2025-04-02 12"}},{"type":"Point","coordinates":[-92.99712,44.90588],"properties":{"Station_ID":"MN-RM-120","Station_Nam":"MAPLEWOOD 5.6 SSE, MN","Latitude":"44.90588","Longitude":"-92.99712","Snowdepth":"2.500","Units":"in","Rept_Date":"2025-04-02 14"}},{"type":"Point","coordinates":[-94.4113,44.9037],"properties":{"Station_ID":"MN-MC-26","Station_Nam":"HUTCHINSON 2.1 NW, MN","Latitude":"44.90370","Longitude":"-94.41130","Snowdepth":"2.500","Units":"in","Rept_Date":"2025-04-02 12"}},{"type":"Point","coordinates":[-94.36454,44.96603],"properties":{"Station_ID":"MN-MC-12","Station_Nam":"HUTCHINSON 5.6 N, MN","Latitude":"44.96603","Longitude":"-94.36454","Snowdepth":"2.500","Units":"in","Rept_Date":"2025-04-02 11"}},{"type":"Point","coordinates":[-93.5537,44.4632],"properties":{"Station_ID":"MN-LS-51","Station_Nam":"MONTGOMERY 1.8 NE, MN","Latitude":"44.46320","Longitude":"-93.55370","Snowdepth":"2.500","Units":"in","Rept_Date":"2025-04-02 12"}},{"type":"Point","coordinates":[-93.302,45.4336],"properties":{"Station_ID":"MN-IS-21","Station_Nam":"ISANTI 5.0 SW, MN","Latitude":"45.43360","Longitude":"-93.30200","Snowdepth":"2.500","Units":"in","Rept_Date":"2025-04-02 13"}},{"type":"Point","coordinates":[-93.4207,45.13953],"properties":{"Station_ID":"MN-HN-72","Station_Nam":"MAPLE GROVE 2.9 NE, MN","Latitude":"45.13953","Longitude":"-93.42070","Snowdepth":"2.500","Units":"in","Rept_Date":"2025-04-02 13"}},{"type":"Point","coordinates":[-93.4195,45.04063],"properties":{"Station_ID":"MN-HN-30","Station_Nam":"PLYMOUTH 2.4 ENE, MN","Latitude":"45.04063","Longitude":"-93.41950","Snowdepth":"2.500","Units":"in","Rept_Date":"2025-04-02 12"}},{"type":"Point","coordinates":[-93.2368,44.93331],"properties":{"Station_ID":"MN-HN-267","Station_Nam":"MINNEAPOLIS 2.5 SE, MN","Latitude":"44.93331","Longitude":"-93.23680","Snowdepth":"2.500","Units":"in","Rept_Date":"2025-04-02 12"}},{"type":"Point","coordinates":[-92.89526,44.50866],"properties":{"Station_ID":"MN-GH-28","Station_Nam":"CANNON FALLS 0.5 SE, MN","Latitude":"44.50866","Longitude":"-92.89526","Snowdepth":"2.500","Units":"in","Rept_Date":"2025-04-02 13"}},{"type":"Point","coordinates":[-93.4262,45.3036],"properties":{"Station_ID":"MN-AA-76","Station_Nam":"NOWTHEN 2.9 SSE, MN","Latitude":"45.30360","Longitude":"-93.42620","Snowdepth":"2.500","Units":"in","Rept_Date":"2025-04-02 12"}},{"type":"Point","coordinates":[-93.26742,45.08234],"properties":{"Station_ID":"MN-AA-151","Station_Nam":"FRIDLEY 0.4 WSW, MN","Latitude":"45.08234","Longitude":"-93.26742","Snowdepth":"2.500","Units":"in","Rept_Date":"2025-04-02 12"}},{"type":"Point","coordinates":[-86.28266,45.99042],"properties":{"Station_ID":"MI-SH-1","Station_Nam":"MANISTIQUE 2.7 NW, MI","Latitude":"45.99042","Longitude":"-86.28266","Snowdepth":"2.500","Units":"in","Rept_Date":"2025-04-02 10"}},{"type":"Point","coordinates":[-93.1431,45.18154],"properties":{"Station_ID":"80351_MADIS","Station_Nam":"CIRCLE PINES 2.8 N, MN","Latitude":"45.18154","Longitude":"-93.14310","Snowdepth":"2.500","Units":"in","Rept_Date":"2025-04-02 12"}},{"type":"Point","coordinates":[-93.6385,44.87284],"properties":{"Station_ID":"74861_MADIS","Station_Nam":"VICTORIA 1.0 ENE, MN","Latitude":"44.87284","Longitude":"-93.63850","Snowdepth":"2.500","Units":"in","Rept_Date":"2025-04-02 13"}},{"type":"Point","coordinates":[-94.1507,44.77337],"properties":{"Station_ID":"73891_MADIS","Station_Nam":"GLENCOE 0.3 N, MN","Latitude":"44.77337","Longitude":"-94.15070","Snowdepth":"2.500","Units":"in","Rept_Date":"2025-04-02 12"}},{"type":"Point","coordinates":[-92.9692,45.68449],"properties":{"Station_ID":"59671_MADIS","Station_Nam":"RUSH CITY 0.3 SSW, MN","Latitude":"45.68449","Longitude":"-92.96920","Snowdepth":"2.500","Units":"in","Rept_Date":"2025-04-02 12"}},{"type":"Point","coordinates":[-93.1846,44.70423],"properties":{"Station_ID":"MN-DK-53","Station_Nam":"LAKEVILLE 3.8 ENE, MN","Latitude":"44.70423","Longitude":"-93.18460","Snowdepth":"2.400","Units":"in","Rept_Date":"2025-04-02 12"}},{"type":"Point","coordinates":[-96.1218,46.7985],"properties":{"Station_ID":"MN-BK-6","Station_Nam":"LAKE PARK 6.0 S, MN","Latitude":"46.79850","Longitude":"-96.12180","Snowdepth":"2.400","Units":"in","Rept_Date":"2025-04-02 12"}},{"type":"Point","coordinates":[-92.6323,44.80802],"properties":{"Station_ID":"WI-PC-49","Station_Nam":"RIVER FALLS 3.3 S, WI","Latitude":"44.80802","Longitude":"-92.63230","Snowdepth":"2.300","Units":"in","Rept_Date":"2025-04-02 12"}},{"type":"Point","coordinates":[-92.83923,45.04851],"properties":{"Station_ID":"MN-WG-80","Station_Nam":"STILLWATER 0.8 SW, MN","Latitude":"45.04851","Longitude":"-92.83923","Snowdepth":"2.300","Units":"in","Rept_Date":"2025-04-02 12"}},{"type":"Point","coordinates":[-92.4551,44.23895],"properties":{"Station_ID":"MN-WB-4","Station_Nam":"ZUMBRO FALLS 3.5 SSW, MN","Latitude":"44.23895","Longitude":"-92.45510","Snowdepth":"2.300","Units":"in","Rept_Date":"2025-04-02 13"}},{"type":"Point","coordinates":[-93.9572,46.38556],"properties":{"Station_ID":"MN-CW-8","Station_Nam":"BRAINERD 11.5 E, MN","Latitude":"46.38556","Longitude":"-93.95720","Snowdepth":"2.300","Units":"in","Rept_Date":"2025-04-02 13"}},{"type":"Point","coordinates":[-93.11511,45.62456],"properties":{"Station_ID":"MN-CG-66","Station_Nam":"STANCHFIELD 4.7 SE, MN","Latitude":"45.62456","Longitude":"-93.11511","Snowdepth":"2.300","Units":"in","Rept_Date":"2025-04-02 12"}},{"type":"Point","coordinates":[-93.014,45.0241],"properties":{"Station_ID":"MN-RM-63","Station_Nam":"NORTH SAINT PAUL 1.0 NW, MN","Latitude":"45.02410","Longitude":"-93.01400","Snowdepth":"2.200","Units":"in","Rept_Date":"2025-04-02 12"}},{"type":"Point","coordinates":[-93.7531,45.2936],"properties":{"Station_ID":"MN-WR-150","Station_Nam":"MONTICELLO 2.3 E, MN","Latitude":"45.29360","Longitude":"-93.75310","Snowdepth":"2.100","Units":"in","Rept_Date":"2025-04-02 12"}},{"type":"Point","coordinates":[-91.85319,47.03401],"properties":{"Station_ID":"MN-SL-313","Station_Nam":"TWO HARBORS 8.4 W, MN","Latitude":"47.03401","Longitude":"-91.85319","Snowdepth":"2.100","Units":"in","Rept_Date":"2025-04-02 12"}},{"type":"Point","coordinates":[-93.35374,45.16536],"properties":{"Station_ID":"MN-HN-382","Station_Nam":"CHAMPLIN 1.8 E, MN","Latitude":"45.16536","Longitude":"-93.35374","Snowdepth":"2.100","Units":"in","Rept_Date":"2025-04-02 13"}},{"type":"Point","coordinates":[-91.1973,47.3824],"properties":{"Station_ID":"WLFM5","Station_Nam":"WOLF RIDGE ENVIRON LEARNING CENTER","Latitude":"47.38240","Longitude":"-91.19730","Snowdepth":"2.000","Units":"in","Rept_Date":"2025-04-02 12"}},{"type":"Point","coordinates":[-92.749,45.5231],"properties":{"Station_ID":"WLDM5","Station_Nam":"WILD RIVER STATE PARK","Latitude":"45.52310","Longitude":"-92.74900","Snowdepth":"2.000","Units":"in","Rept_Date":"2025-04-02 14"}},{"type":"Point","coordinates":[-89.93526,44.26305],"properties":{"Station_ID":"WI-WD-7","Station_Nam":"NEKOOSA 3.7 SSW, WI","Latitude":"44.26305","Longitude":"-89.93526","Snowdepth":"2.000","Units":"in","Rept_Date":"2025-04-02 12"}},{"type":"Point","coordinates":[-91.8811,45.72553],"properties":{"Station_ID":"WI-WB-23","Station_Nam":"SHELL LAKE 1.3 SE, WI","Latitude":"45.72553","Longitude":"-91.88110","Snowdepth":"2.000","Units":"in","Rept_Date":"2025-04-02 14"}},{"type":"Point","coordinates":[-92.60322,45.01541],"properties":{"Station_ID":"WI-SC-76","Station_Nam":"ROBERTS 3.3 NW, WI","Latitude":"45.01541","Longitude":"-92.60322","Snowdepth":"2.000","Units":"in","Rept_Date":"2025-04-02 16"}},{"type":"Point","coordinates":[-92.2786,45.1925],"properties":{"Station_ID":"WI-SC-21","Station_Nam":"CLEAR LAKE 4.0 S, WI","Latitude":"45.19250","Longitude":"-92.27860","Snowdepth":"2.000","Units":"in","Rept_Date":"2025-04-02 13"}},{"type":"Point","coordinates":[-89.8305,44.3994],"properties":{"Station_ID":"WIRW3","Station_Nam":"WIS RAPIDS GRAND AV B","Latitude":"44.39940","Longitude":"-89.83050","Snowdepth":"2.000","Units":"in","Rept_Date":"2025-04-02 12"}},{"type":"Point","coordinates":[-87.64477,44.23228],"properties":{"Station_ID":"WI-MC-16","Station_Nam":"MISHICOT 0.1 NNW, WI","Latitude":"44.23228","Longitude":"-87.64477","Snowdepth":"2.000","Units":"in","Rept_Date":"2025-04-02 13"}},{"type":"Point","coordinates":[-91.6668,44.88627],"properties":{"Station_ID":"WI-DN-5","Station_Nam":"ELK MOUND 1.3 NE, WI","Latitude":"44.88627","Longitude":"-91.66680","Snowdepth":"2.000","Units":"in","Rept_Date":"2025-04-02 12"}},{"type":"Point","coordinates":[-91.84405,46.35217],"properties":{"Station_ID":"WI-DG-20","Station_Nam":"SOLON SPRINGS 1.2 W, WI","Latitude":"46.35217","Longitude":"-91.84405","Snowdepth":"2.000","Units":"in","Rept_Date":"2025-04-02 12"}},{"type":"Point","coordinates":[-92.1368,46.7087],"properties":{"Station_ID":"WI-DG-18","Station_Nam":"SUPERIOR 3.7 WNW, WI","Latitude":"46.70870","Longitude":"-92.13680","Snowdepth":"2.000","Units":"in","Rept_Date":"2025-04-02 13"}},{"type":"Point","coordinates":[-92.21653,45.95184],"properties":{"Station_ID":"WI-BT-14","Station_Nam":"OAKLAND 9.0 ENE, WI","Latitude":"45.95184","Longitude":"-92.21653","Snowdepth":"2.000","Units":"in","Rept_Date":"2025-04-02 12"}},{"type":"Point","coordinates":[-88.09457,44.5518],"properties":{"Station_ID":"WI-BN-48","Station_Nam":"HOWARD 1.7 SSW, WI","Latitude":"44.55180","Longitude":"-88.09457","Snowdepth":"2.000","Units":"in","Rept_Date":"2025-04-02 12"}},{"type":"Point","coordinates":[-91.6648,47.0176],"properties":{"Station_ID":"TOHM5","Station_Nam":"TWO HARBORS WWTP","Latitude":"47.01760","Longitude":"-91.66480","Snowdepth":"2.000","Units":"in","Rept_Date":"2025-04-02 12"}},{"type":"Point","coordinates":[-92.072,46.727],"properties":{"Station_ID":"SWTW3","Station_Nam":"SUPERIOR WWTP","Latitude":"46.72700","Longitude":"-92.07200","Snowdepth":"2.000","Units":"in","Rept_Date":"2025-04-03 05"}},{"type":"Point","coordinates":[-92.2487,44.8537],"properties":{"Station_ID":"SVEW3","Station_Nam":"SPRING VALLEY EAU GALLE","Latitude":"44.85370","Longitude":"-92.24870","Snowdepth":"2.000","Units":"in","Rept_Date":"2025-04-02 13"}},{"type":"Point","coordinates":[-90.0899,44.8175],"properties":{"Station_ID":"STRW3","Station_Nam":"STRATFORD 1NW","Latitude":"44.81750","Longitude":"-90.08990","Snowdepth":"2.000","Units":"in","Rept_Date":"2025-04-02 11"}},{"type":"Point","coordinates":[-89.5855,44.5113],"properties":{"Station_ID":"STPW3","Station_Nam":"STEVENS POINT","Latitude":"44.51130","Longitude":"-89.58550","Snowdepth":"2.000","Units":"in","Rept_Date":"2025-04-02 12"}},{"type":"Point","coordinates":[-92.8522,45.0454],"properties":{"Station_ID":"STIM5","Station_Nam":"STILLWATER 2SW","Latitude":"45.04540","Longitude":"-92.85220","Snowdepth":"2.000","Units":"in","Rept_Date":"2025-04-02 13"}},{"type":"Point","coordinates":[-94.0514,45.5433],"properties":{"Station_ID":"STC","Station_Nam":"ST. CLOUD RGNL ARPT","Latitude":"45.54330","Longitude":"-94.05140","Snowdepth":"2.000","Units":"in","Rept_Date":"2025-04-02 12"}},{"type":"Point","coordinates":[-88.6183,44.7631],"properties":{"Station_ID":"SHHW3","Station_Nam":"SHAWANO 2SSW","Latitude":"44.76310","Longitude":"-88.61830","Snowdepth":"2.000","Units":"in","Rept_Date":"2025-04-02 13"}},{"type":"Point","coordinates":[-96.8348,45.6948],"properties":{"Station_ID":"SD-RB-4","Station_Nam":"SISSETON 10.4 ENE, SD","Latitude":"45.69480","Longitude":"-96.83480","Snowdepth":"2.000","Units":"in","Rept_Date":"2025-04-02 12"}},{"type":"Point","coordinates":[-94.1495,45.551],"properties":{"Station_ID":"SCSM5","Station_Nam":"ST CLOUD STATE","Latitude":"45.55100","Longitude":"-94.14950","Snowdepth":"2.000","Units":"in","Rept_Date":"2025-04-02 11"}},{"type":"Point","coordinates":[-89.306,44.6271],"properties":{"Station_ID":"RSTW3","Station_Nam":"ROSHOLT","Latitude":"44.62710","Longitude":"-89.30600","Snowdepth":"2.000","Units":"in","Rept_Date":"2025-04-02 12"}},{"type":"Point","coordinates":[-89.6617,45.1786],"properties":{"Station_ID":"RRLW3","Station_Nam":"MERRILL,WI","Latitude":"45.17860","Longitude":"-89.66170","Snowdepth":"2.000","Units":"in","Rept_Date":"2025-04-02 13"}},{"type":"Point","coordinates":[-89.8772,46.1222],"properties":{"Station_ID":"RLKW3","Station_Nam":"REST LAKE","Latitude":"46.12220","Longitude":"-89.87720","Snowdepth":"2.000","Units":"in","Rept_Date":"2025-04-02 12"}},{"type":"Point","coordinates":[-69.7167,45.5833],"properties":{"Station_ID":"RKWM1","Station_Nam":"MOOSEHEAD LAKE","Latitude":"45.58330","Longitude":"-69.71670","Snowdepth":"2.000","Units":"in","Rept_Date":"2025-04-02 11"}},{"type":"Point","coordinates":[-89.41,45.6222],"properties":{"Station_ID":"RHRW3","Station_Nam":"RHINELANDER WJFW TV-12","Latitude":"45.62220","Longitude":"-89.41000","Snowdepth":"2.000","Units":"in","Rept_Date":"2025-04-03 03"}},{"type":"Point","coordinates":[-87.7356,45.0281],"properties":{"Station_ID":"PSHW3","Station_Nam":"PESHTIGO","Latitude":"45.02810","Longitude":"-87.73560","Snowdepth":"2.000","Units":"in","Rept_Date":"2025-04-02 12"}},{"type":"Point","coordinates":[-89.5453,44.4428],"properties":{"Station_ID":"PLOW3","Station_Nam":"PLOVER","Latitude":"44.44280","Longitude":"-89.54530","Snowdepth":"2.000","Units":"in","Rept_Date":"2025-04-02 12"}},{"type":"Point","coordinates":[-88.7378,44.7358],"properties":{"Station_ID":"PELW3","Station_Nam":"PELLA 3SE","Latitude":"44.73580","Longitude":"-88.73780","Snowdepth":"2.000","Units":"in","Rept_Date":"2025-04-02 10"}},{"type":"Point","coordinates":[-95.5667,46.4167],"properties":{"Station_ID":"OTTM5","Station_Nam":"OTTERTAIL,MN","Latitude":"46.41670","Longitude":"-95.56670","Snowdepth":"2.000","Units":"in","Rept_Date":"2025-04-02 12"}},{"type":"Point","coordinates":[-95.3799,46.5092],"properties":{"Station_ID":"NYMM5","Station_Nam":"NEW YORK MILLS","Latitude":"46.50920","Longitude":"-95.37990","Snowdepth":"2.000","Units":"in","Rept_Date":"2025-04-02 12"}},{"type":"Point","coordinates":[-71.9767,43.4189],"properties":{"Station_ID":"NLNN3","Station_Nam":"NEW LONDON","Latitude":"43.41890","Longitude":"-71.97670","Snowdepth":"2.000","Units":"in","Rept_Date":"2025-04-02 11"}},{"type":"Point","coordinates":[-71.3415,43.80976],"properties":{"Station_ID":"NH-CR-26","Station_Nam":"CENTER SANDWICH 4.9 E, NH","Latitude":"43.80976","Longitude":"-71.34150","Snowdepth":"2.000","Units":"in","Rept_Date":"2025-04-02 11"}},{"type":"Point","coordinates":[-87.9636,44.0042],"properties":{"Station_ID":"NAZW3","Station_Nam":"ST. NAZIANZ-2 W","Latitude":"44.00420","Longitude":"-87.96360","Snowdepth":"2.000","Units":"in","Rept_Date":"2025-04-02 12"}},{"type":"Point","coordinates":[-93.2289,44.8831],"properties":{"Station_ID":"MSP","Station_Nam":"MINNEAPOLIS-ST PAUL INTL AP","Latitude":"44.88310","Longitude":"-93.22890","Snowdepth":"2.000","Units":"in","Rept_Date":"2025-04-02 12"}},{"type":"Point","coordinates":[-87.6236,45.0983],"properties":{"Station_ID":"MRIW3","Station_Nam":"MARINETTE","Latitude":"45.09830","Longitude":"-87.62360","Snowdepth":"2.000","Units":"in","Rept_Date":"2025-04-02 12"}},{"type":"Point","coordinates":[-93.6528,45.2082],"properties":{"Station_ID":"MN-WR-25","Station_Nam":"SAINT MICHAEL 2.0 ENE, MN","Latitude":"45.20820","Longitude":"-93.65280","Snowdepth":"2.000","Units":"in","Rept_Date":"2025-04-02 12"}},{"type":"Point","coordinates":[-92.9651,44.98208],"properties":{"Station_ID":"MN-WG-74","Station_Nam":"OAKDALE 0.4 S, MN","Latitude":"44.98208","Longitude":"-92.96510","Snowdepth":"2.000","Units":"in","Rept_Date":"2025-04-02 12"}},{"type":"Point","coordinates":[-92.8085,45.0707],"properties":{"Station_ID":"MN-WG-20","Station_Nam":"STILLWATER 1.4 NE, MN","Latitude":"45.07070","Longitude":"-92.80850","Snowdepth":"2.000","Units":"in","Rept_Date":"2025-04-02 13"}},{"type":"Point","coordinates":[-92.848,45.195],"properties":{"Station_ID":"MN-WG-163","Station_Nam":"MARINE ON SAINT CROIX 3.3 W, MN","Latitude":"45.19500","Longitude":"-92.84800","Snowdepth":"2.000","Units":"in","Rept_Date":"2025-04-02 12"}},{"type":"Point","coordinates":[-93.58777,45.30712],"properties":{"Station_ID":"MN-SH-75","Station_Nam":"ELK RIVER 2.0 SSW, MN","Latitude":"45.30712","Longitude":"-93.58777","Snowdepth":"2.000","Units":"in","Rept_Date":"2025-04-02 14"}},{"type":"Point","coordinates":[-93.4636,44.7125],"properties":{"Station_ID":"MN-SC-2","Station_Nam":"PRIOR LAKE 2.0 W, MN","Latitude":"44.71250","Longitude":"-93.46360","Snowdepth":"2.000","Units":"in","Rept_Date":"2025-04-02 10"}},{"type":"Point","coordinates":[-93.1645,44.4524],"properties":{"Station_ID":"MN-RC-78","Station_Nam":"NORTHFIELD 0.4 SSW, MN","Latitude":"44.45240","Longitude":"-93.16450","Snowdepth":"2.000","Units":"in","Rept_Date":"2025-04-02 12"}},{"type":"Point","coordinates":[-94.3772,45.96886],"properties":{"Station_ID":"MN-MR-4","Station_Nam":"LITTLE FALLS 1.2 SW, MN","Latitude":"45.96886","Longitude":"-94.37720","Snowdepth":"2.000","Units":"in","Rept_Date":"2025-04-02 12"}},{"type":"Point","coordinates":[-91.7528,47.04118],"properties":{"Station_ID":"MN-LK-4","Station_Nam":"TWO HARBORS 3.6 WNW, MN","Latitude":"47.04118","Longitude":"-91.75280","Snowdepth":"2.000","Units":"in","Rept_Date":"2025-04-02 12"}},{"type":"Point","coordinates":[-91.66769,47.02898],"properties":{"Station_ID":"MN-LK-32","Station_Nam":"TWO HARBORS 0.4 ESE, MN","Latitude":"47.02898","Longitude":"-91.66769","Snowdepth":"2.000","Units":"in","Rept_Date":"2025-04-02 13"}},{"type":"Point","coordinates":[-93.297,45.841],"properties":{"Station_ID":"MN-KB-17","Station_Nam":"MORA 2.5 S, MN","Latitude":"45.84100","Longitude":"-93.29700","Snowdepth":"2.000","Units":"in","Rept_Date":"2025-04-02 12"}},{"type":"Point","coordinates":[-91.42908,43.79527],"properties":{"Station_ID":"MN-HS-15","Station_Nam":"LA CRESCENT 6.8 WSW, MN","Latitude":"43.79527","Longitude":"-91.42908","Snowdepth":"2.000","Units":"in","Rept_Date":"2025-04-02 12"}},{"type":"Point","coordinates":[-93.41178,44.92832],"properties":{"Station_ID":"MN-HN-660","Station_Nam":"HOPKINS 0.3 WNW, MN","Latitude":"44.92832","Longitude":"-93.41178","Snowdepth":"2.000","Units":"in","Rept_Date":"2025-04-02 12"}},{"type":"Point","coordinates":[-93.42417,44.96331],"properties":{"Station_ID":"MN-HN-651","Station_Nam":"MINNETONKA 2.8 NE, MN","Latitude":"44.96331","Longitude":"-93.42417","Snowdepth":"2.000","Units":"in","Rept_Date":"2025-04-02 13"}},{"type":"Point","coordinates":[-93.31282,44.90319],"properties":{"Station_ID":"MN-HN-239","Station_Nam":"MINNEAPOLIS 4.7 SSW, MN","Latitude":"44.90319","Longitude":"-93.31282","Snowdepth":"2.000","Units":"in","Rept_Date":"2025-04-02 12"}},{"type":"Point","coordinates":[-93.31632,44.92886],"properties":{"Station_ID":"MN-HN-22","Station_Nam":"MINNEAPOLIS 3.3 SW, MN","Latitude":"44.92886","Longitude":"-93.31632","Snowdepth":"2.000","Units":"in","Rept_Date":"2025-04-02 12"}},{"type":"Point","coordinates":[-95.0522,46.9286],"properties":{"Station_ID":"MN-HB-40","Station_Nam":"PARK RAPIDS 1.0 NNE, MN","Latitude":"46.92860","Longitude":"-95.05220","Snowdepth":"2.000","Units":"in","Rept_Date":"2025-04-02 12"}},{"type":"Point","coordinates":[-93.17899,44.84322],"properties":{"Station_ID":"MN-DK-70","Station_Nam":"EAGAN 2.0 NNW, MN","Latitude":"44.84322","Longitude":"-93.17899","Snowdepth":"2.000","Units":"in","Rept_Date":"2025-04-02 14"}},{"type":"Point","coordinates":[-93.24048,44.77764],"properties":{"Station_ID":"MN-DK-233","Station_Nam":"BURNSVILLE 2.1 ENE, MN","Latitude":"44.77764","Longitude":"-93.24048","Snowdepth":"2.000","Units":"in","Rept_Date":"2025-04-02 12"}},{"type":"Point","coordinates":[-93.06196,44.8101],"properties":{"Station_ID":"MN-DK-134","Station_Nam":"INVER GROVE HEIGHTS 1.0 S, MN","Latitude":"44.81010","Longitude":"-93.06196","Snowdepth":"2.000","Units":"in","Rept_Date":"2025-04-02 12"}},{"type":"Point","coordinates":[-92.88035,44.74458],"properties":{"Station_ID":"MN-DK-104","Station_Nam":"HASTINGS 1.6 NW, MN","Latitude":"44.74458","Longitude":"-92.88035","Snowdepth":"2.000","Units":"in","Rept_Date":"2025-04-02 12"}},{"type":"Point","coordinates":[-94.29969,46.63421],"properties":{"Station_ID":"MN-CW-77","Station_Nam":"PEQUOT LAKES 3.2 N, MN","Latitude":"46.63421","Longitude":"-94.29969","Snowdepth":"2.000","Units":"in","Rept_Date":"2025-04-02 12"}},{"type":"Point","coordinates":[-93.97293,46.47772],"properties":{"Station_ID":"MN-CW-44","Station_Nam":"CROSBY 1.1 SW, MN","Latitude":"46.47772","Longitude":"-93.97293","Snowdepth":"2.000","Units":"in","Rept_Date":"2025-04-02 14"}},{"type":"Point","coordinates":[-93.61075,44.80968],"properties":{"Station_ID":"MN-CV-97","Station_Nam":"CHASKA 0.5 S, MN","Latitude":"44.80968","Longitude":"-93.61075","Snowdepth":"2.000","Units":"in","Rept_Date":"2025-04-02 12"}},{"type":"Point","coordinates":[-93.6416,44.75728],"properties":{"Station_ID":"MN-CV-1","Station_Nam":"CARVER 0.7 W, MN","Latitude":"44.75728","Longitude":"-93.64160","Snowdepth":"2.000","Units":"in","Rept_Date":"2025-04-02 12"}},{"type":"Point","coordinates":[-92.88148,45.35678],"properties":{"Station_ID":"MN-CG-70","Station_Nam":"CHISAGO CITY 1.6 ENE, MN","Latitude":"45.35678","Longitude":"-92.88148","Snowdepth":"2.000","Units":"in","Rept_Date":"2025-04-02 11"}},{"type":"Point","coordinates":[-93.1789,45.3571],"properties":{"Station_ID":"MN-AA-175","Station_Nam":"EAST BETHEL 1.2 E, MN","Latitude":"45.35710","Longitude":"-93.17890","Snowdepth":"2.000","Units":"in","Rept_Date":"2025-04-02 13"}},{"type":"Point","coordinates":[-93.34893,45.30539],"properties":{"Station_ID":"MN-AA-169","Station_Nam":"OAK GROVE 2.7 SSW, MN","Latitude":"45.30539","Longitude":"-93.34893","Snowdepth":"2.000","Units":"in","Rept_Date":"2025-04-02 12"}},{"type":"Point","coordinates":[-94.802,45.6773],"properties":{"Station_ID":"MLRM5","Station_Nam":"MELROSE","Latitude":"45.67730","Longitude":"-94.80200","Snowdepth":"2.000","Units":"in","Rept_Date":"2025-04-02 12"}},{"type":"Point","coordinates":[-93.6617,45.7532],"properties":{"Station_ID":"MLCM5","Station_Nam":"MILACA","Latitude":"45.75320","Longitude":"-93.66170","Snowdepth":"2.000","Units":"in","Rept_Date":"2025-04-02 12"}},{"type":"Point","coordinates":[-89.1317,46.20333],"properties":{"Station_ID":"MI-GG-4","Station_Nam":"WATERSMEET 5.0 SE, MI","Latitude":"46.20333","Longitude":"-89.13170","Snowdepth":"2.000","Units":"in","Rept_Date":"2025-04-02 13"}},{"type":"Point","coordinates":[-90.1333,44.6411],"properties":{"Station_ID":"MFDW3","Station_Nam":"MARSHFIELD EXP FARM","Latitude":"44.64110","Longitude":"-90.13330","Snowdepth":"2.000","Units":"in","Rept_Date":"2025-04-02 12"}},{"type":"Point","coordinates":[-68.1439,47.0108],"properties":{"Station_ID":"ME-AR-18","Station_Nam":"NEW SWEDEN 4.9 NNW, ME","Latitude":"47.01080","Longitude":"-68.14390","Snowdepth":"2.000","Units":"in","Rept_Date":"2025-04-02 11"}},{"type":"Point","coordinates":[-97.2381,46.4025],"properties":{"Station_ID":"MCLN8","Station_Nam":"MC LEOD,ND","Latitude":"46.40250","Longitude":"-97.23810","Snowdepth":"2.000","Units":"in","Rept_Date":"2025-04-02 14"}},{"type":"Point","coordinates":[-94.5346,45.1281],"properties":{"Station_ID":"LCHM5","Station_Nam":"LITCHFIELD","Latitude":"45.12810","Longitude":"-94.53460","Snowdepth":"2.000","Units":"in","Rept_Date":"2025-04-02 13"}},{"type":"Point","coordinates":[-93.21666,44.86666],"properties":{"Station_ID":"KMSP","Station_Nam":"MINNEAPOLIS-ST PAUL INTERNATIONAL","Latitude":"44.86666","Longitude":"-93.21666","Snowdepth":"2.000","Units":"in","Rept_Date":"2025-04-02 12"}},{"type":"Point","coordinates":[-93.6356,44.6501],"properties":{"Station_ID":"JORM5","Station_Nam":"JORDAN 1SSW","Latitude":"44.65010","Longitude":"-93.63560","Snowdepth":"2.000","Units":"in","Rept_Date":"2025-04-02 10"}},{"type":"Point","coordinates":[-93.9,48.6167],"properties":{"Station_ID":"INDM5","Station_Nam":"INDUS,MN","Latitude":"48.61670","Longitude":"-93.90000","Snowdepth":"2.000","Units":"in","Rept_Date":"2025-04-02 14"}},{"type":"Point","coordinates":[-92.8689,44.7597],"properties":{"Station_ID":"HSTM5","Station_Nam":"HASTINGS DAM 2","Latitude":"44.75970","Longitude":"-92.86890","Snowdepth":"2.000","Units":"in","Rept_Date":"2025-04-02 10"}},{"type":"Point","coordinates":[-91.4269,43.7953],"properties":{"Station_ID":"HOKM5","Station_Nam":"HOKAH 4NW","Latitude":"43.79530","Longitude":"-91.42690","Snowdepth":"2.000","Units":"in","Rept_Date":"2025-04-02 12"}},{"type":"Point","coordinates":[-96.2667,47.7167],"properties":{"Station_ID":"GLRM5","Station_Nam":"GLACIAL RIDGE","Latitude":"47.71670","Longitude":"-96.26670","Snowdepth":"2.000","Units":"in","Rept_Date":"2025-04-03 06"}},{"type":"Point","coordinates":[-94.35,46.4119],"properties":{"Station_ID":"GLLM5","Station_Nam":"GULL LAKE DAM","Latitude":"46.41190","Longitude":"-94.35000","Snowdepth":"2.000","Units":"in","Rept_Date":"2025-04-02 13"}},{"type":"Point","coordinates":[-87.3969,44.6978],"properties":{"Station_ID":"FORW3","Station_Nam":"FORESTVILLE-4E","Latitude":"44.69780","Longitude":"-87.39690","Snowdepth":"2.000","Units":"in","Rept_Date":"2025-04-02 13"}},{"type":"Point","coordinates":[-92.8983,45.3315],"properties":{"Station_ID":"FORM5","Station_Nam":"FOREST LAKE 5NE","Latitude":"45.33150","Longitude":"-92.89830","Snowdepth":"2.000","Units":"in","Rept_Date":"2025-04-02 12"}},{"type":"Point","coordinates":[-71.3425,43.8099],"properties":{"Station_ID":"ESDN3","Station_Nam":"EAST SANDWICH","Latitude":"43.80990","Longitude":"-71.34250","Snowdepth":"2.000","Units":"in","Rept_Date":"2025-04-02 10"}},{"type":"Point","coordinates":[-85.5696,46.128],"properties":{"Station_ID":"ENGM4","Station_Nam":"ENGADINE MDOT","Latitude":"46.12800","Longitude":"-85.56960","Snowdepth":"2.000","Units":"in","Rept_Date":"2025-04-02 11"}},{"type":"Point","coordinates":[-93.5825,45.3056],"properties":{"Station_ID":"ELKM5","Station_Nam":"ELK RIVER","Latitude":"45.30560","Longitude":"-93.58250","Snowdepth":"2.000","Units":"in","Rept_Date":"2025-04-02 12"}},{"type":"Point","coordinates":[-91.4879,44.8665],"properties":{"Station_ID":"EAU","Station_Nam":"CHIPPEWA VALLEY RGNL ARPT","Latitude":"44.86650","Longitude":"-91.48790","Snowdepth":"2.000","Units":"in","Rept_Date":"2025-04-02 12"}},{"type":"Point","coordinates":[-87.8119,44.3513],"properties":{"Station_ID":"DENW3","Station_Nam":"DENMARK WWTP","Latitude":"44.35130","Longitude":"-87.81190","Snowdepth":"2.000","Units":"in","Rept_Date":"2025-04-02 13"}},{"type":"Point","coordinates":[-94.1106,46.6693],"properties":{"Station_ID":"CRLM5","Station_Nam":"CROSS LAKE DAM","Latitude":"46.66930","Longitude":"-94.11060","Snowdepth":"2.000","Units":"in","Rept_Date":"2025-04-02 13"}},{"type":"Point","coordinates":[-91.45,45.8667],"properties":{"Station_ID":"COUW3","Station_Nam":"COUDERAY,WI","Latitude":"45.86670","Longitude":"-91.45000","Snowdepth":"2.000","Units":"in","Rept_Date":"2025-04-02 21"}},{"type":"Point","coordinates":[-72.3194,44.0069],"properties":{"Station_ID":"CORV1","Station_Nam":"CORINTH","Latitude":"44.00690","Longitude":"-72.31940","Snowdepth":"2.000","Units":"in","Rept_Date":"2025-04-02 11"}},{"type":"Point","coordinates":[-88.7483,44.6227],"properties":{"Station_ID":"CNTW3","Station_Nam":"CLINTONVILLE","Latitude":"44.62270","Longitude":"-88.74830","Snowdepth":"2.000","Units":"in","Rept_Date":"2025-04-02 11"}},{"type":"Point","coordinates":[-66.85538,45.97014],"properties":{"Station_ID":"CAN-NB-64","Station_Nam":"KESWICK RIDGE 4.0 SE, CAN","Latitude":"45.97014","Longitude":"-66.85538","Snowdepth":"2.000","Units":"in","Rept_Date":"2025-04-02 11"}},{"type":"Point","coordinates":[-96.7667,44.3167],"properties":{"Station_ID":"BROS2","Station_Nam":"BROOKINGS,SD","Latitude":"44.31670","Longitude":"-96.76670","Snowdepth":"2.000","Units":"in","Rept_Date":"2025-04-02 13"}},{"type":"Point","coordinates":[-94.209,46.3432],"properties":{"Station_ID":"BRAM5","Station_Nam":"BRAINERD","Latitude":"46.34320","Longitude":"-94.20900","Snowdepth":"2.000","Units":"in","Rept_Date":"2025-04-02 12"}},{"type":"Point","coordinates":[-85.4833,43.7],"properties":{"Station_ID":"BGRM4","Station_Nam":"WATER WORKS","Latitude":"43.70000","Longitude":"-85.48330","Snowdepth":"2.000","Units":"in","Rept_Date":"2025-04-02 11"}},{"type":"Point","coordinates":[-88.6059,46.821],"properties":{"Station_ID":"BAGM4","Station_Nam":"BARAGA 7NW","Latitude":"46.82100","Longitude":"-88.60590","Snowdepth":"2.000","Units":"in","Rept_Date":"2025-04-02 12"}},{"type":"Point","coordinates":[-89.7267,45.8994],"properties":{"Station_ID":"AVTW3","Station_Nam":"ARBOR VITAE-JOHNSON LAKE","Latitude":"45.89940","Longitude":"-89.72670","Snowdepth":"2.000","Units":"in","Rept_Date":"2025-04-02 11"}},{"type":"Point","coordinates":[-88.0575,45.425],"properties":{"Station_ID":"ASTW3","Station_Nam":"ATHELSTANE","Latitude":"45.42500","Longitude":"-88.05750","Snowdepth":"2.000","Units":"in","Rept_Date":"2025-04-02 11"}},{"type":"Point","coordinates":[-89.2639,44.4128],"properties":{"Station_ID":"AMHW3","Station_Nam":"AMHERST-3 SE","Latitude":"44.41280","Longitude":"-89.26390","Snowdepth":"2.000","Units":"in","Rept_Date":"2025-04-02 12"}},{"type":"Point","coordinates":[-92.1659,46.40955],"properties":{"Station_ID":"76881_MADIS","Station_Nam":"FOXBORO 8.5 SE, WI","Latitude":"46.40955","Longitude":"-92.16590","Snowdepth":"2.000","Units":"in","Rept_Date":"2025-04-02 10"}},{"type":"Point","coordinates":[-92.5363,46.12754],"properties":{"Station_ID":"74361_MADIS","Station_Nam":"SANDSTONE 15.7 E, MN","Latitude":"46.12754","Longitude":"-92.53630","Snowdepth":"2.000","Units":"in","Rept_Date":"2025-04-02 11"}},{"type":"Point","coordinates":[-93.4171,45.1375],"properties":{"Station_ID":"73111_MADIS","Station_Nam":"MAPLE GROVE 3.0 NE, MN","Latitude":"45.13750","Longitude":"-93.41710","Snowdepth":"2.000","Units":"in","Rept_Date":"2025-04-02 13"}},{"type":"Point","coordinates":[-92.918,45.10305],"properties":{"Station_ID":"71051_MADIS","Station_Nam":"STILLWATER 5.4 NW, MN","Latitude":"45.10305","Longitude":"-92.91800","Snowdepth":"2.000","Units":"in","Rept_Date":"2025-04-02 12"}},{"type":"Point","coordinates":[-93.1452,45.11968],"properties":{"Station_ID":"54861_MADIS","Station_Nam":"SHOREVIEW 2.5 N, MN","Latitude":"45.11968","Longitude":"-93.14520","Snowdepth":"2.000","Units":"in","Rept_Date":"2025-04-02 12"}},{"type":"Point","coordinates":[-94.02952,45.49061],"properties":{"Station_ID":"MN-SH-57","Station_Nam":"ST CLOUD 7.0 SE, MN","Latitude":"45.49061","Longitude":"-94.02952","Snowdepth":"1.800","Units":"in","Rept_Date":"2025-04-02 17"}},{"type":"Point","coordinates":[-92.97235,44.72325],"properties":{"Station_ID":"MN-DK-112","Station_Nam":"HASTINGS 5.8 W, MN","Latitude":"44.72325","Longitude":"-92.97235","Snowdepth":"1.800","Units":"in","Rept_Date":"2025-04-02 12"}},{"type":"Point","coordinates":[-94.15996,45.74769],"properties":{"Station_ID":"MN-BN-13","Station_Nam":"RICE 3.6 E, MN","Latitude":"45.74769","Longitude":"-94.15996","Snowdepth":"1.800","Units":"in","Rept_Date":"2025-04-02 12"}},{"type":"Point","coordinates":[-96.9185,44.304],"properties":{"Station_ID":"VGAS2","Station_Nam":"VOLGA SOUTH DAKOTA MESONET","Latitude":"44.30400","Longitude":"-96.91850","Snowdepth":"1.770","Units":"in","Rept_Date":"2025-04-03 06"}},{"type":"Point","coordinates":[-94.18754,46.26118],"properties":{"Station_ID":"MN-CW-88","Station_Nam":"BRAINERD 6.5 S, MN","Latitude":"46.26118","Longitude":"-94.18754","Snowdepth":"1.600","Units":"in","Rept_Date":"2025-04-02 14"}},{"type":"Point","coordinates":[-75.7741,38.35866],"properties":{"Station_ID":"012MD_MADIS","Station_Nam":"QUANTICO 2 WSW","Latitude":"38.35866","Longitude":"-75.77410","Snowdepth":"1.570","Units":"in","Rept_Date":"2025-04-03 06"}},{"type":"Point","coordinates":[-90.33349,45.14421],"properties":{"Station_ID":"WI-TY-3","Station_Nam":"MEDFORD 0.8 ENE, WI","Latitude":"45.14421","Longitude":"-90.33349","Snowdepth":"1.500","Units":"in","Rept_Date":"2025-04-02 12"}},{"type":"Point","coordinates":[-92.635,44.84032],"properties":{"Station_ID":"WI-PC-5","Station_Nam":"RIVER FALLS 1.2 SSW, WI","Latitude":"44.84032","Longitude":"-92.63500","Snowdepth":"1.500","Units":"in","Rept_Date":"2025-04-02 16"}},{"type":"Point","coordinates":[-87.94202,44.03991],"properties":{"Station_ID":"WI-MC-15","Station_Nam":"VALDERS 3.3 WSW, WI","Latitude":"44.03991","Longitude":"-87.94202","Snowdepth":"1.500","Units":"in","Rept_Date":"2025-04-02 12"}},{"type":"Point","coordinates":[-91.06834,44.12945],"properties":{"Station_ID":"WI-JK-4","Station_Nam":"MELROSE 3.6 W, WI","Latitude":"44.12945","Longitude":"-91.06834","Snowdepth":"1.500","Units":"in","Rept_Date":"2025-04-02 12"}},{"type":"Point","coordinates":[-91.49898,44.76858],"properties":{"Station_ID":"WI-EC-23","Station_Nam":"EAU CLAIRE 3.7 S, WI","Latitude":"44.76858","Longitude":"-91.49898","Snowdepth":"1.500","Units":"in","Rept_Date":"2025-04-02 13"}},{"type":"Point","coordinates":[-87.9735,44.46772],"properties":{"Station_ID":"WI-BN-14","Station_Nam":"GREEN BAY 3.8 SSE, WI","Latitude":"44.46772","Longitude":"-87.97350","Snowdepth":"1.500","Units":"in","Rept_Date":"2025-04-02 12"}},{"type":"Point","coordinates":[-72.28,44.631],"properties":{"Station_ID":"VT-OL-12","Station_Nam":"GREENSBORO 3.9 NNE, VT","Latitude":"44.63100","Longitude":"-72.28000","Snowdepth":"1.500","Units":"in","Rept_Date":"2025-04-02 12"}},{"type":"Point","coordinates":[-96.7878,44.30389],"properties":{"Station_ID":"SD-BK-7","Station_Nam":"BROOKINGS 0.2 SSW, SD","Latitude":"44.30389","Longitude":"-96.78780","Snowdepth":"1.500","Units":"in","Rept_Date":"2025-04-02 12"}},{"type":"Point","coordinates":[-91.34024,43.87973],"properties":{"Station_ID":"MN-WN-24","Station_Nam":"LA CRESCENT 4.0 NNW, MN","Latitude":"43.87973","Longitude":"-91.34024","Snowdepth":"1.500","Units":"in","Rept_Date":"2025-04-02 12"}},{"type":"Point","coordinates":[-92.01263,46.84257],"properties":{"Station_ID":"MN-SL-216","Station_Nam":"DULUTH 6.0 NE, MN","Latitude":"46.84257","Longitude":"-92.01263","Snowdepth":"1.500","Units":"in","Rept_Date":"2025-04-02 11"}},{"type":"Point","coordinates":[-92.08826,46.77],"properties":{"Station_ID":"MN-SL-139","Station_Nam":"DULUTH 1.2 SE, MN","Latitude":"46.77000","Longitude":"-92.08826","Snowdepth":"1.500","Units":"in","Rept_Date":"2025-04-02 10"}},{"type":"Point","coordinates":[-93.6919,45.41409],"properties":{"Station_ID":"MN-SH-10","Station_Nam":"BIG LAKE 5.6 NNE, MN","Latitude":"45.41409","Longitude":"-93.69190","Snowdepth":"1.500","Units":"in","Rept_Date":"2025-04-02 12"}},{"type":"Point","coordinates":[-93.22354,44.11345],"properties":{"Station_ID":"MN-SE-34","Station_Nam":"OWATONNA 1.5 N, MN","Latitude":"44.11345","Longitude":"-93.22354","Snowdepth":"1.500","Units":"in","Rept_Date":"2025-04-02 11"}},{"type":"Point","coordinates":[-93.21112,44.09518],"properties":{"Station_ID":"MN-SE-22","Station_Nam":"OWATONNA 1.0 ENE, MN","Latitude":"44.09518","Longitude":"-93.21112","Snowdepth":"1.500","Units":"in","Rept_Date":"2025-04-02 12"}},{"type":"Point","coordinates":[-93.52868,44.78173],"properties":{"Station_ID":"MN-SC-33","Station_Nam":"SHAKOPEE 2.6 W, MN","Latitude":"44.78173","Longitude":"-93.52868","Snowdepth":"1.500","Units":"in","Rept_Date":"2025-04-02 12"}},{"type":"Point","coordinates":[-93.17523,45.03303],"properties":{"Station_ID":"MN-RM-56","Station_Nam":"ROSEVILLE 1.6 NW, MN","Latitude":"45.03303","Longitude":"-93.17523","Snowdepth":"1.500","Units":"in","Rept_Date":"2025-04-02 12"}},{"type":"Point","coordinates":[-93.1882,44.9039],"properties":{"Station_ID":"MN-RM-54","Station_Nam":"SAINT PAUL 5.1 SW, MN","Latitude":"44.90390","Longitude":"-93.18820","Snowdepth":"1.500","Units":"in","Rept_Date":"2025-04-02 12"}},{"type":"Point","coordinates":[-92.59335,46.39529],"properties":{"Station_ID":"MN-PN-64","Station_Nam":"KERRICK 3.9 N, MN","Latitude":"46.39529","Longitude":"-92.59335","Snowdepth":"1.500","Units":"in","Rept_Date":"2025-04-02 12"}},{"type":"Point","coordinates":[-92.4071,43.9929],"properties":{"Station_ID":"MN-OL-99","Station_Nam":"ROCHESTER 3.9 ESE, MN","Latitude":"43.99290","Longitude":"-92.40710","Snowdepth":"1.500","Units":"in","Rept_Date":"2025-04-02 12"}},{"type":"Point","coordinates":[-92.4375,44.03975],"properties":{"Station_ID":"MN-OL-18","Station_Nam":"ROCHESTER 2.6 NE, MN","Latitude":"44.03975","Longitude":"-92.43750","Snowdepth":"1.500","Units":"in","Rept_Date":"2025-04-02 11"}},{"type":"Point","coordinates":[-93.62866,45.88021],"properties":{"Station_ID":"MN-ML-26","Station_Nam":"MILACA 8.6 N, MN","Latitude":"45.88021","Longitude":"-93.62866","Snowdepth":"1.500","Units":"in","Rept_Date":"2025-04-02 13"}},{"type":"Point","coordinates":[-93.70893,45.73559],"properties":{"Station_ID":"MN-ML-17","Station_Nam":"FORESTON 0.2 N, MN","Latitude":"45.73559","Longitude":"-93.70893","Snowdepth":"1.500","Units":"in","Rept_Date":"2025-04-02 11"}},{"type":"Point","coordinates":[-95.84465,44.20944],"properties":{"Station_ID":"MN-LY-21","Station_Nam":"BALATON 2.1 SE, MN","Latitude":"44.20944","Longitude":"-95.84465","Snowdepth":"1.500","Units":"in","Rept_Date":"2025-04-02 12"}},{"type":"Point","coordinates":[-93.28317,45.5063],"properties":{"Station_ID":"MN-IS-44","Station_Nam":"ISANTI 2.2 WNW, MN","Latitude":"45.50630","Longitude":"-93.28317","Snowdepth":"1.500","Units":"in","Rept_Date":"2025-04-02 14"}},{"type":"Point","coordinates":[-93.60286,44.89722],"properties":{"Station_ID":"MN-HN-298","Station_Nam":"EXCELSIOR 1.8 W, MN","Latitude":"44.89722","Longitude":"-93.60286","Snowdepth":"1.500","Units":"in","Rept_Date":"2025-04-02 12"}},{"type":"Point","coordinates":[-93.32951,45.018],"properties":{"Station_ID":"MN-HN-128","Station_Nam":"ROBBINSDALE 0.6 SSE, MN","Latitude":"45.01800","Longitude":"-93.32951","Snowdepth":"1.500","Units":"in","Rept_Date":"2025-04-02 12"}},{"type":"Point","coordinates":[-93.3394,44.86875],"properties":{"Station_ID":"MN-HN-110","Station_Nam":"EDINA 1.9 SSE, MN","Latitude":"44.86875","Longitude":"-93.33940","Snowdepth":"1.500","Units":"in","Rept_Date":"2025-04-02 12"}},{"type":"Point","coordinates":[-95.60246,45.9678],"properties":{"Station_ID":"MN-DS-50","Station_Nam":"BRANDON 0.4 WNW, MN","Latitude":"45.96780","Longitude":"-95.60246","Snowdepth":"1.500","Units":"in","Rept_Date":"2025-04-02 12"}},{"type":"Point","coordinates":[-93.12837,44.48347],"properties":{"Station_ID":"MN-DK-63","Station_Nam":"NORTHFIELD 2.4 NE, MN","Latitude":"44.48347","Longitude":"-93.12837","Snowdepth":"1.500","Units":"in","Rept_Date":"2025-04-02 12"}},{"type":"Point","coordinates":[-94.21266,46.91588],"properties":{"Station_ID":"MN-CS-81","Station_Nam":"LONGVILLE 4.9 S, MN","Latitude":"46.91588","Longitude":"-94.21266","Snowdepth":"1.500","Units":"in","Rept_Date":"2025-04-02 12"}},{"type":"Point","coordinates":[-90.4376,47.74865],"properties":{"Station_ID":"MN-CK-6","Station_Nam":"GRAND MARAIS 4.4 W, MN","Latitude":"47.74865","Longitude":"-90.43760","Snowdepth":"1.500","Units":"in","Rept_Date":"2025-04-02 12"}},{"type":"Point","coordinates":[-92.9711,45.53121],"properties":{"Station_ID":"MN-CG-16","Station_Nam":"NORTH BRANCH 1.3 NNW, MN","Latitude":"45.53121","Longitude":"-92.97110","Snowdepth":"1.500","Units":"in","Rept_Date":"2025-04-02 11"}},{"type":"Point","coordinates":[-93.71208,46.53526],"properties":{"Station_ID":"MN-AT-37","Station_Nam":"AITKIN 0.5 NW, MN","Latitude":"46.53526","Longitude":"-93.71208","Snowdepth":"1.500","Units":"in","Rept_Date":"2025-04-02 13"}},{"type":"Point","coordinates":[-93.27222,45.1586],"properties":{"Station_ID":"MN-AA-58","Station_Nam":"COON RAPIDS 2.2 ESE, MN","Latitude":"45.15860","Longitude":"-93.27222","Snowdepth":"1.500","Units":"in","Rept_Date":"2025-04-02 12"}},{"type":"Point","coordinates":[-85.6419,43.6063],"properties":{"Station_ID":"MI-NW-8","Station_Nam":"WHITE CLOUD 7.5 ENE, MI","Latitude":"43.60630","Longitude":"-85.64190","Snowdepth":"1.500","Units":"in","Rept_Date":"2025-04-02 11"}},{"type":"Point","coordinates":[-85.1475,45.18639],"properties":{"Station_ID":"MI-CX-7","Station_Nam":"EAST JORDAN 2.1 NNW, MI","Latitude":"45.18639","Longitude":"-85.14750","Snowdepth":"1.500","Units":"in","Rept_Date":"2025-04-02 20"}},{"type":"Point","coordinates":[-94.369,44.95992],"properties":{"Station_ID":"73621_MADIS","Station_Nam":"HUTCHINSON 5.2 N, MN","Latitude":"44.95992","Longitude":"-94.36900","Snowdepth":"1.500","Units":"in","Rept_Date":"2025-04-02 13"}},{"type":"Point","coordinates":[-96.7684,44.3252],"properties":{"Station_ID":"BKMS2","Station_Nam":"BROOKINGS SOUTH DAKOTA MESONET","Latitude":"44.32520","Longitude":"-96.76840","Snowdepth":"1.420","Units":"in","Rept_Date":"2025-04-03 06"}},{"type":"Point","coordinates":[-93.56648,45.22508],"properties":{"Station_ID":"MN-WR-124","Station_Nam":"SAINT MICHAEL 6.3 ENE, MN","Latitude":"45.22508","Longitude":"-93.56648","Snowdepth":"1.400","Units":"in","Rept_Date":"2025-04-02 13"}},{"type":"Point","coordinates":[-93.6936,47.60215],"properties":{"Station_ID":"MN-IT-47","Station_Nam":"MARCELL 0.7 NNW, MN","Latitude":"47.60215","Longitude":"-93.69360","Snowdepth":"1.400","Units":"in","Rept_Date":"2025-04-02 13"}},{"type":"Point","coordinates":[-92.7731,46.4398],"properties":{"Station_ID":"MN-CN-60","Station_Nam":"MOOSE LAKE 0.6 SW, MN","Latitude":"46.43980","Longitude":"-92.77310","Snowdepth":"1.400","Units":"in","Rept_Date":"2025-04-02 12"}},{"type":"Point","coordinates":[-89.71167,44.28201],"properties":{"Station_ID":"WI-PT-25","Station_Nam":"WISCONSIN RAPIDS 9.8 SE, WI","Latitude":"44.28201","Longitude":"-89.71167","Snowdepth":"1.300","Units":"in","Rept_Date":"2025-04-02 12"}},{"type":"Point","coordinates":[-89.52332,43.97269],"properties":{"Station_ID":"WI-MQ-7","Station_Nam":"WESTFIELD 6.3 NNW, WI","Latitude":"43.97269","Longitude":"-89.52332","Snowdepth":"1.300","Units":"in","Rept_Date":"2025-04-02 14"}},{"type":"Point","coordinates":[-91.50578,44.80992],"properties":{"Station_ID":"WI-EC-26","Station_Nam":"EAU CLAIRE 1.0 SW, WI","Latitude":"44.80992","Longitude":"-91.50578","Snowdepth":"1.300","Units":"in","Rept_Date":"2025-04-02 12"}},{"type":"Point","coordinates":[-92.63736,44.03285],"properties":{"Station_ID":"MN-OL-101","Station_Nam":"BYRON 0.4 SSE, MN","Latitude":"44.03285","Longitude":"-92.63736","Snowdepth":"1.300","Units":"in","Rept_Date":"2025-04-02 12"}},{"type":"Point","coordinates":[-93.2317,44.89519],"properties":{"Station_ID":"HPN07_MADIS","Station_Nam":"MSP AIRPORT","Latitude":"44.89519","Longitude":"-93.23170","Snowdepth":"1.300","Units":"in","Rept_Date":"2025-04-02 15"}},{"type":"Point","coordinates":[-91.405,46.13255],"properties":{"Station_ID":"WI-SR-1","Station_Nam":"HAYWARD 9.2 NNE, WI","Latitude":"46.13255","Longitude":"-91.40500","Snowdepth":"1.200","Units":"in","Rept_Date":"2025-04-02 11"}},{"type":"Point","coordinates":[-92.6706,46.3621],"properties":{"Station_ID":"MN-PN-33","Station_Nam":"STURGEON LAKE 7.5 ESE, MN","Latitude":"46.36210","Longitude":"-92.67060","Snowdepth":"1.200","Units":"in","Rept_Date":"2025-04-02 12"}},{"type":"Point","coordinates":[-67.32532,46.98305],"properties":{"Station_ID":"CAN-NB-105","Station_Nam":"SISSON BROOK 3.8 E, CAN","Latitude":"46.98305","Longitude":"-67.32532","Snowdepth":"1.200","Units":"in","Rept_Date":"2025-04-02 11"}},{"type":"Point","coordinates":[-92.5547,44.53617],"properties":{"Station_ID":"68581_MADIS","Station_Nam":"RED WING 4.0 SE, MN","Latitude":"44.53617","Longitude":"-92.55470","Snowdepth":"1.200","Units":"in","Rept_Date":"2025-04-02 14"}},{"type":"Point","coordinates":[-92.48315,44.08372],"properties":{"Station_ID":"MN-OL-30","Station_Nam":"ROCHESTER 4.7 N, MN","Latitude":"44.08372","Longitude":"-92.48315","Snowdepth":"1.100","Units":"in","Rept_Date":"2025-04-02 12"}},{"type":"Point","coordinates":[-76.8431,38.59709],"properties":{"Station_ID":"010MD_MADIS","Station_Nam":"WALDORF 4 ESE","Latitude":"38.59709","Longitude":"-76.84310","Snowdepth":"1.020","Units":"in","Rept_Date":"2025-04-03 06"}},{"type":"Point","coordinates":[-87.9566,45.3802],"properties":{"Station_ID":"WSKW3","Station_Nam":"WAUSAUKEE","Latitude":"45.38020","Longitude":"-87.95660","Snowdepth":"1.000","Units":"in","Rept_Date":"2025-04-02 13"}},{"type":"Point","coordinates":[-92.0641,44.3873],"properties":{"Station_ID":"WSBM5","Station_Nam":"WABASHA","Latitude":"44.38730","Longitude":"-92.06410","Snowdepth":"1.000","Units":"in","Rept_Date":"2025-04-02 12"}},{"type":"Point","coordinates":[-88.4513,44.1737],"properties":{"Station_ID":"WI-WN-9","Station_Nam":"NEENAH 1.1 ENE, WI","Latitude":"44.17370","Longitude":"-88.45130","Snowdepth":"1.000","Units":"in","Rept_Date":"2025-04-02 12"}},{"type":"Point","coordinates":[-88.7797,44.02074],"properties":{"Station_ID":"WI-WN-7","Station_Nam":"OMRO 2.3 WSW, WI","Latitude":"44.02074","Longitude":"-88.77970","Snowdepth":"1.000","Units":"in","Rept_Date":"2025-04-02 12"}},{"type":"Point","coordinates":[-89.782,44.33823],"properties":{"Station_ID":"WI-WD-2","Station_Nam":"WISCONSIN RAPIDS 4.6 SSE, WI","Latitude":"44.33823","Longitude":"-89.78200","Snowdepth":"1.000","Units":"in","Rept_Date":"2025-04-02 12"}},{"type":"Point","coordinates":[-92.62991,44.86506],"properties":{"Station_ID":"WI-SC-90","Station_Nam":"RIVER FALLS 0.8 NNW, WI","Latitude":"44.86506","Longitude":"-92.62991","Snowdepth":"1.000","Units":"in","Rept_Date":"2025-04-02 12"}},{"type":"Point","coordinates":[-91.1468,45.4818],"properties":{"Station_ID":"WI-RS-1","Station_Nam":"LADYSMITH 2.8 WNW, WI","Latitude":"45.48180","Longitude":"-91.14680","Snowdepth":"1.000","Units":"in","Rept_Date":"2025-04-02 12"}},{"type":"Point","coordinates":[-90.402,45.69086],"properties":{"Station_ID":"WI-PR-8","Station_Nam":"PHILLIPS 0.4 SSW, WI","Latitude":"45.69086","Longitude":"-90.40200","Snowdepth":"1.000","Units":"in","Rept_Date":"2025-04-02 13"}},{"type":"Point","coordinates":[-90.39543,45.67677],"properties":{"Station_ID":"WI-PR-6","Station_Nam":"PHILLIPS 1.3 S, WI","Latitude":"45.67677","Longitude":"-90.39543","Snowdepth":"1.000","Units":"in","Rept_Date":"2025-04-02 11"}},{"type":"Point","coordinates":[-88.3437,44.2452],"properties":{"Station_ID":"WI-OG-36","Station_Nam":"APPLETON 3.0 ESE, WI","Latitude":"44.24520","Longitude":"-88.34370","Snowdepth":"1.000","Units":"in","Rept_Date":"2025-04-02 12"}},{"type":"Point","coordinates":[-90.58884,44.10386],"properties":{"Station_ID":"WI-MN-9","Station_Nam":"WARRENS 4.7 WSW, WI","Latitude":"44.10386","Longitude":"-90.58884","Snowdepth":"1.000","Units":"in","Rept_Date":"2025-04-02 12"}},{"type":"Point","coordinates":[-89.8482,45.17746],"properties":{"Station_ID":"WI-LN-2","Station_Nam":"MERRILL 7.0 W, WI","Latitude":"45.17746","Longitude":"-89.84820","Snowdepth":"1.000","Units":"in","Rept_Date":"2025-04-02 11"}},{"type":"Point","coordinates":[-91.1815,43.8919],"properties":{"Station_ID":"WI-LC-30","Station_Nam":"ONALASKA 1.9 E, WI","Latitude":"43.89190","Longitude":"-91.18150","Snowdepth":"1.000","Units":"in","Rept_Date":"2025-04-02 12"}},{"type":"Point","coordinates":[-91.8635,44.8563],"properties":{"Station_ID":"WI-DN-17","Station_Nam":"MENOMONIE 3.3 SE, WI","Latitude":"44.85630","Longitude":"-91.86350","Snowdepth":"1.000","Units":"in","Rept_Date":"2025-04-02 12"}},{"type":"Point","coordinates":[-91.6247,45.29427],"properties":{"Station_ID":"WI-BR-2","Station_Nam":"CHETEK 2.0 SE, WI","Latitude":"45.29427","Longitude":"-91.62470","Snowdepth":"1.000","Units":"in","Rept_Date":"2025-04-02 12"}},{"type":"Point","coordinates":[-90.49886,46.01638],"properties":{"Station_ID":"WI-AS-31","Station_Nam":"BUTTERNUT 0.2 NNW, WI","Latitude":"46.01638","Longitude":"-90.49886","Snowdepth":"1.000","Units":"in","Rept_Date":"2025-04-02 13"}},{"type":"Point","coordinates":[-89.84798,44.20533],"properties":{"Station_ID":"WI-AD-5","Station_Nam":"NEKOOSA 8.0 SSE, WI","Latitude":"44.20533","Longitude":"-89.84798","Snowdepth":"1.000","Units":"in","Rept_Date":"2025-04-02 12"}},{"type":"Point","coordinates":[-89.64166,43.78638],"properties":{"Station_ID":"WI-AD-10","Station_Nam":"OXFORD 4.0 W, WI","Latitude":"43.78638","Longitude":"-89.64166","Snowdepth":"1.000","Units":"in","Rept_Date":"2025-04-02 12"}},{"type":"Point","coordinates":[-73.02,42.82],"properties":{"Station_ID":"VT-BN-12","Station_Nam":"STAMFORD 5.0 NNE, VT","Latitude":"42.82000","Longitude":"-73.02000","Snowdepth":"1.000","Units":"in","Rept_Date":"2025-04-02 20"}},{"type":"Point","coordinates":[-90.8756,43.5597],"properties":{"Station_ID":"VQAW3","Station_Nam":"VIROQUA","Latitude":"43.55970","Longitude":"-90.87560","Snowdepth":"1.000","Units":"in","Rept_Date":"2025-04-02 12"}},{"type":"Point","coordinates":[-91.4378,43.9994],"properties":{"Station_ID":"TREW3","Station_Nam":"DAM 6","Latitude":"43.99940","Longitude":"-91.43780","Snowdepth":"1.000","Units":"in","Rept_Date":"2025-04-02 13"}},