{"type":"Topology","objects":{"snowdepth_geo":{"type":"GeometryCollection","name":"snowdepth","crs":{"type":"name","properties":{"name":"urn:ogc:def:crs:OGC:1.3:CRS84"}},"geometries":[{"type":"Point","properties":{"Station_ID":"PRKM4","Station_Nam":"MUNISING EAST","Latitude":"46.42580","Longitude":"-86.62000","Snowdepth":"76.500","Units":"in","Rept_Date":"2021-01-26 06"},"coordinates":[2429,6701]},{"type":"Point","properties":{"Station_ID":"MMNV1","Station_Nam":"MT. MANSFIELD","Latitude":"44.52480","Longitude":"-72.81540","Snowdepth":"35.000","Units":"in","Rept_Date":"2021-01-25 21"},"coordinates":[5586,5518]},{"type":"Point","properties":{"Station_ID":"RDFN6","Station_Nam":"REDFIELD 8N","Latitude":"43.64130","Longitude":"-75.88400","Snowdepth":"34.000","Units":"in","Rept_Date":"2021-01-25 12"},"coordinates":[4884,4969]},{"type":"Point","properties":{"Station_ID":"HTLN3","Station_Nam":"HERMIT LAKE SNOWPLOT","Latitude":"44.26130","Longitude":"-71.28330","Snowdepth":"34.000","Units":"in","Rept_Date":"2021-01-25 10"},"coordinates":[5936,5354]},{"type":"Point","properties":{"Station_ID":"HGHN6","Station_Nam":"HIGHMARKET","Latitude":"43.60510","Longitude":"-75.55430","Snowdepth":"34.000","Units":"in","Rept_Date":"2021-01-25 11"},"coordinates":[4959,4946]},{"type":"Point","properties":{"Station_ID":"PDLM4","Station_Nam":"PAINESDALE","Latitude":"47.04160","Longitude":"-88.67170","Snowdepth":"31.000","Units":"in","Rept_Date":"2021-01-25 13"},"coordinates":[1959,7084]},{"type":"Point","properties":{"Station_ID":"HLSN3","Station_Nam":"HERMIT LAKE SNOTEL","Latitude":"44.26130","Longitude":"-71.28320","Snowdepth":"30.310","Units":"in","Rept_Date":"2021-01-26 06"},"coordinates":[5936,5354]},{"type":"Point","properties":{"Station_ID":"VT-WR-17","Station_Nam":"ROCHESTER 2.3 NE, VT","Latitude":"43.89418","Longitude":"-72.76992","Snowdepth":"26.500","Units":"in","Rept_Date":"2021-01-25 12"},"coordinates":[5596,5126]},{"type":"Point","properties":{"Station_ID":"PERV1","Station_Nam":"PERU","Latitude":"43.26670","Longitude":"-72.90000","Snowdepth":"25.000","Units":"in","Rept_Date":"2021-01-25 12"},"coordinates":[5566,4736]},{"type":"Point","properties":{"Station_ID":"MI-KW-2","Station_Nam":"DELAWARE 5.2 SW, MI","Latitude":"47.36928","Longitude":"-88.17919","Snowdepth":"25.000","Units":"in","Rept_Date":"2021-01-25 09"},"coordinates":[2072,7288]},{"type":"Point","properties":{"Station_ID":"PTLQ6","Station_Nam":"PORTAGE LAKE","Latitude":"49.06950","Longitude":"-86.65940","Snowdepth":"24.720","Units":"in","Rept_Date":"2021-01-26 06"},"coordinates":[2420,8346]},{"type":"Point","properties":{"Station_ID":"CAN-ON-224","Station_Nam":"NAKINA 3.8 N - MNRF, CAN","Latitude":"50.21269","Longitude":"-86.70099","Snowdepth":"24.600","Units":"in","Rept_Date":"2021-01-25 14"},"coordinates":[2410,9057]},{"type":"Point","properties":{"Station_ID":"TRIQ6","Station_Nam":"TRIO LAKE","Latitude":"49.22880","Longitude":"-87.22920","Snowdepth":"24.450","Units":"in","Rept_Date":"2021-01-26 06"},"coordinates":[2289,8445]},{"type":"Point","properties":{"Station_ID":"KSGM4","Station_Nam":"KEARSARGE","Latitude":"47.27520","Longitude":"-88.41700","Snowdepth":"24.000","Units":"in","Rept_Date":"2021-01-25 13"},"coordinates":[2018,7229]},{"type":"Point","properties":{"Station_ID":"QCU","Station_Nam":"QCU","Latitude":"47.82750","Longitude":"-76.59830","Snowdepth":"23.425","Units":"in","Rept_Date":"2021-01-25 12"},"coordinates":[4721,7573]},{"type":"Point","properties":{"Station_ID":"DVLQ6","Station_Nam":"DEVIOUS LAKE","Latitude":"49.19890","Longitude":"-87.76440","Snowdepth":"23.150","Units":"in","Rept_Date":"2021-01-26 06"},"coordinates":[2167,8426]},{"type":"Point","properties":{"Station_ID":"AUDQ6","Station_Nam":"AUDEN","Latitude":"48.52600","Longitude":"-82.57570","Snowdepth":"23.110","Units":"in","Rept_Date":"2021-01-26 06"},"coordinates":[3354,8008]},{"type":"Point","properties":{"Station_ID":"NH-CS-10","Station_Nam":"RANDOLPH 1.4 NE, NH","Latitude":"44.38824","Longitude":"-71.26950","Snowdepth":"23.000","Units":"in","Rept_Date":"2021-01-25 12"},"coordinates":[5939,5433]},{"type":"Point","properties":{"Station_ID":"QGO","Station_Nam":"QGO","Latitude":"48.85500","Longitude":"-74.20640","Snowdepth":"22.165","Units":"in","Rept_Date":"2021-01-25 12"},"coordinates":[5268,8212]},{"type":"Point","properties":{"Station_ID":"OCON6","Station_Nam":"OSCEOLA","Latitude":"43.50370","Longitude":"-75.72170","Snowdepth":"22.000","Units":"in","Rept_Date":"2021-01-25 13"},"coordinates":[4921,4883]},{"type":"Point","properties":{"Station_ID":"LBKV1","Station_Nam":"LYE BROOK","Latitude":"43.05000","Longitude":"-73.03330","Snowdepth":"22.000","Units":"in","Rept_Date":"2021-01-26 06"},"coordinates":[5536,4601]},{"type":"Point","properties":{"Station_ID":"QLB","Station_Nam":"QLB","Latitude":"50.72360","Longitude":"-75.10000","Snowdepth":"21.968","Units":"in","Rept_Date":"2021-01-25 12"},"coordinates":[5063,9375]},{"type":"Point","properties":{"Station_ID":"VT-BN-12","Station_Nam":"STAMFORD 5.0 NNE, VT","Latitude":"42.82000","Longitude":"-73.02000","Snowdepth":"21.500","Units":"in","Rept_Date":"2021-01-25 21"},"coordinates":[5539,4458]},{"type":"Point","properties":{"Station_ID":"MI-HG-20","Station_Nam":"CALUMET 1.1 SSW, MI","Latitude":"47.23165","Longitude":"-88.45823","Snowdepth":"21.000","Units":"in","Rept_Date":"2021-01-25 11"},"coordinates":[2008,7202]},{"type":"Point","properties":{"Station_ID":"CAN-ON-245","Station_Nam":"PHELPSTON 3.1 ESE, CAN","Latitude":"44.50564","Longitude":"-79.81035","Snowdepth":"20.500","Units":"in","Rept_Date":"2021-01-25 14"},"coordinates":[3986,5506]},{"type":"Point","properties":{"Station_ID":"QCO","Station_Nam":"QCO","Latitude":"51.45280","Longitude":"-72.20110","Snowdepth":"20.197","Units":"in","Rept_Date":"2021-01-25 12"},"coordinates":[5726,9828]},{"type":"Point","properties":{"Station_ID":"MWN","Station_Nam":"MOUNT WASHINGTON","Latitude":"44.26670","Longitude":"-71.30000","Snowdepth":"20.000","Units":"in","Rept_Date":"2021-01-25 12"},"coordinates":[5932,5358]},{"type":"Point","properties":{"Station_ID":"KMWN","Station_Nam":"MOUNT WASHINGTON","Latitude":"44.26666","Longitude":"-71.30000","Snowdepth":"20.000","Units":"in","Rept_Date":"2021-01-26 06"},"coordinates":[5932,5358]},{"type":"Point","properties":{"Station_ID":"CAN-ON-335","Station_Nam":"NAKINA 1.6 NW - MNRF, CAN","Latitude":"50.18910","Longitude":"-86.72684","Snowdepth":"19.200","Units":"in","Rept_Date":"2021-01-25 13"},"coordinates":[2404,9042]},{"type":"Point","properties":{"Station_ID":"VT-BN-3","Station_Nam":"LANDGROVE 1.1 NNE, VT","Latitude":"43.29092","Longitude":"-72.83260","Snowdepth":"19.000","Units":"in","Rept_Date":"2021-01-25 12"},"coordinates":[5582,4751]},{"type":"Point","properties":{"Station_ID":"NY-LW-12","Station_Nam":"CHASES LAKE COOP, NY","Latitude":"43.75924","Longitude":"-75.29982","Snowdepth":"19.000","Units":"in","Rept_Date":"2021-01-25 11"},"coordinates":[5018,5042]},{"type":"Point","properties":{"Station_ID":"GFDN6","Station_Nam":"CHASES LAKE","Latitude":"43.75920","Longitude":"-75.29980","Snowdepth":"19.000","Units":"in","Rept_Date":"2021-01-25 11"},"coordinates":[5018,5042]},{"type":"Point","properties":{"Station_ID":"VT-WS-5","Station_Nam":"BERLIN 4.3 WNW, VT","Latitude":"44.23360","Longitude":"-72.65610","Snowdepth":"18.000","Units":"in","Rept_Date":"2021-01-25 12"},"coordinates":[5622,5337]},{"type":"Point","properties":{"Station_ID":"TOPN6","Station_Nam":"TUPPER LAKE SUNMOUNT","Latitude":"44.23070","Longitude":"-74.43820","Snowdepth":"18.000","Units":"in","Rept_Date":"2021-01-25 12"},"coordinates":[5215,5335]},{"type":"Point","properties":{"Station_ID":"NY-HR-18","Station_Nam":"SALISBURY CENTER 1.8 NW, NY","Latitude":"43.16260","Longitude":"-74.80880","Snowdepth":"18.000","Units":"in","Rept_Date":"2021-01-25 12"},"coordinates":[5130,4671]},{"type":"Point","properties":{"Station_ID":"NY-ER-56","Station_Nam":"COLDEN 1.4 NNW, NY","Latitude":"42.64740","Longitude":"-78.71120","Snowdepth":"18.000","Units":"in","Rept_Date":"2021-01-25 12"},"coordinates":[4237,4350]},{"type":"Point","properties":{"Station_ID":"NY-ER-166","Station_Nam":"BOSTON 2.5 NE, NY","Latitude":"42.65480","Longitude":"-78.70300","Snowdepth":"18.000","Units":"in","Rept_Date":"2021-01-25 12"},"coordinates":[4239,4355]},{"type":"Point","properties":{"Station_ID":"NCBN6","Station_Nam":"NEWCOMB","Latitude":"43.97070","Longitude":"-74.22200","Snowdepth":"18.000","Units":"in","Rept_Date":"2021-01-25 12"},"coordinates":[5264,5174]},{"type":"Point","properties":{"Station_ID":"IWOM4","Station_Nam":"IRONWOOD#2","Latitude":"46.46520","Longitude":"-90.13820","Snowdepth":"18.000","Units":"in","Rept_Date":"2021-01-25 13"},"coordinates":[1624,6725]},{"type":"Point","properties":{"Station_ID":"HURW3","Station_Nam":"HURLEY","Latitude":"46.46250","Longitude":"-90.19550","Snowdepth":"18.000","Units":"in","Rept_Date":"2021-01-25 14"},"coordinates":[1611,6724]},{"type":"Point","properties":{"Station_ID":"CODN6","Station_Nam":"COLDEN","Latitude":"42.64720","Longitude":"-78.71110","Snowdepth":"18.000","Units":"in","Rept_Date":"2021-01-25 12"},"coordinates":[4237,4350]},{"type":"Point","properties":{"Station_ID":"BOON6","Station_Nam":"BOONVILLE 4 SSW","Latitude":"43.43610","Longitude":"-75.36970","Snowdepth":"18.000","Units":"in","Rept_Date":"2021-01-25 12"},"coordinates":[5002,4841]},{"type":"Point","properties":{"Station_ID":"QOU","Station_Nam":"QOU","Latitude":"50.79250","Longitude":"-69.67470","Snowdepth":"17.992","Units":"in","Rept_Date":"2021-01-25 12"},"coordinates":[6304,9418]},{"type":"Point","properties":{"Station_ID":"QFT","Station_Nam":"QFT","Latitude":"50.83280","Longitude":"-74.40390","Snowdepth":"17.795","Units":"in","Rept_Date":"2021-01-25 12"},"coordinates":[5223,9443]},{"type":"Point","properties":{"Station_ID":"QTM","Station_Nam":"QTM","Latitude":"51.05780","Longitude":"-72.57190","Snowdepth":"17.638","Units":"in","Rept_Date":"2021-01-25 12"},"coordinates":[5642,9583]},{"type":"Point","properties":{"Station_ID":"OGIQ6","Station_Nam":"OGOKI CAMP","Latitude":"50.76680","Longitude":"-87.85820","Snowdepth":"17.010","Units":"in","Rept_Date":"2021-01-26 06"},"coordinates":[2145,9402]},{"type":"Point","properties":{"Station_ID":"SGVN6","Station_Nam":"SPRINGVILLE","Latitude":"42.54970","Longitude":"-78.57670","Snowdepth":"17.000","Units":"in","Rept_Date":"2021-01-25 22"},"coordinates":[4268,4289]},{"type":"Point","properties":{"Station_ID":"NY-ER-65","Station_Nam":"BOSTON 1.5 NE, NY","Latitude":"42.65470","Longitude":"-78.72010","Snowdepth":"17.000","Units":"in","Rept_Date":"2021-01-25 12"},"coordinates":[4235,4355]},{"type":"Point","properties":{"Station_ID":"MNSM4","Station_Nam":"MUNISING","Latitude":"46.41210","Longitude":"-86.66250","Snowdepth":"17.000","Units":"in","Rept_Date":"2021-01-25 11"},"coordinates":[2419,6692]},{"type":"Point","properties":{"Station_ID":"LOWN6","Station_Nam":"LOWVILLE","Latitude":"43.79280","Longitude":"-75.48290","Snowdepth":"17.000","Units":"in","Rept_Date":"2021-01-25 12"},"coordinates":[4976,5063]},{"type":"Point","properties":{"Station_ID":"HERM4","Station_Nam":"HERMAN,MI","Latitude":"46.65000","Longitude":"-88.33330","Snowdepth":"17.000","Units":"in","Rept_Date":"2021-01-25 13"},"coordinates":[2037,6840]},{"type":"Point","properties":{"Station_ID":"CLQM5","Station_Nam":"CLOQUET","Latitude":"46.70470","Longitude":"-92.52530","Snowdepth":"17.000","Units":"in","Rept_Date":"2021-01-25 14"},"coordinates":[1078,6874]},{"type":"Point","properties":{"Station_ID":"BERM4","Station_Nam":"BERGLAND DAM","Latitude":"46.58690","Longitude":"-89.54750","Snowdepth":"17.000","Units":"in","Rept_Date":"2021-01-25 13"},"coordinates":[1759,6801]},{"type":"Point","properties":{"Station_ID":"NY-FK-9","Station_Nam":"GABRIELS 1.3 SE, NY","Latitude":"44.41934","Longitude":"-74.16194","Snowdepth":"16.500","Units":"in","Rept_Date":"2021-01-25 12"},"coordinates":[5278,5453]},{"type":"Point","properties":{"Station_ID":"QWE","Station_Nam":"QWE","Latitude":"47.84610","Longitude":"-73.80670","Snowdepth":"16.102","Units":"in","Rept_Date":"2021-01-25 12"},"coordinates":[5359,7585]},{"type":"Point","properties":{"Station_ID":"WSWN6","Station_Nam":"WARSAW","Latitude":"42.74220","Longitude":"-78.20850","Snowdepth":"16.000","Units":"in","Rept_Date":"2021-01-25 12"},"coordinates":[4352,4409]},{"type":"Point","properties":{"Station_ID":"VT-WS-33","Station_Nam":"WAITSFIELD 3.5 WNW, VT","Latitude":"44.20052","Longitude":"-72.89421","Snowdepth":"16.000","Units":"in","Rept_Date":"2021-01-25 12"},"coordinates":[5568,5317]},{"type":"Point","properties":{"Station_ID":"ROWM3","Station_Nam":"ROWE 3NE","Latitude":"42.73500","Longitude":"-72.86920","Snowdepth":"16.000","Units":"in","Rept_Date":"2021-01-25 14"},"coordinates":[5574,4405]},{"type":"Point","properties":{"Station_ID":"NY-ER-63","Station_Nam":"GLENWOOD 1.5 SE, NY","Latitude":"42.60195","Longitude":"-78.63910","Snowdepth":"16.000","Units":"in","Rept_Date":"2021-01-25 13"},"coordinates":[4254,4322]},{"type":"Point","properties":{"Station_ID":"NY-ER-194","Station_Nam":"GLENWOOD 1.0 SE, NY","Latitude":"42.60740","Longitude":"-78.64610","Snowdepth":"16.000","Units":"in","Rept_Date":"2021-01-25 12"},"coordinates":[4252,4325]},{"type":"Point","properties":{"Station_ID":"LPLN6","Station_Nam":"LAKE PLACID 2 S","Latitude":"44.30420","Longitude":"-73.98390","Snowdepth":"16.000","Units":"in","Rept_Date":"2021-01-25 12"},"coordinates":[5319,5381]},{"type":"Point","properties":{"Station_ID":"KABM5","Station_Nam":"KABETOGAMA LAKE VISITOR CTR","Latitude":"48.40880","Longitude":"-93.04840","Snowdepth":"16.000","Units":"in","Rept_Date":"2021-01-25 13"},"coordinates":[958,7935]},{"type":"Point","properties":{"Station_ID":"SOCQ6","Station_Nam":"SOCKET LAKE","Latitude":"50.77870","Longitude":"-91.79300","Snowdepth":"15.980","Units":"in","Rept_Date":"2021-01-26 06"},"coordinates":[1245,9409]},{"type":"Point","properties":{"Station_ID":"MLZ","Station_Nam":"MLZ","Latitude":"50.66170","Longitude":"-68.82360","Snowdepth":"15.866","Units":"in","Rept_Date":"2021-01-25 12"},"coordinates":[6499,9336]},{"type":"Point","properties":{"Station_ID":"MI-BG-3","Station_Nam":"THREE LAKES, MI","Latitude":"46.55730","Longitude":"-88.20770","Snowdepth":"15.700","Units":"in","Rept_Date":"2021-01-25 13"},"coordinates":[2065,6783]},{"type":"Point","properties":{"Station_ID":"KABQ6","Station_Nam":"CAB LAKE","Latitude":"49.59950","Longitude":"-89.17990","Snowdepth":"15.430","Units":"in","Rept_Date":"2021-01-26 06"},"coordinates":[1843,8675]},{"type":"Point","properties":{"Station_ID":"CAN-MB-368","Station_Nam":"WHITESHELL 1.3 NE, CAN","Latitude":"49.74405","Longitude":"-95.19123","Snowdepth":"15.100","Units":"in","Rept_Date":"2021-01-25 14"},"coordinates":[468,8765]},{"type":"Point","properties":{"Station_ID":"SVBQ6","Station_Nam":"SAVANT BASE","Latitude":"50.28730","Longitude":"-90.65670","Snowdepth":"15.080","Units":"in","Rept_Date":"2021-01-26 06"},"coordinates":[1505,9103]},{"type":"Point","properties":{"Station_ID":"WRSN6","Station_Nam":"WARSAW 6SW","Latitude":"42.68550","Longitude":"-78.22020","Snowdepth":"15.000","Units":"in","Rept_Date":"2021-01-25 12"},"coordinates":[4350,4374]},{"type":"Point","properties":{"Station_ID":"WORV1","Station_Nam":"WORCESTER 2 W","Latitude":"44.37470","Longitude":"-72.58220","Snowdepth":"15.000","Units":"in","Rept_Date":"2021-01-25 12"},"coordinates":[5639,5425]},{"type":"Point","properties":{"Station_ID":"WLFM5","Station_Nam":"WOLF RIDGE ENVIRON LEARNING CENTER","Latitude":"47.38240","Longitude":"-91.19730","Snowdepth":"15.000","Units":"in","Rept_Date":"2021-01-25 13"},"coordinates":[1382,7296]},{"type":"Point","properties":{"Station_ID":"WHFN6","Station_Nam":"WILMINGTON 2W","Latitude":"44.39310","Longitude":"-73.85890","Snowdepth":"15.000","Units":"in","Rept_Date":"2021-01-25 13"},"coordinates":[5347,5436]},{"type":"Point","properties":{"Station_ID":"VT-WR-2","Station_Nam":"POMFRET 2.6 N, VT","Latitude":"43.74230","Longitude":"-72.52550","Snowdepth":"15.000","Units":"in","Rept_Date":"2021-01-25 12"},"coordinates":[5652,5031]},{"type":"Point","properties":{"Station_ID":"VT-OL-1","Station_Nam":"WESTFIELD 0.7 WNW, VT","Latitude":"44.89160","Longitude":"-72.44350","Snowdepth":"15.000","Units":"in","Rept_Date":"2021-01-25 12"},"coordinates":[5671,5746]},{"type":"Point","properties":{"Station_ID":"NY-HM-10","Station_Nam":"LAKE PLEASANT 2.3 WSW, NY","Latitude":"43.45490","Longitude":"-74.45287","Snowdepth":"15.000","Units":"in","Rept_Date":"2021-01-25 12"},"coordinates":[5211,4853]},{"type":"Point","properties":{"Station_ID":"MQT","Station_Nam":"MARQUETTE, MI","Latitude":"46.53140","Longitude":"-87.54920","Snowdepth":"15.000","Units":"in","Rept_Date":"2021-01-26 06"},"coordinates":[2216,6767]},{"type":"Point","properties":{"Station_ID":"JEFV1","Station_Nam":"JEFFERSONVILLE","Latitude":"44.58430","Longitude":"-72.78700","Snowdepth":"15.000","Units":"in","Rept_Date":"2021-01-25 12"},"coordinates":[5592,5555]},{"type":"Point","properties":{"Station_ID":"DVNI4","Station_Nam":"DAVENPORT WFO","Latitude":"41.61170","Longitude":"-90.58160","Snowdepth":"15.000","Units":"in","Rept_Date":"2021-01-26 06"},"coordinates":[1523,3706]},{"type":"Point","properties":{"Station_ID":"MN-IT-7","Station_Nam":"GRAND RAPIDS 6.2 SSW, MN","Latitude":"47.13687","Longitude":"-93.56660","Snowdepth":"14.600","Units":"in","Rept_Date":"2021-01-25 12"},"coordinates":[840,7143]},{"type":"Point","properties":{"Station_ID":"VT-WS-30","Station_Nam":"WOODBURY 3.4 NNW, VT","Latitude":"44.48825","Longitude":"-72.43258","Snowdepth":"14.500","Units":"in","Rept_Date":"2021-01-25 12"},"coordinates":[5673,5496]},{"type":"Point","properties":{"Station_ID":"VT-WS-19","Station_Nam":"WATERBURY 3.0 NW, VT","Latitude":"44.36060","Longitude":"-72.80770","Snowdepth":"14.500","Units":"in","Rept_Date":"2021-01-25 11"},"coordinates":[5588,5416]},{"type":"Point","properties":{"Station_ID":"NY-ES-11","Station_Nam":"VERMONTVILLE 2.8 S, NY","Latitude":"44.41205","Longitude":"-74.06760","Snowdepth":"14.500","Units":"in","Rept_Date":"2021-01-25 12"},"coordinates":[5299,5448]},{"type":"Point","properties":{"Station_ID":"MN-SL-15","Station_Nam":"CHISHOLM 0.4 WSW, MN","Latitude":"47.48557","Longitude":"-92.88690","Snowdepth":"14.500","Units":"in","Rept_Date":"2021-01-25 13"},"coordinates":[995,7360]},{"type":"Point","properties":{"Station_ID":"WNDP1","Station_Nam":"WINDBER COUNTY CLUB","Latitude":"40.28780","Longitude":"-78.77530","Snowdepth":"14.000","Units":"in","Rept_Date":"2021-01-25 12"},"coordinates":[4223,2882]},{"type":"Point","properties":{"Station_ID":"WI-BY-14","Station_Nam":"ASHLAND 9.8 W, WI","Latitude":"46.59742","Longitude":"-91.07856","Snowdepth":"14.000","Units":"in","Rept_Date":"2021-01-25 12"},"coordinates":[1409,6808]},{"type":"Point","properties":{"Station_ID":"WAIV1","Station_Nam":"WAITSFIELD","Latitude":"44.17560","Longitude":"-72.79610","Snowdepth":"14.000","Units":"in","Rept_Date":"2021-01-25 11"},"coordinates":[5590,5301]},{"type":"Point","properties":{"Station_ID":"VT-WS-23","Station_Nam":"CABOT 2.3 E, VT","Latitude":"44.39807","Longitude":"-72.26570","Snowdepth":"14.000","Units":"in","Rept_Date":"2021-01-25 12"},"coordinates":[5712,5439]},{"type":"Point","properties":{"Station_ID":"VT-WS-11","Station_Nam":"WAITSFIELD 1.8 SE, VT","Latitude":"44.17551","Longitude":"-72.79540","Snowdepth":"14.000","Units":"in","Rept_Date":"2021-01-25 11"},"coordinates":[5590,5301]},{"type":"Point","properties":{"Station_ID":"VT-WH-19","Station_Nam":"EAST DOVER 1.8 N, VT","Latitude":"42.97658","Longitude":"-72.77637","Snowdepth":"14.000","Units":"in","Rept_Date":"2021-01-25 12"},"coordinates":[5595,4555]},{"type":"Point","properties":{"Station_ID":"SSMM4","Station_Nam":"SAULT STE MARIE","Latitude":"46.48660","Longitude":"-84.40250","Snowdepth":"14.000","Units":"in","Rept_Date":"2021-01-25 13"},"coordinates":[2936,6739]},{"type":"Point","properties":{"Station_ID":"SLNV1","Station_Nam":"SOUTH LINCOLN","Latitude":"44.07460","Longitude":"-72.97180","Snowdepth":"14.000","Units":"in","Rept_Date":"2021-01-25 12"},"coordinates":[5550,5238]},{"type":"Point","properties":{"Station_ID":"NY-SL-6","Station_Nam":"HANNAWA FALLS 0.1 SW, NY","Latitude":"44.61154","Longitude":"-74.97190","Snowdepth":"14.000","Units":"in","Rept_Date":"2021-01-25 12"},"coordinates":[5093,5572]},{"type":"Point","properties":{"Station_ID":"NY-OD-2","Station_Nam":"POINT ROCK 0.6 SE, NY","Latitude":"43.37335","Longitude":"-75.53840","Snowdepth":"14.000","Units":"in","Rept_Date":"2021-01-25 13"},"coordinates":[4963,4802]},{"type":"Point","properties":{"Station_ID":"NY-FK-7","Station_Nam":"SARANAC LAKE 6.2 N, NY","Latitude":"44.41359","Longitude":"-74.15211","Snowdepth":"14.000","Units":"in","Rept_Date":"2021-01-25 12"},"coordinates":[5280,5449]},{"type":"Point","properties":{"Station_ID":"NY-ES-6","Station_Nam":"OLMSTEDVILLE 4.6 NNE, NY","Latitude":"43.83350","Longitude":"-73.89780","Snowdepth":"14.000","Units":"in","Rept_Date":"2021-01-25 13"},"coordinates":[5338,5088]},{"type":"Point","properties":{"Station_ID":"NY-ER-195","Station_Nam":"SPRINGVILLE 0.4 NE, NY","Latitude":"42.51351","Longitude":"-78.66492","Snowdepth":"14.000","Units":"in","Rept_Date":"2021-01-26 05"},"coordinates":[4248,4267]},{"type":"Point","properties":{"Station_ID":"MN-SL-108","Station_Nam":"IRON JUNCTION 3.4 NNW, MN","Latitude":"47.46150","Longitude":"-92.63130","Snowdepth":"14.000","Units":"in","Rept_Date":"2021-01-25 12"},"coordinates":[1054,7345]},{"type":"Point","properties":{"Station_ID":"MN-SE-2","Station_Nam":"OWATONNA 0.8 E, MN","Latitude":"44.09170","Longitude":"-93.21380","Snowdepth":"14.000","Units":"in","Rept_Date":"2021-01-25 13"},"coordinates":[921,5249]},{"type":"Point","properties":{"Station_ID":"JOHV1","Station_Nam":"JOHNSON 2 N","Latitude":"44.65790","Longitude":"-72.67850","Snowdepth":"14.000","Units":"in","Rept_Date":"2021-01-25 12"},"coordinates":[5617,5601]},{"type":"Point","properties":{"Station_ID":"INDN6","Station_Nam":"INDIAN LAKE","Latitude":"43.75500","Longitude":"-74.27560","Snowdepth":"14.000","Units":"in","Rept_Date":"2021-01-25 13"},"coordinates":[5252,5039]},{"type":"Point","properties":{"Station_ID":"CLKM4","Station_Nam":"CLARKSBURG","Latitude":"46.49910","Longitude":"-87.84500","Snowdepth":"14.000","Units":"in","Rept_Date":"2021-01-25 12"},"coordinates":[2148,6747]},{"type":"Point","properties":{"Station_ID":"CAN-MB-32","Station_Nam":"PINAWA 1.0 SW, CA","Latitude":"50.14747","Longitude":"-95.89020","Snowdepth":"14.000","Units":"in","Rept_Date":"2021-01-25 13"},"coordinates":[308,9016]},{"type":"Point","properties":{"Station_ID":"ANJ","Station_Nam":"SAULT STE MARIE","Latitude":"46.46670","Longitude":"-84.36670","Snowdepth":"14.000","Units":"in","Rept_Date":"2021-01-26 00"},"coordinates":[2944,6726]},{"type":"Point","properties":{"Station_ID":"QMD","Station_Nam":"QMD","Latitude":"49.29060","Longitude":"-75.84500","Snowdepth":"13.622","Units":"in","Rept_Date":"2021-01-25 12"},"coordinates":[4893,8483]},{"type":"Point","properties":{"Station_ID":"CAN-ON-220","Station_Nam":"DEEP RIVER 1.5 SE - MNRF, CAN","Latitude":"46.09592","Longitude":"-77.47853","Snowdepth":"13.600","Units":"in","Rept_Date":"2021-01-25 12"},"coordinates":[4519,6496]},{"type":"Point","properties":{"Station_ID":"MN-SL-143","Station_Nam":"CANYON 4.6 NNE, MN","Latitude":"47.09800","Longitude":"-92.42170","Snowdepth":"13.500","Units":"in","Rept_Date":"2021-01-25 15"},"coordinates":[1102,7119]},{"type":"Point","properties":{"Station_ID":"MI-HG-1","Station_Nam":"HOUGHTON 1.6 ESE, MI","Latitude":"47.10774","Longitude":"-88.52940","Snowdepth":"13.500","Units":"in","Rept_Date":"2021-01-25 13"},"coordinates":[1992,7125]},{"type":"Point","properties":{"Station_ID":"WI-SR-1","Station_Nam":"HAYWARD 9.2 NNE, WI","Latitude":"46.13255","Longitude":"-91.40500","Snowdepth":"13.300","Units":"in","Rept_Date":"2021-01-25 12"},"coordinates":[1334,6519]},{"type":"Point","properties":{"Station_ID":"WI-BY-2","Station_Nam":"MELLEN 18.6 SW, WI","Latitude":"46.16937","Longitude":"-90.98090","Snowdepth":"13.300","Units":"in","Rept_Date":"2021-01-25 13"},"coordinates":[1431,6541]},{"type":"Point","properties":{"Station_ID":"NY-JF-30","Station_Nam":"WEST CARTHAGE 0.3 ENE, NY","Latitude":"43.97493","Longitude":"-75.61640","Snowdepth":"13.200","Units":"in","Rept_Date":"2021-01-25 12"},"coordinates":[4945,5176]},{"type":"Point","properties":{"Station_ID":"CAN-QC-56","Station_Nam":"SUTTON 2.6 N, CAN","Latitude":"45.13119","Longitude":"-72.61218","Snowdepth":"13.200","Units":"in","Rept_Date":"2021-01-25 12"},"coordinates":[5632,5896]},{"type":"Point","properties":{"Station_ID":"WRSM5","Station_Nam":"WRENSHALL","Latitude":"46.61550","Longitude":"-92.38380","Snowdepth":"13.000","Units":"in","Rept_Date":"2021-01-25 14"},"coordinates":[1110,6819]},{"type":"Point","properties":{"Station_ID":"WI-IR-3","Station_Nam":"PENCE 0.1 E, WI","Latitude":"46.41555","Longitude":"-90.27013","Snowdepth":"13.000","Units":"in","Rept_Date":"2021-01-25 13"},"coordinates":[1594,6695]},{"type":"Point","properties":{"Station_ID":"WELM5","Station_Nam":"WELLS","Latitude":"43.74680","Longitude":"-93.73680","Snowdepth":"13.000","Units":"in","Rept_Date":"2021-01-25 14"},"coordinates":[801,5034]},{"type":"Point","properties":{"Station_ID":"VT-WS-10","Station_Nam":"NORTHFIELD 1.5 N, VT","Latitude":"44.16986","Longitude":"-72.65200","Snowdepth":"13.000","Units":"in","Rept_Date":"2021-01-25 12"},"coordinates":[5623,5297]},{"type":"Point","properties":{"Station_ID":"VT-WH-30","Station_Nam":"MARLBORO 2.0 NNE, VT","Latitude":"42.88484","Longitude":"-72.70935","Snowdepth":"13.000","Units":"in","Rept_Date":"2021-01-25 12"},"coordinates":[5610,4498]},{"type":"Point","properties":{"Station_ID":"VT-OL-2","Station_Nam":"BARTON 3.0 ENE, VT","Latitude":"44.75863","Longitude":"-72.11680","Snowdepth":"13.000","Units":"in","Rept_Date":"2021-01-25 12"},"coordinates":[5746,5664]},{"type":"Point","properties":{"Station_ID":"VT-ES-3","Station_Nam":"LUNENBURG 2.3 NNW, VT","Latitude":"44.49324","Longitude":"-71.70446","Snowdepth":"13.000","Units":"in","Rept_Date":"2021-01-25 11"},"coordinates":[5840,5499]},{"type":"Point","properties":{"Station_ID":"VT-CH-4","Station_Nam":"UNDERHILL 4.4 NNE, VT","Latitude":"44.58774","Longitude":"-72.92250","Snowdepth":"13.000","Units":"in","Rept_Date":"2021-01-25 12"},"coordinates":[5561,5557]},{"type":"Point","properties":{"Station_ID":"TOGM5","Station_Nam":"CELINA 2E","Latitude":"47.86630","Longitude":"-93.02660","Snowdepth":"13.000","Units":"in","Rept_Date":"2021-01-25 15"},"coordinates":[963,7597]},{"type":"Point","properties":{"Station_ID":"RGNM1","Station_Nam":"RANGELEY 2NW","Latitude":"44.98940","Longitude":"-70.67220","Snowdepth":"13.000","Units":"in","Rept_Date":"2021-01-25 11"},"coordinates":[6076,5807]},{"type":"Point","properties":{"Station_ID":"NUNV1","Station_Nam":"NORTH UNDERHILL","Latitude":"44.58760","Longitude":"-72.92150","Snowdepth":"13.000","Units":"in","Rept_Date":"2021-01-25 12"},"coordinates":[5562,5557]},{"type":"Point","properties":{"Station_ID":"NOHM5","Station_Nam":"NORTHOME","Latitude":"47.83590","Longitude":"-94.25550","Snowdepth":"13.000","Units":"in","Rept_Date":"2021-01-25 13"},"coordinates":[682,7578]},{"type":"Point","properties":{"Station_ID":"NH-CS-4","Station_Nam":"PITTSBURG 6.1 NE, NH","Latitude":"45.11060","Longitude":"-71.29760","Snowdepth":"13.000","Units":"in","Rept_Date":"2021-01-25 12"},"coordinates":[5933,5883]},{"type":"Point","properties":{"Station_ID":"MRLV1","Station_Nam":"MARLBORO","Latitude":"42.86000","Longitude":"-72.72000","Snowdepth":"13.000","Units":"in","Rept_Date":"2021-01-25 12"},"coordinates":[5608,4483]},{"type":"Point","properties":{"Station_ID":"MN-LK-4","Station_Nam":"TWO HARBORS 3.6 WNW, MN","Latitude":"47.04118","Longitude":"-91.75280","Snowdepth":"13.000","Units":"in","Rept_Date":"2021-01-25 13"},"coordinates":[1255,7084]},{"type":"Point","properties":{"Station_ID":"MN-IS-18","Station_Nam":"BRAHAM 0.7 SW, MN","Latitude":"45.71379","Longitude":"-93.18095","Snowdepth":"13.000","Units":"in","Rept_Date":"2021-01-25 14"},"coordinates":[928,6258]},{"type":"Point","properties":{"Station_ID":"MALN6","Station_Nam":"MALONE","Latitude":"44.84180","Longitude":"-74.30600","Snowdepth":"13.000","Units":"in","Rept_Date":"2021-01-25 12"},"coordinates":[5245,5715]},{"type":"Point","properties":{"Station_ID":"IRMM4","Station_Nam":"WWTP","Latitude":"46.46670","Longitude":"-90.18330","Snowdepth":"13.000","Units":"in","Rept_Date":"2021-01-25 13"},"coordinates":[1614,6726]},{"type":"Point","properties":{"Station_ID":"FLDM5","Station_Nam":"FLOODWOOD,MN","Latitude":"47.00000","Longitude":"-92.91670","Snowdepth":"13.000","Units":"in","Rept_Date":"2021-01-25 14"},"coordinates":[988,7058]},{"type":"Point","properties":{"Station_ID":"CMKW3","Station_Nam":"CLAM LAKE 4W","Latitude":"46.16940","Longitude":"-90.98080","Snowdepth":"13.000","Units":"in","Rept_Date":"2021-01-25 13"},"coordinates":[1431,6541]},{"type":"Point","properties":{"Station_ID":"BRUM5","Station_Nam":"BRUNO,MN","Latitude":"46.28330","Longitude":"-92.50000","Snowdepth":"13.000","Units":"in","Rept_Date":"2021-01-25 14"},"coordinates":[1084,6612]},{"type":"Point","properties":{"Station_ID":"BNDM5","Station_Nam":"ELY 25E","Latitude":"47.97190","Longitude":"-91.44860","Snowdepth":"13.000","Units":"in","Rept_Date":"2021-01-25 13"},"coordinates":[1324,7663]},{"type":"Point","properties":{"Station_ID":"ANJM4","Station_Nam":"SNOW PAID OBSERVER FOR KANJ","Latitude":"46.48670","Longitude":"-84.40260","Snowdepth":"13.000","Units":"in","Rept_Date":"2021-01-26 00"},"coordinates":[2936,6739]},{"type":"Point","properties":{"Station_ID":"CAN-QC-57","Station_Nam":"ACTON VALE 1.3 N, CAN","Latitude":"45.65868","Longitude":"-72.56645","Snowdepth":"12.600","Units":"in","Rept_Date":"2021-01-25 13"},"coordinates":[5643,6224]},{"type":"Point","properties":{"Station_ID":"CAN-QC-51","Station_Nam":"BELOEIL 0.7 NW, CAN","Latitude":"45.58049","Longitude":"-73.21218","Snowdepth":"12.600","Units":"in","Rept_Date":"2021-01-25 12"},"coordinates":[5495,6175]},{"type":"Point","properties":{"Station_ID":"NY-CT-33","Station_Nam":"GREAT VALLEY 2.2 WNW, NY","Latitude":"42.22790","Longitude":"-78.67580","Snowdepth":"12.500","Units":"in","Rept_Date":"2021-01-25 12"},"coordinates":[4246,4089]},{"type":"Point","properties":{"Station_ID":"QGA","Station_Nam":"QGA","Latitude":"47.25640","Longitude":"-73.73810","Snowdepth":"12.480","Units":"in","Rept_Date":"2021-01-25 12"},"coordinates":[5375,7218]},{"type":"Point","properties":{"Station_ID":"QLI","Station_Nam":"QLI","Latitude":"50.27080","Longitude":"-73.92280","Snowdepth":"12.205","Units":"in","Rept_Date":"2021-01-25 12"},"coordinates":[5333,9093]},{"type":"Point","properties":{"Station_ID":"CAN-ON-791","Station_Nam":"METCALFE 4.4 NNW, CAN","Latitude":"45.27286","Longitude":"-75.48952","Snowdepth":"12.200","Units":"in","Rept_Date":"2021-01-25 11"},"coordinates":[4974,5984]},{"type":"Point","properties":{"Station_ID":"QCX","Station_Nam":"QCX","Latitude":"51.32830","Longitude":"-70.08060","Snowdepth":"12.126","Units":"in","Rept_Date":"2021-01-25 12"},"coordinates":[6211,9751]},{"type":"Point","properties":{"Station_ID":"CATQ6","Station_Nam":"CAT LAKE","Latitude":"51.72690","Longitude":"-91.82210","Snowdepth":"12.090","Units":"in","Rept_Date":"2021-01-26 06"},"coordinates":[1239,9999]},{"type":"Point","properties":{"Station_ID":"WTNM4","Station_Nam":"WATTON 2WSW","Latitude":"46.52660","Longitude":"-88.64240","Snowdepth":"12.000","Units":"in","Rept_Date":"2021-01-25 13"},"coordinates":[1966,6764]},{"type":"Point","properties":{"Station_ID":"WNBM5","Station_Nam":"DAM","Latitude":"47.43060","Longitude":"-94.05000","Snowdepth":"12.000","Units":"in","Rept_Date":"2021-01-25 14"},"coordinates":[729,7326]},{"type":"Point","properties":{"Station_ID":"WLSN6","Station_Nam":"WALES","Latitude":"42.73920","Longitude":"-78.58780","Snowdepth":"12.000","Units":"in","Rept_Date":"2021-01-25 12"},"coordinates":[4266,4407]},{"type":"Point","properties":{"Station_ID":"WI-WB-2","Station_Nam":"STONE LAKE 2.0 NW, WI","Latitude":"45.85960","Longitude":"-91.57710","Snowdepth":"12.000","Units":"in","Rept_Date":"2021-01-25 13"},"coordinates":[1295,6349]},{"type":"Point","properties":{"Station_ID":"WI-VL-9","Station_Nam":"LAND O' LAKES 11.7 W, WI","Latitude":"46.19023","Longitude":"-89.45790","Snowdepth":"12.000","Units":"in","Rept_Date":"2021-01-25 13"},"coordinates":[1780,6554]},{"type":"Point","properties":{"Station_ID":"WI-IR-2","Station_Nam":"MERCER 2.0 SE, WI","Latitude":"46.14749","Longitude":"-90.03097","Snowdepth":"12.000","Units":"in","Rept_Date":"2021-01-25 13"},"coordinates":[1648,6528]},{"type":"Point","properties":{"Station_ID":"VT-WR-13","Station_Nam":"PROCTORSVILLE 0.3 NNE, VT","Latitude":"43.38618","Longitude":"-72.63591","Snowdepth":"12.000","Units":"in","Rept_Date":"2021-01-25 12"},"coordinates":[5627,4810]},{"type":"Point","properties":{"Station_ID":"VT-AD-20","Station_Nam":"HANCOCK 0.3 S, VT","Latitude":"43.92166","Longitude":"-72.84042","Snowdepth":"12.000","Units":"in","Rept_Date":"2021-01-25 12"},"coordinates":[5580,5143]},{"type":"Point","properties":{"Station_ID":"SUTV1","Station_Nam":"SUTTON","Latitude":"44.61220","Longitude":"-72.04810","Snowdepth":"12.000","Units":"in","Rept_Date":"2021-01-25 13"},"coordinates":[5761,5573]},{"type":"Point","properties":{"Station_ID":"SUAW3","Station_Nam":"SUAMICO","Latitude":"44.60190","Longitude":"-88.09780","Snowdepth":"12.000","Units":"in","Rept_Date":"2021-01-25 12"},"coordinates":[2091,5566]},{"type":"Point","properties":{"Station_ID":"RANM1","Station_Nam":"RANGELEY","Latitude":"44.98910","Longitude":"-70.67190","Snowdepth":"12.000","Units":"in","Rept_Date":"2021-01-25 11"},"coordinates":[6076,5807]},{"type":"Point","properties":{"Station_ID":"PTBN3","Station_Nam":"PITTSBURG RESERVOIR","Latitude":"45.04690","Longitude":"-71.38300","Snowdepth":"12.000","Units":"in","Rept_Date":"2021-01-25 12"},"coordinates":[5913,5843]},{"type":"Point","properties":{"Station_ID":"PRDM4","Station_Nam":"PARADISE","Latitude":"46.60380","Longitude":"-85.03960","Snowdepth":"12.000","Units":"in","Rept_Date":"2021-01-25 11"},"coordinates":[2790,6812]},{"type":"Point","properties":{"Station_ID":"PKGM5","Station_Nam":"POKEGANA LK DAM","Latitude":"47.25080","Longitude":"-93.58610","Snowdepth":"12.000","Units":"in","Rept_Date":"2021-01-25 14"},"coordinates":[835,7214]},{"type":"Point","properties":{"Station_ID":"PEKN6","Station_Nam":"PECK LAKE","Latitude":"43.11500","Longitude":"-74.42360","Snowdepth":"12.000","Units":"in","Rept_Date":"2021-01-25 12"},"coordinates":[5218,4641]},{"type":"Point","properties":{"Station_ID":"NY-CQ-27","Station_Nam":"SILVER CREEK 1.0 SSE, NY","Latitude":"42.53088","Longitude":"-79.15986","Snowdepth":"12.000","Units":"in","Rept_Date":"2021-01-25 11"},"coordinates":[4135,4278]},{"type":"Point","properties":{"Station_ID":"MRAM5","Station_Nam":"MORA","Latitude":"45.87760","Longitude":"-93.31470","Snowdepth":"12.000","Units":"in","Rept_Date":"2021-01-25 13"},"coordinates":[897,6360]},{"type":"Point","properties":{"Station_ID":"MN-IT-19","Station_Nam":"COHASSET 7.6 NNW, MN","Latitude":"47.34204","Longitude":"-93.69765","Snowdepth":"12.000","Units":"in","Rept_Date":"2021-01-25 13"},"coordinates":[810,7271]},{"type":"Point","properties":{"Station_ID":"MN-GH-28","Station_Nam":"CANNON FALLS 0.5 SE, MN","Latitude":"44.50866","Longitude":"-92.89526","Snowdepth":"12.000","Units":"in","Rept_Date":"2021-01-25 14"},"coordinates":[993,5508]},{"type":"Point","properties":{"Station_ID":"MN-AA-76","Station_Nam":"NOWTHEN 2.9 SSE, MN","Latitude":"45.30360","Longitude":"-93.42620","Snowdepth":"12.000","Units":"in","Rept_Date":"2021-01-25 13"},"coordinates":[872,6003]},{"type":"Point","properties":{"Station_ID":"MIEM4","Station_Nam":"MICHIGAMME 3WNW","Latitude":"46.54530","Longitude":"-88.18000","Snowdepth":"12.000","Units":"in","Rept_Date":"2021-01-25 13"},"coordinates":[2072,6775]},{"type":"Point","properties":{"Station_ID":"MI-MQ-19","Station_Nam":"ISHPEMING 7.2 SW, MI","Latitude":"46.40550","Longitude":"-87.75670","Snowdepth":"12.000","Units":"in","Rept_Date":"2021-01-25 11"},"coordinates":[2169,6688]},{"type":"Point","properties":{"Station_ID":"LNOW3","Station_Nam":"LAND O LAKES","Latitude":"46.19000","Longitude":"-89.45700","Snowdepth":"12.000","Units":"in","Rept_Date":"2021-01-25 13"},"coordinates":[1780,6554]},{"type":"Point","properties":{"Station_ID":"LEIM5","Station_Nam":"ORR 3E","Latitude":"48.05810","Longitude":"-92.75220","Snowdepth":"12.000","Units":"in","Rept_Date":"2021-01-25 12"},"coordinates":[1026,7716]},{"type":"Point","properties":{"Station_ID":"KOMA","Station_Nam":"OMAHA EPPLEY AIRFIELD","Latitude":"41.30000","Longitude":"-95.90000","Snowdepth":"12.000","Units":"in","Rept_Date":"2021-01-26 06"},"coordinates":[306,3512]},{"type":"Point","properties":{"Station_ID":"INL","Station_Nam":"FALLS INTERNATIONAL ARPT","Latitude":"48.56640","Longitude":"-93.40310","Snowdepth":"12.000","Units":"in","Rept_Date":"2021-01-26 00"},"coordinates":[877,8033]},{"type":"Point","properties":{"Station_ID":"IL-SP-27","Station_Nam":"DAVIS 2.7 N, IL","Latitude":"42.46110","Longitude":"-89.40890","Snowdepth":"12.000","Units":"in","Rept_Date":"2021-01-25 13"},"coordinates":[1791,4234]},{"type":"Point","properties":{"Station_ID":"IFSM5","Station_Nam":"INTERNATIONAL FALLS SNOW","Latitude":"48.57780","Longitude":"-93.39640","Snowdepth":"12.000","Units":"in","Rept_Date":"2021-01-25 12"},"coordinates":[879,8040]},{"type":"Point","properties":{"Station_ID":"HUBN3","Station_Nam":"HUBBARD BROOK","Latitude":"43.93330","Longitude":"-71.71670","Snowdepth":"12.000","Units":"in","Rept_Date":"2021-01-26 06"},"coordinates":[5837,5150]},{"type":"Point","properties":{"Station_ID":"ELYM5","Station_Nam":"ELY","Latitude":"47.90560","Longitude":"-91.82830","Snowdepth":"12.000","Units":"in","Rept_Date":"2021-01-25 14"},"coordinates":[1237,7622]},{"type":"Point","properties":{"Station_ID":"EHYM3","Station_Nam":"EAST HAWLEY","Latitude":"42.57410","Longitude":"-72.86790","Snowdepth":"12.000","Units":"in","Rept_Date":"2021-01-25 14"},"coordinates":[5574,4305]},{"type":"Point","properties":{"Station_ID":"EAHV1","Station_Nam":"EAST HAVEN","Latitude":"44.64250","Longitude":"-71.89120","Snowdepth":"12.000","Units":"in","Rept_Date":"2021-01-25 12"},"coordinates":[5797,5592]},{"type":"Point","properties":{"Station_ID":"COTM5","Station_Nam":"COTTON","Latitude":"47.16870","Longitude":"-92.46290","Snowdepth":"12.000","Units":"in","Rept_Date":"2021-01-25 12"},"coordinates":[1092,7163]},{"type":"Point","properties":{"Station_ID":"CAN-QC-47","Station_Nam":"SAINTE-FOY 1.8 ENE, CAN","Latitude":"46.76934","Longitude":"-71.27124","Snowdepth":"12.000","Units":"in","Rept_Date":"2021-01-25 12"},"coordinates":[5939,6915]},{"type":"Point","properties":{"Station_ID":"CAN-QC-37","Station_Nam":"LAVAL 3.8 SSW, CAN","Latitude":"45.55358","Longitude":"-73.76976","Snowdepth":"12.000","Units":"in","Rept_Date":"2021-01-25 13"},"coordinates":[5368,6158]},{"type":"Point","properties":{"Station_ID":"BABM5","Station_Nam":"BABBITT","Latitude":"47.71210","Longitude":"-91.95330","Snowdepth":"12.000","Units":"in","Rept_Date":"2021-01-25 13"},"coordinates":[1209,7501]},{"type":"Point","properties":{"Station_ID":"QLP","Station_Nam":"QLP","Latitude":"48.13920","Longitude":"-72.63830","Snowdepth":"11.811","Units":"in","Rept_Date":"2021-01-25 12"},"coordinates":[5626,7767]},{"type":"Point","properties":{"Station_ID":"WI-BY-29","Station_Nam":"BAYFIELD 5.1 NNW, WI","Latitude":"46.88063","Longitude":"-90.85854","Snowdepth":"11.500","Units":"in","Rept_Date":"2021-01-25 13"},"coordinates":[1459,6984]},{"type":"Point","properties":{"Station_ID":"VT-CH-7","Station_Nam":"HUNTINGTON 1.1 E, VT","Latitude":"44.32488","Longitude":"-72.96570","Snowdepth":"11.500","Units":"in","Rept_Date":"2021-01-25 12"},"coordinates":[5551,5394]},{"type":"Point","properties":{"Station_ID":"NY-MD-10","Station_Nam":"CAZENOVIA 2.9 SE, NY","Latitude":"42.90003","Longitude":"-75.81140","Snowdepth":"11.500","Units":"in","Rept_Date":"2021-01-25 12"},"coordinates":[4901,4507]},{"type":"Point","properties":{"Station_ID":"MN-IT-17","Station_Nam":"GRAND RAPIDS 6.1 N, MN","Latitude":"47.31165","Longitude":"-93.55036","Snowdepth":"11.500","Units":"in","Rept_Date":"2021-01-25 13"},"coordinates":[844,7252]},{"type":"Point","properties":{"Station_ID":"MN-IT-1","Station_Nam":"GRAND RAPIDS 2.0 E, MN","Latitude":"47.22266","Longitude":"-93.49600","Snowdepth":"11.500","Units":"in","Rept_Date":"2021-01-25 14"},"coordinates":[856,7197]},{"type":"Point","properties":{"Station_ID":"MN-CN-36","Station_Nam":"CLOQUET 3.4 ENE, MN","Latitude":"46.74146","Longitude":"-92.42698","Snowdepth":"11.500","Units":"in","Rept_Date":"2021-01-25 13"},"coordinates":[1100,6897]},{"type":"Point","properties":{"Station_ID":"MN-CK-18","Station_Nam":"GRAND MARAIS 4.4 WSW, MN","Latitude":"47.74462","Longitude":"-90.43796","Snowdepth":"11.500","Units":"in","Rept_Date":"2021-01-25 13"},"coordinates":[1555,7521]},{"type":"Point","properties":{"Station_ID":"ME-FR-2","Station_Nam":"TEMPLE 1.8 W, ME","Latitude":"44.68329","Longitude":"-70.26420","Snowdepth":"11.500","Units":"in","Rept_Date":"2021-01-25 12"},"coordinates":[6169,5617]},{"type":"Point","properties":{"Station_ID":"CAN-ON-42","Station_Nam":"VANKLEEK HILL 3.4 S, CA","Latitude":"45.48987","Longitude":"-74.64570","Snowdepth":"11.500","Units":"in","Rept_Date":"2021-01-25 12"},"coordinates":[5167,6119]},{"type":"Point","properties":{"Station_ID":"CAN-NB-13","Station_Nam":"BATHURST 3.8 NW, CAN","Latitude":"47.64212","Longitude":"-65.68756","Snowdepth":"11.500","Units":"in","Rept_Date":"2021-01-25 11"},"coordinates":[7216,7458]},{"type":"Point","properties":{"Station_ID":"CAN-ON-741","Station_Nam":"KIMBERLEY 2.7 WSW, CAN","Latitude":"44.37820","Longitude":"-80.56956","Snowdepth":"11.400","Units":"in","Rept_Date":"2021-01-25 14"},"coordinates":[3812,5427]},{"type":"Point","properties":{"Station_ID":"WNNM5","Station_Nam":"WINNEBAGO","Latitude":"43.76920","Longitude":"-94.18730","Snowdepth":"11.000","Units":"in","Rept_Date":"2021-01-25 14"},"coordinates":[698,5048]},{"type":"Point","properties":{"Station_ID":"WI-VL-14","Station_Nam":"BOULDER JUNCTION 1.4 NE, WI","Latitude":"46.12840","Longitude":"-89.62470","Snowdepth":"11.000","Units":"in","Rept_Date":"2021-01-25 13"},"coordinates":[1741,6516]},{"type":"Point","properties":{"Station_ID":"WI-PR-6","Station_Nam":"PHILLIPS 1.3 S, WI","Latitude":"45.67677","Longitude":"-90.39543","Snowdepth":"11.000","Units":"in","Rept_Date":"2021-01-25 12"},"coordinates":[1565,6235]},{"type":"Point","properties":{"Station_ID":"WI-PK-33","Station_Nam":"FREDERIC 4.8 NE, WI","Latitude":"45.70970","Longitude":"-92.39950","Snowdepth":"11.000","Units":"in","Rept_Date":"2021-01-25 13"},"coordinates":[1107,6255]},{"type":"Point","properties":{"Station_ID":"WI-DG-20","Station_Nam":"SOLON SPRINGS 1.2 W, WI","Latitude":"46.35217","Longitude":"-91.84405","Snowdepth":"11.000","Units":"in","Rept_Date":"2021-01-25 13"},"coordinates":[1234,6655]},{"type":"Point","properties":{"Station_ID":"WI-DG-16","Station_Nam":"POPLAR 2.0 E, WI","Latitude":"46.58390","Longitude":"-91.74620","Snowdepth":"11.000","Units":"in","Rept_Date":"2021-01-25 13"},"coordinates":[1256,6799]},{"type":"Point","properties":{"Station_ID":"VT-OL-9","Station_Nam":"GREENSBORO 2.1 NNW, VT","Latitude":"44.60528","Longitude":"-72.30940","Snowdepth":"11.000","Units":"in","Rept_Date":"2021-01-25 12"},"coordinates":[5702,5568]},{"type":"Point","properties":{"Station_ID":"SNOW2","Station_Nam":"SNOWSHOE","Latitude":"38.39900","Longitude":"-79.99490","Snowdepth":"11.000","Units":"in","Rept_Date":"2021-01-25 11"},"coordinates":[3944,1707]},{"type":"Point","properties":{"Station_ID":"NVLV1","Station_Nam":"NASHVILLE","Latitude":"44.44970","Longitude":"-72.92640","Snowdepth":"11.000","Units":"in","Rept_Date":"2021-01-25 12"},"coordinates":[5560,5472]},{"type":"Point","properties":{"Station_ID":"NUMN3","Station_Nam":"NORTHUMBERLAND","Latitude":"44.52830","Longitude":"-71.50440","Snowdepth":"11.000","Units":"in","Rept_Date":"2021-01-25 12"},"coordinates":[5886,5520]},{"type":"Point","properties":{"Station_ID":"NH-MR-41","Station_Nam":"NEWBURY 1.6 NW, NH","Latitude":"43.33667","Longitude":"-72.06060","Snowdepth":"11.000","Units":"in","Rept_Date":"2021-01-25 12"},"coordinates":[5758,4779]},{"type":"Point","properties":{"Station_ID":"NH-CR-26","Station_Nam":"CENTER SANDWICH 4.9 E, NH","Latitude":"43.80976","Longitude":"-71.34150","Snowdepth":"11.000","Units":"in","Rept_Date":"2021-01-25 12"},"coordinates":[5923,5073]},{"type":"Point","properties":{"Station_ID":"NGLW3","Station_Nam":"NEW GLARUS","Latitude":"42.83500","Longitude":"-89.62080","Snowdepth":"11.000","Units":"in","Rept_Date":"2021-01-25 13"},"coordinates":[1742,4467]},{"type":"Point","properties":{"Station_ID":"MONW3","Station_Nam":"MONROE,WI","Latitude":"42.60000","Longitude":"-89.66670","Snowdepth":"11.000","Units":"in","Rept_Date":"2021-01-25 13"},"coordinates":[1732,4321]},{"type":"Point","properties":{"Station_ID":"MN-WG-74","Station_Nam":"OAKDALE 0.4 S, MN","Latitude":"44.98208","Longitude":"-92.96510","Snowdepth":"11.000","Units":"in","Rept_Date":"2021-01-25 13"},"coordinates":[977,5803]},{"type":"Point","properties":{"Station_ID":"MN-IT-23","Station_Nam":"BOVEY 13.4 N, MN","Latitude":"47.48855","Longitude":"-93.43497","Snowdepth":"11.000","Units":"in","Rept_Date":"2021-01-25 13"},"coordinates":[870,7362]},{"type":"Point","properties":{"Station_ID":"MN-IS-22","Station_Nam":"PRINCETON 6.6 E, MN","Latitude":"45.55762","Longitude":"-93.44595","Snowdepth":"11.000","Units":"in","Rept_Date":"2021-01-25 15"},"coordinates":[867,6161]},{"type":"Point","properties":{"Station_ID":"MN-HN-72","Station_Nam":"MAPLE GROVE 2.9 NE, MN","Latitude":"45.13953","Longitude":"-93.42070","Snowdepth":"11.000","Units":"in","Rept_Date":"2021-01-25 14"},"coordinates":[873,5901]},{"type":"Point","properties":{"Station_ID":"MN-BM-15","Station_Nam":"BEMIDJI 7.8 ENE, MN","Latitude":"47.52043","Longitude":"-94.72121","Snowdepth":"11.000","Units":"in","Rept_Date":"2021-01-25 13"},"coordinates":[576,7382]},{"type":"Point","properties":{"Station_ID":"MN-AA-54","Station_Nam":"ANOKA 1.3 SSE, MN","Latitude":"45.19465","Longitude":"-93.37489","Snowdepth":"11.000","Units":"in","Rept_Date":"2021-01-25 13"},"coordinates":[884,5935]},{"type":"Point","properties":{"Station_ID":"MI-OT-17","Station_Nam":"GAYLORD 4.1 S, MI","Latitude":"44.96388","Longitude":"-84.68467","Snowdepth":"11.000","Units":"in","Rept_Date":"2021-01-25 12"},"coordinates":[2871,5791]},{"type":"Point","properties":{"Station_ID":"MI-OG-6","Station_Nam":"WEST BRANCH 2.1 SSW, MI","Latitude":"44.24814","Longitude":"-84.25089","Snowdepth":"11.000","Units":"in","Rept_Date":"2021-01-25 13"},"coordinates":[2970,5346]},{"type":"Point","properties":{"Station_ID":"MI-CP-14","Station_Nam":"SAULT STE. MARIE 2.2 E, MI","Latitude":"46.48933","Longitude":"-84.31971","Snowdepth":"11.000","Units":"in","Rept_Date":"2021-01-25 13"},"coordinates":[2955,6740]},{"type":"Point","properties":{"Station_ID":"LVDW3","Station_Nam":"LAC VIEUX DESERT","Latitude":"46.12110","Longitude":"-89.07580","Snowdepth":"11.000","Units":"in","Rept_Date":"2021-01-25 15"},"coordinates":[1867,6511]},{"type":"Point","properties":{"Station_ID":"KGTB","Station_Nam":"FORT DRUM / WHEELER-SACK U. S. ARMY AIRFIELD","Latitude":"44.05000","Longitude":"-75.73333","Snowdepth":"11.000","Units":"in","Rept_Date":"2021-01-26 06"},"coordinates":[4918,5223]},{"type":"Point","properties":{"Station_ID":"KDSM","Station_Nam":"DES MOINES INTERNATIONAL","Latitude":"41.53333","Longitude":"-93.66666","Snowdepth":"11.000","Units":"in","Rept_Date":"2021-01-26 06"},"coordinates":[817,3657]},{"type":"Point","properties":{"Station_ID":"ISLV1","Station_Nam":"ISLAND POND","Latitude":"44.81280","Longitude":"-71.89020","Snowdepth":"11.000","Units":"in","Rept_Date":"2021-01-25 14"},"coordinates":[5797,5697]},{"type":"Point","properties":{"Station_ID":"INDM5","Station_Nam":"INDUS,MN","Latitude":"48.61670","Longitude":"-93.90000","Snowdepth":"11.000","Units":"in","Rept_Date":"2021-01-25 14"},"coordinates":[764,8064]},{"type":"Point","properties":{"Station_ID":"HVJP1","Station_Nam":"HIDDEN VALLEY COOP","Latitude":"40.04200","Longitude":"-79.25660","Snowdepth":"11.000","Units":"in","Rept_Date":"2021-01-25 13"},"coordinates":[4113,2729]},{"type":"Point","properties":{"Station_ID":"GAYM4","Station_Nam":"GAYLORD","Latitude":"45.03320","Longitude":"-84.71130","Snowdepth":"11.000","Units":"in","Rept_Date":"2021-01-25 13"},"coordinates":[2865,5835]},{"type":"Point","properties":{"Station_ID":"ESDN3","Station_Nam":"EAST SANDWICH","Latitude":"43.80990","Longitude":"-71.34250","Snowdepth":"11.000","Units":"in","Rept_Date":"2021-01-25 11"},"coordinates":[5923,5074]},{"type":"Point","properties":{"Station_ID":"ELKM5","Station_Nam":"ELK RIVER","Latitude":"45.30470","Longitude":"-93.58420","Snowdepth":"11.000","Units":"in","Rept_Date":"2021-01-25 13"},"coordinates":[836,6003]},{"type":"Point","properties":{"Station_ID":"DSXI4","Station_Nam":"DES MOINES SNOW","Latitude":"41.54130","Longitude":"-93.65570","Snowdepth":"11.000","Units":"in","Rept_Date":"2021-01-26 06"},"coordinates":[819,3662]},{"type":"Point","properties":{"Station_ID":"DMX","Station_Nam":"DES MOINES, IA","Latitude":"41.73610","Longitude":"-93.72330","Snowdepth":"11.000","Units":"in","Rept_Date":"2021-01-26 06"},"coordinates":[804,3783]},{"type":"Point","properties":{"Station_ID":"CRLM5","Station_Nam":"CROSS LAKE DAM","Latitude":"46.66930","Longitude":"-94.11060","Snowdepth":"11.000","Units":"in","Rept_Date":"2021-01-25 14"},"coordinates":[715,6852]},{"type":"Point","properties":{"Station_ID":"COKM5","Station_Nam":"COOK","Latitude":"47.85060","Longitude":"-92.69250","Snowdepth":"11.000","Units":"in","Rept_Date":"2021-01-25 12"},"coordinates":[1040,7587]},{"type":"Point","properties":{"Station_ID":"BRAM1","Station_Nam":"BRASSUA DAM","Latitude":"45.66020","Longitude":"-69.81190","Snowdepth":"11.000","Units":"in","Rept_Date":"2021-01-25 12"},"coordinates":[6273,6225]},{"type":"Point","properties":{"Station_ID":"AVLV1","Station_Nam":"AVERILL","Latitude":"45.00570","Longitude":"-71.69030","Snowdepth":"11.000","Units":"in","Rept_Date":"2021-01-25 13"},"coordinates":[5843,5817]},{"type":"Point","properties":{"Station_ID":"ALXI4","Station_Nam":"WATERLOO SNOW","Latitude":"42.53130","Longitude":"-92.37550","Snowdepth":"11.000","Units":"in","Rept_Date":"2021-01-26 06"},"coordinates":[1112,4278]},{"type":"Point","properties":{"Station_ID":"38.3990_079.9949","Station_Nam":"SNOWSHOE  CO-OP OBSERVER (X3840800)","Latitude":"38.39900","Longitude":"-79.99490","Snowdepth":"11.000","Units":"in","Rept_Date":"2021-01-25 11"},"coordinates":[3944,1707]},{"type":"Point","properties":{"Station_ID":"QTV","Station_Nam":"QTV","Latitude":"49.66000","Longitude":"-69.35690","Snowdepth":"10.984","Units":"in","Rept_Date":"2021-01-25 12"},"coordinates":[6377,8713]},{"type":"Point","properties":{"Station_ID":"NY-OS-20","Station_Nam":"FULTON 0.2 W, NY","Latitude":"43.31650","Longitude":"-76.41850","Snowdepth":"10.600","Units":"in","Rept_Date":"2021-01-25 13"},"coordinates":[4762,4767]},{"type":"Point","properties":{"Station_ID":"WI-BY-6","Station_Nam":"BARNES 2.2 S, WI","Latitude":"46.30264","Longitude":"-91.50320","Snowdepth":"10.500","Units":"in","Rept_Date":"2021-01-25 13"},"coordinates":[1312,6624]},{"type":"Point","properties":{"Station_ID":"NY-SR-22","Station_Nam":"GREENFIELD CENTER 1.6 W, NY","Latitude":"43.12684","Longitude":"-73.87860","Snowdepth":"10.500","Units":"in","Rept_Date":"2021-01-25 13"},"coordinates":[5343,4649]},{"type":"Point","properties":{"Station_ID":"NY-CT-22","Station_Nam":"FRANKLINVILLE 0.5 NNE, NY","Latitude":"42.34166","Longitude":"-78.45280","Snowdepth":"10.500","Units":"in","Rept_Date":"2021-01-25 12"},"coordinates":[4297,4160]},{"type":"Point","properties":{"Station_ID":"CAN-ON-771","Station_Nam":"KENORA 8.7 NNE - CANWARN, CAN","Latitude":"49.84171","Longitude":"-94.44386","Snowdepth":"10.500","Units":"in","Rept_Date":"2021-01-25 14"},"coordinates":[639,8826]},{"type":"Point","properties":{"Station_ID":"QLM","Station_Nam":"QLM","Latitude":"48.92030","Longitude":"-70.25280","Snowdepth":"10.118","Units":"in","Rept_Date":"2021-01-25 12"},"coordinates":[6172,8253]},{"type":"Point","properties":{"Station_ID":"WTRM4","Station_Nam":"WATERSMEET 12WSW","Latitude":"46.22310","Longitude":"-89.40850","Snowdepth":"10.000","Units":"in","Rept_Date":"2021-01-25 12"},"coordinates":[1791,6575]},{"type":"Point","properties":{"Station_ID":"WI-BT-14","Station_Nam":"OAKLAND 9.0 ENE, WI","Latitude":"45.95184","Longitude":"-92.21653","Snowdepth":"10.000","Units":"in","Rept_Date":"2021-01-25 13"},"coordinates":[1149,6406]},{"type":"Point","properties":{"Station_ID":"WDOM5","Station_Nam":"WINDOM","Latitude":"43.87700","Longitude":"-95.11590","Snowdepth":"10.000","Units":"in","Rept_Date":"2021-01-25 14"},"coordinates":[485,5115]},{"type":"Point","properties":{"Station_ID":"WASM5","Station_Nam":"WASECA SOUTHERN RESEARCH AND OUTREACH CENTER","Latitude":"44.07070","Longitude":"-93.52640","Snowdepth":"10.000","Units":"in","Rept_Date":"2021-01-25 14"},"coordinates":[849,5236]},{"type":"Point","properties":{"Station_ID":"VT-LM-1","Station_Nam":"STOWE 0.2 SW, VT","Latitude":"44.46399","Longitude":"-72.69070","Snowdepth":"10.000","Units":"in","Rept_Date":"2021-01-25 12"},"coordinates":[5614,5480]},{"type":"Point","properties":{"Station_ID":"VT-CH-11","Station_Nam":"UNDERHILL 5.1 NNE, VT","Latitude":"44.59811","Longitude":"-72.91880","Snowdepth":"10.000","Units":"in","Rept_Date":"2021-01-25 13"},"coordinates":[5562,5564]},{"type":"Point","properties":{"Station_ID":"STOI2","Station_Nam":"STOCKTON 3 NNE","Latitude":"42.40050","Longitude":"-89.99580","Snowdepth":"10.000","Units":"in","Rept_Date":"2021-01-26 03"},"coordinates":[1657,4197]},{"type":"Point","properties":{"Station_ID":"STMM4","Station_Nam":"STAMBAUGH 2SSE","Latitude":"46.05550","Longitude":"-88.62780","Snowdepth":"10.000","Units":"in","Rept_Date":"2021-01-25 13"},"coordinates":[1969,6471]},{"type":"Point","properties":{"Station_ID":"RLKW3","Station_Nam":"REST LAKE","Latitude":"46.12220","Longitude":"-89.87720","Snowdepth":"10.000","Units":"in","Rept_Date":"2021-01-25 14"},"coordinates":[1684,6512]},{"type":"Point","properties":{"Station_ID":"RARM4","Station_Nam":"RAPID RIVER 1 SW","Latitude":"45.91500","Longitude":"-86.98800","Snowdepth":"10.000","Units":"in","Rept_Date":"2021-01-25 12"},"coordinates":[2344,6383]},{"type":"Point","properties":{"Station_ID":"PKFW3","Station_Nam":"PARK FALLS,WI","Latitude":"45.93360","Longitude":"-90.45060","Snowdepth":"10.000","Units":"in","Rept_Date":"2021-01-25 14"},"coordinates":[1552,6395]},{"type":"Point","properties":{"Station_ID":"PDGM4","Station_Nam":"PAULDING","Latitude":"46.39760","Longitude":"-89.17940","Snowdepth":"10.000","Units":"in","Rept_Date":"2021-01-25 13"},"coordinates":[1843,6683]},{"type":"Point","properties":{"Station_ID":"OAXN1","Station_Nam":"VALLEY 1WNW","Latitude":"41.31970","Longitude":"-96.36720","Snowdepth":"10.000","Units":"in","Rept_Date":"2021-01-26 06"},"coordinates":[199,3524]},{"type":"Point","properties":{"Station_ID":"NY-OG-12","Station_Nam":"CLAY 4.6 NW, NY","Latitude":"43.20000","Longitude":"-76.26000","Snowdepth":"10.000","Units":"in","Rept_Date":"2021-01-25 12"},"coordinates":[4798,4694]},{"type":"Point","properties":{"Station_ID":"NY-GR-14","Station_Nam":"LEXINGTON 1.5 N, NY","Latitude":"42.26024","Longitude":"-74.35875","Snowdepth":"10.000","Units":"in","Rept_Date":"2021-01-25 12"},"coordinates":[5233,4109]},{"type":"Point","properties":{"Station_ID":"NY-CR-5","Station_Nam":"MARATHON 1.0 NW, NY","Latitude":"42.45161","Longitude":"-76.04370","Snowdepth":"10.000","Units":"in","Rept_Date":"2021-01-25 12"},"coordinates":[4847,4228]},{"type":"Point","properties":{"Station_ID":"NY-CR-1","Station_Nam":"FREETOWN 1.0 NE, NY","Latitude":"42.53299","Longitude":"-76.02111","Snowdepth":"10.000","Units":"in","Rept_Date":"2021-01-25 12"},"coordinates":[4853,4279]},{"type":"Point","properties":{"Station_ID":"NY-BM-21","Station_Nam":"WINDSOR 8.0 SE, NY","Latitude":"42.00992","Longitude":"-75.51420","Snowdepth":"10.000","Units":"in","Rept_Date":"2021-01-25 12"},"coordinates":[4969,3954]},{"type":"Point","properties":{"Station_ID":"NPTV1","Station_Nam":"NEWPORT","Latitude":"44.94900","Longitude":"-72.19120","Snowdepth":"10.000","Units":"in","Rept_Date":"2021-01-25 12"},"coordinates":[5729,5782]},{"type":"Point","properties":{"Station_ID":"NH-CS-7","Station_Nam":"LANCASTER 0.5 N, NH","Latitude":"44.49611","Longitude":"-71.57640","Snowdepth":"10.000","Units":"in","Rept_Date":"2021-01-25 12"},"coordinates":[5869,5500]},{"type":"Point","properties":{"Station_ID":"NH-CS-19","Station_Nam":"CARROLL 4.6 NE, NH","Latitude":"44.33765","Longitude":"-71.46461","Snowdepth":"10.000","Units":"in","Rept_Date":"2021-01-25 12"},"coordinates":[5895,5402]},{"type":"Point","properties":{"Station_ID":"MN-WG-16","Station_Nam":"WOODBURY 1.7 N, MN","Latitude":"44.93054","Longitude":"-92.92490","Snowdepth":"10.000","Units":"in","Rept_Date":"2021-01-25 13"},"coordinates":[987,5771]},{"type":"Point","properties":{"Station_ID":"MN-SL-115","Station_Nam":"COTTON 5.7 ESE, MN","Latitude":"47.15142","Longitude":"-92.35772","Snowdepth":"10.000","Units":"in","Rept_Date":"2021-01-25 14"},"coordinates":[1116,7152]},{"type":"Point","properties":{"Station_ID":"MN-SE-3","Station_Nam":"ELLENDALE 0.3 SW, MN","Latitude":"43.87046","Longitude":"-93.30360","Snowdepth":"10.000","Units":"in","Rept_Date":"2021-01-25 13"},"coordinates":[900,5111]},{"type":"Point","properties":{"Station_ID":"MN-KB-17","Station_Nam":"MORA 2.5 S, MN","Latitude":"45.84100","Longitude":"-93.29700","Snowdepth":"10.000","Units":"in","Rept_Date":"2021-01-25 13"},"coordinates":[901,6337]},{"type":"Point","properties":{"Station_ID":"MN-DK-112","Station_Nam":"HASTINGS 5.8 W, MN","Latitude":"44.72325","Longitude":"-92.97235","Snowdepth":"10.000","Units":"in","Rept_Date":"2021-01-25 13"},"coordinates":[976,5642]},{"type":"Point","properties":{"Station_ID":"MN-CW-22","Station_Nam":"FORT RIPLEY 0.8 N, MN","Latitude":"46.18089","Longitude":"-94.36510","Snowdepth":"10.000","Units":"in","Rept_Date":"2021-01-25 13"},"coordinates":[657,6549]},{"type":"Point","properties":{"Station_ID":"MN-CV-22","Station_Nam":"VICTORIA 1.6 WSW, MN","Latitude":"44.85670","Longitude":"-93.68640","Snowdepth":"10.000","Units":"in","Rept_Date":"2021-01-25 13"},"coordinates":[812,5725]},{"type":"Point","properties":{"Station_ID":"MI-OT-16","Station_Nam":"GAYLORD 2.2 SSE, MI","Latitude":"44.99441","Longitude":"-84.65820","Snowdepth":"10.000","Units":"in","Rept_Date":"2021-01-25 14"},"coordinates":[2877,5810]},{"type":"Point","properties":{"Station_ID":"MI-MQ-28","Station_Nam":"CARLSHEND, MI","Latitude":"46.31638","Longitude":"-87.19944","Snowdepth":"10.000","Units":"in","Rept_Date":"2021-01-25 13"},"coordinates":[2296,6633]},{"type":"Point","properties":{"Station_ID":"MI-AT-6","Station_Nam":"MANCELONA 0.5 ESE, MI","Latitude":"44.89981","Longitude":"-85.05100","Snowdepth":"10.000","Units":"in","Rept_Date":"2021-01-25 13"},"coordinates":[2787,5752]},{"type":"Point","properties":{"Station_ID":"ME-AR-15","Station_Nam":"PRESQUE ISLE 1.3 WSW, ME","Latitude":"46.67960","Longitude":"-68.01270","Snowdepth":"10.000","Units":"in","Rept_Date":"2021-01-25 12"},"coordinates":[6684,6859]},{"type":"Point","properties":{"Station_ID":"LNK","Station_Nam":"LINCOLN MUNICIPAL AIRPORT","Latitude":"40.85080","Longitude":"-96.75920","Snowdepth":"10.000","Units":"in","Rept_Date":"2021-01-26 00"},"coordinates":[110,3233]},{"type":"Point","properties":{"Station_ID":"LAUP1","Station_Nam":"1.5MI S OF RT 30 ON SMIT (LAUREL RIDGE)","Latitude":"40.05000","Longitude":"-79.22060","Snowdepth":"10.000","Units":"in","Rept_Date":"2021-01-25 12"},"coordinates":[4121,2734]},{"type":"Point","properties":{"Station_ID":"KISM4","Station_Nam":"K.I. SAWYER WWTP","Latitude":"46.33410","Longitude":"-87.37790","Snowdepth":"10.000","Units":"in","Rept_Date":"2021-01-25 13"},"coordinates":[2255,6644]},{"type":"Point","properties":{"Station_ID":"KINM1","Station_Nam":"KINGFIELD","Latitude":"44.95950","Longitude":"-70.17530","Snowdepth":"10.000","Units":"in","Rept_Date":"2021-01-25 12"},"coordinates":[6190,5789]},{"type":"Point","properties":{"Station_ID":"JKMM1","Station_Nam":"JACKMAN","Latitude":"45.62600","Longitude":"-70.24600","Snowdepth":"10.000","Units":"in","Rept_Date":"2021-01-25 12"},"coordinates":[6173,6203]},{"type":"Point","properties":{"Station_ID":"ISEM5","Station_Nam":"ISLE 12N","Latitude":"46.31970","Longitude":"-93.50140","Snowdepth":"10.000","Units":"in","Rept_Date":"2021-01-25 14"},"coordinates":[855,6635]},{"type":"Point","properties":{"Station_ID":"GHMN3","Station_Nam":"PINKHAM NOTCH","Latitude":"44.25800","Longitude":"-71.25250","Snowdepth":"10.000","Units":"in","Rept_Date":"2021-01-25 10"},"coordinates":[5943,5352]},{"type":"Point","properties":{"Station_ID":"FORM5","Station_Nam":"FOREST LAKE 5NE","Latitude":"45.33170","Longitude":"-92.89820","Snowdepth":"10.000","Units":"in","Rept_Date":"2021-01-25 13"},"coordinates":[993,6020]},{"type":"Point","properties":{"Station_ID":"FISM1","Station_Nam":"FORT KENT COOP","Latitude":"47.23850","Longitude":"-68.61240","Snowdepth":"10.000","Units":"in","Rept_Date":"2021-01-25 12"},"coordinates":[6547,7207]},{"type":"Point","properties":{"Station_ID":"FEDM5","Station_Nam":"LEECH LAKE DAM","Latitude":"47.24670","Longitude":"-94.22280","Snowdepth":"10.000","Units":"in","Rept_Date":"2021-01-25 14"},"coordinates":[690,7212]},{"type":"Point","properties":{"Station_ID":"EVRW3","Station_Nam":"EAGLE RIVER-4 E","Latitude":"45.91890","Longitude":"-89.15280","Snowdepth":"10.000","Units":"in","Rept_Date":"2021-01-25 13"},"coordinates":[1849,6386]},{"type":"Point","properties":{"Station_ID":"ENFV1","Station_Nam":"ENOSBURG FALLS 2","Latitude":"44.90960","Longitude":"-72.81370","Snowdepth":"10.000","Units":"in","Rept_Date":"2021-01-25 10"},"coordinates":[5586,5758]},{"type":"Point","properties":{"Station_ID":"EGRW3","Station_Nam":"EAGLE RIVER-SOUTH","Latitude":"45.91360","Longitude":"-89.24360","Snowdepth":"10.000","Units":"in","Rept_Date":"2021-01-25 13"},"coordinates":[1829,6382]},{"type":"Point","properties":{"Station_ID":"DLHM5","Station_Nam":"DULUTH NWS","Latitude":"46.83680","Longitude":"-92.21080","Snowdepth":"10.000","Units":"in","Rept_Date":"2021-01-26 06"},"coordinates":[1150,6957]},{"type":"Point","properties":{"Station_ID":"DLH","Station_Nam":"DULUTH, MN","Latitude":"46.83690","Longitude":"-92.21030","Snowdepth":"10.000","Units":"in","Rept_Date":"2021-01-26 00"},"coordinates":[1150,6957]},{"type":"Point","properties":{"Station_ID":"CBLW3","Station_Nam":"CUMBERLAND","Latitude":"45.53310","Longitude":"-92.02260","Snowdepth":"10.000","Units":"in","Rept_Date":"2021-01-25 13"},"coordinates":[1193,6146]},{"type":"Point","properties":{"Station_ID":"BWTN6","Station_Nam":"BREWERTON LOCK 23","Latitude":"43.23860","Longitude":"-76.19640","Snowdepth":"10.000","Units":"in","Rept_Date":"2021-01-25 11"},"coordinates":[4813,4718]},{"type":"Point","properties":{"Station_ID":"BDIP1","Station_Nam":"GERMANIA 1 SNOW","Latitude":"41.65000","Longitude":"-77.66670","Snowdepth":"10.000","Units":"in","Rept_Date":"2021-01-25 17"},"coordinates":[4476,3730]},{"type":"Point","properties":{"Station_ID":"AMAM4","Station_Nam":"AMASA 1W","Latitude":"46.23470","Longitude":"-88.45440","Snowdepth":"10.000","Units":"in","Rept_Date":"2021-01-25 14"},"coordinates":[2009,6582]},{"type":"Point","properties":{"Station_ID":"CAN-NS-177","Station_Nam":"NEWCOMBVILLE 5.2 SSW, CAN","Latitude":"44.33851","Longitude":"-64.65026","Snowdepth":"9.800","Units":"in","Rept_Date":"2021-01-25 11"},"coordinates":[7453,5402]},{"type":"Point","properties":{"Station_ID":"CAN-NB-105","Station_Nam":"SISSON BROOK 3.8 E, CAN","Latitude":"46.98305","Longitude":"-67.32532","Snowdepth":"9.800","Units":"in","Rept_Date":"2021-01-25 12"},"coordinates":[6841,7048]},{"type":"Point","properties":{"Station_ID":"QIQ","Station_Nam":"QIQ","Latitude":"49.82390","Longitude":"-68.54310","Snowdepth":"9.685","Units":"in","Rept_Date":"2021-01-25 12"},"coordinates":[6563,8815]},{"type":"Point","properties":{"Station_ID":"CAN-ON-757","Station_Nam":"SAULT STE. MARIE 2.8 ESE - GLFC, CAN","Latitude":"46.50300","Longitude":"-84.30300","Snowdepth":"9.600","Units":"in","Rept_Date":"2021-01-25 13"},"coordinates":[2959,6749]},{"type":"Point","properties":{"Station_ID":"WI-PR-8","Station_Nam":"PHILLIPS 0.4 SSW, WI","Latitude":"45.69086","Longitude":"-90.40200","Snowdepth":"9.500","Units":"in","Rept_Date":"2021-01-25 13"},"coordinates":[1564,6244]},{"type":"Point","properties":{"Station_ID":"VT-OL-25","Station_Nam":"NEWPORT 1.5 WSW, VT","Latitude":"44.93059","Longitude":"-72.23731","Snowdepth":"9.500","Units":"in","Rept_Date":"2021-01-25 12"},"coordinates":[5718,5771]},{"type":"Point","properties":{"Station_ID":"NY-OT-11","Station_Nam":"HARTWICK, NY","Latitude":"42.65990","Longitude":"-75.05000","Snowdepth":"9.500","Units":"in","Rept_Date":"2021-01-25 14"},"coordinates":[5075,4358]},{"type":"Point","properties":{"Station_ID":"NY-CQ-22","Station_Nam":"FREDONIA 0.8 WNW, NY","Latitude":"42.44414","Longitude":"-79.34610","Snowdepth":"9.500","Units":"in","Rept_Date":"2021-01-25 10"},"coordinates":[4092,4224]},{"type":"Point","properties":{"Station_ID":"NH-MR-60","Station_Nam":"SOUTH SUTTON 1.3 SE, NH","Latitude":"43.29531","Longitude":"-71.90238","Snowdepth":"9.500","Units":"in","Rept_Date":"2021-01-25 13"},"coordinates":[5795,4753]},{"type":"Point","properties":{"Station_ID":"MN-SH-985","Station_Nam":"PRINCETON 3.3 WSW, MN","Latitude":"45.55211","Longitude":"-93.64481","Snowdepth":"9.500","Units":"in","Rept_Date":"2021-01-25 19"},"coordinates":[822,6157]},{"type":"Point","properties":{"Station_ID":"MN-IT-21","Station_Nam":"BOVEY 15.9 N, MN","Latitude":"47.52679","Longitude":"-93.40270","Snowdepth":"9.500","Units":"in","Rept_Date":"2021-01-25 13"},"coordinates":[877,7386]},{"type":"Point","properties":{"Station_ID":"MN-HN-31","Station_Nam":"MAPLE GROVE 1.0 NNE, MN","Latitude":"45.12261","Longitude":"-93.45790","Snowdepth":"9.500","Units":"in","Rept_Date":"2021-01-25 14"},"coordinates":[865,5890]},{"type":"Point","properties":{"Station_ID":"MN-CW-54","Station_Nam":"AITKIN 9.6 W, MN","Latitude":"46.53711","Longitude":"-93.90688","Snowdepth":"9.500","Units":"in","Rept_Date":"2021-01-25 14"},"coordinates":[762,6770]},{"type":"Point","properties":{"Station_ID":"MN-CW-44","Station_Nam":"CROSBY 1.1 SW, MN","Latitude":"46.47772","Longitude":"-93.97293","Snowdepth":"9.500","Units":"in","Rept_Date":"2021-01-25 13"},"coordinates":[747,6733]},{"type":"Point","properties":{"Station_ID":"MN-BK-6","Station_Nam":"LAKE PARK 6.0 S, MN","Latitude":"46.79850","Longitude":"-96.12180","Snowdepth":"9.500","Units":"in","Rept_Date":"2021-01-25 13"},"coordinates":[255,6933]},{"type":"Point","properties":{"Station_ID":"MA-HS-7","Station_Nam":"PLAINFIELD 2.2 SW, MA","Latitude":"42.49272","Longitude":"-72.94540","Snowdepth":"9.500","Units":"in","Rept_Date":"2021-01-25 13"},"coordinates":[5556,4254]},{"type":"Point","properties":{"Station_ID":"CAN-NB-11","Station_Nam":"MIRAMICHI 3.3 S, CAN","Latitude":"46.99343","Longitude":"-65.50690","Snowdepth":"9.500","Units":"in","Rept_Date":"2021-01-25 10"},"coordinates":[7257,7054]},{"type":"Point","properties":{"Station_ID":"WV-PR-10","Station_Nam":"TERRA ALTA 4.9 NNE, WV","Latitude":"39.51024","Longitude":"-79.51024","Snowdepth":"9.400","Units":"in","Rept_Date":"2021-01-25 13"},"coordinates":[4055,2399]},{"type":"Point","properties":{"Station_ID":"WRUM5","Station_Nam":"WARROAD 4W","Latitude":"48.89600","Longitude":"-95.40700","Snowdepth":"9.000","Units":"in","Rept_Date":"2021-01-26 04"},"coordinates":[419,8238]},{"type":"Point","properties":{"Station_ID":"WI-PK-4","Station_Nam":"DRESSER 6.1 ESE, WI","Latitude":"45.32436","Longitude":"-92.52080","Snowdepth":"9.000","Units":"in","Rept_Date":"2021-01-25 14"},"coordinates":[1079,6016]},{"type":"Point","properties":{"Station_ID":"VT-AD-28","Station_Nam":"MONKTON 1.5 NE, VT","Latitude":"44.26760","Longitude":"-73.09940","Snowdepth":"9.000","Units":"in","Rept_Date":"2021-01-25 12"},"coordinates":[5521,5358]},{"type":"Point","properties":{"Station_ID":"STOW3","Station_Nam":"STOUGHTON,WI","Latitude":"42.91670","Longitude":"-89.21670","Snowdepth":"9.000","Units":"in","Rept_Date":"2021-01-25 13"},"coordinates":[1835,4518]},{"type":"Point","properties":{"Station_ID":"ROBW3","Station_Nam":"ROBERTS WWTP","Latitude":"44.97070","Longitude":"-92.56200","Snowdepth":"9.000","Units":"in","Rept_Date":"2021-01-25 14"},"coordinates":[1070,5796]},{"type":"Point","properties":{"Station_ID":"PLFV1","Station_Nam":"PLAINFIELD","Latitude":"44.27610","Longitude":"-72.41500","Snowdepth":"9.000","Units":"in","Rept_Date":"2021-01-25 12"},"coordinates":[5677,5364]},{"type":"Point","properties":{"Station_ID":"PLEP1","Station_Nam":"PLEASANT MOUNT 1 W","Latitude":"41.73940","Longitude":"-75.44650","Snowdepth":"9.000","Units":"in","Rept_Date":"2021-01-25 14"},"coordinates":[4984,3785]},{"type":"Point","properties":{"Station_ID":"NY-DL-25","Station_Nam":"HOBART 4.8 ESE, NY","Latitude":"42.35230","Longitude":"-74.57830","Snowdepth":"9.000","Units":"in","Rept_Date":"2021-01-25 12"},"coordinates":[5183,4167]},{"type":"Point","properties":{"Station_ID":"NY-CL-12","Station_Nam":"SARANAC 0.8 SSE, NY","Latitude":"44.63980","Longitude":"-73.73848","Snowdepth":"9.000","Units":"in","Rept_Date":"2021-01-25 12"},"coordinates":[5375,5590]},{"type":"Point","properties":{"Station_ID":"NUMM5","Station_Nam":"NEW ULM 3SE","Latitude":"44.29450","Longitude":"-94.40840","Snowdepth":"9.000","Units":"in","Rept_Date":"2021-01-25 12"},"coordinates":[647,5375]},{"type":"Point","properties":{"Station_ID":"MSP","Station_Nam":"MINNEAPOLIS-ST PAUL INTL AP","Latitude":"44.88310","Longitude":"-93.22890","Snowdepth":"9.000","Units":"in","Rept_Date":"2021-01-26 00"},"coordinates":[917,5741]},{"type":"Point","properties":{"Station_ID":"MPXM5","Station_Nam":"CHANHASSEN WSFO","Latitude":"44.84960","Longitude":"-93.56440","Snowdepth":"9.000","Units":"in","Rept_Date":"2021-01-26 06"},"coordinates":[840,5720]},{"type":"Point","properties":{"Station_ID":"MN-SV-4","Station_Nam":"DONNELLY 2.9 NW, MN","Latitude":"45.71649","Longitude":"-96.06043","Snowdepth":"9.000","Units":"in","Rept_Date":"2021-01-25 13"},"coordinates":[269,6260]},{"type":"Point","properties":{"Station_ID":"MN-SH-10","Station_Nam":"BIG LAKE 5.6 NNE, MN","Latitude":"45.41409","Longitude":"-93.69190","Snowdepth":"9.000","Units":"in","Rept_Date":"2021-01-25 13"},"coordinates":[811,6072]},{"type":"Point","properties":{"Station_ID":"MN-RM-2","Station_Nam":"NORTH SAINT PAUL 1.0 NNW, MN","Latitude":"45.02629","Longitude":"-93.00790","Snowdepth":"9.000","Units":"in","Rept_Date":"2021-01-25 12"},"coordinates":[968,5830]},{"type":"Point","properties":{"Station_ID":"MN-RM-120","Station_Nam":"MAPLEWOOD 5.6 SSE, MN","Latitude":"44.90588","Longitude":"-92.99712","Snowdepth":"9.000","Units":"in","Rept_Date":"2021-01-25 15"},"coordinates":[970,5755]},{"type":"Point","properties":{"Station_ID":"MN-RC-38","Station_Nam":"FARIBAULT 1.6 S, MN","Latitude":"44.27639","Longitude":"-93.27306","Snowdepth":"9.000","Units":"in","Rept_Date":"2021-01-25 13"},"coordinates":[907,5364]},{"type":"Point","properties":{"Station_ID":"MN-HN-78","Station_Nam":"RICHFIELD 1.9 WNW, MN","Latitude":"44.89129","Longitude":"-93.31410","Snowdepth":"9.000","Units":"in","Rept_Date":"2021-01-25 11"},"coordinates":[898,5746]},{"type":"Point","properties":{"Station_ID":"MN-HN-267","Station_Nam":"MINNEAPOLIS 2.5 SE, MN","Latitude":"44.93331","Longitude":"-93.23680","Snowdepth":"9.000","Units":"in","Rept_Date":"2021-01-25 13"},"coordinates":[915,5772]},{"type":"Point","properties":{"Station_ID":"MN-HN-19","Station_Nam":"EDINA 1.3 SW, MN","Latitude":"44.87830","Longitude":"-93.37890","Snowdepth":"9.000","Units":"in","Rept_Date":"2021-01-25 13"},"coordinates":[883,5738]},{"type":"Point","properties":{"Station_ID":"MN-GH-4","Station_Nam":"NERSTRAND 4.2 E, MN","Latitude":"44.34247","Longitude":"-92.97920","Snowdepth":"9.000","Units":"in","Rept_Date":"2021-01-25 13"},"coordinates":[974,5405]},{"type":"Point","properties":{"Station_ID":"MN-DK-73","Station_Nam":"LAKEVILLE 2.6 NNE, MN","Latitude":"44.71250","Longitude":"-93.23043","Snowdepth":"9.000","Units":"in","Rept_Date":"2021-01-25 13"},"coordinates":[917,5635]},{"type":"Point","properties":{"Station_ID":"MN-DK-70","Station_Nam":"EAGAN 2.0 NNW, MN","Latitude":"44.84322","Longitude":"-93.17899","Snowdepth":"9.000","Units":"in","Rept_Date":"2021-01-25 13"},"coordinates":[928,5716]},{"type":"Point","properties":{"Station_ID":"MN-DK-53","Station_Nam":"LAKEVILLE 3.8 ENE, MN","Latitude":"44.70423","Longitude":"-93.18460","Snowdepth":"9.000","Units":"in","Rept_Date":"2021-01-25 13"},"coordinates":[927,5630]},{"type":"Point","properties":{"Station_ID":"MN-CK-6","Station_Nam":"GRAND MARAIS 4.4 W, MN","Latitude":"47.74865","Longitude":"-90.43760","Snowdepth":"9.000","Units":"in","Rept_Date":"2021-01-25 13"},"coordinates":[1555,7524]},{"type":"Point","properties":{"Station_ID":"MN-AT-5","Station_Nam":"TAMARACK 1.4 SW, MN","Latitude":"46.63760","Longitude":"-93.14554","Snowdepth":"9.000","Units":"in","Rept_Date":"2021-01-25 11"},"coordinates":[936,6833]},{"type":"Point","properties":{"Station_ID":"MLCM5","Station_Nam":"MILACA","Latitude":"45.75320","Longitude":"-93.66170","Snowdepth":"9.000","Units":"in","Rept_Date":"2021-01-25 13"},"coordinates":[818,6283]},{"type":"Point","properties":{"Station_ID":"ME-SM-4","Station_Nam":"SOLON 3.9 ESE, ME","Latitude":"44.94705","Longitude":"-69.77790","Snowdepth":"9.000","Units":"in","Rept_Date":"2021-01-25 12"},"coordinates":[6281,5781]},{"type":"Point","properties":{"Station_ID":"LUCW3","Station_Nam":"LUCK","Latitude":"45.57330","Longitude":"-92.48520","Snowdepth":"9.000","Units":"in","Rept_Date":"2021-01-25 22"},"coordinates":[1087,6171]},{"type":"Point","properties":{"Station_ID":"KMSP","Station_Nam":"MINNEAPOLIS-ST PAUL INTERNATIONAL","Latitude":"44.86666","Longitude":"-93.21666","Snowdepth":"9.000","Units":"in","Rept_Date":"2021-01-26 06"},"coordinates":[920,5731]},{"type":"Point","properties":{"Station_ID":"KBTV","Station_Nam":"BURLINGTON INTERNATIONAL","Latitude":"44.46666","Longitude":"-73.15000","Snowdepth":"9.000","Units":"in","Rept_Date":"2021-01-26 00"},"coordinates":[5509,5482]},{"type":"Point","properties":{"Station_ID":"JCBM4","Station_Nam":"JACOBSVILLE","Latitude":"47.00830","Longitude":"-88.43180","Snowdepth":"9.000","Units":"in","Rept_Date":"2021-01-25 12"},"coordinates":[2014,7063]},{"type":"Point","properties":{"Station_ID":"IL-JD-8","Station_Nam":"STOCKTON 3.4 NNE, IL","Latitude":"42.39960","Longitude":"-89.99020","Snowdepth":"9.000","Units":"in","Rept_Date":"2021-01-25 13"},"coordinates":[1658,4196]},{"type":"Point","properties":{"Station_ID":"IL-CR-12","Station_Nam":"MOUNT CARROLL 6.8 NNW, IL","Latitude":"42.18735","Longitude":"-90.02185","Snowdepth":"9.000","Units":"in","Rept_Date":"2021-01-25 13"},"coordinates":[1651,4064]},{"type":"Point","properties":{"Station_ID":"HTLM4","Station_Nam":"SNOW PAID OBSERVER FOR KHTL","Latitude":"44.34470","Longitude":"-84.67730","Snowdepth":"9.000","Units":"in","Rept_Date":"2021-01-25 18"},"coordinates":[2873,5406]},{"type":"Point","properties":{"Station_ID":"HTL","Station_Nam":"ROSCOMMON COUNTY AIRPORT","Latitude":"44.35000","Longitude":"-84.66670","Snowdepth":"9.000","Units":"in","Rept_Date":"2021-01-26 00"},"coordinates":[2875,5410]},{"type":"Point","properties":{"Station_ID":"HPN11_MADIS","Station_Nam":"SAINT BONIFACIUS","Latitude":"44.89792","Longitude":"-93.73460","Snowdepth":"9.000","Units":"in","Rept_Date":"2021-01-26 06"},"coordinates":[801,5750]},{"type":"Point","properties":{"Station_ID":"HPN08_MADIS","Station_Nam":"ORONO","Latitude":"44.93630","Longitude":"-93.62000","Snowdepth":"9.000","Units":"in","Rept_Date":"2021-01-26 06"},"coordinates":[828,5774]},{"type":"Point","properties":{"Station_ID":"FUTN6","Station_Nam":"FULTON","Latitude":"43.30500","Longitude":"-76.39380","Snowdepth":"9.000","Units":"in","Rept_Date":"2021-01-25 12"},"coordinates":[4767,4759]},{"type":"Point","properties":{"Station_ID":"FLNW3","Station_Nam":"FLORENCE","Latitude":"45.93360","Longitude":"-88.25830","Snowdepth":"9.000","Units":"in","Rept_Date":"2021-01-25 13"},"coordinates":[2054,6395]},{"type":"Point","properties":{"Station_ID":"FLAM4","Station_Nam":"FIFE LAKE 2WNW","Latitude":"44.58480","Longitude":"-85.36530","Snowdepth":"9.000","Units":"in","Rept_Date":"2021-01-25 12"},"coordinates":[2716,5556]},{"type":"Point","properties":{"Station_ID":"EMBM5","Station_Nam":"EMBARASS,MN","Latitude":"47.65810","Longitude":"-92.19580","Snowdepth":"9.000","Units":"in","Rept_Date":"2021-01-25 12"},"coordinates":[1153,7468]},{"type":"Point","properties":{"Station_ID":"DGVW3","Station_Nam":"DODGEVILLE","Latitude":"42.96670","Longitude":"-90.11670","Snowdepth":"9.000","Units":"in","Rept_Date":"2021-01-25 13"},"coordinates":[1629,4549]},{"type":"Point","properties":{"Station_ID":"CORV1","Station_Nam":"CORINTH","Latitude":"44.00690","Longitude":"-72.31940","Snowdepth":"9.000","Units":"in","Rept_Date":"2021-01-25 12"},"coordinates":[5699,5196]},{"type":"Point","properties":{"Station_ID":"CNRM1","Station_Nam":"CONNOR TWP","Latitude":"46.95830","Longitude":"-68.03330","Snowdepth":"9.000","Units":"in","Rept_Date":"2021-01-25 12"},"coordinates":[6680,7032]},{"type":"Point","properties":{"Station_ID":"CDLM4","Station_Nam":"CADILLAC 9&10 NEWS","Latitude":"44.21130","Longitude":"-85.40860","Snowdepth":"9.000","Units":"in","Rept_Date":"2021-01-25 12"},"coordinates":[2706,5323]},{"type":"Point","properties":{"Station_ID":"CAR","Station_Nam":"CARIBOU, ME","Latitude":"46.86830","Longitude":"-68.01360","Snowdepth":"9.000","Units":"in","Rept_Date":"2021-01-25 12"},"coordinates":[6684,6976]},{"type":"Point","properties":{"Station_ID":"CAN-ON-5","Station_Nam":"OWEN SOUND 1.5 NW - GSCA, CAN","Latitude":"44.57837","Longitude":"-80.95461","Snowdepth":"9.000","Units":"in","Rept_Date":"2021-01-25 13"},"coordinates":[3724,5552]},{"type":"Point","properties":{"Station_ID":"CAN-NS-103","Station_Nam":"TRAFALGAR 4.9 WSW, CAN","Latitude":"45.26217","Longitude":"-62.72285","Snowdepth":"9.000","Units":"in","Rept_Date":"2021-01-25 12"},"coordinates":[7894,5977]},{"type":"Point","properties":{"Station_ID":"CAAW2","Station_Nam":"CANAAN VALLEY","Latitude":"39.05890","Longitude":"-79.44030","Snowdepth":"9.000","Units":"in","Rept_Date":"2021-01-25 14"},"coordinates":[4071,2118]},{"type":"Point","properties":{"Station_ID":"BTV","Station_Nam":"BURLINGTON, VT","Latitude":"44.47140","Longitude":"-73.15330","Snowdepth":"9.000","Units":"in","Rept_Date":"2021-01-26 01"},"coordinates":[5509,5485]},{"type":"Point","properties":{"Station_ID":"BKBW2","Station_Nam":"DAVIS.","Latitude":"39.09830","Longitude":"-79.43190","Snowdepth":"9.000","Units":"in","Rept_Date":"2021-01-25 12"},"coordinates":[4073,2142]},{"type":"Point","properties":{"Station_ID":"AVTW3","Station_Nam":"ARBOR VITAE-JOHNSON LAKE","Latitude":"45.89940","Longitude":"-89.72670","Snowdepth":"9.000","Units":"in","Rept_Date":"2021-01-25 12"},"coordinates":[1718,6373]},{"type":"Point","properties":{"Station_ID":"AUBN1","Station_Nam":"AUBURN,NE","Latitude":"40.38330","Longitude":"-95.75000","Snowdepth":"9.000","Units":"in","Rept_Date":"2021-01-26 02"},"coordinates":[340,2942]},{"type":"Point","properties":{"Station_ID":"ATAN6","Station_Nam":"ATTICA 7 SW","Latitude":"42.81070","Longitude":"-78.39790","Snowdepth":"9.000","Units":"in","Rept_Date":"2021-01-25 11"},"coordinates":[4309,4452]},{"type":"Point","properties":{"Station_ID":"AMDW3","Station_Nam":"ALMOND-5 NE","Latitude":"44.30830","Longitude":"-89.34640","Snowdepth":"9.000","Units":"in","Rept_Date":"2021-01-25 14"},"coordinates":[1805,5384]},{"type":"Point","properties":{"Station_ID":"AGNW3","Station_Nam":"ARGONNE-1.5 NW","Latitude":"45.67360","Longitude":"-88.90380","Snowdepth":"9.000","Units":"in","Rept_Date":"2021-01-25 13"},"coordinates":[1906,6233]},{"type":"Point","properties":{"Station_ID":"HPN09_MADIS","Station_Nam":"PLYMOUTH","Latitude":"44.98992","Longitude":"-93.47910","Snowdepth":"8.900","Units":"in","Rept_Date":"2021-01-26 06"},"coordinates":[860,5808]},{"type":"Point","properties":{"Station_ID":"QMA","Station_Nam":"QMA","Latitude":"50.10330","Longitude":"-70.47190","Snowdepth":"8.701","Units":"in","Rept_Date":"2021-01-25 12"},"coordinates":[6122,8989]},{"type":"Point","properties":{"Station_ID":"HPN20_MADIS","Station_Nam":"HOPKINS","Latitude":"44.95556","Longitude":"-93.41140","Snowdepth":"8.700","Units":"in","Rept_Date":"2021-01-26 06"},"coordinates":[875,5786]},{"type":"Point","properties":{"Station_ID":"HPN02_MADIS","Station_Nam":"MAPLE GROVE","Latitude":"45.11820","Longitude":"-93.42830","Snowdepth":"8.600","Units":"in","Rept_Date":"2021-01-26 06"},"coordinates":[871,5887]},{"type":"Point","properties":{"Station_ID":"WI-WH-7","Station_Nam":"WILD ROSE 0.5 E, WI","Latitude":"44.17764","Longitude":"-89.23812","Snowdepth":"8.500","Units":"in","Rept_Date":"2021-01-25 13"},"coordinates":[1830,5302]},{"type":"Point","properties":{"Station_ID":"VT-OL-24","Station_Nam":"DERBY LINE 1.9 W, VT","Latitude":"45.00454","Longitude":"-72.14170","Snowdepth":"8.500","Units":"in","Rept_Date":"2021-01-25 12"},"coordinates":[5740,5817]},{"type":"Point","properties":{"Station_ID":"PA-PT-2","Station_Nam":"ROULETTE 1.8 NNE, PA","Latitude":"41.80759","Longitude":"-78.14140","Snowdepth":"8.500","Units":"in","Rept_Date":"2021-01-25 12"},"coordinates":[4368,3828]},{"type":"Point","properties":{"Station_ID":"NY-OT-31","Station_Nam":"MARYLAND 1.8 W, NY","Latitude":"42.53310","Longitude":"-74.92090","Snowdepth":"8.500","Units":"in","Rept_Date":"2021-01-25 13"},"coordinates":[5104,4279]},{"type":"Point","properties":{"Station_ID":"NY-ES-7","Station_Nam":"KEESEVILLE 0.8 SE, NY","Latitude":"44.49504","Longitude":"-73.47109","Snowdepth":"8.500","Units":"in","Rept_Date":"2021-01-25 12"},"coordinates":[5436,5500]},{"type":"Point","properties":{"Station_ID":"NH-GR-47","Station_Nam":"LITTLETON 7.3 W, NH","Latitude":"44.31847","Longitude":"-71.91086","Snowdepth":"8.500","Units":"in","Rept_Date":"2021-01-25 13"},"coordinates":[5793,5390]},{"type":"Point","properties":{"Station_ID":"MN-OT-3","Station_Nam":"BATTLE LAKE 2S, MN","Latitude":"46.25833","Longitude":"-95.71470","Snowdepth":"8.500","Units":"in","Rept_Date":"2021-01-25 13"},"coordinates":[349,6597]},{"type":"Point","properties":{"Station_ID":"MI-CX-7","Station_Nam":"EAST JORDAN 2.1 NNW, MI","Latitude":"45.18639","Longitude":"-85.14750","Snowdepth":"8.500","Units":"in","Rept_Date":"2021-01-25 13"},"coordinates":[2765,5930]},{"type":"Point","properties":{"Station_ID":"ME-SM-10","Station_Nam":"NORTH NEW PORTLAND 0.3 WSW, ME","Latitude":"44.92353","Longitude":"-70.02788","Snowdepth":"8.500","Units":"in","Rept_Date":"2021-01-25 12"},"coordinates":[6223,5766]},{"type":"Point","properties":{"Station_ID":"ME-FR-22","Station_Nam":"FARMINGTON 4.8 NNW, ME","Latitude":"44.73396","Longitude":"-70.18007","Snowdepth":"8.500","Units":"in","Rept_Date":"2021-01-25 14"},"coordinates":[6189,5648]},{"type":"Point","properties":{"Station_ID":"IL-MCH-13","Station_Nam":"BULL VALLEY 2.5 WNW, IL","Latitude":"42.32455","Longitude":"-88.39460","Snowdepth":"8.500","Units":"in","Rept_Date":"2021-01-25 14"},"coordinates":[2023,4149]},{"type":"Point","properties":{"Station_ID":"IL-BN-19","Station_Nam":"BELVIDERE 5.0 NNW, IL","Latitude":"42.32071","Longitude":"-88.88282","Snowdepth":"8.500","Units":"in","Rept_Date":"2021-01-25 13"},"coordinates":[1911,4147]},{"type":"Point","properties":{"Station_ID":"CAN-NS-68","Station_Nam":"RAWDON GOLD MINES 3.4 N, CA","Latitude":"45.08535","Longitude":"-63.76840","Snowdepth":"8.500","Units":"in","Rept_Date":"2021-01-25 11"},"coordinates":[7655,5867]},{"type":"Point","properties":{"Station_ID":"BDJP1","Station_Nam":"GERMANIA 2 SNOW","Latitude":"41.65000","Longitude":"-77.66940","Snowdepth":"8.500","Units":"in","Rept_Date":"2021-01-25 17"},"coordinates":[4476,3730]},{"type":"Point","properties":{"Station_ID":"HPN19_MADIS","Station_Nam":"GREENFIELD","Latitude":"45.20343","Longitude":"-93.69130","Snowdepth":"8.400","Units":"in","Rept_Date":"2021-01-26 06"},"coordinates":[811,5940]},{"type":"Point","properties":{"Station_ID":"VT-WR-22","Station_Nam":"ROCHESTER 0.3 NE, VT","Latitude":"43.87816","Longitude":"-72.80459","Snowdepth":"8.300","Units":"in","Rept_Date":"2021-01-25 12"},"coordinates":[5588,5116]},{"type":"Point","properties":{"Station_ID":"MN-HN-14","Station_Nam":"MINNETRISTA 1.5 SSE, MN","Latitude":"44.91447","Longitude":"-93.69920","Snowdepth":"8.300","Units":"in","Rept_Date":"2021-01-25 13"},"coordinates":[810,5761]},{"type":"Point","properties":{"Station_ID":"CAN-ON-526","Station_Nam":"HILTON BEACH 0.7 SW - MNRF, CAN","Latitude":"46.25357","Longitude":"-83.90014","Snowdepth":"8.300","Units":"in","Rept_Date":"2021-01-25 12"},"coordinates":[3051,6594]},{"type":"Point","properties":{"Station_ID":"IL-SP-14","Station_Nam":"FREEPORT 1.7 ESE, IL","Latitude":"42.28257","Longitude":"-89.60360","Snowdepth":"8.200","Units":"in","Rept_Date":"2021-01-25 13"},"coordinates":[1746,4123]},{"type":"Point","properties":{"Station_ID":"PA-CR-1","Station_Nam":"EMPORIUM 2.6 S, PA","Latitude":"41.47342","Longitude":"-78.24330","Snowdepth":"8.100","Units":"in","Rept_Date":"2021-01-25 13"},"coordinates":[4344,3620]},{"type":"Point","properties":{"Station_ID":"WTBW3","Station_Nam":"WEST BEND PUBLIC WORKS","Latitude":"43.41110","Longitude":"-88.19380","Snowdepth":"8.000","Units":"in","Rept_Date":"2021-01-25 13"},"coordinates":[2069,4825]},{"type":"Point","properties":{"Station_ID":"WSFW3","Station_Nam":"TOWN OF WESTFORD","Latitude":"43.47190","Longitude":"-88.88250","Snowdepth":"8.000","Units":"in","Rept_Date":"2021-01-25 13"},"coordinates":[1911,4863]},{"type":"Point","properties":{"Station_ID":"WRNM5","Station_Nam":"WORTHINGTON,MN","Latitude":"43.65440","Longitude":"-95.57920","Snowdepth":"8.000","Units":"in","Rept_Date":"2021-01-25 13"},"coordinates":[380,4977]},{"type":"Point","properties":{"Station_ID":"WI-WK-61","Station_Nam":"HARTLAND 5.0 NNE, WI","Latitude":"43.16351","Longitude":"-88.30400","Snowdepth":"8.000","Units":"in","Rept_Date":"2021-01-25 13"},"coordinates":[2043,4671]},{"type":"Point","properties":{"Station_ID":"WI-TY-3","Station_Nam":"MEDFORD 0.8 ENE, WI","Latitude":"45.14421","Longitude":"-90.33349","Snowdepth":"8.000","Units":"in","Rept_Date":"2021-01-25 14"},"coordinates":[1579,5904]},{"type":"Point","properties":{"Station_ID":"WI-RS-1","Station_Nam":"LADYSMITH 2.8 WNW, WI","Latitude":"45.48180","Longitude":"-91.14680","Snowdepth":"8.000","Units":"in","Rept_Date":"2021-01-25 13"},"coordinates":[1393,6114]},{"type":"Point","properties":{"Station_ID":"WI-RK-12","Station_Nam":"JANESVILLE 3.1 W, WI","Latitude":"42.67576","Longitude":"-89.07614","Snowdepth":"8.000","Units":"in","Rept_Date":"2021-01-25 13"},"coordinates":[1867,4368]},{"type":"Point","properties":{"Station_ID":"WI-PC-5","Station_Nam":"RIVER FALLS 1.2 SSW, WI","Latitude":"44.84032","Longitude":"-92.63500","Snowdepth":"8.000","Units":"in","Rept_Date":"2021-01-25 13"},"coordinates":[1053,5715]},{"type":"Point","properties":{"Station_ID":"WI-PC-10","Station_Nam":"RIVER FALLS 1.4 S, WI","Latitude":"44.83580","Longitude":"-92.62100","Snowdepth":"8.000","Units":"in","Rept_Date":"2021-01-25 13"},"coordinates":[1056,5712]},{"type":"Point","properties":{"Station_ID":"WI-IW-3","Station_Nam":"MINERAL POINT 7.3 ENE, WI","Latitude":"42.91400","Longitude":"-90.05700","Snowdepth":"8.000","Units":"in","Rept_Date":"2021-01-25 13"},"coordinates":[1643,4516]},{"type":"Point","properties":{"Station_ID":"WI-DN-1","Station_Nam":"BOYCEVILLE 3.3 N, WI","Latitude":"45.08913","Longitude":"-92.02760","Snowdepth":"8.000","Units":"in","Rept_Date":"2021-01-25 13"},"coordinates":[1192,5869]},{"type":"Point","properties":{"Station_ID":"WI-DD-16","Station_Nam":"BEAVER DAM 2.4 WNW, WI","Latitude":"43.47210","Longitude":"-88.88280","Snowdepth":"8.000","Units":"in","Rept_Date":"2021-01-25 13"},"coordinates":[1911,4863]},{"type":"Point","properties":{"Station_ID":"WI-DA-99","Station_Nam":"FITCHBURG 1.1 NW, WI","Latitude":"42.99740","Longitude":"-89.44046","Snowdepth":"8.000","Units":"in","Rept_Date":"2021-01-25 13"},"coordinates":[1784,4568]},{"type":"Point","properties":{"Station_ID":"WI-BY-1","Station_Nam":"BAYFIELD 8.8 N, WI","Latitude":"46.93855","Longitude":"-90.83490","Snowdepth":"8.000","Units":"in","Rept_Date":"2021-01-25 12"},"coordinates":[1465,7020]},{"type":"Point","properties":{"Station_ID":"WI-BR-2","Station_Nam":"CHETEK 2.0 SE, WI","Latitude":"45.29427","Longitude":"-91.62470","Snowdepth":"8.000","Units":"in","Rept_Date":"2021-01-25 13"},"coordinates":[1284,5997]},{"type":"Point","properties":{"Station_ID":"WGCI4","Station_Nam":"WAVELAND","Latitude":"41.58330","Longitude":"-93.66670","Snowdepth":"8.000","Units":"in","Rept_Date":"2021-01-26 04"},"coordinates":[817,3688]},{"type":"Point","properties":{"Station_ID":"VQAW3","Station_Nam":"VIROQUA","Latitude":"43.55970","Longitude":"-90.87560","Snowdepth":"8.000","Units":"in","Rept_Date":"2021-01-25 13"},"coordinates":[1455,4918]},{"type":"Point","properties":{"Station_ID":"STIM5","Station_Nam":"STILLWATER 2SW","Latitude":"45.04540","Longitude":"-92.85220","Snowdepth":"8.000","Units":"in","Rept_Date":"2021-01-25 14"},"coordinates":[1003,5842]},{"type":"Point","properties":{"Station_ID":"SPTI4","Station_Nam":"STRAWBERRY POINT","Latitude":"42.68530","Longitude":"-91.53300","Snowdepth":"8.000","Units":"in","Rept_Date":"2021-01-25 13"},"coordinates":[1305,4374]},{"type":"Point","properties":{"Station_ID":"SKAN6","Station_Nam":"SKANEATELES","Latitude":"42.94610","Longitude":"-76.43130","Snowdepth":"8.000","Units":"in","Rept_Date":"2021-01-25 13"},"coordinates":[4759,4536]},{"type":"Point","properties":{"Station_ID":"SILN6","Station_Nam":"SILVER CREEK","Latitude":"42.53800","Longitude":"-79.16990","Snowdepth":"8.000","Units":"in","Rept_Date":"2021-01-25 12"},"coordinates":[4132,4282]},{"type":"Point","properties":{"Station_ID":"RSTW3","Station_Nam":"ROSHOLT","Latitude":"44.62710","Longitude":"-89.30600","Snowdepth":"8.000","Units":"in","Rept_Date":"2021-01-25 14"},"coordinates":[1814,5582]},{"type":"Point","properties":{"Station_ID":"RKWM1","Station_Nam":"MOOSEHEAD LAKE","Latitude":"45.58330","Longitude":"-69.71670","Snowdepth":"8.000","Units":"in","Rept_Date":"2021-01-25 12"},"coordinates":[6295,6177]},{"type":"Point","properties":{"Station_ID":"RILW3","Station_Nam":"RICE LAKE","Latitude":"45.41660","Longitude":"-91.77240","Snowdepth":"8.000","Units":"in","Rept_Date":"2021-01-25 14"},"coordinates":[1250,6073]},{"type":"Point","properties":{"Station_ID":"RHIW3","Station_Nam":"RHINELANDER","Latitude":"45.59860","Longitude":"-89.45080","Snowdepth":"8.000","Units":"in","Rept_Date":"2021-01-25 13"},"coordinates":[1781,6186]},{"type":"Point","properties":{"Station_ID":"REWM5","Station_Nam":"REDWOOD FALLS","Latitude":"44.54850","Longitude":"-95.09980","Snowdepth":"8.000","Units":"in","Rept_Date":"2021-01-25 13"},"coordinates":[489,5533]},{"type":"Point","properties":{"Station_ID":"OWAM5","Station_Nam":"OWATONNA","Latitude":"44.09760","Longitude":"-93.23180","Snowdepth":"8.000","Units":"in","Rept_Date":"2021-01-25 14"},"coordinates":[916,5252]},{"type":"Point","properties":{"Station_ID":"NY-OG-10","Station_Nam":"CAMILLUS 1.0 W, NY","Latitude":"43.03962","Longitude":"-76.32830","Snowdepth":"8.000","Units":"in","Rept_Date":"2021-01-25 12"},"coordinates":[4782,4594]},{"type":"Point","properties":{"Station_ID":"NY-ER-158","Station_Nam":"EAST AURORA 2.7 SSE, NY","Latitude":"42.72936","Longitude":"-78.60561","Snowdepth":"8.000","Units":"in","Rept_Date":"2021-01-25 12"},"coordinates":[4262,4401]},{"type":"Point","properties":{"Station_ID":"NY-DL-32","Station_Nam":"DELHI 6.6 WNW, NY","Latitude":"42.32118","Longitude":"-75.02991","Snowdepth":"8.000","Units":"in","Rept_Date":"2021-01-25 12"},"coordinates":[5079,4147]},{"type":"Point","properties":{"Station_ID":"NY-CQ-41","Station_Nam":"MAYVILLE 0.2 ESE, NY","Latitude":"42.25194","Longitude":"-79.49809","Snowdepth":"8.000","Units":"in","Rept_Date":"2021-01-25 12"},"coordinates":[4057,4104]},{"type":"Point","properties":{"Station_ID":"NY-CL-7","Station_Nam":"PERU 4.1 ESE, NY","Latitude":"44.56461","Longitude":"-73.45390","Snowdepth":"8.000","Units":"in","Rept_Date":"2021-01-25 11"},"coordinates":[5440,5543]},{"type":"Point","properties":{"Station_ID":"NCKN6","Station_Nam":"NORTH CREEK 5 SE","Latitude":"43.66110","Longitude":"-73.89690","Snowdepth":"8.000","Units":"in","Rept_Date":"2021-01-25 12"},"coordinates":[5338,4981]},{"type":"Point","properties":{"Station_ID":"NALN6","Station_Nam":"CATTARAUGUS","Latitude":"42.32450","Longitude":"-78.86700","Snowdepth":"8.000","Units":"in","Rept_Date":"2021-01-25 13"},"coordinates":[4202,4149]},{"type":"Point","properties":{"Station_ID":"MSRN3","Station_Nam":"MASCOMA RIVER","Latitude":"43.78330","Longitude":"-72.03330","Snowdepth":"8.000","Units":"in","Rept_Date":"2021-01-26 06"},"coordinates":[5765,5057]},{"type":"Point","properties":{"Station_ID":"MOLW3","Station_Nam":"MOLE LAKE","Latitude":"45.48470","Longitude":"-88.96500","Snowdepth":"8.000","Units":"in","Rept_Date":"2021-01-25 14"},"coordinates":[1892,6115]},{"type":"Point","properties":{"Station_ID":"MN-WC-8","Station_Nam":"WASECA 2.0 N, MN","Latitude":"44.11194","Longitude":"-93.49972","Snowdepth":"8.000","Units":"in","Rept_Date":"2021-01-25 12"},"coordinates":[855,5261]},{"type":"Point","properties":{"Station_ID":"MN-SC-2","Station_Nam":"PRIOR LAKE 2.0 W, MN","Latitude":"44.71250","Longitude":"-93.46360","Snowdepth":"8.000","Units":"in","Rept_Date":"2021-01-25 13"},"coordinates":[863,5635]},{"type":"Point","properties":{"Station_ID":"MN-RM-15","Station_Nam":"ROSEVILLE 2.1 NW, MN","Latitude":"45.03502","Longitude":"-93.18620","Snowdepth":"8.000","Units":"in","Rept_Date":"2021-01-25 12"},"coordinates":[927,5836]},{"type":"Point","properties":{"Station_ID":"MN-MS-8","Station_Nam":"NEWFOLDEN 0.2 W, MN","Latitude":"48.35613","Longitude":"-96.33460","Snowdepth":"8.000","Units":"in","Rept_Date":"2021-01-25 14"},"coordinates":[207,7902]},{"type":"Point","properties":{"Station_ID":"MN-MR-20","Station_Nam":"HILLMAN 8.3 N, MN","Latitude":"46.12692","Longitude":"-93.88661","Snowdepth":"8.000","Units":"in","Rept_Date":"2021-01-25 14"},"coordinates":[767,6515]},{"type":"Point","properties":{"Station_ID":"MN-MR-13","Station_Nam":"LITTLE FALLS 8.0 NE, MN","Latitude":"46.06785","Longitude":"-94.24789","Snowdepth":"8.000","Units":"in","Rept_Date":"2021-01-25 13"},"coordinates":[684,6478]},{"type":"Point","properties":{"Station_ID":"MN-HN-240","Station_Nam":"BLOOMINGTON 3.1 E, MN","Latitude":"44.83704","Longitude":"-93.25318","Snowdepth":"8.000","Units":"in","Rept_Date":"2021-01-25 13"},"coordinates":[912,5713]},{"type":"Point","properties":{"Station_ID":"ME-SM-45","Station_Nam":"BRIGHTON PLANTATION 2.1 N, ME","Latitude":"45.07098","Longitude":"-69.69860","Snowdepth":"8.000","Units":"in","Rept_Date":"2021-01-25 12"},"coordinates":[6299,5858]},{"type":"Point","properties":{"Station_ID":"ME-OX-2","Station_Nam":"HARTFORD 1.4 N, ME","Latitude":"44.39318","Longitude":"-70.34760","Snowdepth":"8.000","Units":"in","Rept_Date":"2021-01-25 12"},"coordinates":[6150,5436]},{"type":"Point","properties":{"Station_ID":"ME-FR-4","Station_Nam":"NEW SHARON 2.0 NW, ME","Latitude":"44.66582","Longitude":"-70.02720","Snowdepth":"8.000","Units":"in","Rept_Date":"2021-01-25 12"},"coordinates":[6224,5606]},{"type":"Point","properties":{"Station_ID":"MADM5","Station_Nam":"MADISON WWTP","Latitude":"45.00230","Longitude":"-96.16610","Snowdepth":"8.000","Units":"in","Rept_Date":"2021-01-25 14"},"coordinates":[245,5815]},{"type":"Point","properties":{"Station_ID":"LNGM5","Station_Nam":"LONG PRAIRIE","Latitude":"45.96460","Longitude":"-94.88920","Snowdepth":"8.000","Units":"in","Rept_Date":"2021-01-25 12"},"coordinates":[537,6414]},{"type":"Point","properties":{"Station_ID":"LMLI4","Station_Nam":"LAKE MILLS,IA","Latitude":"43.40000","Longitude":"-93.53330","Snowdepth":"8.000","Units":"in","Rept_Date":"2021-01-25 13"},"coordinates":[847,4818]},{"type":"Point","properties":{"Station_ID":"KOFF","Station_Nam":"OMAHA / OFFUTT AIR FORCE BASE","Latitude":"41.11666","Longitude":"-95.90000","Snowdepth":"8.000","Units":"in","Rept_Date":"2021-01-26 06"},"coordinates":[306,3398]},{"type":"Point","properties":{"Station_ID":"JEFN3","Station_Nam":"JEFFERSON","Latitude":"44.41690","Longitude":"-71.50080","Snowdepth":"8.000","Units":"in","Rept_Date":"2021-01-25 12"},"coordinates":[5886,5451]},{"type":"Point","properties":{"Station_ID":"IL-SP-6","Station_Nam":"FREEPORT 2.0 NW, IL","Latitude":"42.30955","Longitude":"-89.66370","Snowdepth":"8.000","Units":"in","Rept_Date":"2021-01-25 13"},"coordinates":[1732,4140]},{"type":"Point","properties":{"Station_ID":"HRVM4","Station_Nam":"HARVEY","Latitude":"46.49080","Longitude":"-87.35470","Snowdepth":"8.000","Units":"in","Rept_Date":"2021-01-25 12"},"coordinates":[2261,6741]},{"type":"Point","properties":{"Station_ID":"HRTM1","Station_Nam":"HARTFORD","Latitude":"44.37440","Longitude":"-70.31620","Snowdepth":"8.000","Units":"in","Rept_Date":"2021-01-25 12"},"coordinates":[6157,5425]},{"type":"Point","properties":{"Station_ID":"ELWW3","Station_Nam":"ELLSWORTH 1E","Latitude":"44.73030","Longitude":"-92.45860","Snowdepth":"8.000","Units":"in","Rept_Date":"2021-01-25 13"},"coordinates":[1093,5646]},{"type":"Point","properties":{"Station_ID":"EJNM4","Station_Nam":"EAST JORDAN 2NW","Latitude":"45.18630","Longitude":"-85.14770","Snowdepth":"8.000","Units":"in","Rept_Date":"2021-01-25 13"},"coordinates":[2765,5930]},{"type":"Point","properties":{"Station_ID":"COUW3","Station_Nam":"COUDERAY,WI","Latitude":"45.86670","Longitude":"-91.45000","Snowdepth":"8.000","Units":"in","Rept_Date":"2021-01-25 22"},"coordinates":[1324,6353]},{"type":"Point","properties":{"Station_ID":"CLIW3","Station_Nam":"CLINTON,WI","Latitude":"42.60000","Longitude":"-88.88330","Snowdepth":"8.000","Units":"in","Rept_Date":"2021-01-25 14"},"coordinates":[1911,4321]},{"type":"Point","properties":{"Station_ID":"CLGM5","Station_Nam":"COLLEGEVILLE ST JOHN","Latitude":"45.57940","Longitude":"-94.39200","Snowdepth":"8.000","Units":"in","Rept_Date":"2021-01-26 00"},"coordinates":[651,6174]},{"type":"Point","properties":{"Station_ID":"CARM1","Station_Nam":"CARIBOU WFO","Latitude":"46.86810","Longitude":"-68.01250","Snowdepth":"8.000","Units":"in","Rept_Date":"2021-01-26 05"},"coordinates":[6684,6976]},{"type":"Point","properties":{"Station_ID":"CAN-ON-203","Station_Nam":"LUCKNOW 1.5 NNE - MVCA, CAN","Latitude":"43.97350","Longitude":"-81.50764","Snowdepth":"8.000","Units":"in","Rept_Date":"2021-01-25 13"},"coordinates":[3598,5175]},{"type":"Point","properties":{"Station_ID":"CAN-MB-56","Station_Nam":"WINNIPEG 7.6 ENE, CAN","Latitude":"49.93264","Longitude":"-97.04752","Snowdepth":"8.000","Units":"in","Rept_Date":"2021-01-25 14"},"coordinates":[44,8883]},{"type":"Point","properties":{"Station_ID":"BRLN3","Station_Nam":"BERLIN","Latitude":"44.45350","Longitude":"-71.18540","Snowdepth":"8.000","Units":"in","Rept_Date":"2021-01-25 12"},"coordinates":[5959,5474]},{"type":"Point","properties":{"Station_ID":"BLVI4","Station_Nam":"MISSISSIPPI RIVER","Latitude":"42.26670","Longitude":"-90.41670","Snowdepth":"8.000","Units":"in","Rept_Date":"2021-01-25 12"},"coordinates":[1560,4113]},{"type":"Point","properties":{"Station_ID":"BKEM5","Station_Nam":"BRECKENRIDGE 4NE","Latitude":"46.30470","Longitude":"-96.52170","Snowdepth":"8.000","Units":"in","Rept_Date":"2021-01-25 13"},"coordinates":[164,6626]},