{"type":"Topology","objects":{"snowdepth_geo":{"type":"GeometryCollection","name":"snowdepth","crs":{"type":"name","properties":{"name":"urn:ogc:def:crs:OGC:1.3:CRS84"}},"geometries":[{"type":"Point","properties":{"Station_ID":"PRKM4","Station_Nam":"MUNISING EAST","Latitude":"46.42580","Longitude":"-86.62000","Snowdepth":"76.500","Units":"in","Rept_Date":"2020-11-20 05"},"coordinates":[2548,5957]},{"type":"Point","properties":{"Station_ID":"QOU","Station_Nam":"QOU","Latitude":"50.79250","Longitude":"-69.67470","Snowdepth":"7.795","Units":"in","Rept_Date":"2020-11-19 12"},"coordinates":[7348,9287]},{"type":"Point","properties":{"Station_ID":"TRIQ6","Station_Nam":"TRIO LAKE","Latitude":"49.22880","Longitude":"-87.22920","Snowdepth":"7.200","Units":"in","Rept_Date":"2020-11-20 06"},"coordinates":[2376,8094]},{"type":"Point","properties":{"Station_ID":"CLQM5","Station_Nam":"CLOQUET","Latitude":"46.70470","Longitude":"-92.52530","Snowdepth":"7.000","Units":"in","Rept_Date":"2020-11-19 14"},"coordinates":[876,6170]},{"type":"Point","properties":{"Station_ID":"MFU","Station_Nam":"MFU","Latitude":"51.52170","Longitude":"-66.91110","Snowdepth":"6.024","Units":"in","Rept_Date":"2020-11-19 12"},"coordinates":[8131,9843]},{"type":"Point","properties":{"Station_ID":"MMNV1","Station_Nam":"MT. MANSFIELD","Latitude":"44.52480","Longitude":"-72.81540","Snowdepth":"6.000","Units":"in","Rept_Date":"2020-11-19 21"},"coordinates":[6458,4508]},{"type":"Point","properties":{"Station_ID":"QLB","Station_Nam":"QLB","Latitude":"50.72360","Longitude":"-75.10000","Snowdepth":"5.512","Units":"in","Rept_Date":"2020-11-19 12"},"coordinates":[5811,9234]},{"type":"Point","properties":{"Station_ID":"MLZ","Station_Nam":"MLZ","Latitude":"50.66170","Longitude":"-68.82360","Snowdepth":"5.512","Units":"in","Rept_Date":"2020-11-19 12"},"coordinates":[7589,9187]},{"type":"Point","properties":{"Station_ID":"QGT","Station_Nam":"QGT","Latitude":"49.64720","Longitude":"-67.62640","Snowdepth":"5.276","Units":"in","Rept_Date":"2020-11-19 12"},"coordinates":[7928,8413]},{"type":"Point","properties":{"Station_ID":"MWN","Station_Nam":"MOUNT WASHINGTON","Latitude":"44.26670","Longitude":"-71.30000","Snowdepth":"5.000","Units":"in","Rept_Date":"2020-11-19 12"},"coordinates":[6888,4311]},{"type":"Point","properties":{"Station_ID":"KMWN","Station_Nam":"MOUNT WASHINGTON","Latitude":"44.26666","Longitude":"-71.30000","Snowdepth":"5.000","Units":"in","Rept_Date":"2020-11-20 00"},"coordinates":[6888,4311]},{"type":"Point","properties":{"Station_ID":"DVLQ6","Station_Nam":"DEVIOUS LAKE","Latitude":"49.19890","Longitude":"-87.76440","Snowdepth":"4.330","Units":"in","Rept_Date":"2020-11-20 06"},"coordinates":[2224,8072]},{"type":"Point","properties":{"Station_ID":"WLFM5","Station_Nam":"WOLF RIDGE ENVIRON LEARNING CENTER","Latitude":"47.38240","Longitude":"-91.19730","Snowdepth":"4.000","Units":"in","Rept_Date":"2020-11-19 13"},"coordinates":[1252,6686]},{"type":"Point","properties":{"Station_ID":"WI-BY-29","Station_Nam":"BAYFIELD 5.1 NNW, WI","Latitude":"46.88063","Longitude":"-90.85854","Snowdepth":"4.000","Units":"in","Rept_Date":"2020-11-19 13"},"coordinates":[1348,6304]},{"type":"Point","properties":{"Station_ID":"MN-CN-36","Station_Nam":"CLOQUET 3.4 ENE, MN","Latitude":"46.74146","Longitude":"-92.42698","Snowdepth":"4.000","Units":"in","Rept_Date":"2020-11-19 13"},"coordinates":[903,6198]},{"type":"Point","properties":{"Station_ID":"CAN-NS-39","Station_Nam":"ST. ANNS 2.8 NW, CA","Latitude":"46.25082","Longitude":"-60.64340","Snowdepth":"4.000","Units":"in","Rept_Date":"2020-11-19 11"},"coordinates":[9906,5824]},{"type":"Point","properties":{"Station_ID":"BABM5","Station_Nam":"BABBITT","Latitude":"47.71210","Longitude":"-91.95330","Snowdepth":"4.000","Units":"in","Rept_Date":"2020-11-19 13"},"coordinates":[1038,6938]},{"type":"Point","properties":{"Station_ID":"AVLV1","Station_Nam":"AVERILL","Latitude":"45.00570","Longitude":"-71.69030","Snowdepth":"4.000","Units":"in","Rept_Date":"2020-11-19 13"},"coordinates":[6777,4874]},{"type":"Point","properties":{"Station_ID":"QGO","Station_Nam":"QGO","Latitude":"48.85500","Longitude":"-74.20640","Snowdepth":"3.740","Units":"in","Rept_Date":"2020-11-19 12"},"coordinates":[6064,7809]},{"type":"Point","properties":{"Station_ID":"QCX","Station_Nam":"QCX","Latitude":"51.32830","Longitude":"-70.08060","Snowdepth":"3.701","Units":"in","Rept_Date":"2020-11-19 12"},"coordinates":[7233,9695]},{"type":"Point","properties":{"Station_ID":"AUDQ6","Station_Nam":"AUDEN","Latitude":"48.52600","Longitude":"-82.57570","Snowdepth":"3.620","Units":"in","Rept_Date":"2020-11-20 06"},"coordinates":[3694,7558]},{"type":"Point","properties":{"Station_ID":"NY-ER-65","Station_Nam":"BOSTON 1.5 NE, NY","Latitude":"42.65470","Longitude":"-78.72010","Snowdepth":"3.500","Units":"in","Rept_Date":"2020-11-19 12"},"coordinates":[4786,3082]},{"type":"Point","properties":{"Station_ID":"NY-ER-166","Station_Nam":"BOSTON 2.5 NE, NY","Latitude":"42.65480","Longitude":"-78.70300","Snowdepth":"3.500","Units":"in","Rept_Date":"2020-11-19 12"},"coordinates":[4791,3082]},{"type":"Point","properties":{"Station_ID":"NY-CQ-39","Station_Nam":"GERRY 0.8 N, NY","Latitude":"42.20500","Longitude":"-79.24700","Snowdepth":"3.500","Units":"in","Rept_Date":"2020-11-19 13"},"coordinates":[4637,2739]},{"type":"Point","properties":{"Station_ID":"MN-KB-17","Station_Nam":"MORA 2.5 S, MN","Latitude":"45.84100","Longitude":"-93.29700","Snowdepth":"3.500","Units":"in","Rept_Date":"2020-11-19 13"},"coordinates":[657,5511]},{"type":"Point","properties":{"Station_ID":"PTLQ6","Station_Nam":"PORTAGE LAKE","Latitude":"49.06950","Longitude":"-86.65940","Snowdepth":"3.350","Units":"in","Rept_Date":"2020-11-20 06"},"coordinates":[2537,7973]},{"type":"Point","properties":{"Station_ID":"QLM","Station_Nam":"QLM","Latitude":"48.92030","Longitude":"-70.25280","Snowdepth":"3.110","Units":"in","Rept_Date":"2020-11-19 12"},"coordinates":[7184,7859]},{"type":"Point","properties":{"Station_ID":"CAN-PE-65","Station_Nam":"FORTUNE BRIDGE 0.9 SSE, CAN","Latitude":"46.34282","Longitude":"-62.37337","Snowdepth":"3.100","Units":"in","Rept_Date":"2020-11-19 13"},"coordinates":[9416,5894]},{"type":"Point","properties":{"Station_ID":"WRSM5","Station_Nam":"WRENSHALL","Latitude":"46.61550","Longitude":"-92.38380","Snowdepth":"3.000","Units":"in","Rept_Date":"2020-11-19 14"},"coordinates":[916,6102]},{"type":"Point","properties":{"Station_ID":"WI-IR-3","Station_Nam":"PENCE 0.1 E, WI","Latitude":"46.41555","Longitude":"-90.27013","Snowdepth":"3.000","Units":"in","Rept_Date":"2020-11-19 13"},"coordinates":[1514,5949]},{"type":"Point","properties":{"Station_ID":"VT-OL-12","Station_Nam":"GREENSBORO 3.9 NNE, VT","Latitude":"44.63100","Longitude":"-72.28000","Snowdepth":"3.000","Units":"in","Rept_Date":"2020-11-19 13"},"coordinates":[6610,4589]},{"type":"Point","properties":{"Station_ID":"OCON6","Station_Nam":"OSCEOLA","Latitude":"43.50370","Longitude":"-75.72170","Snowdepth":"3.000","Units":"in","Rept_Date":"2020-11-19 13"},"coordinates":[5635,3729]},{"type":"Point","properties":{"Station_ID":"NALN6","Station_Nam":"CATTARAUGUS","Latitude":"42.32450","Longitude":"-78.86700","Snowdepth":"3.000","Units":"in","Rept_Date":"2020-11-19 13"},"coordinates":[4744,2830]},{"type":"Point","properties":{"Station_ID":"JEFV1","Station_Nam":"JEFFERSONVILLE","Latitude":"44.58430","Longitude":"-72.78700","Snowdepth":"3.000","Units":"in","Rept_Date":"2020-11-19 12"},"coordinates":[6466,4553]},{"type":"Point","properties":{"Station_ID":"HURW3","Station_Nam":"HURLEY","Latitude":"46.46250","Longitude":"-90.19550","Snowdepth":"3.000","Units":"in","Rept_Date":"2020-11-19 14"},"coordinates":[1536,5985]},{"type":"Point","properties":{"Station_ID":"HGHN6","Station_Nam":"HIGHMARKET","Latitude":"43.60510","Longitude":"-75.55430","Snowdepth":"3.000","Units":"in","Rept_Date":"2020-11-19 11"},"coordinates":[5683,3806]},{"type":"Point","properties":{"Station_ID":"FISM1","Station_Nam":"FORT KENT COOP","Latitude":"47.23850","Longitude":"-68.61240","Snowdepth":"3.000","Units":"in","Rept_Date":"2020-11-19 12"},"coordinates":[7649,6577]},{"type":"Point","properties":{"Station_ID":"DLHM5","Station_Nam":"DULUTH NWS","Latitude":"46.83680","Longitude":"-92.21080","Snowdepth":"3.000","Units":"in","Rept_Date":"2020-11-20 06"},"coordinates":[965,6270]},{"type":"Point","properties":{"Station_ID":"DLH","Station_Nam":"DULUTH, MN","Latitude":"46.83690","Longitude":"-92.21030","Snowdepth":"3.000","Units":"in","Rept_Date":"2020-11-20 00"},"coordinates":[965,6271]},{"type":"Point","properties":{"Station_ID":"COTM5","Station_Nam":"COTTON","Latitude":"47.16870","Longitude":"-92.46290","Snowdepth":"3.000","Units":"in","Rept_Date":"2020-11-19 12"},"coordinates":[893,6524]},{"type":"Point","properties":{"Station_ID":"BRMM5","Station_Nam":"BRIMSON 2S","Latitude":"47.24720","Longitude":"-91.86240","Snowdepth":"3.000","Units":"in","Rept_Date":"2020-11-20 01"},"coordinates":[1063,6583]},{"type":"Point","properties":{"Station_ID":"BNDM5","Station_Nam":"ELY 25E","Latitude":"47.97190","Longitude":"-91.44860","Snowdepth":"3.000","Units":"in","Rept_Date":"2020-11-19 13"},"coordinates":[1181,7136]},{"type":"Point","properties":{"Station_ID":"BKBW2","Station_Nam":"DAVIS.","Latitude":"39.09830","Longitude":"-79.43190","Snowdepth":"3.000","Units":"in","Rept_Date":"2020-11-19 12"},"coordinates":[4584,370]},{"type":"Point","properties":{"Station_ID":"QTV","Station_Nam":"QTV","Latitude":"49.66000","Longitude":"-69.35690","Snowdepth":"2.874","Units":"in","Rept_Date":"2020-11-19 12"},"coordinates":[7438,8423]},{"type":"Point","properties":{"Station_ID":"FTHQ6","Station_Nam":"FORT HOPE","Latitude":"51.55820","Longitude":"-87.90510","Snowdepth":"2.870","Units":"in","Rept_Date":"2020-11-20 06"},"coordinates":[2184,9870]},{"type":"Point","properties":{"Station_ID":"QMD","Station_Nam":"QMD","Latitude":"49.29060","Longitude":"-75.84500","Snowdepth":"2.835","Units":"in","Rept_Date":"2020-11-19 12"},"coordinates":[5600,8141]},{"type":"Point","properties":{"Station_ID":"WI-SR-1","Station_Nam":"HAYWARD 9.2 NNE, WI","Latitude":"46.13255","Longitude":"-91.40500","Snowdepth":"2.700","Units":"in","Rept_Date":"2020-11-19 12"},"coordinates":[1193,5734]},{"type":"Point","properties":{"Station_ID":"CAN-NS-74","Station_Nam":"BADDECK FORKS 2.5 E, CAN","Latitude":"46.18550","Longitude":"-60.73426","Snowdepth":"2.700","Units":"in","Rept_Date":"2020-11-19 11"},"coordinates":[9880,5774]},{"type":"Point","properties":{"Station_ID":"QCO","Station_Nam":"QCO","Latitude":"51.45280","Longitude":"-72.20110","Snowdepth":"2.520","Units":"in","Rept_Date":"2020-11-19 12"},"coordinates":[6632,9790]},{"type":"Point","properties":{"Station_ID":"WI-BY-22","Station_Nam":"MASON 11.5 WNW, WI","Latitude":"46.50198","Longitude":"-91.28339","Snowdepth":"2.500","Units":"in","Rept_Date":"2020-11-19 14"},"coordinates":[1227,6015]},{"type":"Point","properties":{"Station_ID":"NY-TM-42","Station_Nam":"ITHACA 6.4 E, NY","Latitude":"42.43350","Longitude":"-76.37860","Snowdepth":"2.500","Units":"in","Rept_Date":"2020-11-19 12"},"coordinates":[5449,2913]},{"type":"Point","properties":{"Station_ID":"NY-TM-18","Station_Nam":"EAST ITHACA 4.7 E, NY","Latitude":"42.41910","Longitude":"-76.37330","Snowdepth":"2.500","Units":"in","Rept_Date":"2020-11-19 12"},"coordinates":[5451,2902]},{"type":"Point","properties":{"Station_ID":"NY-TG-15","Station_Nam":"BERKSHIRE 1.9 ENE, NY","Latitude":"42.31910","Longitude":"-76.21940","Snowdepth":"2.500","Units":"in","Rept_Date":"2020-11-19 13"},"coordinates":[5494,2826]},{"type":"Point","properties":{"Station_ID":"NY-OD-2","Station_Nam":"POINT ROCK 0.6 SE, NY","Latitude":"43.37335","Longitude":"-75.53840","Snowdepth":"2.500","Units":"in","Rept_Date":"2020-11-19 12"},"coordinates":[5687,3630]},{"type":"Point","properties":{"Station_ID":"NY-ER-77","Station_Nam":"COLDEN 2.4 ENE, NY","Latitude":"42.65088","Longitude":"-78.61060","Snowdepth":"2.500","Units":"in","Rept_Date":"2020-11-19 13"},"coordinates":[4817,3079]},{"type":"Point","properties":{"Station_ID":"NY-CT-32","Station_Nam":"SALAMANCA 1.5 E, NY","Latitude":"42.16730","Longitude":"-78.69277","Snowdepth":"2.500","Units":"in","Rept_Date":"2020-11-19 12"},"coordinates":[4794,2710]},{"type":"Point","properties":{"Station_ID":"MN-SL-108","Station_Nam":"IRON JUNCTION 3.4 NNW, MN","Latitude":"47.46150","Longitude":"-92.63130","Snowdepth":"2.500","Units":"in","Rept_Date":"2020-11-19 13"},"coordinates":[846,6747]},{"type":"Point","properties":{"Station_ID":"ME-AR-18","Station_Nam":"NEW SWEDEN 4.9 NNW, ME","Latitude":"47.01080","Longitude":"-68.14390","Snowdepth":"2.500","Units":"in","Rept_Date":"2020-11-19 12"},"coordinates":[7782,6403]},{"type":"Point","properties":{"Station_ID":"CAN-ON-245","Station_Nam":"PHELPSTON 3.1 ESE, CAN","Latitude":"44.50564","Longitude":"-79.81035","Snowdepth":"2.500","Units":"in","Rept_Date":"2020-11-19 13"},"coordinates":[4477,4493]},{"type":"Point","properties":{"Station_ID":"KABQ6","Station_Nam":"CAB LAKE","Latitude":"49.59950","Longitude":"-89.17990","Snowdepth":"2.480","Units":"in","Rept_Date":"2020-11-20 06"},"coordinates":[1823,8377]},{"type":"Point","properties":{"Station_ID":"CAN-PE-43","Station_Nam":"GLENCOE 0.3 W, CAN","Latitude":"46.20115","Longitude":"-62.81740","Snowdepth":"2.400","Units":"in","Rept_Date":"2020-11-19 12"},"coordinates":[9290,5786]},{"type":"Point","properties":{"Station_ID":"OGIQ6","Station_Nam":"OGOKI CAMP","Latitude":"50.76680","Longitude":"-87.85820","Snowdepth":"2.360","Units":"in","Rept_Date":"2020-11-20 06"},"coordinates":[2198,9267]},{"type":"Point","properties":{"Station_ID":"QTM","Station_Nam":"QTM","Latitude":"51.05780","Longitude":"-72.57190","Snowdepth":"2.323","Units":"in","Rept_Date":"2020-11-19 12"},"coordinates":[6527,9489]},{"type":"Point","properties":{"Station_ID":"QMA","Station_Nam":"QMA","Latitude":"50.10330","Longitude":"-70.47190","Snowdepth":"2.323","Units":"in","Rept_Date":"2020-11-19 12"},"coordinates":[7122,8761]},{"type":"Point","properties":{"Station_ID":"NY-OD-43","Station_Nam":"HOLLAND PATENT 1.1 WNW, NY","Latitude":"43.24707","Longitude":"-75.27750","Snowdepth":"2.200","Units":"in","Rept_Date":"2020-11-19 12"},"coordinates":[5761,3533]},{"type":"Point","properties":{"Station_ID":"QGD","Station_Nam":"QGD","Latitude":"51.11140","Longitude":"-67.13940","Snowdepth":"2.008","Units":"in","Rept_Date":"2020-11-19 12"},"coordinates":[8066,9530]},{"type":"Point","properties":{"Station_ID":"WRSN6","Station_Nam":"WARSAW 6SW","Latitude":"42.68550","Longitude":"-78.22020","Snowdepth":"2.000","Units":"in","Rept_Date":"2020-11-19 12"},"coordinates":[4927,3105]},{"type":"Point","properties":{"Station_ID":"WRIM5","Station_Nam":"WRIGHT 3E","Latitude":"46.68040","Longitude":"-92.95420","Snowdepth":"2.000","Units":"in","Rept_Date":"2020-11-19 12"},"coordinates":[754,6151]},{"type":"Point","properties":{"Station_ID":"WORV1","Station_Nam":"WORCESTER 2 W","Latitude":"44.37470","Longitude":"-72.58220","Snowdepth":"2.000","Units":"in","Rept_Date":"2020-11-19 12"},"coordinates":[6524,4393]},{"type":"Point","properties":{"Station_ID":"WI-WB-2","Station_Nam":"STONE LAKE 2.0 NW, WI","Latitude":"45.85960","Longitude":"-91.57710","Snowdepth":"2.000","Units":"in","Rept_Date":"2020-11-19 13"},"coordinates":[1144,5525]},{"type":"Point","properties":{"Station_ID":"WI-BY-14","Station_Nam":"ASHLAND 9.8 W, WI","Latitude":"46.59742","Longitude":"-91.07856","Snowdepth":"2.000","Units":"in","Rept_Date":"2020-11-19 12"},"coordinates":[1285,6088]},{"type":"Point","properties":{"Station_ID":"WALN6","Station_Nam":"WALTON 2","Latitude":"42.18470","Longitude":"-75.14550","Snowdepth":"2.000","Units":"in","Rept_Date":"2020-11-19 10"},"coordinates":[5798,2723]},{"type":"Point","properties":{"Station_ID":"VT-WS-30","Station_Nam":"WOODBURY 3.4 NNW, VT","Latitude":"44.48825","Longitude":"-72.43258","Snowdepth":"2.000","Units":"in","Rept_Date":"2020-11-19 12"},"coordinates":[6567,4480]},{"type":"Point","properties":{"Station_ID":"VT-OL-1","Station_Nam":"WESTFIELD 0.7 WNW, VT","Latitude":"44.89160","Longitude":"-72.44350","Snowdepth":"2.000","Units":"in","Rept_Date":"2020-11-19 12"},"coordinates":[6564,4787]},{"type":"Point","properties":{"Station_ID":"VT-CH-11","Station_Nam":"UNDERHILL 5.1 NNE, VT","Latitude":"44.59811","Longitude":"-72.91880","Snowdepth":"2.000","Units":"in","Rept_Date":"2020-11-19 14"},"coordinates":[6429,4564]},{"type":"Point","properties":{"Station_ID":"SSMM4","Station_Nam":"SAULT STE MARIE","Latitude":"46.48660","Longitude":"-84.40250","Snowdepth":"2.000","Units":"in","Rept_Date":"2020-11-19 13"},"coordinates":[3176,6003]},{"type":"Point","properties":{"Station_ID":"SLNV1","Station_Nam":"SOUTH LINCOLN","Latitude":"44.07460","Longitude":"-72.97180","Snowdepth":"2.000","Units":"in","Rept_Date":"2020-11-19 12"},"coordinates":[6414,4164]},{"type":"Point","properties":{"Station_ID":"RHAN6","Station_Nam":"ALLEGANY STATE PARK","Latitude":"42.10030","Longitude":"-78.74970","Snowdepth":"2.000","Units":"in","Rept_Date":"2020-11-19 12"},"coordinates":[4777,2659]},{"type":"Point","properties":{"Station_ID":"PDLM4","Station_Nam":"PAINESDALE","Latitude":"47.04160","Longitude":"-88.67170","Snowdepth":"2.000","Units":"in","Rept_Date":"2020-11-19 13"},"coordinates":[1967,6427]},{"type":"Point","properties":{"Station_ID":"PDGM4","Station_Nam":"PAULDING","Latitude":"46.39760","Longitude":"-89.17940","Snowdepth":"2.000","Units":"in","Rept_Date":"2020-11-19 13"},"coordinates":[1823,5936]},{"type":"Point","properties":{"Station_ID":"PA-PT-2","Station_Nam":"ROULETTE 1.8 NNE, PA","Latitude":"41.80759","Longitude":"-78.14140","Snowdepth":"2.000","Units":"in","Rept_Date":"2020-11-19 12"},"coordinates":[4950,2436]},{"type":"Point","properties":{"Station_ID":"NY-TM-36","Station_Nam":"ITHACA 2.0 ESE, NY","Latitude":"42.42932","Longitude":"-76.46871","Snowdepth":"2.000","Units":"in","Rept_Date":"2020-11-19 12"},"coordinates":[5424,2910]},{"type":"Point","properties":{"Station_ID":"NY-OS-38","Station_Nam":"MEXICO COOP, NY","Latitude":"43.43830","Longitude":"-76.26570","Snowdepth":"2.000","Units":"in","Rept_Date":"2020-11-19 12"},"coordinates":[5481,3679]},{"type":"Point","properties":{"Station_ID":"NY-HR-18","Station_Nam":"SALISBURY CENTER 1.8 NW, NY","Latitude":"43.16260","Longitude":"-74.80880","Snowdepth":"2.000","Units":"in","Rept_Date":"2020-11-19 11"},"coordinates":[5894,3469]},{"type":"Point","properties":{"Station_ID":"NY-ER-56","Station_Nam":"COLDEN 1.4 NNW, NY","Latitude":"42.64740","Longitude":"-78.71120","Snowdepth":"2.000","Units":"in","Rept_Date":"2020-11-19 12"},"coordinates":[4788,3076]},{"type":"Point","properties":{"Station_ID":"NY-ER-194","Station_Nam":"GLENWOOD 1.0 SE, NY","Latitude":"42.60740","Longitude":"-78.64610","Snowdepth":"2.000","Units":"in","Rept_Date":"2020-11-19 12"},"coordinates":[4807,3046]},{"type":"Point","properties":{"Station_ID":"MXON6","Station_Nam":"MEXICO","Latitude":"43.43830","Longitude":"-76.26560","Snowdepth":"2.000","Units":"in","Rept_Date":"2020-11-19 12"},"coordinates":[5481,3679]},{"type":"Point","properties":{"Station_ID":"MN-SL-15","Station_Nam":"CHISHOLM 0.4 WSW, MN","Latitude":"47.48557","Longitude":"-92.88690","Snowdepth":"2.000","Units":"in","Rept_Date":"2020-11-19 13"},"coordinates":[773,6765]},{"type":"Point","properties":{"Station_ID":"MN-CW-22","Station_Nam":"FORT RIPLEY 0.8 N, MN","Latitude":"46.18089","Longitude":"-94.36510","Snowdepth":"2.000","Units":"in","Rept_Date":"2020-11-19 13"},"coordinates":[354,5770]},{"type":"Point","properties":{"Station_ID":"MIEM4","Station_Nam":"MICHIGAMME 3WNW","Latitude":"46.54530","Longitude":"-88.18000","Snowdepth":"2.000","Units":"in","Rept_Date":"2020-11-19 13"},"coordinates":[2106,6048]},{"type":"Point","properties":{"Station_ID":"MI-BG-3","Station_Nam":"THREE LAKES, MI","Latitude":"46.55730","Longitude":"-88.20770","Snowdepth":"2.000","Units":"in","Rept_Date":"2020-11-19 13"},"coordinates":[2099,6057]},{"type":"Point","properties":{"Station_ID":"IWOM4","Station_Nam":"IRONWOOD#2","Latitude":"46.46520","Longitude":"-90.13820","Snowdepth":"2.000","Units":"in","Rept_Date":"2020-11-19 13"},"coordinates":[1552,5987]},{"type":"Point","properties":{"Station_ID":"ITHN6","Station_Nam":"ITHACA,NY","Latitude":"42.45000","Longitude":"-76.45000","Snowdepth":"2.000","Units":"in","Rept_Date":"2020-11-19 12"},"coordinates":[5429,2926]},{"type":"Point","properties":{"Station_ID":"IRMM4","Station_Nam":"WWTP","Latitude":"46.46670","Longitude":"-90.18330","Snowdepth":"2.000","Units":"in","Rept_Date":"2020-11-19 13"},"coordinates":[1539,5988]},{"type":"Point","properties":{"Station_ID":"HERM4","Station_Nam":"HERMAN,MI","Latitude":"46.65000","Longitude":"-88.33330","Snowdepth":"2.000","Units":"in","Rept_Date":"2020-11-19 13"},"coordinates":[2063,6128]},{"type":"Point","properties":{"Station_ID":"COKM5","Station_Nam":"COOK","Latitude":"47.85060","Longitude":"-92.69250","Snowdepth":"2.000","Units":"in","Rept_Date":"2020-11-19 12"},"coordinates":[828,7043]},{"type":"Point","properties":{"Station_ID":"CODN6","Station_Nam":"COLDEN","Latitude":"42.64720","Longitude":"-78.71110","Snowdepth":"2.000","Units":"in","Rept_Date":"2020-11-19 12"},"coordinates":[4788,3076]},{"type":"Point","properties":{"Station_ID":"CAAW2","Station_Nam":"CANAAN VALLEY","Latitude":"39.05890","Longitude":"-79.44030","Snowdepth":"2.000","Units":"in","Rept_Date":"2020-11-19 14"},"coordinates":[4582,340]},{"type":"Point","properties":{"Station_ID":"BRAM5","Station_Nam":"BRAINERD","Latitude":"46.34320","Longitude":"-94.20900","Snowdepth":"2.000","Units":"in","Rept_Date":"2020-11-19 13"},"coordinates":[399,5894]},{"type":"Point","properties":{"Station_ID":"ANJM4","Station_Nam":"SNOW PAID OBSERVER FOR KANJ","Latitude":"46.48670","Longitude":"-84.40260","Snowdepth":"2.000","Units":"in","Rept_Date":"2020-11-19 18"},"coordinates":[3176,6004]},{"type":"Point","properties":{"Station_ID":"ANJ","Station_Nam":"SAULT STE MARIE","Latitude":"46.46670","Longitude":"-84.36670","Snowdepth":"2.000","Units":"in","Rept_Date":"2020-11-20 00"},"coordinates":[3186,5988]},{"type":"Point","properties":{"Station_ID":"QIQ","Station_Nam":"QIQ","Latitude":"49.82390","Longitude":"-68.54310","Snowdepth":"1.850","Units":"in","Rept_Date":"2020-11-19 12"},"coordinates":[7668,8548]},{"type":"Point","properties":{"Station_ID":"QGA","Station_Nam":"QGA","Latitude":"47.25640","Longitude":"-73.73810","Snowdepth":"1.850","Units":"in","Rept_Date":"2020-11-19 12"},"coordinates":[6197,6590]},{"type":"Point","properties":{"Station_ID":"VT-WS-33","Station_Nam":"WAITSFIELD 3.5 WNW, VT","Latitude":"44.20052","Longitude":"-72.89421","Snowdepth":"1.800","Units":"in","Rept_Date":"2020-11-19 13"},"coordinates":[6436,4260]},{"type":"Point","properties":{"Station_ID":"SVBQ6","Station_Nam":"SAVANT BASE","Latitude":"50.28730","Longitude":"-90.65670","Snowdepth":"1.770","Units":"in","Rept_Date":"2020-11-20 06"},"coordinates":[1405,8901]},{"type":"Point","properties":{"Station_ID":"SOCQ6","Station_Nam":"SOCKET LAKE","Latitude":"50.77870","Longitude":"-91.79300","Snowdepth":"1.770","Units":"in","Rept_Date":"2020-11-20 06"},"coordinates":[1083,9276]},{"type":"Point","properties":{"Station_ID":"QLI","Station_Nam":"QLI","Latitude":"50.27080","Longitude":"-73.92280","Snowdepth":"1.614","Units":"in","Rept_Date":"2020-11-19 12"},"coordinates":[6145,8889]},{"type":"Point","properties":{"Station_ID":"WI-BY-6","Station_Nam":"BARNES 2.2 S, WI","Latitude":"46.30264","Longitude":"-91.50320","Snowdepth":"1.500","Units":"in","Rept_Date":"2020-11-19 13"},"coordinates":[1165,5863]},{"type":"Point","properties":{"Station_ID":"VT-WS-11","Station_Nam":"WAITSFIELD 1.8 SE, VT","Latitude":"44.17551","Longitude":"-72.79540","Snowdepth":"1.500","Units":"in","Rept_Date":"2020-11-19 12"},"coordinates":[6464,4241]},{"type":"Point","properties":{"Station_ID":"NY-TG-26","Station_Nam":"CANDOR 0.7 NW, NY","Latitude":"42.23428","Longitude":"-76.34758","Snowdepth":"1.500","Units":"in","Rept_Date":"2020-11-19 12"},"coordinates":[5458,2761]},{"type":"Point","properties":{"Station_ID":"NY-CQ-34","Station_Nam":"KENNEDY 2.6 SE, NY","Latitude":"42.12567","Longitude":"-79.07235","Snowdepth":"1.500","Units":"in","Rept_Date":"2020-11-19 13"},"coordinates":[4686,2678]},{"type":"Point","properties":{"Station_ID":"NY-AB-54","Station_Nam":"ALTAMONT 2.9 SW, NY","Latitude":"42.68182","Longitude":"-74.08326","Snowdepth":"1.500","Units":"in","Rept_Date":"2020-11-19 12"},"coordinates":[6099,3102]},{"type":"Point","properties":{"Station_ID":"NY-AB-1","Station_Nam":"ALTAMONT 2.7 SSW, NY","Latitude":"42.66696","Longitude":"-74.05090","Snowdepth":"1.500","Units":"in","Rept_Date":"2020-11-19 12"},"coordinates":[6108,3091]},{"type":"Point","properties":{"Station_ID":"NH-CS-10","Station_Nam":"RANDOLPH 1.4 NE, NH","Latitude":"44.38824","Longitude":"-71.26950","Snowdepth":"1.500","Units":"in","Rept_Date":"2020-11-19 12"},"coordinates":[6896,4404]},{"type":"Point","properties":{"Station_ID":"CATQ6","Station_Nam":"CAT LAKE","Latitude":"51.72690","Longitude":"-91.82210","Snowdepth":"1.460","Units":"in","Rept_Date":"2020-11-20 06"},"coordinates":[1075,9999]},{"type":"Point","properties":{"Station_ID":"QYR","Station_Nam":"QYR","Latitude":"48.87220","Longitude":"-75.61470","Snowdepth":"1.417","Units":"in","Rept_Date":"2020-11-19 12"},"coordinates":[5665,7822]},{"type":"Point","properties":{"Station_ID":"CAN-ON-620","Station_Nam":"GOODERHAM 3.4 SSW, CAN","Latitude":"44.87690","Longitude":"-78.39265","Snowdepth":"1.200","Units":"in","Rept_Date":"2020-11-19 12"},"coordinates":[4879,4776]},{"type":"Point","properties":{"Station_ID":"CAN-ON-526","Station_Nam":"HILTON BEACH 0.7 SW - MNRF, CAN","Latitude":"46.25357","Longitude":"-83.90014","Snowdepth":"1.200","Units":"in","Rept_Date":"2020-11-19 12"},"coordinates":[3319,5826]},{"type":"Point","properties":{"Station_ID":"CAN-NS-171","Station_Nam":"PICTOU LANDING 0.2 S, CAN","Latitude":"45.66606","Longitude":"-62.68673","Snowdepth":"1.200","Units":"in","Rept_Date":"2020-11-19 11"},"coordinates":[9327,5378]},{"type":"Point","properties":{"Station_ID":"CAN-NS-175","Station_Nam":"NEW GLASGOW 1.4 WNW, CAN","Latitude":"45.59057","Longitude":"-62.65963","Snowdepth":"1.100","Units":"in","Rept_Date":"2020-11-19 11"},"coordinates":[9335,5320]},{"type":"Point","properties":{"Station_ID":"QWG","Station_Nam":"QWG","Latitude":"48.48890","Longitude":"-73.45940","Snowdepth":"1.063","Units":"in","Rept_Date":"2020-11-19 12"},"coordinates":[6276,7530]},{"type":"Point","properties":{"Station_ID":"WTRW3","Station_Nam":"WINTER","Latitude":"45.79920","Longitude":"-90.99470","Snowdepth":"1.000","Units":"in","Rept_Date":"2020-11-19 15"},"coordinates":[1309,5479]},{"type":"Point","properties":{"Station_ID":"WSTN6","Station_Nam":"WESTMORELAND 4 N","Latitude":"43.15950","Longitude":"-75.46110","Snowdepth":"1.000","Units":"in","Rept_Date":"2020-11-19 12"},"coordinates":[5709,3467]},{"type":"Point","properties":{"Station_ID":"WORM3","Station_Nam":"WORTHINGTON","Latitude":"42.38690","Longitude":"-72.92100","Snowdepth":"1.000","Units":"in","Rept_Date":"2020-11-19 12"},"coordinates":[6428,2878]},{"type":"Point","properties":{"Station_ID":"WNDP1","Station_Nam":"WINDBER COUNTY CLUB","Latitude":"40.28780","Longitude":"-78.77530","Snowdepth":"1.000","Units":"in","Rept_Date":"2020-11-19 12"},"coordinates":[4770,1277]},{"type":"Point","properties":{"Station_ID":"WI-PR-2","Station_Nam":"BUTTERNUT 5.9 SW, WI","Latitude":"45.96501","Longitude":"-90.59750","Snowdepth":"1.000","Units":"in","Rept_Date":"2020-11-19 12"},"coordinates":[1422,5606]},{"type":"Point","properties":{"Station_ID":"WI-DG-20","Station_Nam":"SOLON SPRINGS 1.2 W, WI","Latitude":"46.35217","Longitude":"-91.84405","Snowdepth":"1.000","Units":"in","Rept_Date":"2020-11-19 13"},"coordinates":[1069,5901]},{"type":"Point","properties":{"Station_ID":"WI-BY-1","Station_Nam":"BAYFIELD 8.8 N, WI","Latitude":"46.93855","Longitude":"-90.83490","Snowdepth":"1.000","Units":"in","Rept_Date":"2020-11-19 13"},"coordinates":[1354,6348]},{"type":"Point","properties":{"Station_ID":"WI-BT-14","Station_Nam":"OAKLAND 9.0 ENE, WI","Latitude":"45.95184","Longitude":"-92.21653","Snowdepth":"1.000","Units":"in","Rept_Date":"2020-11-19 13"},"coordinates":[963,5596]},{"type":"Point","properties":{"Station_ID":"WHFN6","Station_Nam":"WILMINGTON 2W","Latitude":"44.39310","Longitude":"-73.85890","Snowdepth":"1.000","Units":"in","Rept_Date":"2020-11-19 13"},"coordinates":[6163,4407]},{"type":"Point","properties":{"Station_ID":"WAIV1","Station_Nam":"WAITSFIELD","Latitude":"44.17560","Longitude":"-72.79610","Snowdepth":"1.000","Units":"in","Rept_Date":"2020-11-19 12"},"coordinates":[6464,4241]},{"type":"Point","properties":{"Station_ID":"VT-WS-19","Station_Nam":"WATERBURY 3.0 NW, VT","Latitude":"44.36060","Longitude":"-72.80770","Snowdepth":"1.000","Units":"in","Rept_Date":"2020-11-19 11"},"coordinates":[6461,4382]},{"type":"Point","properties":{"Station_ID":"VT-OL-2","Station_Nam":"BARTON 3.0 ENE, VT","Latitude":"44.75863","Longitude":"-72.11680","Snowdepth":"1.000","Units":"in","Rept_Date":"2020-11-19 12"},"coordinates":[6656,4686]},{"type":"Point","properties":{"Station_ID":"VT-CL-14","Station_Nam":"LYNDONVILLE 1.1 W, VT","Latitude":"44.53582","Longitude":"-72.02867","Snowdepth":"1.000","Units":"in","Rept_Date":"2020-11-19 12"},"coordinates":[6681,4516]},{"type":"Point","properties":{"Station_ID":"VT-CH-4","Station_Nam":"UNDERHILL 4.4 NNE, VT","Latitude":"44.58774","Longitude":"-72.92250","Snowdepth":"1.000","Units":"in","Rept_Date":"2020-11-19 12"},"coordinates":[6428,4556]},{"type":"Point","properties":{"Station_ID":"TSVP1","Station_Nam":"TITUSVILLE,PA","Latitude":"41.63330","Longitude":"-79.70000","Snowdepth":"1.000","Units":"in","Rept_Date":"2020-11-19 12"},"coordinates":[4508,2303]},{"type":"Point","properties":{"Station_ID":"TOPN6","Station_Nam":"TUPPER LAKE SUNMOUNT","Latitude":"44.23070","Longitude":"-74.43820","Snowdepth":"1.000","Units":"in","Rept_Date":"2020-11-19 12"},"coordinates":[5999,4283]},{"type":"Point","properties":{"Station_ID":"SUTV1","Station_Nam":"SUTTON","Latitude":"44.61220","Longitude":"-72.04810","Snowdepth":"1.000","Units":"in","Rept_Date":"2020-11-19 13"},"coordinates":[6676,4574]},{"type":"Point","properties":{"Station_ID":"SUAW3","Station_Nam":"SUAMICO","Latitude":"44.60190","Longitude":"-88.09780","Snowdepth":"1.000","Units":"in","Rept_Date":"2020-11-19 12"},"coordinates":[2130,4566]},{"type":"Point","properties":{"Station_ID":"PRDM4","Station_Nam":"PARADISE","Latitude":"46.60380","Longitude":"-85.03960","Snowdepth":"1.000","Units":"in","Rept_Date":"2020-11-19 11"},"coordinates":[2996,6093]},{"type":"Point","properties":{"Station_ID":"PLFV1","Station_Nam":"PLAINFIELD","Latitude":"44.27610","Longitude":"-72.41500","Snowdepth":"1.000","Units":"in","Rept_Date":"2020-11-19 12"},"coordinates":[6572,4318]},{"type":"Point","properties":{"Station_ID":"OKLM2","Station_Nam":"DEEP CREEK LAKE","Latitude":"39.52420","Longitude":"-79.41170","Snowdepth":"1.000","Units":"in","Rept_Date":"2020-11-19 11"},"coordinates":[4590,695]},{"type":"Point","properties":{"Station_ID":"NY-OT-11","Station_Nam":"HARTWICK, NY","Latitude":"42.65990","Longitude":"-75.05000","Snowdepth":"1.000","Units":"in","Rept_Date":"2020-11-19 14"},"coordinates":[5825,3086]},{"type":"Point","properties":{"Station_ID":"NY-OG-61","Station_Nam":"SKANEATELES 0.8 NNW, NY","Latitude":"42.95538","Longitude":"-76.43362","Snowdepth":"1.000","Units":"in","Rept_Date":"2020-11-19 12"},"coordinates":[5434,3311]},{"type":"Point","properties":{"Station_ID":"NY-OD-23","Station_Nam":"DURHAMVILLE 3.5 NNW, NY","Latitude":"43.17115","Longitude":"-75.68280","Snowdepth":"1.000","Units":"in","Rept_Date":"2020-11-19 12"},"coordinates":[5646,3476]},{"type":"Point","properties":{"Station_ID":"NY-LV-5","Station_Nam":"DANSVILLE 1.0 ENE, NY","Latitude":"42.56802","Longitude":"-77.67900","Snowdepth":"1.000","Units":"in","Rept_Date":"2020-11-19 12"},"coordinates":[5081,3016]},{"type":"Point","properties":{"Station_ID":"NY-ER-63","Station_Nam":"GLENWOOD 1.5 SE, NY","Latitude":"42.60195","Longitude":"-78.63910","Snowdepth":"1.000","Units":"in","Rept_Date":"2020-11-19 12"},"coordinates":[4809,3042]},{"type":"Point","properties":{"Station_ID":"NY-DL-32","Station_Nam":"DELHI 6.6 WNW, NY","Latitude":"42.32118","Longitude":"-75.02991","Snowdepth":"1.000","Units":"in","Rept_Date":"2020-11-19 12"},"coordinates":[5831,2828]},{"type":"Point","properties":{"Station_ID":"NY-CR-5","Station_Nam":"MARATHON 1.0 NW, NY","Latitude":"42.45161","Longitude":"-76.04370","Snowdepth":"1.000","Units":"in","Rept_Date":"2020-11-19 12"},"coordinates":[5544,2927]},{"type":"Point","properties":{"Station_ID":"NY-CR-1","Station_Nam":"FREETOWN 1.0 NE, NY","Latitude":"42.53299","Longitude":"-76.02111","Snowdepth":"1.000","Units":"in","Rept_Date":"2020-11-19 12"},"coordinates":[5550,2989]},{"type":"Point","properties":{"Station_ID":"NY-CN-9","Station_Nam":"NORWICH 5.4 W, NY","Latitude":"42.53356","Longitude":"-75.63060","Snowdepth":"1.000","Units":"in","Rept_Date":"2020-11-19 12"},"coordinates":[5661,2989]},{"type":"Point","properties":{"Station_ID":"NVLV1","Station_Nam":"NASHVILLE","Latitude":"44.44970","Longitude":"-72.92640","Snowdepth":"1.000","Units":"in","Rept_Date":"2020-11-19 12"},"coordinates":[6427,4450]},{"type":"Point","properties":{"Station_ID":"NUNV1","Station_Nam":"NORTH UNDERHILL","Latitude":"44.58760","Longitude":"-72.92150","Snowdepth":"1.000","Units":"in","Rept_Date":"2020-11-19 12"},"coordinates":[6428,4556]},{"type":"Point","properties":{"Station_ID":"NH-CS-19","Station_Nam":"CARROLL 4.6 NE, NH","Latitude":"44.33765","Longitude":"-71.46461","Snowdepth":"1.000","Units":"in","Rept_Date":"2020-11-19 12"},"coordinates":[6841,4365]},{"type":"Point","properties":{"Station_ID":"MRAM5","Station_Nam":"MORA","Latitude":"45.87760","Longitude":"-93.31470","Snowdepth":"1.000","Units":"in","Rept_Date":"2020-11-19 13"},"coordinates":[652,5539]},{"type":"Point","properties":{"Station_ID":"MNSM4","Station_Nam":"MUNISING","Latitude":"46.41210","Longitude":"-86.66250","Snowdepth":"1.000","Units":"in","Rept_Date":"2020-11-19 11"},"coordinates":[2536,5947]},{"type":"Point","properties":{"Station_ID":"MN-SL-115","Station_Nam":"COTTON 5.7 ESE, MN","Latitude":"47.15142","Longitude":"-92.35772","Snowdepth":"1.000","Units":"in","Rept_Date":"2020-11-19 14"},"coordinates":[923,6510]},{"type":"Point","properties":{"Station_ID":"MN-MR-4","Station_Nam":"LITTLE FALLS 1.2 SW, MN","Latitude":"45.96886","Longitude":"-94.37720","Snowdepth":"1.000","Units":"in","Rept_Date":"2020-11-19 13"},"coordinates":[351,5609]},{"type":"Point","properties":{"Station_ID":"MN-IT-1","Station_Nam":"GRAND RAPIDS 2.0 E, MN","Latitude":"47.22266","Longitude":"-93.49600","Snowdepth":"1.000","Units":"in","Rept_Date":"2020-11-19 14"},"coordinates":[601,6565]},{"type":"Point","properties":{"Station_ID":"MN-CW-29","Station_Nam":"BRAINERD 7.7 SSE, MN","Latitude":"46.24996","Longitude":"-94.14576","Snowdepth":"1.000","Units":"in","Rept_Date":"2020-11-19 13"},"coordinates":[417,5823]},{"type":"Point","properties":{"Station_ID":"MN-CK-6","Station_Nam":"GRAND MARAIS 4.4 W, MN","Latitude":"47.74865","Longitude":"-90.43760","Snowdepth":"1.000","Units":"in","Rept_Date":"2020-11-19 13"},"coordinates":[1467,6966]},{"type":"Point","properties":{"Station_ID":"MN-CK-3","Station_Nam":"TOFTE 4.9 NE, MN","Latitude":"47.62394","Longitude":"-90.76100","Snowdepth":"1.000","Units":"in","Rept_Date":"2020-11-19 13"},"coordinates":[1375,6871]},{"type":"Point","properties":{"Station_ID":"MN-CK-18","Station_Nam":"GRAND MARAIS 4.4 WSW, MN","Latitude":"47.74462","Longitude":"-90.43796","Snowdepth":"1.000","Units":"in","Rept_Date":"2020-11-19 13"},"coordinates":[1467,6963]},{"type":"Point","properties":{"Station_ID":"MLCM5","Station_Nam":"MILACA","Latitude":"45.75320","Longitude":"-93.66170","Snowdepth":"1.000","Units":"in","Rept_Date":"2020-11-19 13"},"coordinates":[554,5444]},{"type":"Point","properties":{"Station_ID":"MI-OT-17","Station_Nam":"GAYLORD 4.1 S, MI","Latitude":"44.96388","Longitude":"-84.68467","Snowdepth":"1.000","Units":"in","Rept_Date":"2020-11-19 12"},"coordinates":[3096,4842]},{"type":"Point","properties":{"Station_ID":"MI-OT-16","Station_Nam":"GAYLORD 2.2 SSE, MI","Latitude":"44.99441","Longitude":"-84.65820","Snowdepth":"1.000","Units":"in","Rept_Date":"2020-11-19 12"},"coordinates":[3104,4866]},{"type":"Point","properties":{"Station_ID":"MI-HG-20","Station_Nam":"CALUMET 1.1 SSW, MI","Latitude":"47.23165","Longitude":"-88.45823","Snowdepth":"1.000","Units":"in","Rept_Date":"2020-11-19 11"},"coordinates":[2028,6572]},{"type":"Point","properties":{"Station_ID":"MECN6","Station_Nam":"MECKLENBURG 4 SW","Latitude":"42.44220","Longitude":"-76.75740","Snowdepth":"1.000","Units":"in","Rept_Date":"2020-11-19 12"},"coordinates":[5342,2920]},{"type":"Point","properties":{"Station_ID":"MBGM7","Station_Nam":"MISSOURI BOTANICAL GARDENS","Latitude":"38.61280","Longitude":"-90.26080","Snowdepth":"1.000","Units":"in","Rept_Date":"2020-11-20 06"},"coordinates":[1517,0]},{"type":"Point","properties":{"Station_ID":"LPLN6","Station_Nam":"LAKE PLACID 2 S","Latitude":"44.30420","Longitude":"-73.98390","Snowdepth":"1.000","Units":"in","Rept_Date":"2020-11-19 13"},"coordinates":[6127,4339]},{"type":"Point","properties":{"Station_ID":"LNGM5","Station_Nam":"LONG PRAIRIE","Latitude":"45.96460","Longitude":"-94.88920","Snowdepth":"1.000","Units":"in","Rept_Date":"2020-11-19 12"},"coordinates":[206,5605]},{"type":"Point","properties":{"Station_ID":"LILM1","Station_Nam":"LILLE","Latitude":"47.27770","Longitude":"-68.10520","Snowdepth":"1.000","Units":"in","Rept_Date":"2020-11-19 12"},"coordinates":[7792,6607]},{"type":"Point","properties":{"Station_ID":"LERN6","Station_Nam":"LE ROY 1E","Latitude":"42.97360","Longitude":"-77.96710","Snowdepth":"1.000","Units":"in","Rept_Date":"2020-11-19 13"},"coordinates":[4999,3325]},{"type":"Point","properties":{"Station_ID":"KANP1","Station_Nam":"KANE,PA","Latitude":"41.68330","Longitude":"-78.80000","Snowdepth":"1.000","Units":"in","Rept_Date":"2020-11-19 12"},"coordinates":[4763,2341]},{"type":"Point","properties":{"Station_ID":"JSTN6","Station_Nam":"JAMESTOWN 4 ENE","Latitude":"42.11000","Longitude":"-79.15910","Snowdepth":"1.000","Units":"in","Rept_Date":"2020-11-19 12"},"coordinates":[4662,2666]},{"type":"Point","properties":{"Station_ID":"JOHV1","Station_Nam":"JOHNSON 2 N","Latitude":"44.65790","Longitude":"-72.67850","Snowdepth":"1.000","Units":"in","Rept_Date":"2020-11-19 12"},"coordinates":[6497,4609]},{"type":"Point","properties":{"Station_ID":"HUBN3","Station_Nam":"HUBBARD BROOK","Latitude":"43.93330","Longitude":"-71.71670","Snowdepth":"1.000","Units":"in","Rept_Date":"2020-11-20 06"},"coordinates":[6770,4057]},{"type":"Point","properties":{"Station_ID":"GNEN6","Station_Nam":"GREENE","Latitude":"42.32440","Longitude":"-75.77170","Snowdepth":"1.000","Units":"in","Rept_Date":"2020-11-19 16"},"coordinates":[5621,2830]},{"type":"Point","properties":{"Station_ID":"EMBM5","Station_Nam":"EMBARASS,MN","Latitude":"47.65810","Longitude":"-92.19580","Snowdepth":"1.000","Units":"in","Rept_Date":"2020-11-19 12"},"coordinates":[969,6897]},{"type":"Point","properties":{"Station_ID":"EHYM3","Station_Nam":"EAST HAWLEY","Latitude":"42.57410","Longitude":"-72.86790","Snowdepth":"1.000","Units":"in","Rept_Date":"2020-11-19 13"},"coordinates":[6443,3020]},{"type":"Point","properties":{"Station_ID":"DLSN6","Station_Nam":"DELANSON 2NE","Latitude":"42.76720","Longitude":"-74.17110","Snowdepth":"1.000","Units":"in","Rept_Date":"2020-11-19 12"},"coordinates":[6074,3168]},{"type":"Point","properties":{"Station_ID":"DELN6","Station_Nam":"DELHI 2 SE","Latitude":"42.25580","Longitude":"-74.91270","Snowdepth":"1.000","Units":"in","Rept_Date":"2020-11-19 13"},"coordinates":[5864,2778]},{"type":"Point","properties":{"Station_ID":"CORV1","Station_Nam":"CORINTH","Latitude":"44.00690","Longitude":"-72.31940","Snowdepth":"1.000","Units":"in","Rept_Date":"2020-11-19 12"},"coordinates":[6599,4113]},{"type":"Point","properties":{"Station_ID":"CMKW3","Station_Nam":"CLAM LAKE 4W","Latitude":"46.16940","Longitude":"-90.98080","Snowdepth":"1.000","Units":"in","Rept_Date":"2020-11-19 13"},"coordinates":[1313,5762]},{"type":"Point","properties":{"Station_ID":"CLKM4","Station_Nam":"CLARKSBURG","Latitude":"46.49910","Longitude":"-87.84500","Snowdepth":"1.000","Units":"in","Rept_Date":"2020-11-19 12"},"coordinates":[2201,6013]},{"type":"Point","properties":{"Station_ID":"CAN-PE-7","Station_Nam":"MORELL 1.4 NNW, CA","Latitude":"46.42741","Longitude":"-62.70870","Snowdepth":"1.000","Units":"in","Rept_Date":"2020-11-19 12"},"coordinates":[9321,5958]},{"type":"Point","properties":{"Station_ID":"CAN-ON-5","Station_Nam":"OWEN SOUND 1.5 NW - GSCA, CAN","Latitude":"44.57837","Longitude":"-80.95461","Snowdepth":"1.000","Units":"in","Rept_Date":"2020-11-19 13"},"coordinates":[4153,4549]},{"type":"Point","properties":{"Station_ID":"CAN-NS-60","Station_Nam":"SYDNEY FORKS, CAN","Latitude":"46.05645","Longitude":"-60.31510","Snowdepth":"1.000","Units":"in","Rept_Date":"2020-11-19 12"},"coordinates":[9999,5676]},{"type":"Point","properties":{"Station_ID":"BSNM5","Station_Nam":"BENSON","Latitude":"45.31670","Longitude":"-95.61660","Snowdepth":"1.000","Units":"in","Rept_Date":"2020-11-19 14"},"coordinates":[0,5111]},{"type":"Point","properties":{"Station_ID":"BOON6","Station_Nam":"BOONVILLE 4 SSW","Latitude":"43.43610","Longitude":"-75.36970","Snowdepth":"1.000","Units":"in","Rept_Date":"2020-11-19 12"},"coordinates":[5735,3678]},{"type":"Point","properties":{"Station_ID":"BDFP1","Station_Nam":"BRADFORD,PA","Latitude":"41.95000","Longitude":"-78.73330","Snowdepth":"1.000","Units":"in","Rept_Date":"2020-11-19 13"},"coordinates":[4782,2544]},{"type":"Point","properties":{"Station_ID":"AUBN6","Station_Nam":"AUBURN","Latitude":"42.93270","Longitude":"-76.54470","Snowdepth":"1.000","Units":"in","Rept_Date":"2020-11-19 11"},"coordinates":[5402,3294]}]}},"arcs":[],"transform":{"scale":[0.003530503050305031,0.0013115411541154117],"translate":[-95.6166,38.6128]}}